~V
VERS. 2.00: Ver 2.00
~W
STRT.M 52.0000:
STOP.M 282.0000:
STEP.M 0.1250:
NULL. -999.2500:
UWI. F11052:
~C
DEPT.M :
SP.MV :
GR.API :
RML.OHMM :
RI. :
RXO.OHMM :
CALI.CM :
DEN.GM/CC :
~A
# ...
   85.7500    -8.9350    62.2520    12.1050    10.2900     9.5450    25.1750     2.2180 
   85.8750    -8.8990    62.7940    11.4810     9.8430     9.7380    25.1760     2.2020 
   86.0000    -8.7930    62.1150    10.7190     9.1970     9.8640    25.1590     2.1900 
   86.1250    -8.6690    61.8660    10.1180     8.6110     9.8690    25.1620     2.1860 
   86.2500    -8.6360    63.0250     9.7860     8.2200     9.9610    25.1870     2.1920 
   86.3750    -8.6710    64.2510     9.6990     8.0440    10.0150    25.2180     2.2030 
   86.5000    -8.7560    66.2450     9.7590     8.0310    10.0870    25.2480     2.2120 
   86.6250    -8.9250    67.7670     9.8550     8.0930    10.1280    25.2740     2.2130 
   86.7500    -9.0920    67.1900     9.9250     8.1520    10.0550    25.2790     2.2060 
   86.8750    -9.1840    65.1960     9.9790     8.2030     9.9960    25.2640     2.1930 
   87.0000    -9.2740    63.9970    10.0540     8.2690    10.0240    25.2310     2.1810 
   87.1250    -9.1920    63.8210    10.1860     8.3850     9.8350    25.2150     2.1740 
   87.2500    -8.9840    63.7370    10.3570     8.5470     9.6710    25.1960     2.1720 
   87.3750    -8.7020    64.3470    10.5250     8.7270     9.8280    25.1560     2.1780 
   87.5000    -8.4110    65.1280    10.6370     8.8750    10.4280    25.0970     2.1910 
   87.6250    -8.2030    64.5990    10.6350     8.9350    11.1450    25.0330     2.2120 
   87.7500    -7.9790    63.3870    10.5310     8.9070    10.7220    24.9690     2.2380 
   87.8750    -7.8390    62.4310    10.3440     8.8050    10.0650    24.8910     2.2620 
   88.0000    -7.7450    62.0600    10.1020     8.6460     9.7560    24.8370     2.2790 
   88.1250    -7.6950    62.3950     9.8270     8.4370     9.9600    24.8220     2.2790 
   88.2500    -7.6890    64.8400     9.5510     8.2070    10.2950    24.8140     2.2680 
   88.3750    -7.6370    68.2180     9.3070     7.9790    10.1670    24.7930     2.2530 
   88.5000    -7.4980    70.1210     9.1420     7.7910     9.4130    24.7430     2.2420 
   88.6250    -7.3240    69.3670     9.1380     7.7160     8.7360    24.7090     2.2370 
   88.7500    -7.1990    66.9720     9.2970     7.7890     8.6870    24.6360     2.2320 
   88.8750    -7.0740    65.4490     9.5760     8.0090     9.0650    24.5350     2.2190 
   89.0000    -6.9990    66.8280     9.8800     8.3200     9.5150    24.4620     2.2000 
   89.1250    -6.9940    69.5800    10.0620     8.5960     9.6270    24.4690     2.1900 
   89.2500    -6.9830    70.1290    10.0620     8.7230     9.5550    24.5170     2.1980 
   89.3750    -7.0420    69.7250     9.9000     8.6650     9.4260    24.5510     2.2200 
   89.5000    -7.1470    72.1940     9.6650     8.4730     9.2670    24.5380     2.2470 
   89.6250    -7.2450    75.9790     9.4820     8.2620    10.0840    24.4470     2.2600 
   89.7500    -7.3380    76.9540     9.4090     8.1190    11.5960    24.3150     2.2580 
   89.8750    -7.4580    74.9040     9.4260     8.0590    11.6690    24.2320     2.2480 
   90.0000    -7.5780    71.0580     9.4610     8.0440    10.6580    24.2290     2.2370 
   90.1250    -7.6540    67.6900     9.3990     7.9980     9.6690    24.2750     2.2300 
   90.2500    -7.7320    67.2700     9.1980     7.8560     9.0790    24.3140     2.2290 
   90.3750    -7.7320    69.2060     8.8990     7.6060     8.9500    24.2760     2.2290 
   90.5000    -7.7260    69.5510     8.6360     7.3280     8.9790    24.2370     2.2260 
   90.6250    -7.6340    68.7870     8.6470     7.2080     9.2610    24.2540     2.2210 
   90.7500    -7.4490    70.6180     9.0330     7.3640     9.5810    24.2930     2.2230 
   90.8750    -7.2270    74.2810     9.7890     7.8430     9.9730    24.3070     2.2490 
   91.0000    -6.9740    74.9900    10.7620     8.6040    12.2720    24.2990     2.3040 
   91.1250    -6.9370    70.3490    11.5920     9.4550    16.9680    24.2770     2.3730 
   91.2500    -7.0940    64.7180    11.9490    10.0300    18.9690    24.2660     2.4170 
   91.3750    -7.4740    60.8040    11.7030    10.0900    13.8690    24.3530     2.4130 
   91.5000    -8.0160    60.6370    10.9800     9.6580    10.5380    24.6080     2.3650 
   91.6250    -8.6000    63.1060    10.1110     8.9830     9.9060    25.0230     2.2980 
   91.7500    -9.2240    65.1080     9.4390     8.3890     9.7230    25.2550     2.2440 
   91.8750    -9.8670    65.9970     9.0740     8.0100     9.5170    25.3900     2.2080 
   92.0000   -10.3960    66.3580     8.9630     7.8470     9.4740    25.5670     2.1820 
   92.1250   -10.6440    67.4680     8.9670     7.8090     9.9530    25.7000     2.1640 
   92.2500   -10.6580    68.4000     8.9340     7.7600     9.9350    25.6250     2.1550 
   92.3750   -10.4080    69.2470     8.8280     7.6580     9.3680    25.3430     2.1570 
   92.5000    -9.9760    70.8460     8.6910     7.5180     8.8860    24.9940     2.1690 
   92.6250    -9.4660    74.0920     8.6340     7.4140     8.7950    24.6970     2.1820 
   92.7500    -8.8910    77.2470     8.7530     7.4310     8.8350    24.5900     2.1960 
   92.8750    -8.2330    77.0840     9.0930     7.6300     9.0940    24.6030     2.2190 
   93.0000    -7.5600    73.8750     9.6320     8.0280     9.8980    24.7260     2.2680 
   93.1250    -6.9590    70.8400    10.2550     8.5760    11.4000    24.9520     2.3520 
   93.2500    -6.4440    69.6000    10.7640     9.1010    13.1980    25.0550     2.4470 
   93.3750    -6.1280    71.0080    11.0090     9.4370    13.4070    24.8040     2.5210 
   93.5000    -5.9450    74.4700    10.9230     9.4700    11.6850    24.2720     2.5440 
   93.6250    -5.9050    76.1880    10.5290     9.1750    10.3440    23.7970     2.5000 
   93.7500    -5.9940    74.6920    10.0330     8.7390    10.5770    23.5950     2.4200 
   93.8750    -6.1480    72.3930     9.5780     8.3000    11.0790    23.5850     2.3340 
   94.0000    -6.4500    71.3480     9.2420     7.9440    11.2610    23.7160     2.2640 
   94.1250    -6.8000    71.7490     9.0520     7.7160    10.8600    23.8000     2.2240 
   94.2500    -7.1590    73.9580     8.9440     7.5750     9.8790    23.8170     2.2060 
   94.3750    -7.4440    76.5060     8.8750     7.4870     9.1210    23.8720     2.2000 
   94.5000    -7.6400    75.4930     8.8170     7.4260     8.8970    24.0530     2.1980 
   94.6250    -7.8310    72.3710     8.7670     7.3810     8.6810    24.2720     2.1940 
   94.7500    -8.0070    71.8460     8.7280     7.3510     8.5330    24.3880     2.1890 
   94.8750    -8.1550    72.4720     8.7040     7.3350     8.6050    24.4240     2.1820 
   95.0000    -8.2750    71.0160     8.6930     7.3320     8.7350    24.4370     2.1780 
   95.1250    -8.3500    69.5730     8.6910     7.3370     8.7250    24.4950     2.1760 
   95.2500    -8.3980    70.2120     8.6900     7.3420     8.6120    24.5320     2.1770 
   95.3750    -8.4880    71.5330     8.6880     7.3480     8.5010    24.5630     2.1790 
   95.5000    -8.5590    71.9030     8.6860     7.3520     8.3930    24.5610     2.1840 
   95.6250    -8.5590    72.0010     8.6860     7.3540     8.2150    24.4730     2.1910 
   95.7500    -8.5590    73.0340     8.6860     7.3490     7.9550    24.4040     2.2020 
   95.8750    -8.5680    76.0350     8.6820     7.3330     7.9770    24.4580     2.2130 
   96.0000    -8.5890    78.9650     8.6700     7.3060     8.3010    24.5380     2.2220 
   96.1250    -8.6110    77.7790     8.6470     7.2710     8.5650    24.5850     2.2230 
   96.2500    -8.6420    73.8220     8.6160     7.2330     8.5610    24.5900     2.2180 
   96.3750    -8.5990    71.0040     8.5830     7.1960     8.1570    24.5360     2.2120 
   96.5000    -8.5520    70.9130     8.5540     7.1660     7.7610    24.4050     2.2070 
   96.6250    -8.5250    71.4440     8.5350     7.1480     8.1490    24.1860     2.2080 
   96.7500    -8.4170    73.1620     8.5270     7.1420     9.2770    23.9240     2.2090 
   96.8750    -8.2950    74.9860     8.5310     7.1430    10.2410    23.7420     2.2070 
