~V
VERS. 2.00: Ver 2.00
~W
STRT.M 65.0000:
STOP.M 225.0000:
STEP.M 0.1250:
NULL. -999.2500:
UWI. F11012:
~C
DEPT.M :
SP.MV :
GR.API :
RML.OHMM :
RI. :
RXO.OHMM :
CALI.CM :
DEN.GM/CC :
~A
# ...
  143.7500   -15.8420    72.8600    47.1780    42.2300    40.9450    24.2220     2.3030 
  143.8750   -16.2400    74.8980    53.5560    46.5940    45.9720    24.2530     2.2910 
  144.0000   -16.6160    71.1830    65.6390    56.3000    77.9710    24.2800     2.2720 
  144.1250   -16.9740    64.8890    83.0810    71.8490   128.8100    24.2800     2.2580 
  144.2500   -17.3090    66.1620   103.5510    92.0070   154.7140    24.1650     2.2580 
  144.3750   -17.6190    71.7440   119.6980   109.7570   145.3810    24.0530     2.2640 
  144.5000   -17.9110    72.4810   123.6500   117.0770   138.1900    24.0370     2.2670 
  144.6250   -18.1730    66.9030   113.0300   110.3060   140.4070    24.1300     2.2670 
  144.7500   -18.4050    63.5390    93.8650    93.4910   132.4230    24.2050     2.2710 
  144.8750   -18.6380    66.6340    75.9570    76.4500   105.1700    24.2300     2.2800 
  145.0000   -18.8750    70.8770    62.9400    63.4180    69.2990    24.1730     2.2920 
  145.1250   -19.1210    72.0620    55.8660    55.7790    45.0040    23.9830     2.2990 
  145.2500   -19.3750    70.4520    55.4700    54.3530    41.1330    23.6560     2.2970 
  145.3750   -19.6600    70.0980    60.0040    57.7290    52.5150    23.4140     2.2880 
  145.5000   -19.9630    69.7170    68.4250    65.2760    81.3010    23.3940     2.2770 
  145.6250   -20.3020    67.6450    79.1900    75.8330   122.1230    23.5620     2.2710 
  145.7500   -20.6930    65.7510    89.7410    86.9370   156.8780    23.9140     2.2750 
  145.8750   -21.1180    65.6110    97.9110    95.7040   146.4780    24.0570     2.2840 
  146.0000   -21.5660    66.6600   103.7490   101.5270   118.8740    24.0900     2.2930 
  146.1250   -22.0260    65.2310   109.4170   106.2750    95.3770    24.2890     2.2940 
  146.2500   -22.4930    61.6060   118.4850   113.5420    98.2000    24.4020     2.2860 
  146.3750   -22.9490    59.7870   132.2900   125.0070   115.8540    24.4010     2.2720 
  146.5000   -23.3810    60.7250   151.0020   140.8560   140.4860    24.3750     2.2560 
  146.6250   -23.7920    61.6290   173.6970   160.1990   158.3480    24.3640     2.2380 
  146.7500   -24.1510    58.1010   198.1700   181.2160   182.3210    24.3330     2.2190 
  146.8750   -24.4530    53.9870   219.9950   200.3320   224.8290    24.3070     2.2020 
  147.0000   -24.6990    53.3600   234.2260   213.5610   234.9140    24.2980     2.1920 
  147.1250   -24.8930    53.5830   236.6660   217.3280   245.5230    24.2930     2.1910 
  147.2500   -25.0330    52.4040   225.7270   209.4880   279.3370    24.2760     2.1930 
  147.3750   -25.1260    52.6690   209.4740   196.0260   287.8790    24.3190     2.2000 
  147.5000   -25.1830    56.2790   194.0890   182.3380   231.7890    24.3850     2.2230 
  147.6250   -25.1760    60.6430   182.8940   172.0500   165.8340    24.3680     2.2600 
  147.7500   -25.1160    63.4380   176.5680   166.4800   181.1020    24.0170     2.2890 
  147.8750   -25.0400    65.9660   172.3360   163.2690   216.3440    23.3560     2.2860 
  148.0000   -24.9650    67.6190   168.1220   160.4410   231.7280    22.6730     2.2580 
  148.1250   -24.9100    68.6720   162.7810   156.6550   183.2960    22.4100     2.2340 
  148.2500   -24.8970    68.1670   156.7480   151.7390   159.9130    22.4670     2.2330 
  148.3750   -24.9240    65.9630   151.9380   147.2730   146.5230    22.4890     2.2480 
  148.5000   -24.9920    65.4950   149.9800   144.9380   140.0260    22.3820     2.2640 
  148.6250   -25.0960    66.4840   151.8030   145.9430   129.7660    22.2430     2.2680 
  148.7500   -25.2750    65.4540   158.1200   151.2330   125.6190    22.2770     2.2610 
  148.8750   -25.4880    64.0160   167.7620   159.7040   134.9310    22.4220     2.2540 
  149.0000   -25.7190    66.3220   180.0310   170.5630   139.6010    22.5080     2.2550 
  149.1250   -25.9590    69.4080   193.8900   182.7290   140.7050    22.4970     2.2640 
  149.2500   -26.1900    65.8330   207.0070   193.9720   161.6530    22.3840     2.2710 
  149.3750   -26.4000    60.0780   216.5670   201.7420   187.7450    22.2400     2.2630 
  149.5000   -26.5680    58.7130   221.1280   204.6590   183.9220    22.1250     2.2400 
  149.6250   -26.6940    61.0070   221.6740   203.4290   147.9930    22.2360     2.2130 
  149.7500   -26.7130    62.0070   222.1030   201.2710   114.0880    22.5510     2.1940 
  149.8750   -26.6470    61.7450   227.6430   203.1680   111.8840    23.0110     2.1840 
  150.0000   -26.4930    62.1310   242.6570   213.4880   124.2730    23.5880     2.1850 
  150.1250   -26.2330    64.0240   270.5110   235.5430   191.0450    24.0920     2.1950 
  150.2500   -25.8660    64.5680   314.8030   272.4310   238.7260    24.1360     2.2130 
  150.3750   -25.4250    62.5280   366.9440   316.9070   256.9630    24.0300     2.2290 
  150.5000   -24.9250    58.9450   407.3440   354.6940   257.1090    24.0820     2.2330 
  150.6250   -24.4040    54.9400   406.8080   364.4410   222.2890    24.1910     2.2230 
  150.7500   -23.8720    53.0450   349.4670   327.7970   188.8690    24.3170     2.2120 
  150.8750   -23.3340    52.3520   274.8630   267.8700   211.3650    24.4680     2.2100 
  151.0000   -22.8010    51.4830   209.7810   207.8370   223.2310    24.6000     2.2180 
  151.1250   -22.2830    51.1620   162.9940   160.8620   150.8850    24.6350     2.2330 
  151.2500   -21.7600    51.9960   134.6950   131.3750   108.8310    24.7110     2.2490 
  151.3750   -21.2400    53.7560   117.1530   113.0930   103.8220    24.8670     2.2570 
  151.5000   -20.7300    55.0190   106.8310   102.3310   109.3540    24.9930     2.2600 
  151.6250   -20.2410    55.6950   101.4110    96.5500   101.7080    25.0430     2.2650 
  151.7500   -19.7730    57.1590    99.9730    94.6630    89.5770    25.0180     2.2730 
  151.8750   -19.3080    58.5460   101.2420    95.2500    81.2800    24.9810     2.2780 
  152.0000   -18.8340    58.9930   105.0120    97.9940    81.7950    24.9010     2.2770 
  152.1250   -18.3690    58.2210   111.1530   102.7570    90.5000    24.8030     2.2730 
  152.2500   -17.9410    58.5950   119.5480   109.4670   105.3750    24.7190     2.2720 
  152.3750   -17.5340    59.9330   129.1500   117.2020   115.6610    24.6730     2.2700 
  152.5000   -17.1550    59.7140   139.3640   125.4070   121.0180    24.6250     2.2660 
  152.6250   -16.7970    57.3240   149.8220   133.7540   126.6080    24.4780     2.2610 
  152.7500   -16.4800    56.4820   160.1400   141.9730   137.6720    24.2410     2.2550 
  152.8750   -16.2120    58.4590   169.6190   149.6020   145.6100    24.0550     2.2510 
  153.0000   -15.9950    61.2660   177.1680   155.8550   147.5890    24.0750     2.2480 
  153.1250   -15.8170    62.7160   181.5590   159.7700   173.1300    24.1620     2.2480 
  153.2500   -15.6620    61.8940   181.1940   160.0860   196.3290    24.2030     2.2510 
  153.3750   -15.5190    60.8370   175.7610   156.6330   204.5120    24.1830     2.2560 
  153.5000   -15.3950    61.2980   163.1590   147.5900   177.9500    24.1560     2.2630 
  153.6250   -15.2640    63.1700   141.4400   130.4650   148.0180    24.1730     2.2690 
  153.7500   -15.1010    66.6030   112.3840   105.4000   141.6140    24.1730     2.2740 
  153.8750   -14.9540    71.2170    84.4660    80.1860   149.2930    24.1570     2.2820 
  154.0000   -14.8200    75.2300    62.8560    60.2350   126.6270    24.1560     2.3000 
  154.1250   -14.6740    77.4920    49.0690    47.3190    64.7350    24.1020     2.3240 
  154.2500   -14.5360    77.4310    43.2390    41.4990    36.2170    23.8660     2.3450 
  154.3750   -14.4160    76.6980    42.5470    40.1950    29.7540    23.6020     2.3520 
  154.5000   -14.3150    75.3930    45.4240    42.2600    40.5430    23.4220     2.3470 
  154.6250   -14.2440    73.8960    50.0500    46.4920    62.2280    23.3810     2.3370 
  154.7500   -14.2270    71.8510    53.7950    50.7470    63.8420    23.5470     2.3260 
  154.8750   -14.2300    68.7870    54.5540    52.3600    76.6800    23.7230     2.3140 
