~V
VERS. 2.00: Ver 2.00
~W
STRT.M 47.0000:
STOP.M 272.0000:
STEP.M 0.1250:
NULL. -999.2500:
UWI. F11040:
~C
DEPT.M :
DEN.GM/CC :
GR.API :
RML.OHMM :
RI. :
RXO.OHMM :
CALI.CM :
SP.MV :
~A
# ...
  159.5000     2.2770    61.5340    34.7880    33.4750    38.3030    23.6390   -11.7730 
  159.6250     2.2810    65.3510    34.1330    32.8510    37.9290    23.5450   -11.7670 
  159.7500     2.2880    67.2150    33.4690    32.1920    36.8370    23.6610   -11.7520 
  159.8750     2.2950    66.8200    32.8420    31.5560    35.3140    23.8720   -11.7290 
  160.0000     2.3000    64.3420    32.2370    30.9520    34.4570    23.9970   -11.7080 
  160.1250     2.3010    59.8060    31.5720    30.3290    34.7620    24.0140   -11.7100 
  160.2500     2.2980    56.6460    30.8130    29.6560    34.5750    23.9870   -11.7000 
  160.3750     2.2950    58.2930    30.0270    28.9790    33.4670    23.9380   -11.6990 
  160.5000     2.2910    62.9550    29.3700    28.4250    31.8570    23.8650   -11.7280 
  160.6250     2.2840    64.3330    29.0850    28.1940    30.0390    23.8070   -11.8300 
  160.7500     2.2760    62.7740    29.1560    28.2800    27.5280    23.7240   -11.9550 
  160.8750     2.2660    61.9110    29.4040    28.5320    25.5160    23.6180   -12.0860 
  161.0000     2.2580    61.3510    29.4810    28.6500    26.2950    23.4880   -12.2010 
  161.1250     2.2590    57.2250    29.1130    28.1640    28.9240    23.3650   -12.2650 
  161.2500     2.2680    53.4680    27.9850    26.9570    30.0680    23.2980   -12.3360 
  161.3750     2.2810    54.5720    26.3260    25.1580    28.0410    23.3320   -12.3980 
  161.5000     2.2940    59.0290    24.8230    23.1430    24.1770    23.3820   -12.4530 
  161.6250     2.3030    62.5060    22.6190    21.4380    20.8480    23.3800   -12.5010 
  161.7500     2.3070    65.2560    21.3630    20.2930    18.6070    23.3440   -12.5490 
  161.8750     2.3080    68.6130    20.7980    19.7360    17.1740    23.2900   -12.6110 
  162.0000     2.3080    72.4810    20.7590    19.6540    16.4450    23.2160   -12.7000 
  162.1250     2.3100    74.1010    21.0170    19.8830    17.2410    23.1700   -12.8240 
  162.2500     2.3150    72.8330    21.2950    20.1770    17.9110    23.2200   -12.9330 
  162.3750     2.3230    69.9190    21.4740    20.4210    18.4810    23.2710   -13.0330 
  162.5000     2.3300    69.1240    21.5210    20.5670    18.5880    23.2640   -13.1300 
  162.6250     2.3310    73.1040    21.4440    20.6090    18.1770    23.2060   -13.1940 
  162.7500     2.3270    76.4630    21.2980    20.5850    18.0120    23.1490   -13.2560 
  162.8750     2.3190    75.7890    21.1090    20.5090    18.5210    23.1220   -13.3040 
  163.0000     2.3130    72.5550    20.9060    20.3930    18.8420    23.1980   -13.3330 
  163.1250     2.3140    72.5800    20.7640    20.2810    18.4490    23.3000   -13.3580 
  163.2500     2.3180    75.0640    20.7610    20.2500    17.7970    23.3600   -13.3800 
  163.3750     2.3230    76.2770    20.9500    20.3610    17.1290    23.3780   -13.4160 
  163.5000     2.3230    75.6030    21.3250    20.6370    17.0990    23.3830   -13.4460 
  163.6250     2.3190    75.3880    21.8060    21.0360    18.1060    23.3920   -13.5040 
  163.7500     2.3120    76.6210    22.2450    21.4300    19.1540    23.4070   -13.6050 
  163.8750     2.3060    78.1710    22.5910    21.7450    19.7970    23.4200   -13.7110 
  164.0000     2.3030    77.7740    22.9220    22.0080    19.7410    23.4250   -13.8140 
  164.1250     2.3040    74.5590    23.5290    22.4260    19.3920    23.4260   -13.8860 
  164.2500     2.3040    71.0820    24.6800    23.2440    19.3950    23.4250   -13.9740 
  164.3750     2.3040    69.0040    26.5760    24.6720    19.7300    23.4240   -14.1030 
  164.5000     2.3020    68.7960    29.2650    26.8210    21.9630    23.4230   -14.2740 
  164.6250     2.2970    70.1380    32.6600    29.7220    25.9700    23.4220   -14.4550 
  164.7500     2.2910    72.2230    36.3330    33.0130    29.3350    23.4190   -14.6020 
  164.8750     2.2850    73.5730    40.0940    36.4520    30.7730    23.4100   -14.7170 
  165.0000     2.2820    73.5380    44.0720    39.9910    32.8530    23.3920   -14.8010 
  165.1250     2.2820    74.4500    49.2680    44.2590    37.5950    23.3570   -14.9270 
  165.2500     2.2860    74.5120    57.2250    50.6170    38.8980    23.3120   -15.0800 
  165.3750     2.2890    71.4280    70.3680    61.4370    40.8230    23.2470   -15.2110 
  165.5000     2.2860    66.1200    92.0770    80.1920    49.5730    23.1640   -15.3170 
  165.6250     2.2730    61.0630   129.7810   114.0160    72.8530    23.0540   -15.4070 
  165.7500     2.2530    57.3260   186.0270   164.6990   111.8190    22.9350   -15.4830 
  165.8750     2.2310    54.2200   260.5770   231.1910   148.6600    22.8130   -15.5990 
  166.0000     2.2130    52.6470   345.3070   305.6550   207.9440    22.6820   -15.7460 
  166.1250     2.2040    52.1890   418.9080   369.5550   222.1080    22.5370   -15.8570 
  166.2500     2.2040    51.2010   458.2490   405.7980   182.2250    22.4780   -15.9300 
  166.3750     2.2100    51.4680   451.6240   406.7830   173.8980    22.4700   -16.0090 
  166.5000     2.2200    53.7680   407.8230   377.8340   186.7870    22.4870   -16.0780 
  166.6250     2.2320    55.9830   345.4220   329.9960   211.5340    22.5340   -16.1020 
  166.7500     2.2440    56.2560   281.8050   276.4210   198.5900    22.6210   -16.1070 
  166.8750     2.2530    55.9170   223.3420   222.8640   167.8710    22.7270   -16.0710 
  167.0000     2.2610    57.1070   175.1540   174.7530   144.8810    22.8230   -16.0010 
  167.1250     2.2680    59.0150   143.2330   138.0640   132.1960    22.8720   -15.9770 
  167.2500     2.2720    60.1790   116.6570   112.0260   113.4910    22.9090   -16.0020 
  167.3750     2.2740    60.7580    99.6520    95.1290    97.0220    22.9260   -16.0320 
  167.5000     2.2740    61.5950    89.6030    85.1980    94.1260    22.9380   -16.0830 
  167.6250     2.2740    61.8630    85.0390    80.7920    97.7610    22.9430   -16.1550 
  167.7500     2.2750    60.6510    83.6910    79.5680    95.2390    22.9210   -16.2580 
  167.8750     2.2770    58.6190    84.7510    80.7110    88.5380    22.8530   -16.3560 
  168.0000     2.2790    58.9380    87.6260    83.6400    84.0720    22.7190   -16.4760 
  168.1250     2.2790    60.3220    91.8820    87.9190    84.7610    22.5580   -16.5880 
  168.2500     2.2770    58.7020    96.6280    92.6670    88.3590    22.5240   -16.7120 
  168.3750     2.2740    54.5500   101.1760    97.2120    97.5390    22.6990   -16.8500 
  168.5000     2.2720    50.6930   104.8780   100.9080   107.3030    22.8980   -17.0030 
  168.6250     2.2730    51.1710   107.1110   103.0940   111.8650    22.9720   -17.1810 
  168.7500     2.2790    54.1250   108.1880   104.0350   108.7870    22.9830   -17.3670 
  168.8750     2.2860    57.0390   108.5630   104.1560   102.9900    22.9820   -17.5820 
  169.0000     2.2920    57.5180   108.7240   103.9620   102.4040    22.9830   -17.7930 
  169.1250     2.2960    54.4660   108.9100   103.7630   103.5020    22.9840   -18.0330 
  169.2500     2.2980    52.0460   108.9380   103.4530   105.3970    22.9830   -18.2430 
  169.3750     2.2990    52.4590   108.4600   102.7190   103.3900    22.9790   -18.4610 
  169.5000     2.3010    55.3820   107.1790   101.2720   100.3340    22.9690   -18.6620 
  169.6250     2.3030    58.0460   104.9450    98.9300   105.1650    22.9440   -18.8590 
  169.7500     2.3050    58.7840   102.4070    96.2360   106.3640    22.9040   -19.0570 
  169.8750     2.3070    59.6530   100.5030    94.0040    98.8480    22.8560   -19.2540 
  170.0000     2.3090    61.1520   100.4720    93.3350    90.3940    22.8110   -19.4700 
  170.1250     2.3110    63.0550   104.3550    96.0820    86.3820    22.8050   -19.6510 
  170.2500     2.3120    64.5680   112.8240   102.9330    85.7120    22.8440   -19.8800 
  170.3750     2.3100    64.6430   126.4290   114.4450    89.7380    22.9520   -20.1140 
  170.5000     2.3030    62.3830   144.8190   130.3340   101.7370    23.1650   -20.3330 
  170.6250     2.2920    58.9150   166.1880   149.0210   124.1090    23.5220   -20.5150 
