~V
VERS. 2.00: Ver 2.00
~W
STRT.M 55.0000:
STOP.M 249.0000:
STEP.M 0.1250:
NULL. -999.2500:
UWI. F11017:
~C
DEPT.M :
GR.API :
RML.OHMM :
RI. :
RXO.OHMM :
CALI.CM :
DEN.GM/CC :
SP.MV :
~A
# ...
   88.7500    63.1290     8.5970     7.3220     7.9860    22.6000     2.1740   -18.0700 
   88.8750    59.8780     8.5640     7.2610     7.9580    22.5710     2.1680   -18.2310 
   89.0000    59.9290     8.5580     7.2160     8.0230    22.5570     2.1560   -18.4000 
   89.1250    61.2450     8.5750     7.1970     8.0830    22.6680     2.1440   -18.5620 
   89.2500    61.1980     8.6020     7.1960     8.1950    22.8990     2.1350   -18.7260 
   89.3750    60.9100     8.6310     7.2010     8.4110    23.1990     2.1330   -18.8850 
   89.5000    59.4960     8.6520     7.1990     8.6430    23.5160     2.1360   -19.0070 
   89.6250    55.9160     8.6510     7.1760     8.7750    23.7110     2.1390   -19.0510 
   89.7500    53.6900     8.6280     7.1310     8.7670    23.7410     2.1410   -19.0070 
   89.8750    55.3650     8.5920     7.0720     8.7040    23.6070     2.1390   -18.8790 
   90.0000    59.0230     8.5590     7.0160     8.5950    23.3260     2.1350   -18.6820 
   90.1250    60.7230     8.5630     6.9950     8.0810    22.9470     2.1300   -18.4090 
   90.2500    59.0680     8.6240     7.0240     7.7300    22.6450     2.1270   -18.0770 
   90.3750    56.7150     8.7440     7.1020     7.5990    22.5710     2.1300   -17.7030 
   90.5000    57.3430     8.8930     7.2070     7.5970    22.7960     2.1460   -17.3220 
   90.6250    61.2560     9.0070     7.2940     7.5710    23.1290     2.1850   -16.9650 
   90.7500    64.9400     9.0300     7.3270     7.5230    23.3160     2.2330   -16.6490 
   90.8750    66.0940     8.9450     7.2940     7.5330    23.2730     2.2700   -16.3930 
   91.0000    64.4150     8.7810     7.2090     7.2550    23.1050     2.2780   -16.2280 
   91.1250    61.1100     8.6220     7.1150     6.9140    22.9170     2.2510   -16.1830 
   91.2500    59.5560     8.5350     7.0590     6.7280    22.7560     2.2130   -16.2230 
   91.3750    59.8460     8.5350     7.0590     6.6040    22.6380     2.1840   -16.3240 
   91.5000    58.7390     8.5950     7.1090     6.4990    22.5790     2.1720   -16.4370 
   91.6250    56.5510     8.6670     7.1840     6.3120    22.5610     2.1740   -16.5070 
   91.7500    56.7350     8.7150     7.2450     6.2960    22.5670     2.1790   -16.5430 
   91.8750    59.5180     8.7300     7.2710     6.3380    22.5840     2.1830   -16.5610 
   92.0000    63.7610     8.7120     7.2590     6.3820    22.6150     2.1860   -16.5560 
   92.1250    66.0550     8.6400     7.2010     6.5660    22.6890     2.1870   -16.5280 
   92.2500    64.8830     8.5030     7.1020     6.8560    22.7990     2.1890   -16.4930 
   92.3750    61.6110     8.3060     6.9680     7.1280    22.8940     2.1910   -16.4460 
   92.5000    59.3160     8.0870     6.8170     7.1930    22.9570     2.1940   -16.3980 
   92.6250    59.7620     7.9300     6.7080     6.8800    23.0300     2.1970   -16.4050 
   92.7500    61.6490     7.9100     6.7050     6.5620    23.1120     2.2000   -16.4810 
   92.8750    64.5380     8.0830     6.8530     6.3430    23.1690     2.2010   -16.6150 
   93.0000    65.8770     8.4480     7.1600     6.5100    23.2330     2.2000   -16.7860 
   93.1250    63.3510     8.9440     7.5850     7.1580    23.4210     2.1950   -16.9800 
   93.2500    60.8150     9.4120     8.0050     8.0770    23.6890     2.1880   -17.1650 
   93.3750    60.1950     9.7310     8.3170     8.7060    23.8490     2.1820   -17.3370 
   93.5000    59.5530     9.8320     8.4500     8.9510    23.8310     2.1790   -17.4900 
   93.6250    58.9570     9.7010     8.3740     8.9940    23.7710     2.1760   -17.5840 
   93.7500    61.8050     9.4660     8.1810     9.0380    23.8410     2.1710   -17.6130 
   93.8750    65.8370     9.2120     7.9450     9.0360    24.0480     2.1650   -17.5820 
   94.0000    66.4830     8.9950     7.7200     8.9670    24.2140     2.1600   -17.5020 
   94.1250    63.8240     8.8810     7.5640     8.9000    24.1320     2.1600   -17.3710 
   94.2500    60.8640     8.9630     7.5430     8.9980    23.8950     2.1610   -17.1950 
   94.3750    58.0710     9.4380     7.7820     9.2920    23.7170     2.1600   -16.9790 
   94.5000    54.9830    10.5790     8.4680     9.9020    23.6410     2.1600   -16.7350 
   94.6250    54.4780    12.8030     9.9370    11.8210    23.6320     2.1770   -16.5120 
   94.7500    55.7200    15.9010    12.1500    16.2370    23.6630     2.2290   -16.3350 
   94.8750    57.2350    19.3330    14.8410    24.0150    23.7560     2.3170   -16.2000 
   95.0000    57.2980    22.1390    17.3750    36.2770    23.9400     2.4220   -16.1080 
   95.1250    53.7290    22.8270    18.5810    49.0950    24.1730     2.4940   -16.0690 
   95.2500    50.5100    21.1160    17.9030    50.0750    24.2680     2.4980   -16.0810 
   95.3750    52.0900    17.6250    15.5560    34.5650    24.1400     2.4360   -16.1550 
   95.5000    56.3130    13.7730    12.5990    18.3960    23.8470     2.3460   -16.2910 
   95.6250    56.5420    10.9900    10.2170    11.3940    23.5050     2.2690   -16.4600 
   95.7500    55.4950     9.4040     8.6620     8.4860    23.1790     2.2180   -16.6120 
   95.8750    58.6070     8.7300     7.8090     7.5230    22.9010     2.1920   -16.7250 
   96.0000    64.1380     8.5990     7.4430     7.2960    22.7310     2.1820   -16.7860 
   96.1250    64.3230     8.7000     7.3800     7.4190    22.7570     2.1770   -16.7830 
   96.2500    61.4860     8.7800     7.4050     7.4270    22.8980     2.1710   -16.7400 
   96.3750    61.2080     8.7680     7.4290     7.1260    22.9960     2.1640   -16.6710 
   96.5000    63.5470     8.6760     7.4180     6.8610    23.0000     2.1600   -16.5810 
   96.6250    64.0190     8.5620     7.3760     6.7540    22.9740     2.1600   -16.4670 
   96.7500    62.2670     8.4750     7.3290     6.7340    22.9540     2.1620   -16.3250 
   96.8750    60.9440     8.4240     7.2930     6.8180    22.9550     2.1680   -16.1560 
   97.0000    59.7640     8.3980     7.2770     6.9860    22.9940     2.1760   -15.9670 
   97.1250    57.6920     8.3860     7.2880     7.2380    23.0390     2.1840   -15.7670 
   97.2500    56.6320     8.3800     7.3210     7.4690    23.1190     2.1880   -15.5470 
   97.3750    57.9830     8.3800     7.3650     7.6650    23.2910     2.1830   -15.2890 
   97.5000    60.0110     8.3710     7.3950     7.9060    23.5470     2.1680   -14.9570 
   97.6250    59.6610     8.3030     7.3590     8.1160    23.8160     2.1450   -14.5020 
   97.7500    57.8170     8.1340     7.2270     8.2330    24.0700     2.1250   -13.9530 
   97.8750    56.5390     7.8410     6.9800     8.2090    24.2660     2.1140   -13.3310 
   98.0000    57.7730     7.4410     6.6300     7.9740    24.3340     2.1190   -12.6730 
   98.1250    63.4560     6.9910     6.2120     7.0100    24.3000     2.1420   -12.0380 
   98.2500    70.8170     6.5760     5.8010     6.0840    24.2560     2.1740   -11.4580 
   98.3750    76.0020     6.2490     5.4480     5.5240    24.2110     2.2100   -10.9490 
   98.5000    77.5530     6.0360     5.1850     5.2640    24.1900     2.2410   -10.5540 
   98.6250    77.8570     5.9550     5.0350     5.1970    24.2630     2.2620   -10.3520 
   98.7500    77.7670     5.9770     4.9790     5.1200    24.3750     2.2730   -10.3530 
   98.8750    75.6430     6.1010     5.0120     5.1260    24.4010     2.2770   -10.5660 
   99.0000    72.4170     6.3300     5.1390     5.3000    24.2890     2.2780   -10.9590 
   99.1250    70.5970     6.6760     5.3830     5.6790    24.0880     2.2780   -11.4870 
   99.2500    68.6900     7.0910     5.7210     6.1330    23.9610     2.2740   -12.0820 
   99.3750    63.9040     7.5220     6.1170     6.7750    23.9510     2.2610   -12.7090 
   99.5000    57.1960     7.9050     6.5160     7.6210    23.9890     2.2390   -13.3280 
   99.6250    52.5980     8.1630     6.8330     8.2540    23.9460     2.2110   -13.8960 
   99.7500    51.1230     8.2900     7.0320     8.3290    23.8560     2.1870   -14.3810 
   99.8750    51.9900     8.3020     7.1070     8.1490    23.8030     2.1730   -14.7630 
