~V
VERS. 2.00: Ver 2.00
~W
STRT.M 55.0000:
STOP.M 229.0000:
STEP.M 0.1250:
NULL. -999.2500:
UWI. F11013:
~C
DEPT.M :
DEN.GM/CC :
GR.API :
RML.OHMM :
RI. :
RXO.OHMM :
CALI.CM :
SP.MV :
~A
# ...
  133.7500     2.4820    56.6950    18.2670    16.4490    18.4340    24.4260   -11.2760 
  133.8750     2.4830    55.7200    17.7790    16.1130    18.4320    24.4330   -11.2640 
  134.0000     2.4860    54.2410    17.1340    15.6260    18.0410    24.4220   -11.2210 
  134.1250     2.4950    54.8980    16.4190    15.0540    17.1580    24.3790   -11.2050 
  134.2500     2.5070    58.1790    15.7690    14.5070    15.7740    24.2920   -11.1780 
  134.3750     2.5150    61.3860    15.3590    14.1400    14.8480    24.2820   -11.1520 
  134.5000     2.5170    61.5840    15.2210    13.9970    14.3590    24.3020   -11.1220 
  134.6250     2.5170    60.2490    15.3360    14.0710    14.5590    24.2980   -11.1160 
  134.7500     2.5150    60.5110    15.6380    14.3140    15.3770    24.2510   -11.1340 
  134.8750     2.5090    62.7660    16.0250    14.6550    15.8860    24.2360   -11.1940 
  135.0000     2.5000    63.3280    16.3300    14.9600    15.4640    24.2460   -11.2770 
  135.1250     2.4920    60.6050    16.4100    15.0980    15.4930    24.2900   -11.3470 
  135.2500     2.4860    57.4020    16.1760    14.9710    16.4010    24.3330   -11.4510 
  135.3750     2.4810    58.8310    15.6310    14.5500    17.6430    24.3460   -11.5570 
  135.5000     2.4790    64.1550    15.0050    14.0240    17.0070    24.3320   -11.6730 
  135.6250     2.4830    66.6820    14.5170    13.5720    14.8270    24.3090   -11.7520 
  135.7500     2.4910    62.6060    14.3440    13.3490    12.9640    24.3060   -11.8100 
  135.8750     2.4970    55.7670    14.5970    13.4760    13.9310    24.2690   -11.7960 
  136.0000     2.5020    51.2460    15.0900    13.8420    15.9860    24.2420   -11.7790 
  136.1250     2.5080    49.0270    15.6240    14.3080    17.0980    24.2310   -11.7440 
  136.2500     2.5110    49.4410    16.0030    14.6980    16.9840    24.2050   -11.7240 
  136.3750     2.5080    52.1980    16.0860    14.8430    16.1730    24.1800   -11.6720 
  136.5000     2.4980    54.2020    16.0090    14.8050    14.5240    24.1590   -11.5980 
  136.6250     2.4860    54.0890    15.9430    14.7240    13.6960    24.1280   -11.5390 
  136.7500     2.4770    54.2490    16.0020    14.7140    14.3450    24.0540   -11.4790 
  136.8750     2.4730    54.6710    16.2050    14.8280    15.2320    23.9850   -11.4310 
  137.0000     2.4740    54.1620    16.4650    15.0080    15.7310    23.8950   -11.3840 
  137.1250     2.4780    53.0790    16.7220    15.2070    16.2730    23.7540   -11.3500 
  137.2500     2.4830    53.1910    16.9510    15.3900    16.4430    23.6270   -11.2520 
  137.3750     2.4900    55.6020    17.1680    15.5530    16.0200    23.5940   -11.1990 
  137.5000     2.4960    58.7050    17.4100    15.7260    15.2410    23.5810   -11.1600 
  137.6250     2.4990    59.2330    17.6880    15.9280    15.0090    23.5280   -11.1400 
  137.7500     2.5010    55.4560    18.0050    16.1640    15.2040    23.4400   -11.1350 
  137.8750     2.5010    51.1220    18.3830    16.4540    15.7240    23.4920   -11.1860 
  138.0000     2.5030    49.8190    18.8210    16.8000    16.5320    23.5790   -11.2230 
  138.1250     2.5060    49.6280    19.3010    17.1960    17.4160    23.6960   -11.2610 
  138.2500     2.5080    48.6910    19.7840    17.6180    18.2290    23.8220   -11.3240 
  138.3750     2.5070    48.7570    20.1960    18.0110    19.5270    24.0040   -11.3540 
  138.5000     2.5100    49.1620    20.4850    18.3170    20.1060    24.1580   -11.3910 
  138.6250     2.5180    49.2320    20.6260    18.5020    20.3620    24.2300   -11.3950 
  138.7500     2.5310    48.3540    20.6470    18.5690    20.1410    24.2630   -11.3960 
  138.8750     2.5430    45.6160    20.6210    18.5640    19.7560    24.2540   -11.3580 
  139.0000     2.5520    43.6970    20.6210    18.5600    19.8160    24.2770   -11.3410 
  139.1250     2.5580    44.4150    20.6360    18.5640    19.9030    24.3360   -11.3240 
  139.2500     2.5620    48.1060    20.5710    18.5120    20.3850    24.3720   -11.3220 
  139.3750     2.5650    50.8140    20.2560    18.2640    20.4990    24.3510   -11.3100 
  139.5000     2.5690    49.7320    19.7010    17.8070    20.7230    24.3490   -11.2970 
  139.6250     2.5720    46.7920    19.0390    17.2340    20.2790    24.3840   -11.2710 
  139.7500     2.5730    44.2680    18.4840    16.7160    17.9850    24.4140   -11.2300 
  139.8750     2.5700    43.6160    18.2890    16.4710    16.1120    24.4200   -11.1730 
  140.0000     2.5700    42.7900    18.4630    16.5350    16.1820    24.4230   -11.1260 
  140.1250     2.5700    41.2980    18.9010    16.8560    18.7360    24.4190   -11.0460 
  140.2500     2.5680    40.1130    19.3900    17.2830    21.4950    24.3760   -10.9540 
  140.3750     2.5610    40.0720    19.6380    17.5730    21.9240    24.3450   -10.9010 
  140.5000     2.5560    41.6650    19.5590    17.5940    20.1070    24.3070   -10.8260 
  140.6250     2.5570    43.8130    19.2150    17.3570    19.3080    24.2430   -10.8190 
  140.7500     2.5620    45.3150    18.7730    16.9850    18.4090    24.2160   -10.8920 
  140.8750     2.5650    47.4690    18.4360    16.6550    17.2670    24.2730   -11.0970 
  141.0000     2.5640    50.5770    18.2650    16.4540    17.3090    24.3540   -11.2890 
  141.1250     2.5600    52.5940    18.2170    16.3610    18.4100    24.3880   -11.5130 
  141.2500     2.5560    50.6870    18.1980    16.3020    19.2870    24.3890   -11.6970 
  141.3750     2.5580    47.3560    18.1150    16.1950    18.5630    24.3640   -11.8270 
  141.5000     2.5640    46.0950    17.9520    16.0220    18.3090    24.3520   -11.9260 
  141.6250     2.5690    46.8390    17.7450    15.8110    17.7650    24.3610   -11.9840 
  141.7500     2.5710    48.4410    17.5690    15.6240    16.9880    24.3830   -11.9590 
  141.8750     2.5710    50.9830    17.5070    15.5370    16.2350    24.3820   -11.8470 
  142.0000     2.5720    53.6780    17.5420    15.5430    16.2740    24.3420   -11.7170 
  142.1250     2.5670    53.3200    17.6170    15.6050    16.8120    24.2930   -11.5920 
  142.2500     2.5530    49.7320    17.6550    15.6590    17.2790    24.2800   -11.5310 
  142.3750     2.5370    48.3360    17.5960    15.6490    17.4940    24.3190   -11.4770 
  142.5000     2.5270    48.3760    17.4700    15.5830    17.5050    24.3830   -11.4720 
  142.6250     2.5260    47.2120    17.3280    15.4960    17.6230    24.3990   -11.4590 
  142.7500     2.5310    45.0350    17.2240    15.4260    17.0550    24.3760   -11.4510 
  142.8750     2.5410    45.8340    17.1800    15.3940    16.9310    24.3620   -11.3940 
  143.0000     2.5500    48.3650    17.1340    15.3620    17.0900    24.3250   -11.3560 
  143.1250     2.5570    50.5890    16.9970    15.2620    17.3720    24.2770   -11.3170 
  143.2500     2.5600    52.7530    16.6930    15.0250    16.2030    24.2470   -11.2790 
  143.3750     2.5550    52.9120    16.1330    14.5710    15.2590    24.2460   -11.2470 
  143.5000     2.5420    50.8290    15.3610    13.9320    14.7630    24.2600   -11.2110 
  143.6250     2.5240    49.2190    14.4440    13.1590    14.2020    24.2860   -11.1940 
  143.7500     2.5080    49.7770    13.5110    12.3520    12.7590    24.2670   -11.1930 
  143.8750     2.5000    50.3440    12.7660    11.6730    11.8230    24.2500   -11.2370 
  144.0000     2.4940    49.6860    12.3370    11.2300    10.9240    24.2760   -11.2660 
  144.1250     2.4870    49.3090    12.2940    11.0880    10.5890    24.3150   -11.2900 
  144.2500     2.4810    49.3430    12.6120    11.2480    10.8360    24.3590   -11.2830 
  144.3750     2.4780    47.6790    13.1590    11.6480    11.4990    24.3910   -11.3150 
  144.5000     2.4720    45.0460    13.6540    12.0670    12.7230    24.3630   -11.3260 
  144.6250     2.4650    44.1980    13.9030    12.3340    13.4040    24.2990   -11.3320 
  144.7500     2.4610    46.0440    13.8340    12.3520    12.8880    24.2630   -11.3380 
  144.8750     2.4680    48.5560    13.5290    12.1400    12.2080    24.2690   -11.3480 
