~V
VERS. 2.00: Ver 2.00
~W
STRT.M 50.0000:
STOP.M 220.0000:
STEP.M 0.1250:
NULL. -999.2500:
UWI. F11004:
~C
DEPT.M :
SP.MV :
GR.API :
RML.OHMM :
RI. :
RXO.OHMM :
CALI.CM :
DEN.GM/CC :
~A
# ...
  151.2500   -19.0400    64.5880   135.9550   133.3420   113.1730    25.0370     2.2160 
  151.3750   -19.2470    65.6980   138.1920   137.4610   118.9210    25.0820     2.2160 
  151.5000   -19.4280    67.6460   123.3420   123.8470   123.6520    24.9510     2.2210 
  151.6250   -19.5730    69.0140   104.1800   104.4550   114.3300    24.8800     2.2290 
  151.7500   -19.6950    70.8860    88.5160    87.4780    80.9800    24.8710     2.2390 
  151.8750   -19.8130    72.4270    79.1610    76.4650    53.0640    24.8300     2.2480 
  152.0000   -19.9570    71.2360    76.4160    72.0840    45.3740    24.8070     2.2510 
  152.1250   -20.0880    68.0240    77.3110    71.5650    48.5820    24.8640     2.2510 
  152.2500   -20.2000    62.8710    79.5690    72.9360    58.2330    24.9900     2.2480 
  152.3750   -20.3130    58.7120    80.9520    74.1820    70.0230    25.0810     2.2460 
  152.5000   -20.4280    58.4590    79.9390    73.6820    78.7170    25.0370     2.2480 
  152.6250   -20.5470    62.0140    77.8390    72.1010    77.1400    24.9360     2.2510 
  152.7500   -20.6610    67.9890    76.6900    71.0010    65.4330    24.8830     2.2490 
  152.8750   -20.7880    70.0050    78.2950    71.9910    55.2060    24.9160     2.2400 
  153.0000   -20.9110    66.4860    84.0440    76.5990    58.2820    24.9560     2.2300 
  153.1250   -21.0410    62.7600    92.5600    84.0160    75.0670    24.9470     2.2240 
  153.2500   -21.1380    60.9300   101.6920    92.5250    95.4210    24.9200     2.2260 
  153.3750   -21.2020    61.1420   108.4140    99.3790   100.6670    24.9010     2.2320 
  153.5000   -21.3100    64.1280   109.0900   101.0200    98.3960    24.8440     2.2380 
  153.6250   -21.4700    67.2600   104.4700    97.6310   106.6170    24.6460     2.2400 
  153.7500   -21.6160    66.6620    96.7820    90.9440   111.2450    24.2670     2.2390 
  153.8750   -21.7130    63.3600    88.6420    83.3350    95.8170    23.8050     2.2360 
  154.0000   -21.8580    61.5650    82.0760    76.8190    77.0910    23.4500     2.2350 
  154.1250   -22.0490    61.9330    77.4130    71.9330    66.1010    23.2490     2.2380 
  154.2500   -22.2440    64.0120    74.6570    68.7400    58.9930    23.1200     2.2450 
  154.3750   -22.4140    67.3170    73.7390    67.1710    53.1250    23.0080     2.2550 
  154.5000   -22.5760    70.6170    74.9640    67.4290    48.7890    22.9590     2.2600 
  154.6250   -22.7070    71.6120    78.1760    69.3500    44.3080    22.9910     2.2600 
  154.7500   -22.8060    70.8520    83.5210    73.1230    38.4160    23.1220     2.2550 
  154.8750   -22.8530    69.2980    90.9420    78.8160    32.1470    23.4450     2.2480 
  155.0000   -22.8160    67.3370   100.1530    86.3190    29.9130    23.9530     2.2400 
  155.1250   -22.7670    64.3930   109.9510    94.5400    33.0370    24.2980     2.2300 
  155.2500   -22.7180    61.6100   119.4690   102.6400    38.1590    24.2480     2.2210 
  155.3750   -22.6500    59.5510   128.1590   110.0630    40.5400    23.9600     2.2120 
  155.5000   -22.5510    57.7090   135.9130   116.6770    40.1700    23.8960     2.2060 
  155.6250   -22.4700    56.0860   143.1950   122.9210    44.3110    24.1320     2.2020 
  155.7500   -22.4070    56.8260   149.9450   128.8270    55.6450    24.4310     2.2020 
  155.8750   -22.3440    60.1900   155.3430   133.7920    69.2060    24.5360     2.2040 
  156.0000   -22.2630    61.7220   157.1250   136.0220    76.0060    24.2900     2.2080 
  156.1250   -22.1570    60.5880   154.4160   134.6590    67.1440    23.8510     2.2120 
  156.2500   -22.0380    59.0740   147.3730   129.6180    52.3850    23.4150     2.2160 
  156.3750   -21.9280    59.8900   137.4040   121.8320    45.5350    23.1400     2.2210 
  156.5000   -21.7980    62.0510   126.5020   112.7890    45.4770    23.0630     2.2270 
  156.6250   -21.6460    61.4250   116.2360   104.0100    44.5500    23.0390     2.2310 
  156.7500   -21.5360    60.3240   106.7320    95.7790    41.0550    23.0210     2.2340 
  156.8750   -21.4690    61.5450    97.5610    87.8020    38.3420    23.0160     2.2350 
  157.0000   -21.4090    64.4410    88.8090    80.0920    39.1300    23.0240     2.2380 
  157.1250   -21.3830    65.4500    81.3710    73.3710    40.9270    23.0070     2.2460 
  157.2500   -21.4350    64.2980    76.4550    68.6410    39.0020    22.9150     2.2570 
  157.3750   -21.5350    63.2250    75.1000    66.7760    31.9890    22.8200     2.2650 
  157.5000   -21.6140    61.9970    78.6450    69.0900    27.3660    23.0240     2.2600 
  157.6250   -21.6780    59.7380    86.1700    75.2410    30.8980    23.5870     2.2470 
  157.7500   -21.7460    56.9410    96.5040    84.7190    45.9990    24.2640     2.2390 
  157.8750   -21.8510    55.4480   107.5780    96.0970    72.3530    24.7320     2.2380 
  158.0000   -21.9810    57.8420   116.1020   106.5970    99.2840    24.8700     2.2410 
  158.1250   -22.0770    59.3100   120.5030   113.8990   114.2480    24.8610     2.2450 
  158.2500   -22.1630    56.9770   121.0720   117.4320   118.5770    24.7680     2.2470 
  158.3750   -22.2650    54.4880   119.1460   117.9850   119.4570    24.6980     2.2450 
  158.5000   -22.3900    55.5270   114.9980   115.8400   117.9700    24.7720     2.2400 
  158.6250   -22.5420    57.7990   107.6480   110.2690   115.6500    24.9090     2.2370 
  158.7500   -22.7080    59.4380    95.5610    99.3490   113.7170    25.0130     2.2370 
  158.8750   -22.8930    60.7770    82.7880    82.6480   109.4920    25.1250     2.2430 
  159.0000   -23.1090    63.1460    63.3190    63.2520    97.0060    25.2620     2.2540 
  159.1250   -23.3470    67.6700    46.2820    46.3840    77.4620    25.1450     2.2740 
  159.2500   -23.5760    75.2080    33.7200    34.2050    53.2650    24.6980     2.3020 
  159.3750   -23.8500    81.8410    26.0310    26.7560    33.7010    24.1660     2.3290 
  159.5000   -24.2360    82.8890    23.4020    23.7100    24.8400    23.8640     2.3390 
  159.6250   -24.6460    81.4440    24.7170    23.8090    21.5910    23.6820     2.3300 
  159.7500   -25.0470    80.0720    30.1750    27.3090    22.7690    23.5250     2.3060 
  159.8750   -25.4720    79.6480    40.2090    35.1260    31.1630    23.5770     2.2700 
  160.0000   -25.9800    79.5680    55.4640    49.0450    62.3880    24.0310     2.2270 
  160.1250   -26.5000    76.0770    71.0980    66.7430   115.5890    24.6310     2.1860 
  160.2500   -26.9840    69.9070    83.9070    83.0830   127.9280    25.0770     2.1550 
  160.3750   -27.4060    65.6060    91.2100    92.0310   100.8030    25.1950     2.1390 
  160.5000   -27.7480    66.6800    90.4020    91.5850    87.4800    24.8940     2.1460 
  160.6250   -28.0280    67.8220    88.0680    88.4990    87.0510    24.3610     2.1690 
  160.7500   -28.2130    65.9560    88.5060    87.3460    92.2380    23.8660     2.1960 
  160.8750   -28.2720    63.1750    93.3480    90.0810    97.8520    23.6340     2.2140 
  161.0000   -28.2270    63.5420   102.4540    96.7560   103.7420    23.7050     2.2200 
  161.1250   -28.1580    66.0280   108.1810   104.3340   110.3630    23.8510     2.2230 
  161.2500   -28.0530    67.2580   110.8240   109.5930   117.7230    23.9450     2.2260 
  161.3750   -27.8680    66.9510   111.9460   110.0220   127.8470    23.9700     2.2310 
  161.5000   -27.6400    65.7790   107.0050   105.1210   131.4620    23.9780     2.2400 
  161.6250   -27.4370    65.3190   100.6530    98.7770   111.4140    23.9690     2.2490 
  161.7500   -27.2380    66.6700    96.3200    94.0850    84.0930    23.9510     2.2550 
  161.8750   -27.0060    68.7220    95.7210    92.8500    71.8460    23.9490     2.2540 
  162.0000   -26.7440    69.1360    99.3260    95.7710    79.3800    24.0000     2.2450 
  162.1250   -26.4200    67.3640   104.9900   100.8820    94.4880    24.1650     2.2270 
  162.2500   -26.0550    65.2660   110.5230   106.1380   100.4830    24.4990     2.2020 
  162.3750   -25.7170    64.3750   113.6770   109.3810    96.6120    24.9160     2.1770 
