~V
VERS. 2.00: Ver 2.00
~W
STRT.M 59.0000:
STOP.M 225.0000:
STEP.M 0.1250:
NULL. -999.2500:
UWI. F11010:
~C
DEPT.M :
GR.API :
RML.OHMM :
RI. :
RXO.OHMM :
CALI.CM :
SP.MV :
DEN.GM/CC :
~A
# ...
  104.0000    90.2430     6.4470     5.6970     5.5950    24.9490    -1.1060     2.2530 
  104.1250    95.6540     6.4690     5.7160     6.0200    24.8900    -0.1830     2.2510 
  104.2500   100.7700     6.5160     5.8080     5.8760    24.9050     0.4190     2.2560 
  104.3750   101.7510     6.4950     5.8640     5.2340    25.0550     0.7960     2.2680 
  104.5000    98.4720     6.3870     5.8420     4.8540    25.2200     1.0360     2.2860 
  104.6250    96.7120     6.2220     5.7490     4.8750    25.2800     1.2450     2.3080 
  104.7500   100.3000     6.0380     5.6150     5.0070    25.2830     1.4810     2.3280 
  104.8750   105.4200     5.8360     5.4430     4.9920    25.2820     1.7350     2.3410 
  105.0000   107.3240     5.6220     5.2360     4.8190    25.2920     1.9830     2.3400 
  105.1250   105.6810     5.4440     5.0280     4.7330    25.3330     2.1520     2.3240 
  105.2500   101.3160     5.3730     4.8850     4.6090    25.4000     2.1830     2.2990 
  105.3750    96.6810     5.4700     4.8670     4.4120    25.4340     2.0080     2.2700 
  105.5000    94.0510     5.7530     5.0030     4.4000    25.3710     1.5980     2.2470 
  105.6250    92.3770     6.1830     5.2870     5.0300    25.1700     0.9580     2.2370 
  105.7500    89.0410     6.6210     5.6230     6.1670    24.9380     0.2400     2.2380 
  105.8750    83.9120     6.9670     5.9340     6.9060    24.7820    -0.4740     2.2460 
  106.0000    80.8520     7.1900     6.1740     6.9050    24.7470    -1.1840     2.2550 
  106.1250    81.3370     7.3480     6.3530     6.4890    24.8210    -1.9370     2.2600 
  106.2500    81.3540     7.5720     6.5530     6.4690    24.8850    -2.7940     2.2610 
  106.3750    79.8850     7.9290     6.8320     7.0790    24.8460    -3.7000     2.2580 
  106.5000    77.5510     8.4000     7.1980     7.9970    24.7630    -4.5600     2.2490 
  106.6250    73.5280     8.8740     7.5920     8.5300    24.7690    -5.3520     2.2310 
  106.7500    69.5820     9.2150     7.8970     8.8420    24.8760    -6.1700     2.2080 
  106.8750    68.6230     9.3540     8.0370     8.9560    24.9750    -7.0520     2.1850 
  107.0000    68.8530     9.2800     7.9930     8.8720    25.0070    -7.9300     2.1730 
  107.1250    67.7780     9.0020     7.7910     8.7210    24.8470    -8.6830     2.1790 
  107.2500    66.1030     8.6280     7.5250     8.5710    24.5050    -9.1840     2.1900 
  107.3750    66.3660     8.2930     7.2710     8.6400    24.3380    -9.4360     2.1930 
  107.5000    67.4670     8.2320     7.1580     8.8490    24.5190    -9.4980     2.1820 
  107.6250    65.2600     8.8830     7.4600     8.8200    24.9370    -9.3670     2.1750 
  107.7500    61.7730    10.3590     8.3290     8.6400    25.2330    -9.0180     2.2030 
  107.8750    59.6200    12.4720     9.8200     9.5870    25.4800    -8.3890     2.2750 
  108.0000    59.3780    14.5310    11.6630    14.0880    25.6260    -7.4860     2.3720 
  108.1250    60.6380    15.1850    12.7370    27.3440    25.5400    -6.3250     2.4490 
  108.2500    63.6780    13.9820    12.0740    33.7020    25.3560    -5.0860     2.4780 
  108.3750    69.9150    11.3590     9.9530    21.3120    25.2420    -3.8520     2.4570 
  108.5000    79.2480     8.3900     7.5290     8.2010    25.1880    -2.6990     2.4090 
  108.6250    88.3830     6.2440     5.7760     4.8180    25.1020    -1.7360     2.3580 
  108.7500    93.2410     5.1590     4.7750     4.0800    25.0100    -1.0470     2.3170 
  108.8750    91.3560     4.9910     4.4350     4.4420    24.8940    -0.7250     2.2830 
  109.0000    85.7050     5.4710     4.6370     5.0070    24.7660    -0.8120     2.2540 
  109.1250    84.0780     6.3290     5.2710     5.3760    24.6910    -1.3100     2.2280 
  109.2500    84.8640     7.2170     6.0510     5.8290    24.6480    -2.0260     2.2080 
  109.3750    84.6470     7.9560     6.7720     6.4160    24.6410    -2.8750     2.1980 
  109.5000    82.8790     8.4690     7.3140     6.8360    24.6380    -3.8030     2.1950 
  109.6250    81.9920     8.7540     7.6360     6.9620    24.6330    -4.7860     2.1940 
  109.7500    79.6020     8.9210     7.8310     7.2070    24.6550    -5.7910     2.1880 
  109.8750    73.8900     9.0280     7.9470     7.7440    24.7460    -6.8020     2.1810 
  110.0000    67.9080     9.1100     8.0050     8.6140    24.9160    -7.7410     2.1770 
  110.1250    65.6760     9.1920     8.0100     8.9660    25.0480    -8.5420     2.1840 
  110.2500    67.0370     9.3020     7.9910     8.7530    25.0730    -9.2140     2.1970 
  110.3750    69.3670     9.4750     7.9890     8.2910    25.0040    -9.7770     2.2110 
  110.5000    69.9890     9.7320     8.0490     8.1570    24.9380   -10.2030     2.2170 
  110.6250    67.4450    10.0780     8.2040     8.1550    24.9560   -10.3970     2.2160 
  110.7500    66.3940    10.4430     8.4190     8.2220    24.9790   -10.3830     2.2120 
  110.8750    68.8680    10.7540     8.6370     8.5140    24.9060   -10.1770     2.2100 
  111.0000    71.8080    10.9480     8.7920     8.5740    24.7130    -9.8760     2.2110 
  111.1250    70.2640    10.9840     8.8340     8.2380    24.4910    -9.5350     2.2120 
  111.2500    66.3350    10.9080     8.7930     8.0580    24.2760    -9.1970     2.2150 
  111.3750    64.9220    10.7460     8.6950     8.2240    24.0470    -8.8450     2.2170 
  111.5000    65.5960    10.5120     8.5530     8.5000    23.8560    -8.4980     2.2160 
  111.6250    64.8580    10.2040     8.3700     8.3270    23.7780    -8.1770     2.2120 
  111.7500    62.9820     9.8680     8.1720     8.1120    23.7930    -7.8850     2.2060 
  111.8750    63.1130     9.5560     7.9890     7.9840    23.8720    -7.6120     2.1990 
  112.0000    64.7310     9.3220     7.8520     7.7900    23.9430    -7.3290     2.1940 
  112.1250    64.7220     9.1950     7.7860     7.4180    23.9310    -7.0090     2.1890 
  112.2500    65.7480     9.1010     7.7380     7.3060    23.9670    -6.6340     2.1880 
  112.3750    70.9140     8.9520     7.6410     7.3030    24.0410    -6.1900     2.1920 
  112.5000    77.1530     8.6700     7.4340     7.2740    24.0970    -5.6050     2.2050 
  112.6250    78.4010     8.2170     7.0900     7.3840    24.1330    -4.8820     2.2240 
  112.7500    76.7290     7.6850     6.6820     7.3380    24.2450    -4.0930     2.2440 
  112.8750    75.9480     7.1820     6.2940     6.6470    24.3850    -3.2950     2.2600 
  113.0000    75.7380     6.8080     6.0030     6.0500    24.5610    -2.5420     2.2670 
  113.1250    76.0930     6.6510     5.8770     5.8300    24.8040    -1.8970     2.2680 
  113.2500    77.8090     6.6590     5.8780     5.7330    25.0430    -1.3470     2.2660 
  113.3750    80.8360     6.7630     5.9630     5.6990    25.1950    -0.8900     2.2670 
  113.5000    83.0470     6.8690     6.0670     5.9020    25.2570    -0.5310     2.2710 
  113.6250    84.1020     6.8540     6.0860     5.9890    25.2830    -0.2500     2.2780 
  113.7500    83.7890     6.6770     5.9710     5.6550    25.3250     0.0010     2.2870 
  113.8750    80.5630     6.3500     5.7240     5.5350    25.3910     0.2230     2.2960 
  114.0000    77.1940     5.9390     5.3940     5.3810    25.4900     0.4490     2.3040 
  114.1250    78.2480     5.5530     5.0650     4.8980    25.5770     0.7070     2.3120 
  114.2500    83.8700     5.2830     4.8180     4.3040    25.6150     0.9810     2.3200 
  114.3750    89.1170     5.1760     4.7000     4.1160    25.6280     1.2260     2.3260 
  114.5000    89.2100     5.2320     4.7220     4.5490    25.6520     1.3960     2.3280 
  114.6250    83.5510     5.4130     4.8740     4.7230    25.6620     1.4580     2.3190 
  114.7500    79.0750     5.6120     5.0730     4.9330    25.6800     1.4710     2.3030 
  114.8750    79.2840     5.7510     5.2480     4.9960    25.7230     1.4990     2.2850 
  115.0000    82.5690     5.7810     5.3370     4.9400    25.8340     1.5590     2.2730 
  115.1250    85.1750     5.6860     5.3000     4.7110    25.8660     1.6590     2.2770 
