~V
VERS. 2.00: Ver 2.00
~W
STRT.M 45.0000:
STOP.M 277.0000:
STEP.M 0.1250:
NULL. -999.2500:
UWI. F11056:
~C
DEPT.M :
GR.API :
RML.OHMM :
RI. :
RXO.OHMM :
CALI.CM :
DEN.GM/CC :
SP.MV :
~A
# ...
  270.0000    60.9140    10.7450    10.5910    10.3170    24.5360     2.5220    -0.9900 
  270.1250    60.9140    10.6590    10.5020    10.6530    24.5370     2.5240    -0.9960 
  270.2500    60.9140    10.6340    10.4770    11.2120    24.5430     2.5290    -0.9660 
  270.3750    60.9140    10.6940    10.5390    11.6460    24.5350     2.5340    -0.9570 
  270.5000    60.9140    10.8480    10.6980    11.2510    24.5280     2.5380    -0.8360 
  270.6250    60.9140    11.0470    10.9070    11.0070    24.5230     2.5400    -0.7040 
  270.7500    60.9140    11.2430    11.1200    11.6000    24.5260     2.5400    -0.5970 
  270.8750    60.9140    11.3950    11.2930    12.3530    24.5290     2.5380    -0.5120 
  271.0000    60.9140    11.4770    11.3930    12.0800    24.5290     2.5370    -0.4430 
  271.1250    60.9140    11.5140    11.4450    11.3370    24.5290     2.5360    -0.4050 
  271.2500    60.9140    11.5330    11.4760    11.4360    24.5280     2.5350    -0.4460 
  271.3750    60.9140    11.5480    11.5030    12.5300    24.5270     2.5360    -0.5180 
  271.5000    60.9140    11.5560    11.5210    14.1910    24.5260     2.5390    -0.5820 
  271.6250    60.9140    11.5440    11.5210    14.8420    24.5330     2.5430    -0.6650 
  271.7500    60.9140    11.5050    11.5030    15.0720    24.5490     2.5470    -0.7330 
  271.8750    60.9140    11.4490    11.4760    15.8890    24.5680     2.5500    -0.7330 
  272.0000    60.9140    11.4010    11.4540    16.8270    24.5610     2.5520    -0.6730 
  272.1250    60.9140    11.3750    11.4440    17.1640    24.5410     2.5530    -0.6270 
  272.2500    60.9140    11.3680    11.4420    16.0790    24.5300     2.5520    -0.5790 
  272.3750    60.9140    11.3680    11.4420    14.5500    24.5290     2.5500    -0.5120 
  272.5000    60.9140    11.3690    11.4420    13.4020    24.5400     2.5460    -0.4550 
  272.6250    60.9140    11.3690    11.4420    13.2880    24.5610     2.5410    -0.3700 
  272.7500    60.9140    11.3690    11.4420    13.9000    24.5800     2.5380    -0.2650 
  272.8750    60.9140    11.3690    11.4420    14.2140    24.5880     2.5380    -0.1860 
  273.0000    60.9140    11.3690    11.4420    13.7000    24.5890     2.5420    -0.0980 
  273.1250    60.9140    11.3690    11.4420    12.0460    24.5910     2.5480     0.0770 
  273.2500    60.9140    11.3690    11.4420    11.2400    24.5920     2.5510     0.3280 
  273.3750    60.9140    11.3690    11.4420    11.4050    24.5990     2.5530     0.5600 
  273.5000    60.9140    11.3690    11.4420    12.7420    24.6200     2.5540     0.7780 
  273.6250    60.9140    11.3690    11.4420    14.0360    24.6350     2.5560     1.0030 
  273.7500    60.9140    11.3690    11.4420    13.5930    24.6410     2.5560     1.1640 
  273.8750    60.9140    11.3690    11.4420    11.9330    24.7060     2.5500     1.3350 
  274.0000    60.9140    11.3690    11.4420    10.8810    24.8750     2.5370     1.4600 
  274.1250    60.9140    11.3690    11.4420    10.5600    25.0780     2.5210     1.5450 
  274.2500    60.9140    11.3690    11.4420    10.7830    25.2090     2.5120     1.5810 
  274.3750    60.9140    11.3690    11.4420    12.1740    25.2560     2.5150     1.5810 
  274.5000    60.9140    11.3690    11.4420    13.7820    25.2180     2.5300     1.5810 
  274.6250    60.9140    11.3690    11.4420    14.3070    25.1760     2.5460  -999.2500 
  274.7500    60.9140    11.3690    11.4420    12.7710    25.1330     2.5510  -999.2500 
  274.8750    60.9140    11.3690    11.4420    11.3180    25.0990     2.5430  -999.2500 
  275.0000    60.9140    11.3690    11.4420    10.8490    25.0540     2.5270  -999.2500 
  275.1250    60.9140    11.3690    11.4420    10.9540    25.0000     2.5190  -999.2500 
  275.2500    60.9140    11.3690    11.4420    10.9300    24.9790     2.5320  -999.2500 
  275.3750    60.9140    11.3690    11.4420    10.7120    24.9980     2.5560  -999.2500 
  275.5000    60.9140    11.3690    11.4420    10.2860    25.0850     2.5770  -999.2500 
  275.6250    60.9140    11.3690    11.4420    10.0010    25.2330     2.5820  -999.2500 
  275.7500    60.9140    11.3690    11.4420     9.7750    25.3560     2.5670  -999.2500 
  275.8750    60.9140    11.3690    11.4420     9.9930    25.4010     2.5430  -999.2500 
  276.0000    60.9140    11.3690    11.4420    10.3780    25.4150     2.5120  -999.2500 
  276.1250    60.9140    11.3690    11.4420    11.0550    25.5000     2.4700  -999.2500 
  276.2500    60.9140    11.3690    11.4420    10.7780    25.0490     2.4020  -999.2500 
  276.3750    60.9140    11.3690    11.4420     8.7910    23.3670     2.3090  -999.2500 
  276.5000    60.9140    11.3690    11.4420     5.7450    19.7780     2.2050  -999.2500 
  276.6250    60.9140    11.3690    11.4420     4.7330    18.1300     2.1060  -999.2500 
  276.7500    60.9140    11.3690    11.4420     4.5010    17.7020     2.0230  -999.2500 
  276.8750    60.9140    11.3690    11.4420     4.5000    17.6950     1.9770  -999.2500 
  277.0000    60.9140    11.3690    11.4420     4.5010    17.6950     1.9520  -999.2500 
