~V
VERS. 2.00: Ver 2.00
~W
STRT.M 62.0000:
STOP.M 272.0000:
STEP.M 0.1250:
NULL. -999.2500:
UWI. F11076:
~C
DEPT.M :
GR.API :
RML.OHMM :
RI. :
RXO.OHMM :
CALI.CM :
DEN.GM/CC :
SP.MV :
~A
# ...
  118.2500    71.0380     9.5900     8.3020     9.9380    25.6170     2.1990   -16.4940 
  118.3750    67.6470     9.5240     8.2290     9.7290    25.7150     2.1690   -16.6470 
  118.5000    62.5490     9.5330     8.1990     9.5460    25.7610     2.1420   -16.8210 
  118.6250    59.8490     9.6420     8.2560     9.4890    25.7900     2.1460   -16.9700 
  118.7500    61.1740     9.8010     8.3850     9.4930    25.7870     2.1880   -17.0980 
  118.8750    63.4740     9.9460     8.5450     9.6150    25.7020     2.2480   -17.2310 
  119.0000    64.5990    10.0000     8.6640     9.7160    25.4830     2.2950   -17.4310 
  119.1250    65.7560     9.8850     8.6470     9.8540    25.2480     2.2960   -17.7320 
  119.2500    67.2070     9.6430     8.4970     9.8930    25.0840     2.2640   -18.1000 
  119.3750    66.6320     9.3480     8.2670     9.8000    25.0040     2.2210   -18.4730 
  119.5000    64.3110     9.0850     8.0290     9.8160    24.9870     2.1910   -18.8180 
  119.6250    64.5840     8.9300     7.8620     9.9330    25.0130     2.1820   -19.1160 
  119.7500    65.9940     8.8650     7.7800     9.8570    25.0300     2.1840   -19.3910 
  119.8750    64.8810     8.8410     7.7580     9.8380    25.0310     2.1920   -19.6300 
  120.0000    62.8450     8.7890     7.7330    10.0370    25.0170     2.2020   -19.7740 
  120.1250    62.9620     8.6410     7.6230    10.0230    24.9890     2.2110   -19.7540 
  120.2500    65.0110     8.4150     7.4180     9.8670    24.9690     2.2220   -19.5640 
  120.3750    66.7460     8.1740     7.1650     9.6560    24.9380     2.2370   -19.2540 
  120.5000    67.5520     8.0050     6.9470     8.7050    24.8990     2.2580   -18.8800 
  120.6250    70.7810     8.0180     6.8680     7.6820    24.9480     2.2800   -18.6070 
  120.7500    74.5050     8.2120     6.9490     7.5110    25.0780     2.2900   -18.4510 
  120.8750    75.6300     8.5560     7.1770     8.7740    25.2140     2.2780   -18.4390 
  121.0000    74.5740     8.9960     7.5150     9.9110    25.3290     2.2450   -18.5350 
  121.1250    72.4280     9.4680     7.9270    10.4640    25.3710     2.2050   -18.7640 
  121.2500    68.9360     9.9100     8.3570    10.5280    25.3640     2.1750   -19.0930 
  121.3750    63.1640    10.2720     8.7560    10.5120    25.3010     2.1610   -19.5270 
  121.5000    59.3010    10.5010     9.0630    10.4560    25.2100     2.1590   -20.0260 
  121.6250    61.4650    10.5210     9.1960    10.4470    25.1870     2.1640   -20.4830 
  121.7500    64.5480    10.3570     9.1500    10.4670    25.2560     2.1690   -20.8710 
  121.8750    65.6200    10.0580     8.9470    10.5290    25.3290     2.1730   -21.1900 
  122.0000    64.9340     9.7090     8.6520    10.7710    25.3690     2.1770   -21.4870 
  122.1250    63.5560     9.4190     8.3610    11.8950    25.4370     2.1790   -21.7590 
  122.2500    61.7490     9.2350     8.1360    13.5220    25.6480     2.1780   -22.0330 
  122.3750    60.5120     9.1550     7.9940    13.1530    25.9860     2.1770   -22.2800 
  122.5000    61.5490     9.1480     7.9240    11.6340    26.2270     2.1770   -22.5170 
  122.6250    63.2830     9.1730     7.9040    10.7010    26.1690     2.1830   -22.7200 
  122.7500    62.5030     9.1970     7.9000    10.5040    26.0940     2.1930   -22.9150 
  122.8750    60.3040     9.2080     7.9070    10.4000    26.2010     2.2000   -23.1360 
  123.0000    59.6120     9.2060     7.9200    10.3190    26.5760     2.1990   -23.3610 
  123.1250    60.3360     9.1920     7.9330    10.3700    27.1170     2.1810   -23.5730 
  123.2500    59.3180     9.1760     7.9470    10.2270    27.5020     2.1510   -23.7590 
  123.3750    56.8450     9.1690     7.9680     9.9030    27.6870     2.1170   -23.9550 
  123.5000    56.4670     9.1740     8.0010     9.7890    27.6620     2.0930   -24.1570 
  123.6250    60.1470     9.1900     8.0410     9.9050    27.2450     2.0910   -24.3690 
  123.7500    63.6880     9.2030     8.0760    10.0800    26.4240     2.1070   -24.6160 
  123.8750    65.4530     9.1990     8.0950    10.3980    25.5760     2.1330   -24.8440 
  124.0000    66.6740     9.1580     8.0820    10.4600    25.0830     2.1570   -25.0510 
  124.1250    68.2570     9.0510     8.0050    10.3960    25.1150     2.1720   -25.2420 
  124.2500    68.1330     8.8670     7.8560    10.3360    25.3080     2.1800   -25.3460 
  124.3750    66.7380     8.6090     7.6270    10.1450    25.4410     2.1850   -25.2850 
  124.5000    67.0500     8.3040     7.3370     9.2460    25.4550     2.1900   -25.0010 
  124.6250    69.2180     8.0260     7.0450     7.8550    25.3440     2.1930   -24.5960 
  124.7500    70.1860     7.8600     6.8290     7.0800    25.1810     2.1930   -24.1140 
  124.8750    70.1700     7.8680     6.7490     7.4370    25.0530     2.1910   -23.6540 
  125.0000    71.7390     8.0660     6.8350     8.1430    25.0330     2.1860   -23.2750 
  125.1250    72.0620     8.4320     7.0950     9.4400    25.1420     2.1820   -23.0350 
  125.2500    68.3070     8.8460     7.4460    10.1950    25.3090     2.1790   -22.9550 
  125.3750    63.4100     9.2190     7.8110    10.5380    25.4720     2.1780   -23.0730 
  125.5000    61.1850     9.4890     8.1200    10.6300    25.5710     2.1780   -23.4050 
  125.6250    62.1730     9.6290     8.3180    10.6300    25.6810     2.1780   -23.8360 
  125.7500    63.3950     9.6940     8.4330    10.5150    25.7670     2.1780   -24.2580 
  125.8750    64.4550     9.7310     8.5000    10.4170    25.7990     2.1780   -24.5970 
  126.0000    64.7130     9.7750     8.5520    10.5260    25.8040     2.1780   -24.7850 
  126.1250    65.5660     9.8500     8.6160    10.7110    25.8170     2.1750   -24.7900 
  126.2500    67.6960     9.9500     8.6930    11.1100    25.8400     2.1670   -24.7050 
  126.3750    69.4140    10.0670     8.7760    11.4970    25.8760     2.1510   -24.5840 
  126.5000    69.7130    10.1890     8.8580    11.2740    25.9990     2.1310   -24.4400 
  126.6250    68.0990    10.3010     8.9300    10.9500    26.1780     2.1140   -24.3030 
  126.7500    66.4410    10.3910     8.9900    10.8370    26.2310     2.1070   -24.1910 
  126.8750    65.4760    10.4470     9.0370    10.7920    25.9790     2.1120   -24.0830 
  127.0000    65.5050    10.4640     9.0690    10.6730    25.6430     2.1290   -24.0460 
  127.1250    67.5830    10.4350     9.0800    10.6530    25.6430     2.1530   -24.1010 
  127.2500    69.6240    10.3850     9.0690    10.6340    25.6890     2.1770   -24.2280 
  127.3750    70.7300    10.3350     9.0410    10.6560    25.6830     2.1950   -24.3860 
  127.5000    71.9410    10.3140     9.0080    10.6610    25.6430     2.2000   -24.5270 
  127.6250    73.7040    10.3540     9.0010    10.4480    25.6910     2.1900   -24.6420 
  127.7500    74.1100    10.4530     9.0400    10.3960    25.8600     2.1720   -24.7210 
  127.8750    71.6880    10.5950     9.1300    10.4760    26.0660     2.1560   -24.7810 
  128.0000    68.5720    10.7300     9.2490    10.6460    26.1730     2.1450   -24.7850 
  128.1250    67.7150    10.7660     9.3240    10.7740    26.2390     2.1300   -24.6680 
  128.2500    67.3930    10.6460     9.2850    10.5840    26.3670     2.1070   -24.3720 
  128.3750    68.8170    10.3530     9.0910    10.2570    26.4690     2.0840   -23.9010 
  128.5000    73.1710     9.9310     8.7550     9.8500    26.2160     2.0770   -23.2870 
  128.6250    79.4890     9.4880     8.3460     9.2890    25.3620     2.1060   -22.5290 
  128.7500    84.4010     9.1530     7.9830     8.7290    24.5760     2.1600   -21.7370 
  128.8750    86.3720     9.0010     7.7390     8.4850    24.2170     2.2160   -20.9450 
  129.0000    86.8200     9.0600     7.6530     8.1680    24.1830     2.2520   -20.1680 
  129.1250    86.3410     9.3230     7.7470     8.2520    24.3620     2.2510   -19.4520 
  129.2500    84.4560     9.6770     7.9490     8.5210    24.8090     2.2280   -18.8430 
  129.3750    80.5310    10.0350     8.1980     8.7260    25.4580     2.1960   -18.3870 
