~V
VERS. 2.00: Ver 2.00
~W
STRT.M 54.0000:
STOP.M 281.0000:
STEP.M 0.1250:
NULL. -999.2500:
UWI. F11055:
~C
DEPT.M :
SP.MV :
GR.API :
RML.OHMM :
RI. :
RXO.OHMM :
CALI.CM :
DEN.GM/CC :
~A
# ...
  166.5000    -1.4540    65.3890    78.1280    67.4080    44.0060    24.4730     2.2290 
  166.6250    -1.5570    68.2370    78.8840    68.2960    44.4970    24.4900     2.2400 
  166.7500    -1.6970    68.8850    79.8020    69.2900    45.5260    24.5120     2.2520 
  166.8750    -1.7910    68.8890    80.7460    70.3140    45.4430    24.4900     2.2540 
  167.0000    -1.9330    68.3530    81.5190    71.2340    46.7010    24.4730     2.2520 
  167.1250    -2.0250    66.7800    81.8600    71.8130    47.0430    24.4920     2.2510 
  167.2500    -2.1720    64.9480    81.8540    72.0450    46.5040    24.5260     2.2520 
  167.3750    -2.2550    65.0450    81.7810    72.1240    44.6580    24.5170     2.2530 
  167.5000    -2.3930    67.5220    82.0790    72.4260    43.3520    24.4620     2.2530 
  167.6250    -2.4870    68.4680    83.3370    73.4890    43.4650    24.4520     2.2490 
  167.7500    -2.5690    65.2380    85.5540    75.3990    43.9370    24.4810     2.2450 
  167.8750    -2.6730    60.1760    88.4950    78.0430    46.9300    24.5000     2.2410 
  168.0000    -2.7440    59.5450    91.7020    81.0850    52.5840    24.4620     2.2380 
  168.1250    -2.8060    65.9210    94.6170    83.9920    57.6740    24.4520     2.2340 
  168.2500    -2.8400    69.6350    97.0490    86.3990    59.2160    24.4870     2.2280 
  168.3750    -2.9110    66.3170    99.1100    88.2540    60.4710    24.5330     2.2230 
  168.5000    -2.8990    60.3540   101.0160    89.7330    63.9270    24.5390     2.2230 
  168.6250    -2.9620    59.0840   102.7210    90.9910    65.7990    24.5030     2.2310 
  168.7500    -2.9950    62.6000   103.9030    91.9920    63.4360    24.4730     2.2390 
  168.8750    -3.0100    67.3720   104.1730    92.4880    60.4170    24.5050     2.2430 
  169.0000    -3.0360    71.6170   103.3110    92.1980    59.3330    24.5480     2.2440 
  169.1250    -3.0720    74.6830   101.3410    90.9140    59.1560    24.5760     2.2450 
  169.2500    -3.1200    74.8880    99.0150    89.1130    58.6840    24.5960     2.2470 
  169.3750    -3.1400    72.5210    96.9730    87.3290    55.7530    24.6300     2.2450 
  169.5000    -3.2710    69.0840    95.7720    86.1330    52.0280    24.6460     2.2400 
  169.6250    -3.3000    66.0950    96.0850    86.2040    49.8860    24.6300     2.2370 
  169.7500    -3.3820    63.9630    97.9750    87.6390    49.5200    24.6020     2.2370 
  169.8750    -3.4910    62.4640   101.4790    90.4450    49.3160    24.6040     2.2370 
  170.0000    -3.5850    61.5180   106.3650    94.4000    49.9630    24.6300     2.2350 
  170.1250    -3.6890    61.3690   115.4300    99.1430    56.6680    24.6240     2.2290 
  170.2500    -3.7960    61.4820   120.8980   103.8600    66.2410    24.6040     2.2230 
  170.3750    -3.9130    60.6840   124.8070   107.7460    72.6700    24.6080     2.2200 
  170.5000    -3.9470    59.0090   126.2300   109.9870    72.6650    24.6350     2.2200 
  170.6250    -4.0380    58.9360   124.3510   109.6500    72.0310    24.6920     2.2190 
  170.7500    -4.0430    59.1960   120.2000   107.2180    69.6960    24.7640     2.2160 
  170.8750    -4.0580    57.2300   114.8090   103.3980    67.6320    24.8670     2.2160 
  171.0000    -4.0230    55.8780   109.2740    99.1520    65.5410    24.9560     2.2190 
  171.1250    -3.9780    58.7520   104.6430    95.5130    62.2740    25.0370     2.2250 
  171.2500    -3.8900    62.6100   101.1330    92.8270    58.9360    25.0690     2.2310 
  171.3750    -3.7930    64.2400    98.4950    90.9230    57.9820    25.0820     2.2360 
  171.5000    -3.7570    62.6230    96.0960    89.2730    61.0690    25.0880     2.2390 
  171.6250    -3.6500    60.7000    93.0930    87.1330    63.8220    25.0850     2.2360 
  171.7500    -3.6210    60.0580    89.3330    84.2660    64.5630    25.0790     2.2340 
  171.8750    -3.5700    60.2400    85.2890    80.9680    62.8320    25.0790     2.2390 
  172.0000    -3.5580    60.8920    81.8420    77.9160    58.4500    25.0860     2.2490 
  172.1250    -3.5550    62.0240    80.3170    76.2290    53.3430    25.0840     2.2550 
  172.2500    -3.5870    64.2970    81.1090    76.4620    49.7500    25.0780     2.2550 
  172.3750    -3.6290    65.5740    84.1190    78.7390    50.2500    25.0760     2.2500 
  172.5000    -3.5980    65.1440    88.4940    82.4320    54.5960    25.0800     2.2370 
  172.6250    -3.6880    64.3530    92.3270    85.8800    60.5560    25.1100     2.2190 
  172.7500    -3.7030    62.6320    93.6400    87.2550    65.7420    25.1630     2.2080 
  172.8750    -3.7030    60.7380    91.5380    85.7260    71.2000    25.2150     2.2090 
  173.0000    -3.7160    59.8290    86.6970    81.7640    69.2550    25.2460     2.2170 
  173.1250    -3.7060    59.7440    81.2870    77.0700    62.0480    25.2490     2.2210 
  173.2500    -3.6780    60.5680    77.7160    73.6990    53.7310    25.2380     2.2180 
  173.3750    -3.6360    61.7220    77.2790    72.8710    47.8700    25.1900     2.2100 
  173.5000    -3.6460    62.1820    80.5210    75.3330    46.6860    25.0870     2.2060 
  173.6250    -3.5430    61.2530    87.5390    81.6490    61.4670    25.0140     2.2180 
  173.7500    -3.5220    61.1950    96.0150    89.9260    81.7780    24.9580     2.2420 
  173.8750    -3.4870    62.9420   103.2580    97.6720   100.0980    24.9340     2.2630 
  174.0000    -3.4350    64.0740   106.3090   101.8990   116.4020    24.9280     2.2680 
  174.1250    -3.3820    63.9690   102.5490    99.6650   126.1750    24.9300     2.2630 
  174.2500    -3.3110    64.8170    94.2760    92.6520   108.3110    24.9140     2.2590 
  174.3750    -3.2580    67.2810    84.2140    83.2860    82.1430    24.8670     2.2590 
  174.5000    -3.1690    69.0380    74.7630    73.9420    67.1880    24.8420     2.2590 
  174.6250    -3.1660    68.6540    67.6220    66.4010    56.7970    24.8210     2.2590 
  174.7500    -3.0720    67.1730    62.7400    60.8660    52.0540    24.7990     2.2620 
  174.8750    -3.0150    65.3980    59.9260    57.2810    53.5640    24.8000     2.2700 
  175.0000    -2.9760    66.0940    58.9860    55.5110    54.2700    24.8210     2.2820 
  175.1250    -2.9320    70.8320    60.4500    55.9910    59.0980    24.8130     2.2990 
  175.2500    -2.9290    75.1350    64.5300    58.8090    67.0260    24.7860     2.3180 
  175.3750    -2.8970    74.1480    71.6820    64.3410    78.3420    24.7760     2.3300 
  175.5000    -2.8930    70.9620    81.9360    72.6530    89.3660    24.7930     2.3240 
  175.6250    -2.7930    72.7120    94.5440    83.2850   109.4660    24.8290     2.2990 
  175.7500    -2.7720    75.8940   106.6670    93.9280   129.7360    24.8270     2.2680 
  175.8750    -2.7200    76.2030   115.4690   102.2210   132.7420    24.7960     2.2380 
  176.0000    -2.6760    72.9320   119.1100   106.4540   115.5450    24.7900     2.2180 
  176.1250    -2.6460    68.8980   117.4910   106.0640    99.4420    24.8150     2.2160 
  176.2500    -2.6190    66.6230   113.4870   103.1350    98.1930    24.8000     2.2250 
  176.3750    -2.6020    66.0040   108.3880    98.7380    94.0980    24.7610     2.2360 
  176.5000    -2.6060    65.8910   102.3850    93.2750    93.1740    24.7100     2.2400 
  176.6250    -2.6550    64.0120    94.9450    86.5700    89.8600    24.7290     2.2430 
  176.7500    -2.6590    62.3280    86.5680    79.1090    85.2650    24.7120     2.2510 
  176.8750    -2.7590    62.2170    78.2980    71.7020    76.3850    24.6710     2.2620 
  177.0000    -2.8340    63.4510    71.3200    65.2860    64.9530    24.6460     2.2720 
  177.1250    -2.9570    66.1820    66.8070    60.8220    56.0130    24.6590     2.2790 
  177.2500    -3.0610    69.2460    64.5580    58.2380    53.6160    24.6940     2.2810 
  177.3750    -3.1930    71.0930    64.3800    57.4700    56.6200    24.6960     2.2750 
  177.5000    -3.3190    69.7860    65.9550    58.3050    58.9920    24.6510     2.2660 
  177.6250    -3.4510    66.1750    69.1010    60.5720    58.9120    24.6260     2.2580 
