~V
VERS. 2.00: Ver 2.00
~W
STRT.M 58.0000:
STOP.M 272.0000:
STEP.M 0.1250:
NULL. -999.2500:
UWI. F11073:
~C
DEPT.M :
GR.API :
RML.OHMM :
RI. :
RXO.OHMM :
CALI.CM :
DEN.GM/CC :
SP.MV :
~A
# ...
  103.0000    96.5310     6.5210     5.1770     5.2120    24.3480     2.2780    -4.3330 
  103.1250    99.6140     5.9710     4.8250     3.8240    24.3550     2.3000    -4.2650 
  103.2500   100.8090     5.5560     4.5090     3.2440    24.3750     2.3330    -4.3790 
  103.3750    99.3580     5.4120     4.3400     3.3270    24.3840     2.3570    -4.5580 
  103.5000    95.5890     5.5630     4.3620     3.8370    24.3730     2.3660    -4.6940 
  103.6250    93.2790     5.9700     4.5820     4.5850    24.3440     2.3670    -4.7920 
  103.7500    91.9320     6.4600     4.8930     5.0620    24.3410     2.3670    -4.9230 
  103.8750    88.8490     6.8900     5.2040     5.3620    24.3670     2.3620    -5.1780 
  104.0000    86.2960     7.1240     5.4120     5.4190    24.3690     2.3510    -5.5860 
  104.1250    88.2340     7.0290     5.4110     5.4800    24.3090     2.3390    -5.9680 
  104.2500    91.9210     6.7340     5.2600     5.7400    24.2190     2.3310    -6.3280 
  104.3750    93.5250     6.4970     5.1050     5.8710    24.1860     2.3300    -6.7660 
  104.5000    93.8480     6.6750     5.1640     5.8350    24.2200     2.3380    -7.3080 
  104.6250    93.5250     7.8210     5.7830     5.8650    24.4410     2.3600    -7.9890 
  104.7500    88.2490    10.0780     7.1350     7.4660    24.6780     2.3940    -8.6910 
  104.8750    79.4210    13.3950     9.3520    13.0070    24.5100     2.4410    -9.3970 
  105.0000    73.8730    17.1640    12.2600    24.0500    24.2050     2.4960   -10.1830 
  105.1250    73.2300    19.5500    14.7350    38.1150    23.9840     2.5370   -11.1480 
  105.2500    71.2330    19.2310    15.3700    39.1460    23.8970     2.5350   -12.0940 
  105.3750    69.1390    16.6230    14.0440    24.5350    23.7790     2.4790   -12.8990 
  105.5000    70.1180    13.4260    11.8760    13.4890    23.6410     2.3820   -13.6270 
  105.6250    71.8430    11.1970    10.0610    10.5330    23.5460     2.2790   -14.2840 
  105.7500    71.5710    10.0490     8.9040     9.8130    23.4710     2.2100   -14.8720 
  105.8750    70.6770     9.6920     8.3210     9.6600    23.3720     2.1800   -15.3130 
  106.0000    70.4630     9.7670     8.1370     9.4950    23.3130     2.1750   -15.5380 
  106.1250    70.5550     9.9570     8.1750     9.6170    23.3190     2.1790   -15.5840 
  106.2500    70.8820    10.0610     8.2400     9.7170    23.3530     2.1830   -15.6180 
  106.3750    72.2840    10.0530     8.2630     9.5820    23.3710     2.1870   -15.6150 
  106.5000    73.1600     9.9800     8.2370     9.3130    23.3990     2.1950   -15.5260 
  106.6250    72.6830     9.9250     8.1960     9.1650    23.4680     2.2060   -15.3890 
  106.7500    72.6520     9.9370     8.1840     8.8930    23.5580     2.2140   -15.3100 
  106.8750    74.6140    10.0160     8.2170     8.4410    23.6280     2.2190   -15.3640 
  107.0000    78.4300    10.1310     8.2820     8.1720    23.7100     2.2230   -15.5210 
  107.1250    79.5410    10.2290     8.3450     8.2760    23.7400     2.2280   -15.6750 
  107.2500    78.5390    10.2710     8.3770     8.6400    23.6970     2.2290   -15.8660 
  107.3750    78.2830    10.2440     8.3630     9.0080    23.6310     2.2220   -16.2040 
  107.5000    79.5000    10.1610     8.3090     9.2810    23.6160     2.2060   -16.6450 
  107.6250    78.7960    10.0560     8.2270     9.6100    23.6720     2.1860   -17.0660 
  107.7500    74.7620     9.9730     8.1460     9.7830    23.7560     2.1700   -17.3810 
  107.8750    70.1500     9.9360     8.0860     9.9080    23.8000     2.1600   -17.6270 
  108.0000    67.6650     9.9480     8.0590     9.8650    23.7970     2.1560   -17.8970 
  108.1250    66.1220     9.9850     8.0690     9.8920    23.7710     2.1580   -18.1320 
  108.2500    65.2090    10.0220     8.1070    10.0080    23.7610     2.1640   -18.2600 
  108.3750    67.1210    10.0570     8.1600    10.2240    23.7630     2.1700   -18.3290 
  108.5000    71.8630    10.0870     8.2100    10.1340    23.7770     2.1730   -18.3680 
  108.6250    73.6400    10.0920     8.2260    10.1280    23.7820     2.1750   -18.3880 
  108.7500    70.4430    10.0620     8.2090    10.3120    23.7580     2.1780   -18.3590 
  108.8750    66.6600    10.0040     8.1730    10.5850    23.7110     2.1800   -18.2430 
  109.0000    65.9400     9.9500     8.1430    10.5530    23.6760     2.1800   -18.0630 
  109.1250    65.8220     9.9650     8.1410    10.3080    23.7330     2.1800   -17.8770 
  109.2500    63.7360    10.0580     8.1640    10.2200    23.7830     2.1760   -17.6420 
  109.3750    62.0150    10.1650     8.1900    10.3560    23.8150     2.1690   -17.3440 
  109.5000    63.3740    10.1570     8.1610    10.5960    23.8170     2.1630   -16.9780 
  109.6250    66.4440     9.8510     7.9660    10.5980    23.7920     2.1650   -16.5050 
  109.7500    69.1060     9.2840     7.5950    10.3060    23.7410     2.1740   -16.0590 
  109.8750    72.7050     8.6070     7.1150     9.4030    23.6800     2.1860   -15.7100 
  110.0000    77.8330     8.0370     6.6600     7.7050    23.6680     2.2010   -15.3610 
  110.1250    82.5940     7.8290     6.4150     6.1910    23.6380     2.2210   -15.1840 
  110.2500    84.5660     8.0040     6.4370     6.2280    23.5790     2.2430   -15.2360 
  110.3750    81.4050     8.4970     6.7190     7.7380    23.4990     2.2570   -15.3570 
  110.5000    74.8730     9.1520     7.1860     9.3550    23.4510     2.2520   -15.5940 
  110.6250    69.9120     9.7270     7.7030    10.1530    23.4400     2.2290   -16.0490 
  110.7500    68.9240    10.0520     8.1170    10.2360    23.4250     2.2050   -16.5460 
  110.8750    69.1240    10.1010     8.3560    10.1220    23.3790     2.1880   -16.9890 
  111.0000    67.7740     9.9720     8.4280    10.1180    23.3240     2.1820   -17.4680 
  111.1250    66.9390     9.8130     8.3890    10.1060    23.2980     2.1850   -17.8090 
  111.2500    68.6680     9.7160     8.3300     9.9780    23.2890     2.1920   -17.9420 
  111.3750    70.0810     9.6940     8.2940     9.8800    23.2840     2.1960   -18.0330 
  111.5000    68.9350     9.7450     8.3070     9.9570    23.2760     2.1950   -18.0610 
  111.6250    66.9430     9.8650     8.3770    10.1330    23.2820     2.1920   -17.8960 
  111.7500    66.3600     9.9950     8.4550    10.2570    23.3570     2.1880   -17.7290 
  111.8750    66.8210    10.0440     8.4700    10.3020    23.4970     2.1870   -17.5570 
  112.0000    67.1340     9.8940     8.3380    10.2850    23.6360     2.1870   -17.2380 
  112.1250    69.2260     9.4490     7.9820    10.1160    23.7070     2.1900   -16.8980 
  112.2500    73.3700     8.8530     7.5030     9.6220    23.7600     2.1970   -16.5700 
  112.3750    77.5460     8.3040     7.0420     8.4420    23.7990     2.2120   -16.2150 
  112.5000    79.9860     7.9960     6.7420     6.9640    23.7850     2.2360   -15.9870 
  112.6250    78.0560     8.0840     6.7380     6.7400    23.6950     2.2590   -15.9890 
  112.7500    72.9440     8.4460     6.9740     8.1840    23.5660     2.2620   -16.0150 
  112.8750    67.6380     8.9180     7.3590    10.6320    23.4550     2.2400   -16.1240 
  113.0000    66.4090     9.2980     7.7480    12.8340    23.3960     2.2060   -16.3730 
  113.1250    72.9430     9.3900     7.9590    12.9070    23.3720     2.1840   -16.6120 
  113.2500    80.2840     9.2550     7.9690    10.1000    23.3740     2.1830   -16.9500 
  113.3750    81.8460     9.0440     7.8550     8.6050    23.4310     2.1960   -17.3930 
  113.5000    77.7940     8.9180     7.7430     8.2770    23.5290     2.2090   -17.6920 
  113.6250    72.9860     8.9800     7.7440     9.3600    23.5930     2.2060   -17.8720 
  113.7500    70.1940     9.1560     7.8490     9.8200    23.6020     2.1930   -18.0770 
  113.8750    70.0630     9.3480     7.9950     9.9030    23.6450     2.1830   -18.1900 
  114.0000    71.8850     9.4620     8.1020     9.7850    23.6630     2.1810   -18.2300 
  114.1250    74.3660     9.4410     8.1060     9.4460    23.6140     2.1820   -18.3600 
