~V
VERS. 2.00: Ver 2.00
~W
STRT.M 49.0000:
STOP.M 284.0000:
STEP.M 0.1250:
NULL. -999.2500:
UWI. F11034:
~C
DEPT.M :
GR.API :
RML.OHMM :
RI. :
RXO.OHMM :
CALI.CM :
DEN.GM/CC :
SP.MV :
~A
# ...
   94.0000    66.1520     9.3590     8.0530     9.6830    23.1840     2.1510   -17.4500 
   94.1250    65.2750     9.2850     7.9620     9.6090    23.2980     2.1540   -17.3510 
   94.2500    62.7270     9.2670     7.8900     9.5960    23.3630     2.1590   -17.2410 
   94.3750    60.3710     9.2750     7.8300     9.6280    23.3910     2.1620   -17.1100 
   94.5000    62.2480     9.2750     7.7640     9.6430    23.4190     2.1600   -16.9920 
   94.6250    67.7340     9.2530     7.6900     9.5670    23.4640     2.1540   -16.9080 
   94.7500    72.1680     9.2140     7.6130     9.4550    23.4930     2.1460   -16.8560 
   94.8750    73.5240     9.1760     7.5480     9.3570    23.4680     2.1380   -16.8190 
   95.0000    72.5900     9.1580     7.5100     9.3080    23.3810     2.1380   -16.7660 
   95.1250    71.4760     9.1650     7.5020     9.3100    23.3030     2.1450   -16.7090 
   95.2500    70.2190     9.1880     7.5160     9.3310    23.2870     2.1650   -16.6700 
   95.3750    68.9670     9.2070     7.5390     9.3240    23.3040     2.1940   -16.6290 
   95.5000    67.8820     9.1980     7.5510     9.2490    23.3150     2.2240   -16.5250 
   95.6250    66.7270     9.1510     7.5390     9.1510    23.3150     2.2430   -16.3390 
   95.7500    67.0300     9.0670     7.4990     9.0700    23.2980     2.2410   -16.0850 
   95.8750    68.1320     8.9580     7.4360     9.0010    23.2430     2.2210   -15.8020 
   96.0000    68.3350     8.8510     7.3690     8.8890    23.1440     2.1920   -15.5070 
   96.1250    66.7930     8.7730     7.3170     8.6830    23.0300     2.1680   -15.1540 
   96.2500    64.9000     8.7280     7.2850     8.4030    22.9330     2.1560   -14.7340 
   96.3750    63.4950     8.6920     7.2620     8.1500    22.8650     2.1540   -14.2780 
   96.5000    62.1120     8.6060     7.2050     8.0700    22.8370     2.1600   -13.8180 
   96.6250    62.6040     8.4200     7.0780     8.1160    22.8330     2.1700   -13.3590 
   96.7500    65.6830     8.1160     6.8640     8.1970    22.8540     2.1820   -12.9110 
   96.8750    70.1840     7.7320     6.5760     8.2100    22.9330     2.1950   -12.4960 
   97.0000    76.8630     7.3600     6.2760     7.8630    23.1310     2.2080   -12.1600 
   97.1250    85.5020     7.1030     6.0380     7.2110    23.4390     2.2180   -11.9630 
   97.2500    91.5190     7.0210     5.9180     6.7240    23.6870     2.2210   -11.9050 
   97.3750    90.1110     7.1180     5.9320     6.6510    23.7350     2.2150   -11.9410 
   97.5000    82.3910     7.3500     6.0700     7.0600    23.5380     2.2030   -12.0580 
   97.6250    76.7520     7.6190     6.2710     7.7260    23.3010     2.1920   -12.2760 
   97.7500    75.8600     7.8510     6.4760     8.3400    23.1110     2.1840   -12.5830 
   97.8750    75.9560     8.0130     6.6490     8.7890    22.9940     2.1760   -12.9220 
   98.0000    74.4690     8.1070     6.7700     8.9960    22.9920     2.1690   -13.2210 
   98.1250    72.9870     8.1720     6.8520     8.9370    23.0300     2.1630   -13.4650 
   98.2500    72.5020     8.2340     6.9110     8.7710    23.0430     2.1600   -13.6580 
   98.3750    71.0280     8.3040     6.9560     8.6530    23.0000     2.1610   -13.8160 
   98.5000    68.2070     8.3720     6.9890     8.6590    22.8750     2.1670   -13.9300 
   98.6250    66.7690     8.4340     7.0140     8.9170    22.7090     2.1760   -14.0120 
   98.7500    66.9640     8.4930     7.0370     9.4710    22.5810     2.1850   -14.0890 
   98.8750    67.3550     8.5590     7.0660    10.0480    22.5490     2.1900   -14.2030 
   99.0000    68.0760     8.6430     7.1060    10.5390    22.5930     2.1890   -14.3780 
   99.1250    70.0920     8.7460     7.1580    10.6400    22.6640     2.1840   -14.5740 
   99.2500    71.6700     8.8610     7.2210    10.3230    22.7610     2.1780   -14.7590 
   99.3750    70.0710     8.9780     7.2910    10.0930    22.8560     2.1740   -14.9260 
   99.5000    65.8710     9.0800     7.3580    10.0120    22.9090     2.1720   -15.0970 
   99.6250    63.7780     9.1460     7.4120     9.9860    22.9360     2.1710   -15.2610 
   99.7500    64.6900     9.1650     7.4410     9.7380    22.9980     2.1700   -15.3960 
   99.8750    65.7170     9.1330     7.4390     9.3590    23.0890     2.1690   -15.4620 
  100.0000    63.2840     9.0570     7.4030     9.1580    23.1200     2.1680   -15.4490 
  100.1250    60.2940     8.9680     7.3500     9.1340    23.0900     2.1690   -15.4040 
  100.2500    60.7160     8.8920     7.2980     9.2220    23.0570     2.1710   -15.3660 
  100.3750    63.6090     8.8490     7.2660     9.3640    23.0610     2.1770   -15.3290 
  100.5000    65.3780     8.8470     7.2680     9.5240    23.1260     2.1840   -15.2680 
  100.6250    65.0970     8.8760     7.3040     9.6500    23.2200     2.1920   -15.2020 
  100.7500    63.8290     8.9250     7.3660     9.7830    23.3220     2.1990   -15.1630 
  100.8750    64.1130     8.9810     7.4460     9.9280    23.3960     2.2030   -15.1640 
  101.0000    66.2300     9.0300     7.5270    10.0710    23.4400     2.2050   -15.1830 
  101.1250    68.5030     9.0490     7.5870    10.1710    23.5010     2.2030   -15.1600 
  101.2500    68.4780     9.0170     7.6040    10.2030    23.5540     2.1970   -15.0760 
  101.3750    66.7990     8.9110     7.5580    10.1460    23.5620     2.1860   -14.9700 
  101.5000    65.4030     8.7120     7.4220     9.9810    23.5050     2.1740   -14.8510 
  101.6250    64.1470     8.4420     7.2100     9.7060    23.4070     2.1680   -14.6840 
  101.7500    64.9610     8.1320     6.9440     9.3190    23.3140     2.1700   -14.4330 
  101.8750    68.9470     7.8150     6.6510     8.8170    23.2630     2.1810   -14.1030 
  102.0000    71.8280     7.5120     6.3530     8.3000    23.2580     2.1990   -13.7420 
  102.1250    72.0460     7.2150     6.0610     7.9660    23.2860     2.2170   -13.3950 
  102.2500    72.8890     6.9110     5.7780     7.7660    23.3370     2.2310   -13.0550 
  102.3750    76.7900     6.6050     5.5130     7.5450    23.3860     2.2440   -12.6890 
  102.5000    80.0130     6.3750     5.3180     7.3230    23.4170     2.2570   -12.3190 
  102.6250    80.0620     6.3550     5.2740     7.3370    23.4140     2.2690   -12.0020 
  102.7500    79.1870     6.7040     5.4870     7.7240    23.3980     2.2870   -11.7570 
  102.8750    78.9560     7.5250     6.0490     8.8980    23.4250     2.3150   -11.5800 
  103.0000    77.5290     8.8030     7.0080    11.6650    23.5990     2.3560   -11.4480 
  103.1250    73.2060    10.2070     8.1710    15.5860    23.8770     2.4000   -11.3550 
  103.2500    66.7120    11.3270     9.2490    19.5450    24.0910     2.4290   -11.3320 
  103.3750    61.3840    11.7840     9.9140    21.9400    23.9990     2.4230   -11.3980 
  103.5000    59.7440    11.3030     9.8360    19.2780    23.5580     2.3770   -11.4970 
  103.6250    59.2640    10.1930     9.1540    14.0340    23.0940     2.3140   -11.5310 
  103.7500    59.1020     8.9000     8.1920    10.5010    22.8080     2.2600   -11.4730 
  103.8750    60.3400     7.7660     7.2440     9.1990    22.6870     2.2280   -11.3360 
  104.0000    63.6160     6.9530     6.4830     8.7470    22.6390     2.2240   -11.1040 
  104.1250    66.8650     6.3640     5.8910     8.2400    22.6530     2.2370   -10.7660 
  104.2500    68.9570     5.8920     5.4170     7.4270    22.7850     2.2580   -10.3440 
  104.3750    71.1180     5.5010     5.0350     6.4010    23.1080     2.2810    -9.9060 
  104.5000    73.4930     5.2700     4.7940     5.6870    23.5730     2.3000    -9.5400 
  104.6250    75.8330     5.2850     4.7450     5.4720    23.9460     2.3080    -9.2950 
  104.7500    78.2290     5.5960     4.9210     5.5680    23.9640     2.3060    -9.1850 
  104.8750    79.1620     6.1800     5.3150     5.9240    23.6000     2.2970    -9.2020 
  105.0000    77.5990     6.9040     5.8430     6.7360    23.1210     2.2850    -9.3460 
  105.1250    74.4300     7.4970     6.3120     7.8910    22.8170     2.2770    -9.5920 
