~V
VERS. 2.00: Ver 2.00
~W
STRT.M 57.0000:
STOP.M 283.0000:
STEP.M 0.1250:
NULL. -999.2500:
UWI. F11039:
~C
DEPT.M :
SP.MV :
GR.API :
RML.OHMM :
RI. :
RXO.OHMM :
CALI.CM :
DEN.GM/CC :
~A
# ...
  270.7500    -6.3240    62.6260    11.8650     9.9480    11.8440    24.2440     2.4530 
  270.8750    -6.3430    61.2000    11.8370     9.8940    12.1710    24.2250     2.4550 
  271.0000    -6.3010    59.3940    11.8790     9.9060    13.4830    24.2170     2.4550 
  271.1250    -6.2630    59.3680    11.9780     9.9730    15.2910    24.2200     2.4550 
  271.2500    -6.2590    60.2430    12.1140    10.0750    16.9730    24.2250     2.4530 
  271.3750    -6.2200    61.3960    12.2620    10.1880    16.2730    24.2150     2.4510 
  271.5000    -6.1930    61.9580    12.3960    10.2870    15.6290    24.2270     2.4500 
  271.6250    -6.1980    60.7840    12.4980    10.3580    15.2110    24.2690     2.4510 
  271.7500    -6.1880    59.6660    12.5610    10.3990    14.6440    24.3250     2.4550 
  271.8750    -6.1970    60.7170    12.5880    10.4160    13.3810    24.3520     2.4590 
  272.0000    -6.2310    61.3080    12.6010    10.4270    12.5640    24.3600     2.4610 
  272.1250    -6.2930    59.5410    12.6190    10.4440    12.2360    24.3490     2.4600 
  272.2500    -6.3360    57.9050    12.6540    10.4740    11.7410    24.3070     2.4560 
  272.3750    -6.4020    59.0090    12.7040    10.5140    11.5160    24.2610     2.4550 
  272.5000    -6.4810    59.0090    12.7480    10.5480    11.4610    24.2350     2.4600 
  272.6250    -6.5220    59.0090    12.7710    10.5640    11.5550    24.2230     2.4670 
  272.7500    -6.5520    59.0090    12.7680    10.5570    11.8280    24.2110     2.4700 
  272.8750    -6.5580    59.0090    12.7530    10.5340    12.0560    24.2240     2.4600 
  273.0000    -6.5560    59.0090    12.7510    10.5150    12.1410    24.2520     2.4390 
  273.1250    -6.5390    59.0090    12.7770    10.5160    12.3090    24.3020     2.4140 
  273.2500    -6.5350    59.0090    12.8260    10.5400    12.7340    24.3810     2.3960 
  273.3750    -6.5430    59.0090    12.8690    10.5740    13.2890    24.4510     2.3950 
  273.5000    -6.5420    59.0090    12.8680    10.5870    13.5360    24.4850     2.4060 
  273.6250    -6.5460    59.0090    12.8010    10.5550    13.4730    24.4670     2.4230 
  273.7500    -6.5490    59.0090    12.6720    10.4700    13.2970    24.4310     2.4410 
  273.8750    -6.5540    59.0090    12.5080    10.3420    12.7430    24.4100     2.4590 
  274.0000    -6.5960    59.0090    12.3610    10.2100    12.1220    24.3960     2.4750 
  274.1250    -6.6150    59.0090    12.2630    10.1050    11.7340    24.3850     2.4870 
  274.2500    -6.6180    59.0090    12.2290    10.0490    11.5320    24.3740     2.4890 
  274.3750    -6.6010    59.0090    12.2620    10.0510    11.5400    24.3720     2.4710 
  274.5000    -6.5770    59.0090    12.3270    10.0870    11.6400    24.3550     2.4400 
  274.6250    -6.5570    59.0090    12.3950    10.1350    11.6890    24.3410     2.4060 
  274.7500    -6.5230    59.0090    12.4400    10.1740    11.5270    24.3430     2.3800 
  274.8750    -6.5180    59.0090    12.4370    10.1850    11.1540    24.3830     2.3730 
  275.0000    -6.4990    59.0090    12.3960    10.1710    10.6640    24.4160     2.3790 
  275.1250    -6.4980    59.0090    12.3320    10.1380    10.2320    24.4090     2.3930 
  275.2500    -6.5060    59.0090    12.2630    10.0960     9.8780    24.3470     2.4070 
  275.3750    -6.5540    59.0090    12.2060    10.0520     9.6160    24.3040     2.4180 
  275.5000    -6.6260    59.0090    12.1630    10.0110     9.4230    24.2980     2.4290 
  275.6250    -6.6660    59.0090    12.1310     9.9770     9.3270    24.3180     2.4410 
  275.7500    -6.7090    59.0090    12.1100     9.9480     9.3280    24.3300     2.4550 
  275.8750    -6.7660    59.0090    12.1000     9.9280     9.3400    24.3280     2.4680 
  276.0000    -6.8450    59.0090    12.0960     9.9150     9.3750    24.3150     2.4760 
  276.1250    -6.9500    59.0090    12.0940     9.9090     9.3880    24.2900     2.4790 
  276.2500    -7.0590    59.0090    12.0880     9.9070     9.3320    24.2600     2.4800 
  276.3750    -7.1330    59.0090    12.0790     9.9060     9.3130    24.2430     2.4830 
  276.5000    -7.1760    59.0090    12.0740     9.9060     9.2360    24.2490     2.4910 
  276.6250    -7.2560    59.0090    12.0780     9.9040     8.9970    24.2610     2.5020 
  276.7500    -7.3480    59.0090    12.0900     9.9010     8.4790    24.2620     2.5090 
  276.8750    -7.4030    59.0090    12.1000     9.8980     7.8770    24.2500     2.5010 
  277.0000    -7.4070    59.0090    12.1000     9.8960     7.5930    24.2280     2.4780 
  277.1250    -7.4010    59.0090    12.0880     9.8940     7.6980    24.1920     2.4510 
  277.2500    -7.3800    59.0090    12.0670     9.8940     8.0050    24.1700     2.4300 
  277.3750    -7.3810    59.0090    12.0470     9.8940     8.2480    24.2530     2.4300 
  277.5000    -7.3690    59.0090    12.0330     9.8940     8.3590    24.3640     2.4430 
  277.6250    -7.3390    59.0090    12.0290     9.8950     8.6660    24.4260     2.4590 
  277.7500    -7.3270    59.0090    12.0370     9.8960     9.0910    24.4200     2.4640 
  277.8750    -7.3230    59.0090    12.0520     9.8980     9.7860    24.3760     2.4530 
  278.0000    -7.3590    59.0090    12.0680     9.8990    10.7110    24.3970     2.4400 
  278.1250    -7.3940    59.0090    12.0800     9.9020    11.1990    24.5050     2.4330 
  278.2500    -7.4450    59.0090    12.0860     9.9050    10.3570    24.5820     2.4360 
  278.3750    -7.4990    59.0090    12.0880     9.9060     9.5370    24.4630     2.4450 
  278.5000    -7.5840    59.0090    12.0880     9.9060     9.1910    24.3430     2.4540 
  278.6250    -7.6820    59.0090    12.0880     9.9060     9.1250    24.3090     2.4590 
  278.7500    -7.7650    59.0090    12.0880     9.9060     9.2880    24.3350     2.4630 
  278.8750    -7.8470    59.0090    12.0880     9.9060     9.6540    24.3540     2.4690 
  279.0000    -7.9060    59.0090    12.0880     9.9060    10.0210    24.3550     2.4790 
  279.1250    -7.9460    59.0090    12.0880     9.9060    10.5200    24.3250     2.4880 
  279.2500    -8.1020    59.0090    12.0880     9.9060    11.3790    24.2890     2.4960 
  279.3750    -8.3540    59.0090    12.0880     9.9060    11.9830    24.2740     2.5010 
  279.5000    -8.4870    59.0090    12.0880     9.9060    11.7380    24.2710     2.5060 
  279.6250    -8.6950    59.0090    12.0880     9.9060    11.6060    24.2700     2.5080 
  279.7500    -8.9220    59.0090    12.0880     9.9060    11.6350    24.2690     2.5060 
  279.8750    -9.1660    59.0090    12.0880     9.9060    11.4960    24.2670     2.4950 
  280.0000    -9.3880    59.0090    12.0880     9.9060    11.1660    24.2670     2.4760 
  280.1250    -9.6430    59.0090    12.0880     9.9060    10.7210    24.2660     2.4480 
  280.2500    -9.8410    59.0090    12.0880     9.9060    10.3610    24.2280     2.4150 
  280.3750    -9.8490    59.0090    12.0880     9.9060    10.2270    24.0500     2.3810 
  280.5000    -9.8570    59.0090    12.0880     9.9060     9.8450    23.6120     2.3500 
  280.6250  -999.2500    59.0090    12.0880     9.9060     9.6270    23.3860     2.3230 
  280.7500  -999.2500    59.0090    12.0880     9.9060     7.2410    20.9270     2.3040 
  280.8750  -999.2500    59.0090    12.0880     9.9060     6.0710    18.6390     2.2920 
  281.0000  -999.2500    59.0090    12.0880     9.9060     5.6870    17.6250     2.2860 
  281.1250  -999.2500    59.0090    12.0880     9.9060     5.6130    17.3740     2.2850 
  281.2500  -999.2500    59.0090    12.0880     9.9060     5.6130    17.3690     2.2870 
  281.3750  -999.2500    59.0090    12.0880     9.9060     5.6130    17.3690     2.2910 
  281.5000  -999.2500    59.0090    12.0880     9.9060     5.6120    17.3690     2.2960 
  281.6250  -999.2500    59.0090    12.0880     9.9060     5.6110    17.3680     2.2990 
  281.7500  -999.2500    59.0090    12.0880     9.9060     5.6110    17.3670     2.3020 
  281.8750  -999.2500    59.0090    12.0880     9.9060     5.6110    17.3660     2.3040 
