~V
VERS. 2.00: Ver 2.00
~W
STRT.M 52.0000:
STOP.M 235.0000:
STEP.M 0.1250:
NULL. -999.2500:
UWI. F11014:
~C
DEPT.M :
DEN.GM/CC :
GR.API :
RML.OHMM :
RI. :
RXO.OHMM :
CALI.CM :
SP.MV :
~A
# ...
  119.5000     2.1540    71.6910     8.3150     6.3850     8.6370    24.4180    -4.7900 
  119.6250     2.1690    74.4240     7.8040     6.0380     7.8770    24.5700    -4.6120 
  119.7500     2.1990    79.2410     7.2390     5.6320     6.8530    24.6920    -4.4390 
  119.8750     2.2300    82.7760     6.8100     5.2970     6.2690    24.8520    -4.3110 
  120.0000     2.2490    82.6960     6.6480     5.1280     6.2510    24.9780    -4.2280 
  120.1250     2.2510    78.9180     6.8070     5.1800     6.5700    25.0060    -4.1950 
  120.2500     2.2480    73.0620     7.2930     5.4810     7.1190    24.9920    -4.2580 
  120.3750     2.2450    69.3520     8.0880     6.0520     7.7380    24.9890    -4.4070 
  120.5000     2.2420    68.7490     9.0800     6.8340     8.2380    24.9550    -4.5560 
  120.6250     2.2340    68.8740    10.0940     7.7080     8.6960    24.8230    -4.6960 
  120.7500     2.2190    67.7950    10.9300     8.5130     9.1410    24.6440    -4.8740 
  120.8750     2.2010    66.5470    11.3230     9.0160     9.3750    24.4590    -5.0730 
  121.0000     2.1860    67.0770    11.1640     9.0790     9.4960    24.3220    -5.2180 
  121.1250     2.1800    68.3970    10.5460     8.7350     9.7040    24.2560    -5.2570 
  121.2500     2.1850    68.9620     9.6900     8.1390     9.7900    24.2430    -5.2300 
  121.3750     2.1960    69.1380     8.9100     7.5210     9.1560    24.2740    -5.2110 
  121.5000     2.2100    68.7600     8.4300     7.0660     8.2000    24.2940    -5.1860 
  121.6250     2.2200    66.9740     8.3080     6.8460     7.7510    24.2650    -5.1170 
  121.7500     2.2220    64.5120     8.4760     6.8430     8.1560    24.2100    -5.0310 
  121.8750     2.2140    64.4890     8.7610     6.9690     8.6960    24.1760    -4.9860 
  122.0000     2.1980    65.9110     8.9470     7.0760     8.8460    24.1750    -4.9670 
  122.1250     2.1810    65.2960     8.8890     7.0390     8.5870    24.1860    -4.9200 
  122.2500     2.1730    63.6440     8.5610     6.8070     7.9860    24.1920    -4.8410 
  122.3750     2.1800    65.6200     8.0430     6.4160     7.5660    24.1840    -4.7540 
  122.5000     2.1970    70.4760     7.4850     5.9800     7.4720    24.1750    -4.6570 
  122.6250     2.2160    73.2400     7.0410     5.6180     7.3640    24.1740    -4.5380 
  122.7500     2.2310    72.1700     6.8670     5.4320     7.0230    24.1810    -4.4030 
  122.8750     2.2440    70.4910     7.1920     5.5730     6.9850    24.1800    -4.2650 
  123.0000     2.2520    70.5440     8.1440     6.1430     7.6130    24.1740    -4.1450 
  123.1250     2.2620    71.0670     9.7040     7.1790     9.9340    24.1790    -4.0660 
  123.2500     2.2820    69.1260    11.6680     8.6210    16.1760    24.2120    -4.0330 
  123.3750     2.3220    64.0080    13.4310    10.1380    24.9260    24.2590    -4.0500 
  123.5000     2.3650    59.8630    14.2570    11.1500    28.1800    24.2920    -4.1130 
  123.6250     2.3830    60.5230    13.8300    11.2490    23.5750    24.3000    -4.1910 
  123.7500     2.3610    65.0310    12.4800    10.5180    16.3790    24.2980    -4.2350 
  123.8750     2.3070    69.2940    10.9520     9.4260    11.6400    24.3100    -4.2370 
  124.0000     2.2480    70.1120     9.8100     8.4460     9.7410    24.3250    -4.2470 
  124.1250     2.2030    67.0720     9.1770     7.7760     9.1830    24.3330    -4.2450 
  124.2500     2.1780    63.0400     8.8870     7.3740     9.0150    24.3470    -4.1270 
  124.3750     2.1700    62.8250     8.6440     7.0730     8.7300    24.3830    -3.8850 
  124.5000     2.1710    66.7120     8.2130     6.6970     8.4570    24.4120    -3.6150 
  124.6250     2.1790    71.2540     7.5580     6.1840     8.8250    24.3960    -3.3250 
  124.7500     2.1950    75.2320     6.7930     5.5930     9.7430    24.4000    -2.9830 
  124.8750     2.2070    80.0390     6.1300     5.0610     9.1050    24.5280    -2.6310 
  125.0000     2.2090    85.1060     5.7320     4.7080     7.0540    24.7110    -2.3250 
  125.1250     2.1990    87.8340     5.6650     4.5880     5.8490    24.8520    -2.0790 
  125.2500     2.1860    87.0950     5.9280     4.7110     5.8570    24.9390    -1.9110 
  125.3750     2.1780    83.4580     6.4750     5.0610     6.2850    24.9900    -1.8350 
  125.5000     2.1710    78.4850     7.1530     5.5520     6.8610    24.9720    -1.8420 
  125.6250     2.1650    72.6500     7.7580     6.0480     7.4480    24.8370    -1.9300 
  125.7500     2.1670    66.8940     8.0990     6.4040     7.7990    24.6690    -2.0770 
  125.8750     2.1810    64.9740     8.0110     6.4560     7.7770    24.5850    -2.2030 
  126.0000     2.2020    67.5080     7.5500     6.1910     7.5320    24.5770    -2.2850 
  126.1250     2.2200    71.5820     6.9450     5.7500     7.2160    24.6020    -2.3830 
  126.2500     2.2380    75.3560     6.4430     5.3140     6.6570    24.6510    -2.5010 
  126.3750     2.2620    79.4580     6.2790     5.0700     5.9630    24.7210    -2.5440 
  126.5000     2.2860    82.6030     6.5190     5.1000     6.4260    24.7800    -2.5090 
  126.6250     2.3070    81.6710     7.0700     5.3740     8.9800    24.8030    -2.5000 
  126.7500     2.3200    77.7600     7.7240     5.7770    12.1660    24.8100    -2.5710 
  126.8750     2.3110    74.7590     8.1410     6.0810    11.2100    24.8550    -2.6930 
  127.0000     2.2720    74.8770     8.0830     6.0960     8.6000    24.9100    -2.7890 
  127.1250     2.2210    78.0750     7.5410     5.7750     7.2560    24.8640    -2.8370 
  127.2500     2.1960    83.0730     6.7030     5.2220     6.4070    24.6820    -2.9120 
  127.3750     2.2210    89.0770     5.9210     4.6640     5.7590    24.4840    -3.0540 
  127.5000     2.2760    94.7160     5.5300     4.3320     5.4440    24.3600    -3.1990 
  127.6250     2.3260    98.6210     5.7660     4.3950     5.6230    24.2870    -3.3060 
  127.7500     2.3580    98.7470     6.7890     4.9830     6.3780    24.2480    -3.4150 
  127.8750     2.3790    91.8110     8.7270     6.2610     9.3250    24.2600    -3.5700 
  128.0000     2.3960    79.9070    11.2860     8.1540    17.6290    24.3160    -3.7570 
  128.1250     2.4030    69.4080    13.6830    10.2070    30.7960    24.3480    -3.9420 
  128.2500     2.3860    64.7110    14.9060    11.6240    38.9300    24.3140    -4.1290 
  128.3750     2.3340    64.0620    14.2170    11.5880    32.3720    24.3210    -4.3340 
  128.5000     2.2620    63.2320    12.2040    10.3230    19.9410    24.4770    -4.5230 
  128.6250     2.1940    62.5820     9.9840     8.6560    11.7130    24.7580    -4.6660 
  128.7500     2.1490    65.0230     8.2130     7.1550     8.0100    25.0060    -4.7560 
  128.8750     2.1310    70.5380     7.1100     6.0800     6.5440    25.0810    -4.7920 
  129.0000     2.1420    77.1660     6.5230     5.3950     5.8520    25.0200    -4.7850 
  129.1250     2.1800    84.5030     6.2370     4.9810     5.5290    24.9530    -4.7410 
  129.2500     2.2310    91.3210     6.1320     4.7640     5.4850    24.9320    -4.6750 
  129.3750     2.2720    93.8650     6.1490     4.7050     5.5440    24.9390    -4.6270 
  129.5000     2.2900    92.0650     6.2480     4.7630     5.7030    24.9820    -4.6130 
  129.6250     2.2890    89.1430     6.4100     4.9060     6.0110    25.0450    -4.6050 
  129.7500     2.2790    86.7840     6.6390     5.1240     6.3260    25.0750    -4.5910 
  129.8750     2.2660    84.1790     6.9630     5.4200     6.5320    25.0650    -4.6010 
  130.0000     2.2490    81.3410     7.3820     5.7880     6.9090    25.0810    -4.6880 
  130.1250     2.2250    79.9060     7.8440     6.1990     7.7930    25.1450    -4.8240 
  130.2500     2.1950    80.9160     8.2520     6.5920     8.7200    25.1730    -4.9060 
  130.3750     2.1730    83.8450     8.4820     6.8750     8.9020    25.1090    -4.9220 
  130.5000     2.1690    86.2000     8.4990     7.0030     8.3800    24.9610    -4.9420 
  130.6250     2.1840    86.9170     8.3810     7.0050     7.8140    24.8000    -4.9480 
