~V
VERS. 2.00: Ver 2.00
~W
STRT.M 54.0000:
STOP.M 226.0000:
STEP.M 0.1250:
NULL. -999.2500:
UWI. F11002:
~C
DEPT.M :
GR.API :
RML.OHMM :
RI. :
RXO.OHMM :
CALI.CM :
DEN.GM/CC :
SP.MV :
~A
# ...
  177.7500    55.4170     7.4840     5.9440     5.3490    24.6530     2.3610   -14.2680 
  177.8750    56.2610     7.3480     5.7560     5.3960    24.2890     2.3570   -14.5990 
  178.0000    54.9460     7.2830     5.6520     5.2800    24.2050     2.3570   -14.9670 
  178.1250    53.9420     7.2900     5.6520     5.3810    24.3580     2.3630   -15.3530 
  178.2500    53.3520     7.3630     5.7340     5.5820    24.4800     2.3740   -15.7560 
  178.3750    53.7290     7.4950     5.8600     5.6800    24.4870     2.3890   -16.2250 
  178.5000    56.3310     7.6510     5.9800     5.6730    24.5340     2.4000   -16.7720 
  178.6250    59.8670     7.7890     6.0700     5.5640    24.6760     2.4030   -17.2940 
  178.7500    63.4540     7.8610     6.1200     5.4770    24.8660     2.3940   -17.6130 
  178.8750    68.1560     7.8110     6.1190     5.4620    24.7480     2.3820   -17.5840 
  179.0000    73.9200     7.6620     6.0710     5.4020    24.4440     2.3810   -17.4350 
  179.1250    78.3480     7.4620     5.9800     5.2710    24.2310     2.3950   -17.2670 
  179.2500    80.8830     7.2570     5.8640     5.2280    24.1660     2.4080   -16.9980 
  179.3750    83.3540     7.0750     5.7340     5.1590    24.0450     2.3770   -16.4010 
  179.5000    86.8500     6.9180     5.5910     5.1320    23.9720     2.2870   -15.4580 
  179.6250    88.5320     6.7910     5.4380     5.0350    24.1220     2.1580   -14.3070 
  179.7500    84.6690     6.7120     5.2810     4.7840    24.6780     2.0420   -13.1030 
  179.8750    77.7590     6.7060     5.1390     4.6130    25.1380     2.0090   -12.0210 
  180.0000    73.7180     6.7560     5.0450     4.6340    24.7310     2.0600   -11.0140 
  180.1250    74.1370     6.8400     5.0400     4.9050    23.8370     2.1640   -10.0540 
  180.2500    77.7790     6.9440     5.1560     5.2180    23.2710     2.2720    -9.2670 
  180.3750    84.4380     7.0900     5.3940     5.3250    23.4050     2.3450    -8.7670 
  180.5000    92.0360     7.3110     5.6960     5.5910    23.8360     2.3830    -8.5940 
  180.6250    97.3630     7.6370     6.0330     6.2210    24.1740     2.3970    -8.7650 
  180.7500    97.2820     8.0800     6.3970     6.7510    24.2690     2.3970    -9.1240 
  180.8750    94.6550     8.6480     6.8070     7.1110    24.2230     2.3930    -9.4980 
  181.0000    94.7100     9.2980     7.2570     7.3510    24.1660     2.3900    -9.8910 
  181.1250    97.6830    10.0050     7.7230     7.7900    24.1380     2.3930   -10.3080 
  181.2500    98.5740    10.7350     8.1720     8.6180    24.1150     2.3990   -10.7220 
  181.3750    95.9430    11.4300     8.5820     9.4840    24.0640     2.4050   -11.0980 
  181.5000    94.9150    12.0450     8.9670    10.0160    24.0420     2.4100   -11.3730 
  181.6250    97.2060    12.5440     9.3310    10.4200    24.0350     2.4110   -11.4970 
  181.7500   100.6060    12.8940     9.6450    10.7900    24.0260     2.4090   -11.5380 
  181.8750   100.2290    13.0370     9.8470    10.6240    24.0100     2.4050   -11.6350 
  182.0000    94.7140    12.9970     9.9230    10.1120    24.0140     2.4000   -11.7670 
  182.1250    87.5610    12.8120     9.8870     9.8220    24.0530     2.3950   -11.8950 
  182.2500    84.0950    12.5660     9.7920     9.9780    24.0550     2.3920   -11.9710 
  182.3750    87.2650    12.3760     9.7090     9.8430    24.0270     2.3910   -11.9890 
  182.5000    91.1110    12.2850     9.6730     9.7060    24.0150     2.3900   -11.9550 
  182.6250    92.1120    12.2540     9.6650     9.4970    23.9490     2.3900   -11.8340 
  182.7500    91.3880    12.1980     9.6470     9.7430    23.7710     2.3920   -11.6350 
  182.8750    91.6060    12.0370     9.6000    10.2530    23.5540     2.3960   -11.4080 
  183.0000    92.3110    11.8200     9.5680    10.0810    23.4610     2.4030   -11.1690 
  183.1250    91.7480    11.6530     9.6140     9.2990    23.4270     2.4130   -10.8710 
  183.2500    91.2480    11.6440     9.7760     8.9060    23.3870     2.4210   -10.5220 
  183.3750    93.2640    11.8640    10.0500     9.2580    23.3510     2.4240   -10.2450 
  183.5000    95.5330    12.2050    10.3540    10.1790    23.3930     2.4180   -10.0950 
  183.6250    96.1230    12.5380    10.6370    10.7070    23.5420     2.4060   -10.0270 
  183.7500    94.3060    12.7390    10.8670    11.4610    23.7410     2.3950    -9.9660 
  183.8750    91.4400    12.7100    11.0030    10.1970    23.9420     2.3900    -9.8520 
  184.0000    87.9450    12.5280    11.0550     9.6910    24.0150     2.3910    -9.7680 
  184.1250    84.0340    12.3000    11.0530    10.2040    24.0260     2.3940    -9.7710 
  184.2500    82.8700    12.1350    11.0570    11.9360    24.0180     2.3930    -9.7840 
  184.3750    86.9670    12.1370    11.1630    10.6090    24.0220     2.3860    -9.6910 
  184.5000    92.1700    12.2900    11.3930     9.5330    24.0170     2.3780    -9.5390 
  184.6250    94.9080    12.5320    11.6990     9.9660    24.0140     2.3760    -9.4060 
  184.7500    94.0800    12.7530    11.9690    11.1720    24.0230     2.3790    -9.3830 
  184.8750    90.9380    12.7980    12.0710    11.6850    24.0290     2.3870    -9.4540 
  185.0000    89.3910    12.6290    11.9840    10.8980    24.0170     2.3930    -9.4900 
  185.1250    90.0780    12.2820    11.7430     9.5780    23.9620     2.3950    -9.4380 
  185.2500    91.5740    11.8520    11.4190     8.0490    23.8510     2.3910    -9.3700 
  185.3750    93.7770    11.4340    11.0570     8.0580    23.8160     2.3870    -9.3190 
  185.5000    97.5400    11.0620    10.6590     8.9560    23.9060     2.3840    -9.1830 
  185.6250    98.9990    10.7540    10.2310     9.8470    24.0460     2.3860    -8.9350 
  185.7500    94.1840    10.6100     9.8700    10.2840    24.1860     2.3920    -8.5940 
  185.8750    87.9120    11.0370     9.8800     9.5590    24.2360     2.4020    -8.2200 
  186.0000    85.6960    12.5270    10.6080     9.2540    24.2050     2.4120    -7.8890 
  186.1250    84.8860    15.9210    12.7050     9.7720    24.1000     2.4130    -7.6400 
  186.2500    81.4430    22.9860    17.4460    12.6370    23.9110     2.4010    -7.5520 
  186.3750    74.3460    37.8990    28.5180    23.3870    23.7100     2.3710    -7.6250 
  186.5000    68.0470    62.9050    49.0180    49.1570    23.6370     2.3360    -7.7850 
  186.6250    64.1720    99.3990    81.5700    83.1560    23.6810     2.3040    -7.9990 
  186.7500    61.0380   143.7630   123.1890   115.4230    23.8180     2.2820    -8.2900 
  186.8750    58.3000   183.4930   159.1110   135.8640    24.2080     2.2690    -8.7020 
  187.0000    57.7000   207.9070   177.8950   162.0820    24.7710     2.2570    -9.1440 
  187.1250    59.4830   216.6890   182.2020   182.1870    25.2370     2.2450    -9.5220 
  187.2500    62.7760   217.5640   181.1760   199.6440    25.4350     2.2330    -9.7650 
  187.3750    65.7490   219.2730   182.1660   196.3500    25.4610     2.2240    -9.9690 
  187.5000    66.2680   224.0760   186.2900   195.9020    25.4620     2.2160   -10.2700 
  187.6250    63.1850   229.6990   191.7960   213.6080    25.4640     2.2070   -10.7790 
  187.7500    59.4410   232.6120   195.9130   232.3690    25.4680     2.1990   -11.4540 
  187.8750    60.3560   229.0440   195.1570   233.6810    25.4520     2.1960   -12.2270 
  188.0000    63.4780   220.1000   189.5430   220.4600    25.3700     2.1990   -13.0680 
  188.1250    65.7620   208.4780   180.8180   198.4070    25.2080     2.2070   -13.9330 
  188.2500    64.9470   197.5960   171.9190   170.7490    25.0780     2.2140   -14.6950 
  188.3750    63.0030   190.8500   166.2700   157.0470    25.0290     2.2130   -15.1980 
  188.5000    62.3000   188.6150   164.8620   145.9240    25.0490     2.2050   -15.4490 
  188.6250    61.0950   190.3470   167.5390   151.2070    25.0960     2.1960   -15.4030 
  188.7500    58.1310   194.6450   173.0860   172.4930    25.1140     2.1900   -15.1410 
  188.8750    55.8120   199.4050   179.3630   200.0170    25.0590     2.1930   -14.7050 
