~V
VERS. 2.00: Ver 2.00
~W
STRT.M 62.0000:
STOP.M 273.0000:
STEP.M 0.1250:
NULL. -999.2500:
UWI. F11050:
~C
DEPT.M :
SP.MV :
GR.API :
RML.OHMM :
RI. :
RXO.OHMM :
CALI.CM :
DEN.GM/CC :
~A
   62.0000    41.0940    53.0270     0.2170     0.2040     0.2150    25.2830     2.2080 
   62.1250    40.2840    55.4570     0.2160     0.2010     0.2130    25.3200     2.2560 
   62.2500    39.1640    57.5760     0.2130     0.2220     0.2110    25.3110     2.3190 
   62.3750    37.6080    57.7430     0.2080     0.2510     0.2090    25.2980     2.3960 
   62.5000    35.5910    56.8810     0.2110     0.2550     0.2080    25.2800     2.4910 
   62.6250    33.1890    57.0290     0.2650     0.3670     0.3470    25.2320     2.5980 
   62.7500    30.3890    58.1130     0.4860     0.1450     0.6740    25.1620     2.6590 
   62.8750    27.1370    59.9450     1.3590     0.1230     1.3240    25.3630     2.5940 
   63.0000    23.5150    65.1860     1.9380     0.2530     2.8420    26.2360     2.4050 
   63.1250    19.7120    74.5670     2.9940     0.6220     3.8840    27.4680     2.2090 
   63.2500    15.9790    83.0390     4.6530     1.2990     4.7890    27.6000     2.1050 
   63.3750    12.4420    88.6570     6.5250     2.3020     6.2120    26.3810     2.1000 
   63.5000     9.1080    92.3760     7.7570     3.4400     8.7060    24.8760     2.1600 
   63.6250     6.0520    95.7560     7.6900     4.3020     9.3150    24.1690     2.2230 
   63.7500     3.4630    98.3900     7.1150     4.7830     7.5450    23.9340     2.2580 
   63.8750     1.3280   100.3390     6.6290     4.9950     6.6820    23.8840     2.2760 
   64.0000    -0.4600   100.9980     6.4060     5.0710     6.5880    23.8780     2.2980 
   64.1250    -1.9530    97.9030     6.4760     5.1430     6.2390    23.9810     2.3300 
   64.2500    -3.3060    94.1890     6.8350     5.3540     6.5920    24.0800     2.3590 
   64.3750    -4.5400    91.7270     7.5250     5.7930     7.5970    24.2270     2.3600 
   64.5000    -5.6330    89.7610     8.5540     6.4750     8.0510    24.4140     2.3290 
   64.6250    -6.7400    88.8390     9.8790     7.3440     8.7410    24.5940     2.2920 
   64.7500    -7.9420    88.7830    11.1970     8.1890    10.7070    24.5510     2.2690 
   64.8750    -9.0980    87.0850    12.1380     8.7960    12.8560    24.3650     2.2510 
   65.0000   -10.1650    81.3980    12.4260     9.0250    11.6040    24.1450     2.2210 
   65.1250   -11.1530    75.7670    12.0530     8.8680    10.5660    24.0000     2.1940 
   65.2500   -12.0680    74.5940    11.4820     8.5660     9.6850    23.9720     2.1830 
   65.3750   -12.9370    75.2230    11.0190     8.2890     9.5420    23.9910     2.1820 
   65.5000   -13.7760    75.5370    10.8350     8.1500     9.8070    24.0160     2.1790 
   65.6250   -14.3660    74.6690    10.9540     8.2020     9.9730    24.0200     2.1730 
   65.7500   -14.7720    71.3540    11.1760     8.3440    10.0480    24.0530     2.1700 
   65.8750   -15.1740    65.8080    11.3690     8.4850     9.9680    24.0990     2.1700 
   66.0000   -15.5000    62.7960    11.4690     8.5600     9.9140    24.1250     2.1710 
   66.1250   -15.6720    64.3500    11.4600     8.5310     9.8220    24.1290     2.1720 
   66.2500   -15.7250    65.2000    11.3950     8.4290     9.7520    24.1240     2.1750 
   66.3750   -15.6450    64.8510    11.3040     8.2780     9.6810    24.1150     2.1780 
   66.5000   -15.4430    66.4800    11.1910     8.1010     9.5430    24.0730     2.1820 
   66.6250   -15.3120    71.8200    11.0220     7.9040     9.4680    24.0250     2.1910 
   66.7500   -15.1910    75.9040    10.7940     7.6940     9.2520    24.0320     2.2020 
   66.8750   -14.9510    78.3370    10.5470     7.4970     8.9900    24.0980     2.2140 
   67.0000   -14.7010    81.2980    10.3510     7.3580     9.0600    24.1520     2.2300 
   67.1250   -14.5450    83.4460    10.3190     7.3480     8.8120    24.1340     2.2530 
   67.2500   -14.5080    82.4270    10.4940     7.4810     8.4090    24.1030     2.2760 
   67.3750   -14.6170    77.7070    10.8720     7.7570     8.6570    24.0990     2.2840 
   67.5000   -14.8820    72.7000    11.3860     8.1310     9.3670    24.1230     2.2730 
   67.6250   -15.2000    70.2680    11.9090     8.5220    10.2890    24.0970     2.2570 
   67.7500   -15.5270    69.4800    12.3190     8.8450    10.7300    24.0450     2.2540 
   67.8750   -15.9230    70.6170    12.5640     9.0640    10.7490    23.9850     2.2640 
   68.0000   -16.3810    73.6760    12.6580     9.1850    10.4960    23.9410     2.2790 
   68.1250   -16.8670    80.5600    12.6450     9.2270    10.2490    23.9180     2.2930 
   68.2500   -17.3190    89.7750    12.5640     9.2230     9.9560    23.8950     2.3010 
   68.3750   -17.6940    97.0780    12.3950     9.1670     9.7630    23.8870     2.2990 
   68.5000   -17.9340    97.8310    12.1210     9.0400     9.8950    23.9220     2.2820 
   68.6250   -18.0530    91.5770    11.7740     8.8280    10.1040    23.9980     2.2540 
   68.7500   -18.2410    84.5150    11.4790     8.6000    10.2350    24.0730     2.2290 
   68.8750   -18.4390    78.9100    11.3240     8.4250    10.3210    24.1290     2.2140 
   69.0000   -18.5480    74.6660    11.3250     8.3500    10.4390    24.1650     2.2100 
   69.1250   -18.5430    72.9770    11.4210     8.3770    10.5980    24.2030     2.2250 
   69.2500   -18.4670    73.4860    11.4790     8.4230    11.1210    24.1930     2.2560 
   69.3750   -18.3550    75.2420    11.4210     8.4110    11.7320    24.1180     2.2880 
   69.5000   -18.2830    77.6760    11.2400     8.2950    11.1680    24.0250     2.2920 
   69.6250   -18.3310    78.0850    10.9940     8.0830    10.4870    23.9860     2.2580 
   69.7500   -18.3580    73.3840    10.7470     7.8480    10.2060    23.9810     2.2240 
   69.8750   -18.3390    65.1780    10.4940     7.6180    10.1800    23.9880     2.2090 
   70.0000   -18.3290    60.3580    10.2050     7.4030    10.1770    23.9950     2.2090 
   70.1250   -18.3530    63.5370     9.9380     7.2430    10.1170    23.9940     2.2190 
   70.2500   -18.4160    68.2620     9.8720     7.2100     9.9790    23.9780     2.2370 
   70.3750   -18.5250    71.7880    10.1690     7.3910     9.8650    23.9360     2.2610 
   70.5000   -18.6800    76.4870    10.8720     7.8250    10.0400    23.8470     2.2910 
   70.6250   -18.7340    79.9460    11.8440     8.4740    12.3100    23.7340     2.3280 
   70.7500   -18.7030    78.3000    12.6620     9.0940    18.5070    23.5910     2.3660 
   70.8750   -18.7270    73.6230    12.9510     9.4260    24.4970    23.4440     2.3840 
   71.0000   -18.8180    70.7670    12.5640     9.3180    20.1490    23.3910     2.3580 
   71.1250   -18.9480    70.8640    11.7240     8.8340    12.6990    23.4710     2.2910 
   71.2500   -19.0760    71.5610    10.9650     8.3060    10.3980    23.6110     2.2350 
   71.3750   -19.1710    72.6560    10.5550     7.9230    10.5390    23.6860     2.2090 
   71.5000   -19.1870    72.3610    10.5500     7.7690    12.7030    23.6530     2.2050 
   71.6250   -19.1870    68.8610    10.8250     7.8330    15.5170    23.5440     2.2080 
   71.7500   -19.2620    66.7820    11.0770     7.9570    14.6060    23.4140     2.2080 
   71.8750   -19.3610    68.7100    11.1530     8.0330    11.5740    23.3610     2.2050 
   72.0000   -19.4230    71.9910    11.0580     8.0300    10.0950    23.3610     2.1980 
   72.1250   -19.4250    72.2090    10.9040     7.9760    10.0290    23.3530     2.1950 
   72.2500   -19.3970    69.7890    10.7970     7.9270    10.0300    23.3550     2.1970 
   72.3750   -19.3640    67.8150    10.7620     7.9070    10.0660    23.3770     2.2030 
   72.5000   -19.3890    66.9800    10.7710     7.9070    10.1910    23.4440     2.2110 
   72.6250   -19.5140    66.7750    10.7720     7.9080    10.2240    23.5490     2.2180 
   72.7500   -19.5680    67.7700    10.7500     7.9000    10.1970    23.6520     2.2200 
   72.8750   -19.5220    69.3530    10.7170     7.8880    10.1150    23.7190     2.2140 
   73.0000   -19.4600    70.2840    10.6830     7.8700    10.0560    23.7980     2.2000 
   73.1250   -19.4330    68.6240    10.6380     7.8240     9.9980    23.8500     2.1840 
