~V
VERS. 2.00: Ver 2.00
~W
STRT.M 62.0000:
STOP.M 218.0000:
STEP.M 0.1250:
NULL. -999.2500:
UWI. F11008:
~C
DEPT.M :
DEN.GM/CC :
GR.API :
RML.OHMM :
RI. :
RXO.OHMM :
CALI.CM :
SP.MV :
~A
# ...
  174.5000     2.4750    64.6140    62.3550    61.5780    53.5020    23.8940   -12.4150 
  174.6250     2.4210    70.8470    53.1000    51.2990    55.8650    24.0730   -12.1830 
  174.7500     2.3850    72.7590    48.4760    45.7520    41.4090    23.9330   -11.9700 
  174.8750     2.3720    68.7300    47.7120    44.5740    29.5170    23.8460   -11.7840 
  175.0000     2.3890    63.3530    49.1350    46.4820    25.7090    24.1240   -11.7070 
  175.1250     2.4400    60.5450    49.9150    48.5860    34.8420    24.5310   -11.7240 
  175.2500     2.5100    58.8970    47.6880    47.4620    51.6620    24.6230   -11.7100 
  175.3750     2.5800    58.2140    41.8290    41.8070    71.4320    24.4910   -11.7510 
  175.5000     2.6320    59.6130    33.5030    32.9410    68.8610    24.3300   -11.9270 
  175.6250     2.6500    61.5730    25.2020    24.1130    34.9090    24.1740   -12.1130 
  175.7500     2.6420    62.3150    18.8480    17.5730    16.4080    24.0340   -12.2570 
  175.8750     2.6170    61.9340    14.8620    13.5470    11.3660    23.9480   -12.4370 
  176.0000     2.5820    60.9630    12.8120    11.4130    12.0180    23.9010   -12.5920 
  176.1250     2.5370    60.7190    12.0970    10.5700    14.0710    23.8010   -12.6650 
  176.2500     2.4840    61.7250    11.9010    10.2860    15.0400    23.7130   -12.7910 
  176.3750     2.4290    63.5500    11.9120    10.2610    13.7670    23.7470   -12.9840 
  176.5000     2.3880    64.8880    11.9800    10.3100    11.8330    23.9300   -13.1720 
  176.6250     2.3830    63.6160    12.0700    10.3680     9.9240    24.2180   -13.4220 
  176.7500     2.4100    60.1260    12.1660    10.4690     8.3050    24.5280   -13.7760 
  176.8750     2.4560    58.0280    12.2340    10.6600     7.2630    24.7730   -14.1490 
  177.0000     2.5000    60.2090    12.2780    10.9590     9.3500    24.9860   -14.5450 
  177.1250     2.5220    63.9560    12.3580    11.3410    12.9830    25.0030   -15.0230 
  177.2500     2.5270    64.7140    12.4760    11.7280    14.8210    24.8920   -15.5100 
  177.3750     2.5250    64.2730    12.5900    12.0720    14.3690    24.7580   -15.9510 
  177.5000     2.5260    65.1880    12.7340    12.3610    13.9020    24.6990   -16.3580 
  177.6250     2.5380    66.5530    13.0180    12.6150    15.4330    24.6860   -16.7610 
  177.7500     2.5540    65.3760    13.4000    12.8750    18.6360    24.6290   -17.0840 
  177.8750     2.5680    63.7800    13.7670    13.1460    20.5580    24.4750   -17.3070 
  178.0000     2.5690    64.8050    14.0440    13.3980    17.7210    24.2800   -17.4870 
  178.1250     2.5420    66.2060    14.2030    13.5570    15.5100    24.2180   -17.6110 
  178.2500     2.4900    64.1250    14.2610    13.5880    15.4960    24.3670   -17.6640 
  178.3750     2.4200    59.7650    14.2250    13.4850    17.1180    24.3550   -17.7080 
  178.5000     2.3500    58.8560    14.1090    13.2780    18.8680    24.0680   -17.7440 
  178.6250     2.3040    62.3560    13.8890    12.9970    16.6180    23.8090   -17.6630 
  178.7500     2.2850    64.4200    13.5640    12.6720    13.3700    23.7000   -17.5570 
  178.8750     2.2910    62.8270    13.1370    12.3000    12.0530    23.5570   -17.5210 
  179.0000     2.3070    58.7500    12.6530    11.8760    11.8840    23.3830   -17.4630 
  179.1250     2.3230    55.9100    12.2180    11.4320    12.8590    23.2480   -17.3640 
  179.2500     2.3380    55.0050    11.9390    11.0480    12.6240    23.2040   -17.3500 
  179.3750     2.3530    56.2590    11.8950    10.8150    11.4670    23.2950   -17.3590 
  179.5000     2.3660    58.4690    12.1160    10.8030    10.4380    23.4260   -17.3590 
  179.6250     2.3670    60.2800    12.5950    11.0740    10.6510    23.4290   -17.4370 
  179.7500     2.3500    62.1720    13.1820    11.5260    11.8710    23.3720   -17.5330 
  179.8750     2.3200    64.0510    13.7550    12.0560    13.7180    23.3280   -17.5790 
  180.0000     2.2930    66.5980    14.2200    12.5480    16.4060    23.3440   -17.6580 
  180.1250     2.2950    69.5130    14.5190    12.9000    18.0080    23.3850   -17.8150 
  180.2500     2.3290    70.1450    14.7100    13.1200    16.7530    23.3760   -17.8900 
  180.3750     2.3820    66.2490    14.8400    13.2450    14.3310    23.3820   -17.9010 
  180.5000     2.4350    59.8380    14.9320    13.3170    13.5600    23.4050   -17.9570 
  180.6250     2.4620    56.3190    14.9710    13.3440    15.4190    23.4060   -18.0030 
  180.7500     2.4610    55.8880    14.9400    13.3140    19.7700    23.4800   -17.9850 
  180.8750     2.4390    56.9270    14.8210    13.1960    23.7150    23.6160   -17.9940 
  181.0000     2.4100    56.7580    14.6070    12.9720    22.9130    23.6860   -18.0300 
  181.1250     2.3870    54.9220    14.2920    12.6420    20.5320    23.6700   -17.9860 
  181.2500     2.3730    55.1110    13.9240    12.2690    21.6280    23.6190   -17.9450 
  181.3750     2.3630    57.7160    13.5470    11.9110    20.6530    23.5400   -17.9590 
  181.5000     2.3490    59.4520    13.2100    11.6180    16.1160    23.4880   -17.9210 
  181.6250     2.3250    59.5240    12.9570    11.4390    12.2290    23.4840   -17.8750 
  181.7500     2.2990    61.5930    12.7760    11.3510    10.8540    23.5220   -17.8990 
  181.8750     2.2850    64.5940    12.6430    11.3180    11.1170    23.6170   -17.9140 
  182.0000     2.2910    64.7820    12.5320    11.2820    13.0590    23.7880   -17.9020 
  182.1250     2.3200    64.0500    12.4290    11.1700    13.8720    23.9270   -17.9400 
  182.2500     2.3560    65.9350    12.3310    10.9730    12.5990    23.9500   -18.0060 
  182.3750     2.3880    67.7100    12.2430    10.7220    11.5150    23.8960   -18.0760 
  182.5000     2.4110    65.9120    12.1730    10.4830    10.6850    23.8640   -18.2260 
  182.6250     2.4200    62.5440    12.1530    10.3520    10.0560    23.8110   -18.4470 
  182.7500     2.4130    61.1980    12.2160    10.3620    10.1050    23.8300   -18.6900 
  182.8750     2.3890    60.4940    12.3870    10.5120    10.6260    23.9370   -19.0150 
  183.0000     2.3550    57.8550    12.6620    10.7600    11.1240    24.1110   -19.3790 
  183.1250     2.3220    54.8980    12.9990    11.0440    12.3590    24.3320   -19.7260 
  183.2500     2.3010    54.3640    13.3310    11.3150    13.2400    24.4770   -20.0900 
  183.3750     2.2980    55.6410    13.6460    11.5870    13.9510    24.5580   -20.4410 
  183.5000     2.3140    56.1570    13.9710    11.9110    14.1350    24.6160   -20.6790 
  183.6250     2.3500    56.4080    14.3110    12.3350    13.3660    24.5630   -20.7660 
  183.7500     2.3980    59.5810    14.5530    12.7570    12.8080    24.3600   -20.7740 
  183.8750     2.4480    64.4540    14.5000    12.9600    14.0690    24.1150   -20.6630 
  184.0000     2.4810    65.2380    13.9600    12.6940    16.9770    23.9550   -20.4410 
  184.1250     2.4810    62.4050    12.7660    11.7550    17.5910    23.9440   -20.1880 
  184.2500     2.4530    64.5180    11.1830    10.4220    13.8070    23.9730   -19.8710 
  184.3750     2.4130    73.5950     9.5530     9.0190     9.0930    24.0530   -19.5400 
  184.5000     2.3790    82.7150     8.2330     7.8360     7.0700    24.2560   -19.3550 
  184.6250     2.3680    89.1330     7.5100     7.0880     6.9040    24.4960   -19.3520 
  184.7500     2.3740    97.5040     7.2260     6.6980     7.1350    24.9010   -19.4890 
  184.8750     2.3860   106.6570     7.1950     6.5710     7.3880    25.4230   -19.8230 
  185.0000     2.3920   111.9270     7.2630     6.5940     7.1550    25.4990   -20.3380 
  185.1250     2.3920   113.4770     7.3450     6.6700     6.3020    24.8140   -21.0820 
  185.2500     2.3920   115.3800     7.4220     6.7430     5.5000    24.2300   -22.1260 
  185.3750     2.4000   117.3250     7.5110     6.8150     5.0700    24.0500   -23.3850 
  185.5000     2.4160   117.0680     7.6250     6.9080     5.4200    24.2330   -24.7140 
  185.6250     2.4260   111.2360     7.7510     7.0330     6.4480    24.6280   -26.0700 
