~V
VERS. 2.00: Ver 2.00
~W
STRT.M 50.0000:
STOP.M 278.0000:
STEP.M 0.1250:
NULL. -999.2500:
UWI. F11029:
~C
DEPT.M :
SP.MV :
DEN.GM/CC :
GR.API :
RML.OHMM :
RI. :
RXO.OHMM :
CALI.CM :
~A
# ...
  252.5000    -2.5560     2.4780    62.9260    11.3030     9.6870    15.0620    24.0390 
  252.6250    -2.7410     2.4630    63.1230    11.7100    10.0770    15.0170    24.0490 
  252.7500    -2.9950     2.4500    63.8890    12.1440    10.4960    14.1780    23.9550 
  252.8750    -3.1440     2.4460    63.2770    12.5530    10.9140    13.6160    23.8220 
  253.0000    -3.2050     2.4520    62.2250    12.8660    11.2670    13.1200    23.8680 
  253.1250    -3.3320     2.4600    60.6510    13.0100    11.4580    11.5880    23.9890 
  253.2500    -3.5010     2.4610    59.7250    13.0260    11.4890    10.9520    24.0800 
  253.3750    -3.6260     2.4560    61.3760    12.9850    11.4060    11.1410    24.0980 
  253.5000    -3.7200     2.4530    64.8970    12.9820    11.3010    11.4410    24.0310 
  253.6250    -3.6770     2.4590    65.4140    13.1070    11.2890    10.5440    23.9010 
  253.7500    -3.5080     2.4710    61.9690    13.3550    11.4150    10.0890    23.8460 
  253.8750    -3.4000     2.4830    58.9410    13.6930    11.6770    10.9630    23.8930 
  254.0000    -3.3590     2.4910    59.4900    14.0760    12.0440    13.3910    23.9790 
  254.1250    -3.1690     2.4980    61.4130    14.4640    12.4830    16.8850    24.0230 
  254.2500    -2.8610     2.5070    62.2550    14.8320    12.9380    20.7670    23.9590 
  254.3750    -2.5300     2.5200    63.4040    15.1590    13.3680    23.4270    23.7460 
  254.5000    -2.1030     2.5320    65.9110    15.4100    13.7300    27.4640    23.6180 
  254.6250    -1.6670     2.5370    67.1060    15.5120    13.9480    31.4780    23.8790 
  254.7500    -1.4310     2.5320    64.8920    15.4380    13.9910    30.7920    24.0610 
  254.8750    -1.2430     2.5140    61.5540    15.1670    13.8240    27.0140    24.0880 
  255.0000    -1.0320     2.4860    60.8970    14.7160    13.4490    24.0540    24.0610 
  255.1250    -0.9750     2.4510    61.7290    14.1310    12.8930    19.5990    24.0450 
  255.2500    -0.9910     2.4170    60.0190    13.5320    12.2810    16.6560    24.0870 
  255.3750    -1.0360     2.3940    57.0390    13.0090    11.7120    13.6710    24.1460 
  255.5000    -1.2290     2.3860    56.6160    12.6370    11.2690    11.8360    24.1770 
  255.6250    -1.4800     2.3950    59.5820    12.4920    11.0420    11.8570    24.1240 
  255.7500    -1.5730     2.4160    62.7010    12.5410    11.0220    12.2430    24.0690 
  255.8750    -1.6560     2.4410    64.8100    12.7530    11.2000    12.4900    24.0500 
  256.0000    -1.7640     2.4670    65.7050    13.0760    11.5370    12.5540    24.0700 
  256.1250    -1.7580     2.4890    66.0820    13.4270    11.9630    13.4520    24.0860 
  256.2500    -1.7550     2.5050    66.5300    13.6960    12.3450    13.7780    24.0830 
  256.3750    -1.7180     2.5120    64.5290    13.7990    12.5780    14.0070    24.0870 
  256.5000    -1.6250     2.5060    59.6330    13.6940    12.5970    13.8590    24.0840 
  256.6250    -1.5970     2.4910    57.3540    13.3870    12.3840    13.7300    24.1400 
  256.7500    -1.5340     2.4740    60.8330    13.0190    12.0590    13.5040    24.1790 
  256.8750    -1.3850     2.4630    66.7380    12.6990    11.7290    13.6430    24.1690 
  257.0000    -1.2320     2.4650    68.8440    12.4990    11.4820    13.2720    24.1450 
  257.1250    -1.1280     2.4810    65.8350    12.4470    11.3740    12.4070    23.9350 
  257.2500    -1.0490     2.5020    63.4910    12.4680    11.3680    12.0780    23.7080 
  257.3750    -0.9980     2.5210    64.4190    12.5010    11.4220    12.5070    23.7230 
  257.5000    -0.9030     2.5300    65.4440    12.4890    11.4830    13.5000    24.0080 
  257.6250    -0.7180     2.5270    63.2430    12.3670    11.4680    13.9500    24.1970 
  257.7500    -0.5740     2.5170    60.9890    12.1320    11.3260    16.3160    24.3230 
  257.8750    -0.5250     2.5060    60.2300    11.8190    11.0560    19.3240    24.3860 
  258.0000    -0.5050     2.4950    60.8510    11.5020    10.7210    17.5230    24.3430 
  258.1250    -0.5320     2.4860    60.9850    11.3170    10.4520    11.6360    24.1390 
  258.2500    -0.5880     2.4790    59.0300    11.3390    10.3640     8.2820    23.8550 
  258.3750    -0.7150     2.4770    56.8730    11.5910    10.5160     7.3820    23.7520 
  258.5000    -0.9440     2.4810    55.2690    12.0260    10.9030     7.6050    23.8260 
  258.6250    -1.1390     2.4890    55.3980    12.5440    11.4560     8.4440    23.9130 
  258.7500    -1.3150     2.4930    57.8450    13.0050    12.0100     9.1270    23.8660 
  258.8750    -1.3920     2.4910    62.1200    13.3380    12.4480    10.8520    23.6670 
  259.0000    -1.4080     2.4810    66.3380    13.5270    12.7170    12.8730    23.6100 
  259.1250    -1.4000     2.4690    66.9560    13.5900    12.8230    13.2630    23.8280 
  259.2500    -1.2880     2.4580    65.1380    13.5920    12.8600    14.1230    23.9450 
  259.3750    -1.0420     2.4500    63.5540    13.5510    12.8630    16.0500    24.0100 
  259.5000    -0.6660     2.4500    64.6110    13.4670    12.8290    17.1230    24.0620 
  259.6250    -0.3630     2.4580    66.7170    13.3290    12.7350    16.1320    24.0870 
  259.7500    -0.2570     2.4720    67.0820    13.1610    12.5920    15.2020    24.0730 
  259.8750    -0.3610     2.4880    67.0280    12.9880    12.4160    14.7900    24.0340 
  260.0000    -0.5280     2.4990    68.6920    12.8360    12.2380    14.6830    24.0790 
  260.1250    -0.6710     2.5060    69.9530    12.7320    12.1020    14.3260    24.1310 
  260.2500    -0.8580     2.5130    68.4080    12.6750    12.0250    13.7310    24.1500 
  260.3750    -1.1500     2.5180    65.1360    12.6640    12.0100    12.8200    24.1860 
  260.5000    -1.5630     2.5200    62.6940    12.6970    12.0430    12.2770    24.3550 
  260.6250    -1.9350     2.5170    62.6920    12.7810    12.1150    12.5650    24.1980 
  260.7500    -2.1130     2.5140    64.8130    12.9060    12.2160    13.2860    24.1090 
  260.8750    -2.1050     2.5150    66.7310    13.0650    12.3520    13.8450    24.0820 
  261.0000    -2.0530     2.5190    66.3570    13.2450    12.5250    13.7150    24.0720 
  261.1250    -2.0220     2.5200    63.8600    13.4260    12.7310    12.9490    24.1020 
  261.2500    -2.0150     2.5120    62.1190    13.5950    12.9430    11.2740    24.1490 
  261.3750    -2.0190     2.5010    62.6770    13.7360    13.1420     9.2720    24.1850 
  261.5000    -1.9840     2.4950    63.6020    13.8320    13.2960     7.9750    24.1310 
  261.6250    -1.9610     2.5010    63.3530    13.8420    13.3460     8.0940    24.1090 
  261.7500    -1.9370     2.5140    63.4560    13.7570    13.2780     9.4130    24.1400 
  261.8750    -1.9560     2.5240    63.9810    13.5780    13.1000    11.4280    24.1780 
  262.0000    -2.0110     2.5290    63.7180    13.3340    12.8460    13.2670    24.1520 
  262.1250    -2.1080     2.5260    63.5690    13.0810    12.5760    12.3690    24.1020 
  262.2500    -2.2080     2.5220    64.1810    12.8880    12.3580    11.5250    24.0780 
  262.3750    -2.3180     2.5160    64.4910    12.7990    12.2370    10.7650    24.0550 
  262.5000    -2.4690     2.5030    64.3790    12.8370    12.2450    11.1780    23.9390 
  262.6250    -2.6280     2.4840    64.8420    13.0090    12.4130    13.2820    23.7000 
  262.7500    -2.7770     2.4700    65.9850    13.2440    12.6720    16.4860    23.5090 
  262.8750    -2.9070     2.4750    66.3140    13.4800    12.9470    20.6050    23.5100 
  263.0000    -2.9900     2.5030    65.3410    13.6660    13.1730    22.8760    23.7080 
  263.1250    -3.0160     2.5450    64.9560    13.7760    13.3050    22.0270    23.8610 
  263.2500    -2.9840     2.5770    65.7830    13.8560    13.3750    19.2490    23.8790 
  263.3750    -2.8860     2.5870    66.1560    13.9480    13.4250    17.7090    23.9300 
  263.5000    -2.7120     2.5730    63.2210    14.0660    13.4890    16.4210    24.0020 
  263.6250    -2.5110     2.5460    58.4970    14.1560    13.5560    16.2700    24.0100 
