~V
VERS. 2.00: Ver 2.00
~W
STRT.M 52.0000:
STOP.M 235.0000:
STEP.M 0.1250:
NULL. -999.2500:
UWI. F11014:
~C
DEPT.M :
DEN.GM/CC :
GR.API :
RML.OHMM :
RI. :
RXO.OHMM :
CALI.CM :
SP.MV :
~A
# ...
   85.7500     2.1450    71.0440     8.1560     5.7910     7.5910    23.8830   -12.1410 
   85.8750     2.1390    71.5790     8.5620     6.0070     7.7220    24.0820   -12.5310 
   86.0000     2.1390    71.0040     9.1700     6.3630     7.9160    24.1920   -12.8010 
   86.1250     2.1490    69.5690     9.8360     6.7780     8.0780    24.1800   -12.9040 
   86.2500     2.1710    68.7550    10.3800     7.1420     8.2150    24.0650   -12.8760 
   86.3750     2.1940    68.8900    10.5700     7.3070     8.3580    23.9600   -12.7500 
   86.5000     2.2020    69.4710    10.3260     7.2060     8.5380    23.9100   -12.5410 
   86.6250     2.1940    71.2020     9.7460     6.8790     8.6390    23.9520   -12.2310 
   86.7500     2.1830    74.0860     9.0230     6.4280     8.3160    24.0700   -11.8370 
   86.8750     2.1820    76.2340     8.4100     6.0000     7.4040    24.1420   -11.3930 
   87.0000     2.1920    76.7850     8.0720     5.7080     6.5140    24.1110   -10.9330 
   87.1250     2.2050    77.2240     8.0450     5.6010     6.3770    23.9950   -10.6050 
   87.2500     2.2110    77.5730     8.2920     5.6810     6.9690    23.8370   -10.4380 
   87.3750     2.2040    75.3510     8.7190     5.9150     7.7900    23.7330   -10.3620 
   87.5000     2.1850    70.4870     9.1780     6.2130     8.3100    23.6820   -10.4250 
   87.6250     2.1620    65.9300     9.5330     6.4700     8.4750    23.6390   -10.6260 
   87.7500     2.1430    64.3550     9.7100     6.6180     8.4720    23.5970   -10.8520 
   87.8750     2.1360    64.5900     9.7110     6.6430     8.5000    23.5690   -11.0810 
   88.0000     2.1410    63.7730     9.6390     6.6130     8.5950    23.5660   -11.3660 
   88.1250     2.1530    61.7300     9.6040     6.6070     8.8700    23.6140   -11.6660 
   88.2500     2.1630    60.7660     9.6630     6.6630     9.9640    23.7440   -11.9220 
   88.3750     2.1630    62.7690     9.8060     6.7760    13.4320    23.9190   -12.1500 
   88.5000     2.1450    65.7290     9.9570     6.8900    18.2570    24.1060   -12.3430 
   88.6250     2.1160    66.3200    10.0240     6.9510    18.8680    24.2540   -12.4720 
   88.7500     2.0870    63.5530     9.9660     6.9370    14.4400    24.3280   -12.5790 
   88.8750     2.0730    59.8570     9.8070     6.8640    10.8130    24.3360   -12.7130 
   89.0000     2.0760    57.6900     9.6310     6.7750     9.5760    24.2990   -12.7940 
   89.1250     2.0910    57.1620     9.5180     6.7100     9.2610    24.2580   -12.7360 
   89.2500     2.1090    57.7910     9.4930     6.6850     9.2720    24.2520   -12.6040 
   89.3750     2.1190    59.3910     9.4960     6.6790     9.3020    24.2840   -12.3970 
   89.5000     2.1230    60.7620     9.4160     6.6400     9.2070    24.2950   -12.0310 
   89.6250     2.1250    60.1950     9.1780     6.5200     9.0400    24.2560   -11.5560 
   89.7500     2.1320    58.8940     8.8030     6.3100     8.8130    24.2280   -11.0230 
   89.8750     2.1440    61.4990     8.3810     6.0380     8.1080    24.2910   -10.3910 
   90.0000     2.1580    68.0220     7.9960     5.7590     7.0860    24.4350    -9.6610 
   90.1250     2.1740    73.5760     7.6700     5.5130     6.7100    24.5480    -8.8880 
   90.2500     2.1940    75.3890     7.3700     5.3070     7.3930    24.5880    -8.1190 
   90.3750     2.2240    75.5440     7.0680     5.1340     7.7480    24.6460    -7.4080 
   90.5000     2.2540    76.5960     6.7930     4.9990     6.9920    24.7970    -6.7760 
   90.6250     2.2740    78.1590     6.6290     4.9290     5.9300    24.9330    -6.2330 
   90.7500     2.2780    80.0610     6.6520     4.9650     5.4270    24.9250    -5.8260 
   90.8750     2.2710    81.5780     6.8990     5.1430     5.7680    24.7570    -5.6050 
   91.0000     2.2550    80.6400     7.3020     5.4420     6.6640    24.6050    -5.5440 
   91.1250     2.2350    77.1590     7.7260     5.7910     7.5650    24.6110    -5.5590 
   91.2500     2.2150    73.5800     8.0330     6.0890     7.9610    24.7830    -5.5560 
   91.3750     2.2050    73.9810     8.1020     6.2150     7.7230    24.9600    -5.4800 
   91.5000     2.2100    77.3860     7.9360     6.1320     7.2130    25.0350    -5.3380 
   91.6250     2.2290    79.8890     7.5980     5.8750     6.8990    25.0330    -5.1140 
   91.7500     2.2550    81.3170     7.1350     5.5000     6.5780    25.0200    -4.7690 
   91.8750     2.2790    84.2340     6.6030     5.0780     6.2810    25.0010    -4.3250 
   92.0000     2.2980    88.1800     6.1370     4.7100     6.1370    24.9180    -3.8970 
   92.1250     2.3180    89.6520     5.9740     4.5330     6.0810    24.8120    -3.5630 
   92.2500     2.3420    86.6720     6.4390     4.7180     6.1380    24.7710    -3.3300 
   92.3750     2.3730    80.8260     8.0560     5.5980     6.9890    24.8180    -3.2650 
   92.5000     2.4150    75.6540    11.1050     7.4640    10.3920    24.9030    -3.4170 
   92.6250     2.4710    72.8570    15.4130    10.4560    20.6870    24.9420    -3.7500 
   92.7500     2.5330    70.4630    20.0490    14.2570    37.6840    24.8580    -4.2270 
   92.8750     2.5700    66.6610    22.7130    17.3340    45.1780    24.5590    -4.8380 
   93.0000     2.5540    63.0510    21.9850    18.0800    35.0820    24.1480    -5.5190 
   93.1250     2.4760    62.2990    18.8440    16.5690    20.7930    23.8140    -6.2070 
   93.2500     2.3590    64.9940    15.3510    14.1970    12.6370    23.6940    -6.8990 
   93.3750     2.2380    69.2400    13.0600    12.2990    10.1580    23.8190    -7.5580 
   93.5000     2.1430    71.8290    12.1680    11.2830     9.9440    24.0630    -8.1100 
   93.6250     2.0790    70.9930    12.2190    10.9940    10.1140    24.2590    -8.5230 
   93.7500     2.0440    67.7310    12.6940    11.1370    10.2320    24.3290    -8.7940 
   93.8750     2.0380    65.2260    12.9610    11.2590    10.1050    24.3220    -8.8890 
   94.0000     2.0540    66.0370    12.5830    10.9520     9.7900    24.3040    -8.8210 
   94.1250     2.0800    69.9840    11.5610    10.1240     9.4180    24.2690    -8.6270 
   94.2500     2.1070    75.4060    10.2330     8.9990     8.9090    24.1860    -8.3250 
   94.3750     2.1320    80.5920     9.0770     7.9390     7.9870    24.0900    -7.9550 
   94.5000     2.1540    83.8020     8.3690     7.1870     7.1990    24.0690    -7.5880 
   94.6250     2.1640    83.0040     8.1510     6.8080     7.2600    24.1590    -7.2650 
   94.7500     2.1550    78.9640     8.3530     6.7800     8.1480    24.2760    -7.0030 
   94.8750     2.1390    76.1220     8.8820     7.0680     8.7720    24.3980    -6.8250 
   95.0000     2.1300    76.6000     9.6040     7.5900     8.8310    24.6090    -6.7080 
   95.1250     2.1310    77.8710    10.4130     8.2620     9.1520    24.9170    -6.6240 
   95.2500     2.1330    76.0050    11.2700     9.0450    10.6230    25.1390    -6.5880 
   95.3750     2.1290    71.5000    12.1830     9.9220    13.7750    25.0290    -6.5750 
   95.5000     2.1260    69.2040    13.1200    10.8450    16.4250    24.6690    -6.5280 
   95.6250     2.1340    70.6640    13.9630    11.7050    17.6810    24.3450    -6.4660 
   95.7500     2.1530    72.4120    14.5270    12.3370    19.7920    24.1790    -6.4340 
   95.8750     2.1770    71.0110    14.5440    12.4950    24.3760    24.0980    -6.3850 
   96.0000     2.1980    68.0820    13.9050    12.0580    29.0430    24.0010    -6.2870 
   96.1250     2.2110    66.9330    12.7040    11.0830    30.2460    23.8980    -6.2260 
   96.2500     2.2100    69.0110    11.1800     9.7630    26.8400    23.8630    -6.2290 
   96.3750     2.1950    72.7980     9.7130     8.4060    20.8320    23.9410    -6.2050 
   96.5000     2.1740    75.2190     8.6140     7.2840    15.0390    24.1240    -6.2020 
   96.6250     2.1510    75.7550     8.0150     6.5320    11.5560    24.3160    -6.2820 
   96.7500     2.1280    75.6640     7.9090     6.1770    10.4680    24.4600    -6.3560 
   96.8750     2.1050    74.6480     8.2080     6.2000    11.1370    24.5750    -6.3680 
