~V
VERS. 2.00: Ver 2.00
~W
STRT.M 55.0000:
STOP.M 276.0000:
STEP.M 0.1250:
NULL. -999.2500:
UWI. F11046:
~C
DEPT.M :
GR.API :
RML.OHMM :
RI. :
RXO.OHMM :
CALI.CM :
DEN.GM/CC :
SP.MV :
~A
# ...
  156.2500    71.2150    22.3390    19.9510    21.5380    24.9980     2.2580   -13.5470 
  156.3750    74.2910    20.6020    17.9840    16.9640    24.9590     2.2780   -14.0310 
  156.5000    75.8660    20.2200    17.1080    17.4680    24.9190     2.2880   -14.5030 
  156.6250    73.3130    21.4220    17.5890    19.6330    24.8870     2.2870   -14.9210 
  156.7500    69.9760    23.7660    19.1970    20.7150    24.8400     2.2820   -15.2960 
  156.8750    69.1180    26.8620    21.7710    22.2510    24.7520     2.2730   -15.6210 
  157.0000    69.8810    30.0960    24.8670    26.0140    24.7290     2.2610   -15.8580 
  157.1250    69.0830    32.5250    27.5510    28.7070    24.9970     2.2500   -16.0510 
  157.2500    65.7550    33.7240    29.1170    29.6830    25.1750     2.2450   -16.2700 
  157.3750    62.9410    33.7850    29.4730    30.8010    25.2350     2.2480   -16.5150 
  157.5000    63.9460    33.2900    29.0760    32.4390    25.2130     2.2560   -16.7730 
  157.6250    67.1570    33.2200    28.7870    29.9600    25.1590     2.2640   -17.0620 
  157.7500    67.6560    34.2890    29.3920    26.3640    25.1290     2.2640   -17.3410 
  157.8750    65.2240    36.8630    31.3300    26.0690    25.1800     2.2570   -17.6790 
  158.0000    64.0800    40.9670    34.7710    30.2400    25.2720     2.2420   -18.0730 
  158.1250    65.4700    46.0950    39.7280    35.7200    25.3380     2.2230   -18.4470 
  158.2500    64.2440    50.4180    44.9350    40.2360    25.4020     2.2000   -18.8570 
  158.3750    60.2090    51.7990    48.3690    45.6660    25.4130     2.1800   -19.1670 
  158.5000    58.0690    48.6650    47.6710    50.0210    25.3150     2.1710   -19.4590 
  158.6250    63.1070    40.8480    41.3480    48.6740    25.0840     2.1900   -19.6710 
  158.7500    69.3200    31.5510    32.5290    41.5060    24.8240     2.2340   -19.8000 
  158.8750    71.8670    23.1130    24.0200    23.9180    24.5510     2.2960   -19.8570 
  159.0000    72.4430    16.7580    17.4510    14.1470    24.3010     2.3590   -19.9160 
  159.1250    76.7360    12.8710    13.3600    10.4140    24.1050     2.4040   -20.0220 
  159.2500    85.1890    10.5370    10.8340     9.0280    24.0560     2.4260   -20.0810 
  159.3750    93.1340     9.2320     9.3710     8.3120    24.1070     2.4280   -20.2280 
  159.5000    97.4930     8.5480     8.6010     7.7750    24.1710     2.4160   -20.3620 
  159.6250    98.2220     8.2330     8.2950     7.0050    24.1930     2.4020   -20.5220 
  159.7500    95.6250     8.0690     8.1940     6.7890    24.2010     2.3920   -20.7500 
  159.8750    90.3280     7.9910     8.2110     6.9410    24.2360     2.3880   -20.9810 
  160.0000    86.7550     7.9710     8.3040     7.1530    24.3460     2.3870   -21.1550 
  160.1250    88.5320     7.9810     8.4320     7.2620    24.5710     2.3850   -21.2260 
  160.2500    90.4800     7.9840     8.5350     7.3540    24.8450     2.3830   -21.2740 
  160.3750    89.9730     7.9540     8.5680     7.4110    25.0590     2.3840   -21.3190 
  160.5000    88.6810     7.8860     8.5030     7.3930    25.1330     2.3920   -21.3870 
  160.6250    89.6950     7.8090     8.3400     6.9780    25.0940     2.4070   -21.5510 
  160.7500    91.8140     7.8000     8.1630     6.7640    25.0580     2.4220   -21.6830 
  160.8750    93.0810     7.9480     8.0760     7.2950    25.0420     2.4340   -21.8160 
  161.0000    91.7880     8.3280     8.1830     8.1130    25.0390     2.4390   -21.9180 
  161.1250    88.4380     9.0060     8.5930     9.2950    25.0660     2.4340   -21.9750 
  161.2500    87.0810     9.8730     9.2450    11.2780    25.1510     2.4230   -22.0500 
  161.3750    88.4230    10.8150    10.0470    13.4610    25.2340     2.4110   -22.0470 
  161.5000    90.3970    11.7430    10.8660    14.2130    25.2620     2.4020   -22.0280 
  161.6250    92.4810    12.6840    11.6280    14.6590    25.2770     2.3980   -21.9490 
  161.7500    94.3300    13.8330    12.4600    15.7000    25.3080     2.3930   -21.9120 
  161.8750    94.0280    15.4440    13.5910    16.9430    25.3230     2.3820   -21.9260 
  162.0000    90.6600    17.7330    15.2800    20.8040    25.2680     2.3660   -22.0340 
  162.1250    86.7370    20.8370    17.8810    26.9220    25.1340     2.3500   -22.1790 
  162.2500    84.7620    24.2890    21.2120    34.3370    25.0330     2.3380   -22.3240 
  162.3750    83.2360    27.4530    24.7580    35.8010    24.9990     2.3310   -22.5420 
  162.5000    80.1070    29.6270    27.6120    34.4450    24.9580     2.3270   -22.7910 
  162.6250    77.4670    30.2090    28.7110    34.8610    24.8920     2.3250   -23.1300 
  162.7500    77.0620    29.7940    28.4250    34.4930    24.7720     2.3230   -23.4200 
  162.8750    77.1880    29.1450    27.5720    30.1560    24.5990     2.3180   -23.6590 
  163.0000    77.9680    29.2300    27.1100    24.6750    24.4720     2.3120   -23.8840 
  163.1250    81.1440    31.9420    28.1120    29.4370    24.4130     2.3050   -24.1190 
  163.2500    83.1570    37.7080    31.0040    39.2640    24.3180     2.2980   -24.3450 
  163.3750    80.6770    45.9660    36.1960    52.0560    24.1720     2.2960   -24.5700 
  163.5000    76.8330    55.5900    43.7830    63.1710    24.0390     2.2980   -24.8050 
  163.6250    76.3390    65.2900    53.1540    71.4060    23.9530     2.3040   -25.0270 
  163.7500    75.4740    73.3620    61.8690    78.3470    23.8820     2.3100   -25.1750 
  163.8750    72.9500    78.0090    67.6510    81.8530    23.8490     2.3150   -25.3130 
  164.0000    73.7950    78.6180    69.4390    80.6600    23.8690     2.3210   -25.4100 
  164.1250    77.3040    76.1640    67.8360    69.2780    23.9120     2.3270   -25.5100 
  164.2500    77.6510    73.4450    65.5740    62.7060    23.9480     2.3320   -25.6570 
  164.3750    75.4510    72.1130    64.3380    56.5480    23.9960     2.3340   -25.7250 
  164.5000    74.8020    72.8760    65.0660    59.4370    24.0340     2.3330   -25.7090 
  164.6250    74.1590    75.4490    68.1240    71.5300    24.0320     2.3300   -25.5610 
  164.7500    71.4020    77.6470    71.9110    80.1720    24.0160     2.3290   -25.4920 
  164.8750    68.6760    77.0380    73.9540    78.2120    24.0120     2.3250   -25.4140 
  165.0000    68.8340    71.8480    71.3890    71.8300    24.0410     2.3100   -25.2940 
  165.1250    71.9260    62.0180    62.6050    65.0910    24.2090     2.2800   -25.1030 
  165.2500    74.0530    51.2370    51.6190    50.3600    24.6480     2.2470   -24.8390 
  165.3750    74.7400    42.4270    41.9990    31.9770    25.3430     2.2260   -24.6300 
  165.5000    75.0820    37.2920    35.7510    21.6260    25.8410     2.2260   -24.4700 
  165.6250    77.0550    36.8220    34.0340    27.1390    25.6490     2.2480   -24.4450 
  165.7500    79.9740    39.6950    35.9630    39.5340    25.1390     2.2730   -24.4030 
  165.8750    80.9550    44.6620    40.8350    49.8620    24.7850     2.2920   -24.4100 
  166.0000    78.9880    49.8130    47.0290    53.6970    24.6550     2.3030   -24.5120 
  166.1250    74.9490    52.4990    51.2320    57.2610    24.6420     2.3100   -24.6710 
  166.2500    72.5500    52.1420    51.5960    54.8100    24.6700     2.3170   -24.9060 
  166.3750    74.0190    49.8290    48.9890    42.6790    24.6740     2.3250   -25.1730 
  166.5000    77.4620    47.6370    45.9120    31.0540    24.6170     2.3290   -25.4220 
  166.6250    78.7370    47.8260    45.0430    36.4430    24.4980     2.3260   -25.6580 
  166.7500    78.1050    50.6790    46.9330    54.5940    24.4170     2.3200   -25.9190 
  166.8750    78.3030    55.7780    51.3170    66.3560    24.3760     2.3150   -26.2580 
  167.0000    78.6510    62.2550    57.4060    63.2810    24.3350     2.3140   -26.6300 
  167.1250    74.4340    69.1110    64.0850    56.9010    24.3000     2.3150   -27.0610 
  167.2500    69.8980    75.6880    70.4290    55.6140    24.2670     2.3140   -27.4910 
  167.3750    68.6290    82.0160    76.5700    62.5440    24.2560     2.3100   -27.8530 
