~V
VERS. 2.00: Ver 2.00
~W
STRT.M 62.0000:
STOP.M 218.0000:
STEP.M 0.1250:
NULL. -999.2500:
UWI. F11008:
~C
DEPT.M :
DEN.GM/CC :
GR.API :
RML.OHMM :
RI. :
RXO.OHMM :
CALI.CM :
SP.MV :
~A
# ...
   73.2500     2.2410    74.3910     8.0560     7.2370     9.5700    24.0790   -23.0930 
   73.3750     2.2390    77.4630     8.1550     7.4500     9.1660    24.2390   -22.2620 
   73.5000     2.2230    81.7770     8.0990     7.5450     8.4510    24.4410   -21.0940 
   73.6250     2.1970    84.3040     7.8010     7.4000     7.8480    24.5570   -19.5200 
   73.7500     2.1790    84.3880     7.3050     7.0120     7.6040    24.7080   -17.6830 
   73.8750     2.1810    88.7770     6.6790     6.4290     7.2580    25.1090   -15.6440 
   74.0000     2.2060   100.2800     6.0240     5.7550     6.3750    25.6970   -13.4830 
   74.1250     2.2430   110.9780     5.4630     5.1370     4.9780    26.2310   -11.4110 
   74.2500     2.2770   114.8400     5.0430     4.6560     4.3900    26.5060    -9.5190 
   74.3750     2.2980   114.8180     4.7640     4.3300     4.2560    26.5450    -7.8970 
   74.5000     2.3090   113.9310     4.5960     4.1330     4.3860    26.4530    -6.6720 
   74.6250     2.3130   113.3360     4.5260     4.0390     4.6450    26.3450    -6.0050 
   74.7500     2.3120   113.0310     4.5680     4.0220     4.6650    26.3740    -5.8140 
   74.8750     2.3050   112.4950     4.8170     4.1200     4.4130    26.5000    -6.0900 
   75.0000     2.2950   110.5530     5.4210     4.4200     4.3700    26.5270    -6.7880 
   75.1250     2.2890   105.3870     6.6470     5.1380     5.1030    26.2540    -7.8320 
   75.2500     2.2950    96.9040     8.4870     6.3880     7.0890    25.6800    -9.1070 
   75.3750     2.3210    87.9310    10.8080     8.2510    10.9460    25.0440   -10.5160 
   75.5000     2.3680    80.8880    13.2340    10.5860    16.6350    24.7120   -12.0000 
   75.6250     2.4220    74.4260    15.0330    12.8020    20.7940    24.8120   -13.5260 
   75.7500     2.4590    69.6520    15.7490    14.1450    27.9120    25.0610   -15.0340 
   75.8750     2.4580    69.7090    15.2850    14.2370    29.2360    25.1250   -16.4500 
   76.0000     2.4120    72.5850    13.9460    13.2430    17.1210    24.6170   -17.7010 
   76.1250     2.3310    73.4780    12.2920    11.7220    10.8960    24.1570   -18.6940 
   76.2500     2.2480    74.4710    10.8770    10.3270     8.9630    24.0520   -19.5070 
   76.3750     2.1830    76.8690     9.8960     9.2850     8.4250    24.2060   -20.2340 
   76.5000     2.1450    77.8270     9.3420     8.6270     7.8310    24.3940   -20.8440 
   76.6250     2.1370    76.3700     9.1290     8.3170     7.4500    24.5060   -21.2520 
   76.7500     2.1420    78.1150     9.0490     8.1790     7.5380    24.5470   -21.5220 
   76.8750     2.1520    83.2140     8.9960     8.1080     7.8780    24.5730   -21.7370 
   77.0000     2.1550    85.5220     8.9130     8.0310     8.2560    24.6300   -21.9180 
   77.1250     2.1430    82.2640     8.7960     7.9230     8.1180    24.7380   -22.0650 
   77.2500     2.1210    78.5340     8.6890     7.8150     7.9110    24.9290   -22.1690 
   77.3750     2.1030    77.1410     8.6360     7.7500     7.9010    25.1760   -22.2400 
   77.5000     2.1050    78.0580     8.6610     7.7550     7.8350    25.3850   -22.3330 
   77.6250     2.1390    79.9360     8.7510     7.8230     8.1980    25.5400   -22.4840 
   77.7500     2.1900    78.9540     8.8270     7.8820     9.9280    25.7500   -22.6540 
   77.8750     2.2350    73.2120     8.8210     7.8650    13.0880    25.9180   -22.7960 
   78.0000     2.2570    67.6400     8.6990     7.7310    13.6340    25.8370   -22.9500 
   78.1250     2.2450    68.1440     8.4750     7.4870    11.0610    25.6170   -23.1770 
   78.2500     2.2200    70.1950     8.2490     7.2240     9.0810    25.5530   -23.4200 
   78.3750     2.1960    71.0070     8.0940     7.0160     8.1770    25.6020   -23.6210 
   78.5000     2.1830    72.8890     8.0470     6.9130     7.9230    25.6340   -23.7980 
   78.6250     2.1780    76.0700     8.0980     6.9280     8.1970    25.4920   -23.9780 
   78.7500     2.1750    75.8300     8.1710     6.9950     8.3310    25.2460   -24.1250 
   78.8750     2.1670    72.4870     8.2180     7.0620     8.0600    25.0060   -24.1980 
   79.0000     2.1540    70.9990     8.2190     7.0980     7.8790    24.8290   -24.1950 
   79.1250     2.1440    73.8830     8.1910     7.0980     7.8640    24.7640   -24.1550 
   79.2500     2.1450    76.0650     8.1740     7.0900     7.9020    24.7510   -24.1490 
   79.3750     2.1590    74.9900     8.1930     7.0900     8.7020    24.7610   -24.1290 
   79.5000     2.1800    72.6400     8.2570     7.1080    10.3170    24.7760   -24.0550 
   79.6250     2.1940    71.7020     8.3610     7.1430    11.7120    24.7790   -23.9920 
   79.7500     2.1920    72.1010     8.4800     7.1850     9.8540    24.6920   -23.9600 
   79.8750     2.1790    73.6270     8.6000     7.2260     8.5060    24.5560   -23.9460 
   80.0000     2.1630    76.9470     8.7120     7.2660     8.2080    24.4200   -23.9390 
   80.1250     2.1560    78.6170     8.8120     7.3100     8.5610    24.3580   -23.9250 
   80.2500     2.1570    76.1050     8.9020     7.3580     9.1460    24.3560   -23.8720 
   80.3750     2.1630    72.7690     8.9820     7.4100     9.5080    24.3930   -23.7810 
   80.5000     2.1680    71.8430     9.0500     7.4600     9.6890    24.4360   -23.6460 
   80.6250     2.1700    72.6140     9.0990     7.4980     9.8410    24.4380   -23.4820 
   80.7500     2.1670    72.6000     9.1270     7.5210     9.5890    24.4500   -23.3530 
   80.8750     2.1610    71.9570     9.1310     7.5300     9.0700    24.5290   -23.2500 
   81.0000     2.1560    71.5910     9.1110     7.5250     8.8960    24.6550   -23.1330 
   81.1250     2.1560    72.0210     9.0670     7.5100     9.2220    24.7710   -22.9390 
   81.2500     2.1600    73.8360     9.0100     7.4940     9.3200    24.8200   -22.7060 
   81.3750     2.1700    76.3900     8.9450     7.4830     9.2580    24.7410   -22.5000 
   81.5000     2.1810    78.5820     8.8790     7.4830     9.3700    24.5840   -22.2970 
   81.6250     2.1910    80.2990     8.8290     7.5000     9.3980    24.5120   -21.9640 
   81.7500     2.1970    81.4630     8.8150     7.5440     9.4570    24.4950   -21.5280 
   81.8750     2.1990    79.4210     8.8550     7.6350     9.5470    24.4930   -21.0040 
   82.0000     2.1960    74.1540     8.9430     7.7830     9.5590    24.5100   -20.3500 
   82.1250     2.1920    71.1970     9.0170     7.9620     9.5960    24.5570   -19.4790 
   82.2500     2.1900    74.2200     8.9810     8.0790     9.6720    24.6170   -18.4210 
   82.3750     2.1950    79.5350     8.7530     8.0330     9.9630    24.6800   -17.1940 
   82.5000     2.2090    83.2100     8.3130     7.7580    10.1730    24.7750   -15.8150 
   82.6250     2.2280    85.5910     7.7040     7.2490     9.3360    25.0010   -14.3090 
   82.7500     2.2450    88.5850     7.0840     6.6560     7.6130    25.4040   -12.7690 
   82.8750     2.2550    91.2130     6.5610     6.1010     6.1070    25.8190   -11.3030 
   83.0000     2.2550    92.9790     6.1920     5.6670     5.4720    26.1290    -9.9740 
   83.1250     2.2490    94.4800     5.9830     5.3890     5.6730    26.2060    -8.8860 
   83.2500     2.2440    94.8070     5.8470     5.1980     5.9950    26.1910    -8.0450 
   83.3750     2.2420    92.2480     5.7470     5.0480     6.0310    26.1140    -7.4740 
   83.5000     2.2390    88.0110     5.7170     4.9330     5.8990    26.0390    -7.2330 
   83.6250     2.2320    86.2370     5.9350     4.9550     5.6510    25.9810    -7.3810 
   83.7500     2.2320    87.3080     6.5640     5.2450     5.5980    25.9050    -7.8130 
   83.8750     2.2570    88.8220     7.7370     5.9500     5.9590    25.8000    -8.5380 
   84.0000     2.3190    88.1610     9.4510     7.1770     7.8740    25.6850    -9.5890 
   84.1250     2.4030    81.3960    11.4770     8.9680    15.3390    25.5640   -10.9180 
   84.2500     2.4660    71.2040    13.2580    10.9040    28.5140    25.4150   -12.3690 
   84.3750     2.4740    62.8660    14.3190    12.4560    29.2550    25.1430   -13.8750 
