~V
VERS. 2.00: Ver 2.00
~W
STRT.M 57.0000:
STOP.M 278.0000:
STEP.M 0.1250:
NULL. -999.2500:
UWI. F11043:
~C
DEPT.M :
SP.MV :
GR.API :
RML.OHMM :
RI. :
RXO.OHMM :
CALI.CM :
DEN.GM/CC :
~A
# ...
  102.0000   -23.7830    62.8600     9.6670     7.2460    10.3720    23.7210     2.1680 
  102.1250   -23.8500    61.6620     9.5940     7.2100    10.2740    23.7430     2.1820 
  102.2500   -23.8250    61.3770     9.5570     7.1880    10.3780    23.7470     2.1890 
  102.3750   -23.7080    63.7750     9.5840     7.2070    10.5470    23.7370     2.1890 
  102.5000   -23.6290    66.0520     9.6740     7.2780    10.6240    23.7360     2.1850 
  102.6250   -23.6450    65.2670     9.8150     7.3910    10.5890    23.7610     2.1800 
  102.7500   -23.6340    65.1450     9.9750     7.5070    10.4440    23.7710     2.1760 
  102.8750   -23.5590    68.1160    10.1350     7.5970    10.3320    23.7730     2.1740 
  103.0000   -23.4690    69.6920    10.2710     7.6510    10.4230    23.8030     2.1710 
  103.1250   -23.4820    66.1630    10.3460     7.6660    10.7460    23.7880     2.1650 
  103.2500   -23.5660    63.1880    10.3480     7.6550    10.8520    23.7680     2.1560 
  103.3750   -23.6220    63.1550    10.2820     7.6250    10.7810    23.7400     2.1490 
  103.5000   -23.6630    63.7110    10.1730     7.5820    10.7580    23.7350     2.1500 
  103.6250   -23.7280    61.8310    10.0610     7.5350    10.7660    23.7610     2.1600 
  103.7500   -23.8270    60.1490     9.9820     7.4910    10.7280    23.7790     2.1720 
  103.8750   -23.8890    62.2290     9.9600     7.4630    10.6760    23.8010     2.1800 
  104.0000   -23.8810    67.5210    10.0060     7.4670    10.6320    23.8340     2.1860 
  104.1250   -23.8210    71.1060    10.1190     7.5130    10.5730    23.8260     2.1940 
  104.2500   -23.8130    70.4800    10.2430     7.5820    10.7800    23.7850     2.2000 
  104.3750   -23.8370    69.0070    10.3220     7.6410    11.4150    23.7430     2.2010 
  104.5000   -23.7940    68.3600    10.3070     7.6500    12.2890    23.7280     2.1990 
  104.6250   -23.7400    65.6440    10.1680     7.5640    11.4960    23.7400     2.1950 
  104.7500   -23.7780    62.4600     9.9690     7.4130    10.7410    23.7540     2.1860 
  104.8750   -23.9350    63.4980     9.7810     7.2470    10.3360    23.7510     2.1760 
  105.0000   -24.1220    68.5110     9.6690     7.1190    10.1520    23.7780     2.1690 
  105.1250   -24.2380    71.1580     9.6750     7.0690    10.1050    23.8870     2.1690 
  105.2500   -24.3290    69.5230     9.7530     7.0790    10.0240    23.9870     2.1720 
  105.3750   -24.4750    65.6140     9.8450     7.1160     9.9240    24.0300     2.1710 
  105.5000   -24.6210    63.2110     9.9040     7.1460     9.7230    24.0390     2.1670 
  105.6250   -24.6440    63.7210     9.9040     7.1490     9.2340    24.0490     2.1610 
  105.7500   -24.5810    63.7070     9.8780     7.1420     8.5590    24.0670     2.1540 
  105.8750   -24.5000    62.1140     9.8620     7.1480     8.0550    24.0680     2.1500 
  106.0000   -24.4310    60.4960     9.8800     7.1840     7.9130    24.0500     2.1500 
  106.1250   -24.3160    60.6440     9.9290     7.2450     8.0320    24.0460     2.1540 
  106.2500   -24.1070    62.1290     9.9800     7.3050     8.3230    24.0540     2.1580 
  106.3750   -23.8700    63.9380    10.0170     7.3440     8.3610    24.0600     2.1610 
  106.5000   -23.6720    66.1870    10.0350     7.3590     8.1500    24.0460     2.1630 
  106.6250   -23.4780    66.8150    10.0280     7.3480     7.9500    24.0410     2.1660 
  106.7500   -23.2290    67.1350     9.9850     7.3100     7.9830    24.0540     2.1670 
  106.8750   -22.8980    68.1900     9.8900     7.2310     8.1720    24.0670     2.1660 
  107.0000   -22.5660    69.2550     9.7250     7.1000     8.4410    24.0610     2.1630 
  107.1250   -22.3290    70.9800     9.4750     6.9070     8.4070    24.0430     2.1600 
  107.2500   -22.1080    73.2470     9.1870     6.6910     7.8530    24.0420     2.1580 
  107.3750   -21.7810    74.8160     8.9210     6.4890     7.4440    24.0450     2.1570 
  107.5000   -21.4480    73.4810     8.7330     6.3360     8.0500    24.0370     2.1600 
  107.6250   -21.2290    70.1120     8.6850     6.2650     8.6060    24.0390     2.1650 
  107.7500   -21.0350    68.4970     8.7650     6.2760     8.7150    24.0560     2.1700 
  107.8750   -20.8370    69.0150     8.9380     6.3550     8.5920    24.0680     2.1760 
  108.0000   -20.6410    70.1100     9.1400     6.4680     8.6430    24.0640     2.1860 
  108.1250   -20.4680    70.3210     9.2840     6.5590     8.8050    24.0490     2.1930 
  108.2500   -20.3050    69.7870     9.3230     6.5880     8.9900    24.0570     2.1940 
  108.3750   -20.1410    69.5400     9.2390     6.5350     8.9870    24.0670     2.1910 
  108.5000   -19.8890    69.9680     9.0540     6.4090     8.6940    24.0610     2.1850 
  108.6250   -19.5820    70.8460     8.8180     6.2430     8.5030    24.0390     2.1820 
  108.7500   -19.3020    71.9650     8.6130     6.0990     8.7190    24.0370     2.1850 
  108.8750   -19.0410    72.8310     8.5000     6.0200     9.0730    24.0540     2.1930 
  109.0000   -18.6910    72.6070     8.5300     6.0420     9.3010    24.0650     2.2030 
  109.1250   -18.1690    71.6810     8.7540     6.2010     9.3190    24.0600     2.2120 
  109.2500   -17.6410    71.5580     9.0910     6.4460     9.7490    24.0530     2.2160 
  109.3750   -17.1350    72.4460     9.4030     6.6910    11.7310    24.0630     2.2150 
  109.5000   -16.5780    72.1080     9.4900     6.8060    14.8390    24.0700     2.2090 
  109.6250   -15.9240    72.9150     9.0990     6.6130    12.5380    24.0590     2.2050 
  109.7500   -15.2310    80.6220     8.3080     6.1320     9.4640    24.0420     2.2090 
  109.8750   -14.4920    93.8090     7.3160     5.4750     7.2190    24.0430     2.2230 
  110.0000   -13.7260   105.0600     6.3850     4.8050     5.3350    24.0590     2.2460 
  110.1250   -13.0100   106.5680     5.7740     4.3000     4.6100    24.0570     2.2720 
  110.2500   -12.3400   102.6550     5.5110     4.0120     4.3800    24.0480     2.2920 
  110.3750   -11.7930    99.7950     5.5610     3.9510     4.5320    24.0580     2.3020 
  110.5000   -11.4480    99.2720     5.8300     4.0810     4.8530    24.0660     2.3010 
  110.6250   -11.2080   100.4170     6.1930     4.3310     5.0970    24.0580     2.2950 
  110.7500   -10.9870   100.6880     6.5120     4.5840     5.3850    24.0470     2.2890 
  110.8750   -10.8470    99.4600     6.7150     4.7750     5.6130    24.0590     2.2870 
  111.0000   -10.8790    98.2810     6.7790     4.8770     5.4210    24.0660     2.2870 
  111.1250   -11.0440    97.9180     6.7030     4.8810     5.3750    24.0580     2.2900 
  111.2500   -11.1840    98.4870     6.5490     4.8270     5.7970    24.0470     2.2950 
  111.3750   -11.2320    99.5310     6.3730     4.7420     6.1590    24.0580     2.3020 
  111.5000   -11.2380    99.8160     6.2520     4.6700     5.7630    24.0660     2.3110 
  111.6250   -11.3090    98.9300     6.2810     4.6650     5.2840    24.0590     2.3210 
  111.7500   -11.4570    97.0630     6.4330     4.7260     5.3500    24.0450     2.3300 
  111.8750   -11.6180    95.8780     6.6110     4.8090     6.2570    24.0470     2.3350 
  112.0000   -11.7120    96.2160     6.6910     4.8510     8.2770    24.0660     2.3380 
  112.1250   -11.7010    98.7360     6.6000     4.8100     7.7920    24.0680     2.3410 
  112.2500   -11.6780   101.3110     6.4830     4.7520     7.0400    24.0570     2.3410 
  112.3750   -11.6920   101.5010     6.5290     4.7770     5.6870    24.0480     2.3380 
  112.5000   -11.7290    98.6010     6.8600     4.9640     5.1840    24.0570     2.3320 
  112.6250   -11.7580    95.2070     7.4640     5.3480     6.1280    24.0550     2.3350 
  112.7500   -11.7710    91.3470     8.0440     5.7820     7.6240    24.0420     2.3550 
  112.8750   -11.7940    87.6240     8.3000     6.0750     7.7190    24.0430     2.3860 
  113.0000   -11.8380    86.8550     8.0760     6.0720     6.8870    24.0580     2.3980 
  113.1250   -11.9140    93.1640     7.4590     5.7480     6.1230    24.0530     2.3710 
