~V
VERS. 2.00: Ver 2.00
~W
STRT.M 50.0000:
STOP.M 283.0000:
STEP.M 0.1250:
NULL. -999.2500:
UWI. F11058:
~C
DEPT.M :
DEN.GM/CC :
GR.API :
RML.OHMM :
RI. :
RXO.OHMM :
CALI.CM :
SP.MV :
~A
# ...
  173.7500     2.2760    79.2130    69.5320    67.7510    65.7260    25.0240   -24.6630 
  173.8750     2.2700    74.8450    69.6130    67.8400    66.7280    24.8970   -24.7540 
  174.0000     2.2670    70.7510    69.0630    67.2640    66.6700    24.7800   -24.8730 
  174.1250     2.2690    70.2770    67.8510    65.8840    66.9740    24.7030   -25.0500 
  174.2500     2.2760    72.2920    66.4090    64.0480    67.2250    24.6350   -25.2150 
  174.3750     2.2850    72.9560    65.2870    62.2660    65.3150    24.6250   -25.2980 
  174.5000     2.2920    72.6860    65.1470    61.2130    59.4750    24.7640   -25.2950 
  174.6250     2.2940    73.5080    66.9150    61.8490    57.0190    25.0240   -25.2820 
  174.7500     2.2950    74.1840    70.6730    64.4310    61.8790    25.1910   -25.2210 
  174.8750     2.2950    74.1010    76.3560    69.0850    70.7420    25.2390   -25.1370 
  175.0000     2.2930    73.4060    83.5140    75.5400    80.6120    25.2050   -25.1050 
  175.1250     2.2870    71.7330    91.2560    83.0730    88.0530    25.1350   -24.9820 
  175.2500     2.2760    69.6100    98.2500    90.2490    95.9670    25.1320   -24.8830 
  175.3750     2.2610    67.0300   103.4580    95.9100   104.4610    25.2380   -24.8610 
  175.5000     2.2490    64.1500   106.1990    99.1950   107.3670    25.3200   -24.8800 
  175.6250     2.2430    61.6950   106.0010    99.4110   103.6160    25.2960   -24.9650 
  175.7500     2.2450    62.6470   103.9440    97.5840    98.3050    25.2560   -25.1270 
  175.8750     2.2520    66.3470   100.9490    94.6580    94.7480    25.3000   -25.2610 
  176.0000     2.2600    70.1400    97.8780    91.5790    89.6000    25.3490   -25.3430 
  176.1250     2.2630    72.0120    95.3560    89.1180    86.8080    25.3400   -25.5480 
  176.2500     2.2620    72.9500    93.3040    87.2690    85.1210    25.2930   -25.7680 
  176.3750     2.2610    74.0330    91.4000    85.6880    89.1080    25.2760   -25.8910 
  176.5000     2.2640    73.5890    89.3120    83.9740    92.9370    25.3170   -26.0640 
  176.6250     2.2740    71.0830    86.8970    81.8780    85.4830    25.3290   -26.2310 
  176.7500     2.2860    70.2000    84.4430    79.5980    82.7360    25.3450   -26.3110 
  176.8750     2.2920    72.0600    82.3390    77.4750    78.5000    25.3790   -26.4410 
  177.0000     2.2890    74.1000    80.9650    75.9070    75.9980    25.4130   -26.5520 
  177.1250     2.2780    73.2820    80.7810    75.3940    73.2400    25.4720   -26.5780 
  177.2500     2.2690    71.7090    81.7220    75.9590    72.2780    25.5420   -26.6190 
  177.3750     2.2670    70.1400    83.6910    77.6150    74.3000    25.4960   -26.6740 
  177.5000     2.2720    68.0930    86.3530    80.1850    77.1510    25.3600   -26.7470 
  177.6250     2.2790    67.9460    88.9620    83.0730    81.4960    25.3140   -26.7610 
  177.7500     2.2870    71.8360    90.6470    85.2200    88.7440    25.3110   -26.7050 
  177.8750     2.2930    76.2250    90.9480    85.8990    98.3350    25.3360   -26.6250 
  178.0000     2.3000    75.0450    90.0230    85.0580   107.7360    25.3770   -26.5210 
  178.1250     2.3020    68.2370    88.7390    83.4900   100.8590    25.4170   -26.4970 
  178.2500     2.2960    64.5330    88.2380    82.5310    84.7830    25.4500   -26.4730 
  178.3750     2.2830    67.1650    89.0570    82.8650    76.8580    25.4860   -26.4710 
  178.5000     2.2680    71.2150    91.0980    84.5200    78.2350    25.5040   -26.4120 
  178.6250     2.2590    71.3250    93.6390    86.9040    88.9710    25.5020   -26.3120 
  178.7500     2.2600    69.7070    95.6180    88.8720   101.5000    25.5020   -26.2410 
  178.8750     2.2650    69.9970    96.5320    89.7070   101.9130    25.5200   -26.1920 
  179.0000     2.2710    72.8090    96.5650    89.3290    94.0810    25.5650   -26.1730 
  179.1250     2.2730    73.5950    96.7790    88.6610    91.2390    25.6110   -26.0330 
  179.2500     2.2710    72.2750    98.4870    89.2350    95.1900    25.6260   -25.9420 
  179.3750     2.2640    71.8460   102.5750    92.1320    94.1390    25.6100   -25.8450 
  179.5000     2.2520    72.8760   109.3510    97.8900    87.9640    25.5620   -25.6850 
  179.6250     2.2350    71.7640   118.4460   106.7140    91.1120    25.4990   -25.6930 
  179.7500     2.2170    68.2990   127.4980   116.7090   107.4710    25.4180   -25.7890 
  179.8750     2.2060    64.9520   133.7690   125.2310   130.6590    25.3110   -25.8940 
  180.0000     2.2030    63.7580   134.7790   129.0950   149.4620    25.2290   -26.0270 
  180.1250     2.2100    65.4920   129.0110   125.5320   148.3260    25.1610   -26.1430 
  180.2500     2.2240    68.1340   119.6330   117.4360   130.3010    25.0850   -26.2860 
  180.3750     2.2420    69.7740   109.4480   108.0520   106.8380    25.0100   -26.4850 
  180.5000     2.2610    69.2470   100.2230    99.5890    84.4190    24.9620   -26.6860 
  180.6250     2.2780    67.4540    92.2160    92.3730    77.1520    24.9180   -26.8010 
  180.7500     2.2900    66.3140    84.5020    85.1590    82.4830    24.8870   -26.8170 
  180.8750     2.2960    66.9300    76.8870    77.5100    83.0550    24.8810   -26.7240 
  181.0000     2.2970    70.7940    69.9730    70.0460    66.3270    24.9160   -26.5700 
  181.1250     2.2960    75.5340    65.3060    64.4420    51.1520    24.9580   -26.3490 
  181.2500     2.2970    77.6720    63.6570    61.6360    48.7190    24.9730   -26.0610 
  181.3750     2.2990    76.8060    65.5730    62.2310    55.8490    24.9600   -25.7770 
  181.5000     2.3000    75.2160    71.2210    66.6210    63.1000    24.9250   -25.5630 
  181.6250     2.2970    72.9960    80.6910    75.6280    65.9050    24.8960   -25.4080 
  181.7500     2.2900    70.5740    91.9010    87.6810    76.7520    24.9000   -25.2920 
  181.8750     2.2790    69.0910   102.3490   100.2290    93.7470    24.9080   -25.2490 
  182.0000     2.2660    68.3880   109.1100   109.4950   116.4960    24.9100   -25.3070 
  182.1250     2.2610    67.0420   109.1940   111.0900   147.2270    24.9010   -25.4350 
  182.2500     2.2680    65.7780   104.2380   106.2340   132.3170    24.8810   -25.5660 
  182.3750     2.2890    66.4720    96.8750    97.8690    82.5980    24.8550   -25.7520 
  182.5000     2.3160    69.0430    90.1060    89.5510    58.4710    24.8320   -25.9290 
  182.6250     2.3320    70.3110    86.7520    84.3880    67.4110    24.8080   -26.0240 
  182.7500     2.3340    70.8300    87.2920    82.9740    81.3720    24.8130   -26.1700 
  182.8750     2.3230    71.7760    91.8570    85.5310    87.8510    24.8480   -26.3580 
  183.0000     2.3070    72.8450   100.4220    92.1270    89.1150    24.8840   -26.4660 
  183.1250     2.2900    70.9160   113.7150   103.5800    92.9260    24.8830   -26.6420 
  183.2500     2.2730    66.8530   131.2050   119.5040   106.8690    24.8580   -26.7930 
  183.3750     2.2540    63.6040   152.7340   140.0440   129.1460    24.8250   -26.8160 
  183.5000     2.2350    61.9410   177.2150   164.4680   163.2110    24.7850   -26.8880 
  183.6250     2.2210    60.6590   201.1740   190.0030   168.5480    24.7880   -27.0390 
  183.7500     2.2180    59.7430   219.0560   211.1460   191.6150    24.8270   -27.1290 
  183.8750     2.2230    60.8330   225.5710   222.0040   204.1620    24.8480   -27.2190 
  184.0000     2.2340    64.1840   217.7600   218.1880   219.5710    24.8370   -27.3210 
  184.1250     2.2480    66.0000   195.5630   197.9210   235.6020    24.7750   -27.3070 
  184.2500     2.2620    64.3710   167.4610   169.7290   225.0340    24.6660   -27.3030 
  184.3750     2.2740    62.6700   139.8430   140.6460   174.7140    24.5870   -27.2610 
  184.5000     2.2840    63.3650   117.2640   116.0030   120.1870    24.5790   -27.1810 
  184.6250     2.2900    64.0410   103.1150    99.6220    87.3540    24.6270   -27.1150 
  184.7500     2.2940    63.5370    96.4540    90.6250    77.2050    24.6430   -27.0250 
  184.8750     2.2950    64.4970    96.9700    88.7030    74.8480    24.6220   -26.9490 
