~V
VERS. 2.00: Ver 2.00
~W
STRT.M 7.0000:
STOP.M 259.0000:
STEP.M 0.1250:
NULL. -999.2500:
UWI. F11018:
~C
DEPT.M :
DEN.GM/CC :
SP.MV :
GR.API :
RML.OHMM :
RI. :
RXO.OHMM :
CALI.CM :
~A
# ...
  130.7500     2.4890    -3.6060    51.5130    12.8820    11.0670    15.6920    24.5860 
  130.8750     2.4910    -2.9570    47.9830    13.3480    11.6590    13.8320    24.4990 
  131.0000     2.4920    -2.4460    49.0740    13.3950    11.8740    13.6120    24.1310 
  131.1250     2.4930    -2.0840    50.8690    13.1500    11.7990    12.5090    23.7740 
  131.2500     2.4970    -1.8000    52.5020    12.6850    11.4900    11.3630    23.5390 
  131.3750     2.5030    -1.5950    54.1070    12.0970    11.0210    11.1470    23.5930 
  131.5000     2.5020    -1.5050    56.9260    11.5950    10.5340    11.1050    23.8960 
  131.6250     2.4930    -1.3930    60.0250    11.4350    10.2460    10.4220    24.2480 
  131.7500     2.4880    -1.2720    62.3390    11.8140    10.3390     9.6860    24.4700 
  131.8750     2.4990    -1.2090    62.3850    12.8480    10.9420    11.0430    24.5660 
  132.0000     2.5270    -1.1680    57.7870    14.6500    12.2030    14.0090    24.5470 
  132.1250     2.5610    -1.1080    51.7270    16.9220    13.9500    18.5570    24.5210 
  132.2500     2.5870    -1.1080    47.2900    19.2430    15.9150    23.2720    24.4970 
  132.3750     2.5960    -1.1590    45.0220    20.9940    17.6250    24.7750    24.4880 
  132.5000     2.5880    -1.1970    45.2520    21.4840    18.4420    23.6750    24.4520 
  132.6250     2.5740    -1.2750    47.8630    21.0350    18.4330    22.1920    24.3730 
  132.7500     2.5590    -1.4070    51.3350    20.2060    17.9480    20.9840    24.3080 
  132.8750     2.5470    -1.5250    53.5050    19.5100    17.3960    19.6610    24.2210 
  133.0000     2.5450    -1.6390    54.9790    19.3120    17.1290    18.4150    24.0520 
  133.1250     2.5540    -1.7930    55.9420    19.6050    17.2420    18.5820    23.9170 
  133.2500     2.5620    -1.9010    54.1500    20.3470    17.7490    20.5430    24.0190 
  133.3750     2.5650    -1.9940    51.3230    21.4710    18.6170    22.1530    24.3250 
  133.5000     2.5690    -2.1090    49.1440    22.8980    19.8020    23.4160    24.4910 
  133.6250     2.5830    -2.2160    45.6050    24.3520    21.0730    25.4960    24.4530 
  133.7500     2.5980    -2.3090    42.4700    25.5140    22.1760    29.0340    24.3420 
  133.8750     2.6050    -2.3890    43.4250    26.0700    22.8540    32.1230    24.2140 
  134.0000     2.5970    -2.4500    47.8270    25.7640    22.8530    28.7830    23.9970 
  134.1250     2.5780    -2.5110    49.1940    24.9020    22.3430    23.4070    23.8180 
  134.2500     2.5520    -2.5760    48.3800    23.8750    21.5840    20.4910    23.8880 
  134.3750     2.5300    -2.5840    49.9130    23.1100    20.9210    21.5190    24.1630 
  134.5000     2.5240    -2.5710    52.7880    23.0150    20.7260    23.1450    24.3060 
  134.6250     2.5300    -2.5860    54.0520    23.5330    21.0360    23.2270    24.2990 
  134.7500     2.5390    -2.5740    53.9260    24.4800    21.7580    23.2880    24.2180 
  134.8750     2.5480    -2.5830    54.0740    25.5570    22.6730    24.8270    24.1490 
  135.0000     2.5550    -2.6420    53.9560    26.3680    23.4590    28.0090    24.0640 
  135.1250     2.5540    -2.6740    51.9430    26.7340    23.9170    28.8400    23.8610 
  135.2500     2.5440    -2.7060    49.4840    26.6480    24.0100    27.6110    23.5880 
  135.3750     2.5340    -2.7950    47.1890    26.2000    23.7960    26.3160    23.4450 
  135.5000     2.5270    -2.9160    47.1470    25.4440    23.3180    27.3000    23.6750 
  135.6250     2.5170    -3.0330    49.8680    24.5070    22.6760    26.9620    24.1550 
  135.7500     2.5010    -3.2050    52.1970    23.4920    21.9450    24.7460    24.5110 
  135.8750     2.4880    -3.3800    52.0340    22.5400    21.2300    22.6230    24.5170 
  136.0000     2.4890    -3.5340    51.5230    21.8780    20.6980    21.7830    24.3490 
  136.1250     2.5030    -3.7280    53.0730    21.6500    20.4640    21.3470    24.2660 
  136.2500     2.5220    -3.9490    55.1280    21.9790    20.6540    22.8500    24.2850 
  136.3750     2.5380    -4.1420    55.3490    22.8820    21.3560    24.8940    24.2960 
  136.5000     2.5420    -4.3430    54.2890    24.1190    22.5110    24.6290    24.3000 
  136.6250     2.5330    -4.5630    54.8620    24.8970    23.4960    22.4200    24.3250 
  136.7500     2.5170    -4.7460    58.0040    24.3010    23.4500    23.3500    24.3080 
  136.8750     2.4960    -4.9470    61.3350    21.7850    21.6800    25.7060    24.2110 
  137.0000     2.4650    -5.1760    61.8880    17.7770    18.2530    23.2700    24.0050 
  137.1250     2.4180    -5.3430    63.5480    13.9540    14.6680    15.5020    23.7950 
  137.2500     2.3680    -5.5020    71.1510    11.2750    11.8970     9.9200    23.5950 
  137.3750     2.3370    -5.6660    79.8570    10.0390    10.3210     8.1240    23.2850 
  137.5000     2.3440    -5.7180    81.9700    10.3860    10.1460     8.2540    22.8120 
  137.6250     2.3780    -5.7210    77.8000    11.9070    11.1170     9.2920    22.3540 
  137.7500     2.4250    -5.7050    70.2040    14.3110    13.1520    11.9130    22.0210 
  137.8750     2.4660    -5.6160    63.1690    16.9620    15.8640    16.9520    21.9900 
  138.0000     2.4720    -5.4900    60.2620    18.3670    17.9370    20.3580    22.5830 
  138.1250     2.4420    -5.3960    62.3140    17.5910    18.0000    20.4790    23.4480 
  138.2500     2.4020    -5.2710    65.4190    14.9390    15.9170    19.6640    24.1820 
  138.3750     2.3710    -5.1030    67.7620    11.6930    12.8180    17.2860    24.4890 
  138.5000     2.3470    -4.9900    73.8390     9.2330    10.1470    12.1710    24.4570 
  138.6250     2.3280    -4.9010    81.3540     7.8850     8.4320     8.6370    24.3840 
  138.7500     2.3220    -4.8170    85.2390     7.5970     7.6870     7.5810    24.3340 
  138.8750     2.3380    -4.7480    82.7930     8.2640     7.8370     8.1010    24.2770 
  139.0000     2.3780    -4.6800    75.2110     9.9360     8.9950    11.3450    24.1860 
  139.1250     2.4360    -4.6010    66.9630    12.3020    10.9670    17.9540    24.1580 
  139.2500     2.4960    -4.5120    61.5520    15.0140    13.5320    23.5980    24.3180 
  139.3750     2.5340    -4.4600    60.5810    17.5270    16.2030    23.0360    24.6110 
  139.5000     2.5320    -4.4350    60.4890    19.1560    18.2250    21.9050    24.7360 
  139.6250     2.5170    -4.3980    57.5980    19.9270    19.3760    22.5870    24.7320 
  139.7500     2.5070    -4.3980    53.8940    20.1820    19.8480    24.3830    24.6940 
  139.8750     2.5070    -4.4340    51.2650    20.3710    20.0400    25.6460    24.6720 
  140.0000     2.5100    -4.4880    50.4400    20.8300    20.2890    24.8470    24.6570 
  140.1250     2.5120    -4.5770    50.3730    21.5320    20.6700    24.0450    24.6270 
  140.2500     2.5160    -4.7130    50.8610    22.3340    21.1210    26.2350    24.4750 
  140.3750     2.5250    -4.8490    50.7520    23.0480    21.5400    31.2230    24.0700 
  140.5000     2.5310    -4.9960    48.7390    23.4440    21.7810    31.2590    23.5460 
  140.6250     2.5210    -5.1620    45.4800    23.5100    21.8130    26.6840    23.2670 
  140.7500     2.5010    -5.2870    43.6240    23.3060    21.6620    23.0990    23.0790 
  140.8750     2.4880    -5.4030    44.7480    22.9260    21.3830    22.3530    22.8910 
  141.0000     2.4930    -5.5080    46.2560    22.4250    21.0130    23.6960    22.8300 
  141.1250     2.5050    -5.5430    47.2130    21.8310    20.5750    24.7870    22.8330 
  141.2500     2.5160    -5.5460    50.6540    21.1130    20.0350    23.6780    22.8600 
  141.3750     2.5220    -5.5300    56.5380    20.2560    19.3530    20.6140    22.9740 
  141.5000     2.5220    -5.4140    60.2770    19.2880    18.5180    18.0330    23.3630 
  141.6250     2.5170    -5.2550    61.4580    18.2940    17.6140    17.5980    23.9810 
  141.7500     2.5060    -5.1100    62.1170    17.3310    16.7040    16.7160    24.5590 
  141.8750     2.4910    -4.9550    63.1770    16.4460    15.8430    14.9160    24.8620 
