~V
VERS. 2.00: Ver 2.00
~W
STRT.M 54.0000:
STOP.M 281.0000:
STEP.M 0.1250:
NULL. -999.2500:
UWI. F11055:
~C
DEPT.M :
SP.MV :
GR.API :
RML.OHMM :
RI. :
RXO.OHMM :
CALI.CM :
DEN.GM/CC :
~A
# ...
  256.5000    -0.8300    63.7740    14.3250    11.6190    15.7040    24.2170     2.4120 
  256.6250    -0.8310    65.1860    14.2230    11.5990    15.4060    24.2020     2.3910 
  256.7500    -0.8940    65.9750    14.0990    11.5670    14.1720    24.2030     2.3770 
  256.8750    -0.9520    66.0640    13.9610    11.5310    12.9660    24.2060     2.3740 
  257.0000    -1.0120    66.4700    13.8280    11.5010    12.4570    24.1980     2.3800 
  257.1250    -1.0230    65.2390    13.7250    11.4840    12.5330    24.2060     2.3860 
  257.2500    -1.0370    62.0400    13.6310    11.4630    12.7410    24.2180     2.3870 
  257.3750    -1.0500    58.7080    13.4930    11.3920    13.4200    24.2090     2.3870 
  257.5000    -1.1030    56.6840    13.2450    11.2180    14.2630    24.2070     2.3860 
  257.6250    -1.1200    57.0120    12.8340    10.8920    13.9210    24.2140     2.3840 
  257.7500    -1.1210    58.6810    12.3380    10.4790    11.9740    24.1790     2.3800 
  257.8750    -1.1140    62.0200    11.8720    10.0690     9.9180    24.1200     2.3770 
  258.0000    -1.0780    65.9370    11.5570     9.7580     8.8900    24.0820     2.3810 
  258.1250    -1.0580    67.3900    11.5220     9.6660     9.5900    24.0390     2.3960 
  258.2500    -1.0320    66.1830    11.7490     9.8010    10.8430    23.9880     2.4190 
  258.3750    -0.9970    63.9510    12.2020    10.1550    11.8880    23.9880     2.4420 
  258.5000    -0.9560    62.1070    12.8020    10.6820    12.5610    24.0360     2.4580 
  258.6250    -0.9430    61.5280    13.4460    11.2980    12.9030    24.0500     2.4680 
  258.7500    -0.8880    61.4760    14.0210    11.8820    13.2990    24.0480     2.4800 
  258.8750    -0.8190    60.9630    14.4750    12.3680    14.0400    24.0510     2.4920 
  259.0000    -0.7600    60.1850    14.7970    12.7300    14.6250    24.0210     2.5010 
  259.1250    -0.6890    62.1740    14.9820    12.9480    15.6920    23.9890     2.5050 
  259.2500    -0.6590    65.2740    15.0660    13.0450    16.7920    23.9590     2.5080 
  259.3750    -0.6240    65.9640    15.0550    13.0280    17.1580    23.9290     2.5080 
  259.5000    -0.6130    63.8870    14.9600    12.9110    16.8140    23.8850     2.4990 
  259.6250    -0.5680    63.7510    14.8050    12.7220    17.2820    23.8540     2.4740 
  259.7500    -0.5420    65.4620    14.6440    12.5370    17.7930    23.8790     2.4410 
  259.8750    -0.5530    66.9820    14.5350    12.4240    17.4320    24.0100     2.4150 
  260.0000    -0.5880    68.1530    14.5350    12.4340    17.0330    24.1120     2.4080 
  260.1250    -0.6270    67.8100    14.7050    12.6270    16.8730    24.1300     2.4230 
  260.2500    -0.6550    66.1550    14.9960    12.9580    16.6350    24.1400     2.4490 
  260.3750    -0.6910    64.3230    15.3080    13.3410    16.2550    24.1480     2.4730 
  260.5000    -0.6910    63.6770    15.4790    13.6310    16.5460    24.1320     2.4910 
  260.6250    -0.7320    63.8470    15.2840    13.6050    17.3410    24.1260     2.4990 
  260.7500    -0.7640    63.5820    14.7210    13.2230    17.3080    24.1270     2.4950 
  260.8750    -0.7960    62.7620    13.8910    12.5480    16.7950    24.1250     2.4780 
  261.0000    -0.8310    61.4450    12.9830    11.7400    16.1440    24.1340     2.4540 
  261.1250    -0.8490    59.5920    12.2260    11.0080    15.0670    24.1030     2.4340 
  261.2500    -0.8790    57.6670    11.7140    10.4750    13.4170    24.0640     2.4210 
  261.3750    -0.8910    56.5060    11.4580    10.1810    12.5160    24.0880     2.4200 
  261.5000    -0.9280    56.5460    11.4440    10.1300    13.0260    24.1490     2.4320 
  261.6250    -0.9150    56.3900    11.7270    10.3660    13.6170    24.1940     2.4520 
  261.7500    -0.9090    54.9990    12.2870    10.8490    13.8670    24.2100     2.4650 
  261.8750    -0.8940    53.1140    13.1120    11.5630    13.0890    24.2430     2.4690 
  262.0000    -0.9030    52.1490    14.1300    12.4530    11.8080    24.2500     2.4700 
  262.1250    -0.9590    51.7800    15.1940    13.4270    13.3850    24.2260     2.4760 
  262.2500    -0.9970    50.3170    16.1300    14.3440    16.3630    24.2210     2.4810 
  262.3750    -1.0390    47.2660    16.8460    15.1120    20.4140    24.2470     2.4820 
  262.5000    -1.0550    44.2740    17.3280    15.6860    23.9200    24.2490     2.4880 
  262.6250    -1.1110    43.2720    17.5940    16.0290    25.5880    24.2700     2.5090 
  262.7500    -1.1760    42.9830    17.7140    16.1880    22.9820    24.3160     2.5390 
  262.8750    -1.2510    43.9800    17.6730    16.1620    21.1380    24.3430     2.5620 
  263.0000    -1.2860    45.7720    17.4290    15.9360    19.3620    24.3260     2.5690 
  263.1250    -1.3100    46.4610    16.9270    15.4750    17.5050    24.3310     2.5600 
  263.2500    -1.3470    45.7510    16.2630    14.8610    16.3490    24.3540     2.5450 
  263.3750    -1.3740    44.6400    15.5480    14.1800    15.6740    24.3440     2.5320 
  263.5000    -1.4380    44.3540    14.9030    13.5360    15.6620    24.2850     2.5230 
  263.6250    -1.4900    45.4700    14.4310    13.0310    17.4610    24.2490     2.5170 
  263.7500    -1.5600    47.1640    14.1040    12.6640    20.5340    24.2330     2.5130 
  263.8750    -1.6110    48.5290    13.8850    12.4150    21.0140    24.2390     2.5080 
  264.0000    -1.6750    49.7860    13.7490    12.2680    17.2670    24.2430     2.5050 
  264.1250    -1.7130    51.6630    13.7070    12.2410    14.6960    24.2280     2.5060 
  264.2500    -1.7640    51.7680    13.7630    12.3230    14.5740    24.2210     2.5060 
  264.3750    -1.8180    49.1920    13.9400    12.5190    16.3000    24.2620     2.4980 
  264.5000    -1.8460    46.6220    14.2370    12.8220    18.0700    24.3250     2.4850 
  264.6250    -1.8580    46.7600    14.5890    13.1840    19.0240    24.3180     2.4770 
  264.7500    -1.8330    48.1690    14.8640    13.4970    18.3180    24.2660     2.4790 
  264.8750    -1.8180    50.3590    14.9530    13.6570    18.3640    24.2320     2.4890 
  265.0000    -1.7720    52.9940    14.7960    13.5990    19.3150    24.2230     2.5010 
  265.1250    -1.7550    54.2090    14.3870    13.2920    20.8650    24.2210     2.5080 
  265.2500    -1.7100    52.7560    13.8800    12.8600    20.7710    24.2220     2.5080 
  265.3750    -1.6840    50.1010    13.4030    12.4100    20.9950    24.2280     2.5060 
  265.5000    -1.6610    48.8340    13.0530    12.0340    20.6670    24.2380     2.5080 
  265.6250    -1.6500    50.1720    12.9010    11.8070    19.6990    24.2390     2.5090 
  265.7500    -1.6490    51.1630    12.8950    11.7160    17.1830    24.2370     2.4950 
  265.8750    -1.6650    50.0080    12.9750    11.7350    15.5420    24.2340     2.4620 
  266.0000    -1.6850    48.6230    13.0640    11.8040    16.2060    24.2290     2.4210 
  266.1250    -1.7050    49.4360    13.0700    11.8370    16.7620    24.2320     2.3970 
  266.2500    -1.7180    50.9800    12.9770    11.7880    14.9460    24.2370     2.3940 
  266.3750    -1.7320    52.0940    12.8150    11.6700    13.5490    24.2330     2.4090 
  266.5000    -1.7390    52.5660    12.6430    11.5320    12.9280    24.2310     2.4320 
  266.6250    -1.7480    52.6110    12.5360    11.4500    12.7210    24.2370     2.4540 
  266.7500    -1.7640    52.0550    12.5300    11.4550    12.7900    24.2340     2.4670 
  266.8750    -1.7600    51.5140    12.6230    11.5460    12.9380    24.2310     2.4710 
  267.0000    -1.7570    51.6870    12.7730    11.6840    12.8860    24.2370     2.4710 
  267.1250    -1.7840    52.0970    12.9080    11.8110    13.0160    24.2340     2.4690 
  267.2500    -1.8360    52.1490    12.9690    11.8770    13.3460    24.2230     2.4660 
  267.3750    -1.9020    51.2200    12.9370    11.8620    13.6440    24.2160     2.4600 
  267.5000    -1.9640    49.6220    12.8310    11.7770    13.5230    24.2150     2.4430 
  267.6250    -2.0230    49.6480    12.7180    11.6700    13.7930    24.2170     2.4150 
