~V
VERS. 2.00: Ver 2.00
~W
STRT.M 45.0000:
STOP.M 277.0000:
STEP.M 0.1250:
NULL. -999.2500:
UWI. F11056:
~C
DEPT.M :
GR.API :
RML.OHMM :
RI. :
RXO.OHMM :
CALI.CM :
DEN.GM/CC :
SP.MV :
~A
   45.0000     0.0000     0.0000     0.0000     0.0000     0.0000  -999.2500  -999.2500 
   45.1250    26.6400    12.4900     2.7620     0.7490    12.5110  -999.2500  -999.2500 
   45.2500    53.3490    24.5790     5.4940     1.4960    25.0220  -999.2500  -999.2500 
   45.3750    54.0920    23.5300     5.4540     1.4980    25.0210  -999.2500  -999.2500 
   45.5000    57.6640    22.5720     5.4160     1.5170    25.0250  -999.2500  -999.2500 
   45.6250    57.0720    22.1340     5.4340     1.4970    25.0220  -999.2500  -999.2500 
   45.7500    58.5510    22.0860     5.4630     1.4730    25.0230  -999.2500  -999.2500 
   45.8750    62.0430    22.1970     5.4820     1.4780    25.0260  -999.2500  -999.2500 
   46.0000    61.8600    22.2640     5.4710     1.4850    25.0270  -999.2500  -999.2500 
   46.1250    57.8560    21.9750     5.4370     1.5000    25.0280  -999.2500  -999.2500 
   46.2500    53.6580    21.0770     5.3920     1.5190    25.0250  -999.2500  -999.2500 
   46.3750    51.5190    19.6130     5.3410     1.5310    25.0230  -999.2500  -999.2500 
   46.5000    52.2960    18.0560     5.2800     1.5420    25.0220  -999.2500  -999.2500 
   46.6250    54.2930    16.9940     5.2020     1.5430    25.0180  -999.2500  -999.2500 
   46.7500    56.3010    16.6890     5.1060     1.5510    24.9990  -999.2500  -999.2500 
   46.8750    57.2510    17.0920     4.9980     1.5690    24.9300  -999.2500  -999.2500 
   47.0000    56.4230    17.8230     4.8880     1.6060    24.8080  -999.2500  -999.2500 
   47.1250    54.5340    18.2230     4.7810     1.6430    24.6700  -999.2500  -999.2500 
   47.2500    52.7230    17.9000     4.6820     1.6710    24.5910  -999.2500  -999.2500 
   47.3750    52.9590    16.8550     4.5970     1.6680    24.5680  -999.2500  -999.2500 
   47.5000    55.3460    15.5420     4.5370     1.6920    24.5700  -999.2500  -999.2500 
   47.6250    57.8690    14.6150     4.5000     1.7150    24.5710  -999.2500  -999.2500 
   47.7500    59.4500    14.3660     4.4830     1.6930    24.5730  -999.2500  -999.2500 
   47.8750    60.2090    14.7000     4.4760     1.6760    24.5810  -999.2500  -999.2500 
   48.0000    60.1310    15.0960     4.4590     1.6730    24.5890  -999.2500  -999.2500 
   48.1250    57.9750    14.9680     4.4140     1.6600    24.6020  -999.2500  -999.2500 
   48.2500    55.6570    14.1650     4.3320     1.6190    24.6150  -999.2500  -999.2500 
   48.3750    56.6060    12.9920     4.2180     1.5900    24.6190  -999.2500  -999.2500 
   48.5000    60.1460    12.0720     4.0910     1.5960    24.5880  -999.2500  -999.2500 
   48.6250    60.4270    11.7200     3.9740     1.6250    24.4940  -999.2500  -999.2500 
   48.7500    56.1170    11.8690     3.8740     1.7060    24.2940  -999.2500  -999.2500 
   48.8750    51.7020    12.2130     3.7870     1.8610    23.9650  -999.2500     0.0000 
   49.0000    49.3720    12.3680     3.7020     2.0490    23.6590  -999.2500     0.0000 
   49.1250    46.9000    12.2470     3.6150     2.2220    23.4130  -999.2500     0.0000 
   49.2500    44.1800    11.9870     3.5270     2.3330    23.2520  -999.2500     0.0000 
   49.3750    42.6930    11.7680     3.4430     2.4150    23.1670  -999.2500     0.0000 
   49.5000    43.3210    11.6270     3.3720     2.4740    23.1460  -999.2500   257.9990 
   49.6250    44.5370    11.4180     3.3170     2.5480    23.1440  -999.2500   257.9990 
   49.7500    45.1890    11.0530     3.2800     2.6040    23.1560  -999.2500   257.9990 
   49.8750    44.5520    10.5780     3.2600     2.5980    23.1840  -999.2500   257.9990 
   50.0000    43.7970    10.1310     3.2530     2.5500    23.1970  -999.2500   257.9990 
   50.1250    43.4130     9.7720     3.2510     2.5360    23.1860  -999.2500   257.9990 
   50.2500    42.8620     9.4640     3.2460     2.5560    23.1390  -999.2500   257.9990 
   50.3750    41.6160     9.1510     3.2330     2.6230    23.0880  -999.2500   257.9990 
   50.5000    43.4310     8.8150     3.2080     2.6750    23.0730  -999.2500   257.9990 
   50.6250    47.6710     8.5170     3.1730     2.6900    23.1170  -999.2500   257.9990 
   50.7500    50.5120     8.3250     3.1270     2.6350    23.2140  -999.2500   257.9990 
   50.8750    50.1300     8.2570     3.0750     2.4330    23.4300  -999.2500   257.9210 
   51.0000    47.7180     8.2700     3.0300     2.0970    23.8350  -999.2500   257.5670 
   51.1250    46.2590     8.3050     3.0040     1.7910    24.3380  -999.2500   256.9480 
   51.2500    46.7070     8.4330     3.0000     1.6270    24.7640  -999.2500   256.0200 
   51.3750    46.8070     8.8080     3.0140     1.5720    24.9950  -999.2500   254.7420 
   51.5000    44.6610     9.5320     3.0310     1.5640    25.0800  -999.2500   253.0690 
   51.6250    42.5710    10.2130     3.0370     1.5580    25.1200  -999.2500   250.9960 
   51.7500    41.8710    10.3120     3.0280     1.5380    25.1440  -999.2500   248.4980 
   51.8750    41.6730     9.5650     3.0080     1.5140    25.1520  -999.2500   245.6060 
   52.0000    42.4730     8.3210     2.9900     1.5190    25.1020  -999.2500   242.3740 
   52.1250    44.6180     7.3590     2.9790     1.5580    24.9540  -999.2500   238.8090 
   52.2500    45.6640     6.9540     2.9780     1.6150    24.7530  -999.2500   234.9170 
   52.3750    44.6280     6.9250     2.9850     1.6630    24.6160  -999.2500   230.7000 
   52.5000    43.7160     6.8530     2.9910     1.7090    24.5850  -999.2500   225.9350 
   52.6250    42.2580     6.4730     2.9860     1.7250    24.6260  -999.2500   220.7630 
   52.7500    39.7250     5.7870     2.9630     1.6840    24.7700  -999.2500   215.3230 
   52.8750    39.2690     4.9640     2.9240     1.5910    24.9760     0.0090   209.7320 
   53.0000    41.2690     4.2780     2.8780     1.5170    25.1860     0.0090   203.9250 
   53.1250    42.1820     3.8940     2.8360     1.4780    25.3370     0.9640   197.9100 
   53.2500    41.4900     3.8760     2.8070     1.4590    25.4010     1.9220   191.6860 
   53.3750    41.7850     4.2000     2.7940     1.4480    25.4140     1.9250   185.2180 
   53.5000    43.4670     4.6490     2.8050     1.4510    25.4120     1.9220   178.5800 
   53.6250    43.0520     4.7700     2.8400     1.4600    25.3990     1.9140   171.8400 
   53.7500    41.2030     4.3310     2.8900     1.4680    25.3430     1.9070   164.8770 
   53.8750    42.4460     3.5220     2.9390     1.4360    25.2120     1.9050   157.5130 
   54.0000    47.0450     2.9280     2.9640     1.4630    25.0650     1.9110   149.7120 
   54.1250    49.7880     2.9300     2.9620     1.5940    25.0390     1.9180   141.6790 
   54.2500    49.3660     3.5650     2.9410     1.6660    25.1640     1.9220   133.4010 
   54.3750    47.9890     4.6220     2.9130     1.6280    25.3890     1.9230   125.0050 
   54.5000    46.3180     5.6930     2.8840     1.5920    25.6130     1.9260   116.3700 
   54.6250    43.2880     6.4370     2.8590     1.6110    25.7160     1.9350   107.4880 
   54.7500    40.5950     6.7590     2.8430     1.6120    25.7320     1.9500    98.4330 
   54.8750    40.1060     6.6760     2.8400     1.6080    25.6560     1.9660    89.3600 
   55.0000    41.0450     6.1850     2.8510     1.6570    25.3310     1.9770    80.4540 
   55.1250    41.8510     5.4860     2.8680     1.8310    24.7890     1.9810    71.7220 
   55.2500    42.2840     4.7900     2.8800     2.0600    24.3450     1.9810    63.4440 
   55.3750    43.1840     4.2800     2.8800     2.1830    24.1870     1.9780    55.6920 
   55.5000    44.2010     4.0440     2.8740     2.1890    24.2340     1.9730    48.8440 
   55.6250    44.1590     3.9740     2.8720     2.2000    24.2610     1.9690    42.9690 
   55.7500    42.4850     3.9700     2.8780     2.2330    24.2560     1.9680    38.0910 
   55.8750    39.4830     3.9280     2.8900     2.2710    24.2560     1.9710    34.1860 
   56.0000    37.1020     3.7510     2.9030     2.2760    24.2680     1.9780    31.3160 
   56.1250    38.6120     3.4850     2.9070     2.2250    24.2890     1.9860    29.2290 
