~V
VERS. 2.00: Ver 2.00
~W
STRT.M 52.0000:
STOP.M 235.0000:
STEP.M 0.1250:
NULL. -999.2500:
UWI. F11014:
~C
DEPT.M :
DEN.GM/CC :
GR.API :
RML.OHMM :
RI. :
RXO.OHMM :
CALI.CM :
SP.MV :
~A
# ...
  220.7500     2.4370    69.2890    10.5090     7.9610     8.5100    24.3310    -6.7250 
  220.8750     2.4350    69.3860    10.3770     7.8590     8.3470    24.3300    -6.6890 
  221.0000     2.4260    68.5660    10.2370     7.7600     8.1350    24.3530    -6.6390 
  221.1250     2.4170    68.5350    10.1300     7.6950     8.0010    24.3830    -6.6250 
  221.2500     2.4110    68.2220    10.0970     7.6790     8.0600    24.3870    -6.5790 
  221.3750     2.4120    65.5190    10.1740     7.7260     8.5610    24.3840    -6.5420 
  221.5000     2.4180    62.8230    10.3480     7.8340     9.6790    24.3840    -6.5610 
  221.6250     2.4220    63.9810    10.5760     7.9930    10.7980    24.3840    -6.5490 
  221.7500     2.4250    67.9380    10.8210     8.1860    11.1480    24.3900    -6.4570 
  221.8750     2.4250    69.7270    11.0460     8.3850    10.5400    24.3830    -6.3850 
  222.0000     2.4270    69.2210    11.2290     8.5580     9.5110    24.3560    -6.3240 
  222.1250     2.4350    69.4770    11.3620     8.6830     8.5630    24.3530    -6.2460 
  222.2500     2.4470    70.6240    11.4380     8.7570     7.9330    24.3970    -6.2000 
  222.3750     2.4570    70.7680    11.4510     8.7830     7.7770    24.4400    -6.1380 
  222.5000     2.4620    70.4600    11.4020     8.7800     8.0120    24.4550    -6.0450 
  222.6250     2.4630    70.7840    11.3010     8.7590     8.5180    24.4590    -5.9570 
  222.7500     2.4590    70.5170    11.1620     8.7230     9.2310    24.4640    -5.8960 
  222.8750     2.4520    70.0800    11.0120     8.6720     9.9130    24.4610    -5.8390 
  223.0000     2.4470    71.5290    10.8910     8.6210    10.0250    24.4400    -5.7820 
  223.1250     2.4540    73.7300    10.8380     8.5940     9.4440    24.4020    -5.7330 
  223.2500     2.4710    73.2770    10.8770     8.6200     8.7130    24.3880    -5.6790 
  223.3750     2.4960    70.3780    11.0200     8.7230     8.3120    24.4040    -5.6360 
  223.5000     2.5160    68.7300    11.2340     8.8860     8.2580    24.4230    -5.6020 
  223.6250     2.5220    69.2040    11.4620     9.0710     8.4560    24.4160    -5.5590 
  223.7500     2.5090    69.5130    11.6490     9.2320     8.7400    24.3740    -5.5420 
  223.8750     2.4860    69.2010    11.7380     9.3260     8.9670    24.3330    -5.5210 
  224.0000     2.4650    69.8130    11.7140     9.3340     9.3000    24.3250    -5.4880 
  224.1250     2.4490    70.8920    11.5870     9.2600     9.6000    24.3410    -5.4690 
  224.2500     2.4320    70.7490    11.3790     9.1190     9.4790    24.3770    -5.4850 
  224.3750     2.4140    69.6000    11.1390     8.9490     9.3540    24.4110    -5.5060 
  224.5000     2.4010    69.0670    10.9440     8.8070     9.5960    24.4280    -5.5080 
  224.6250     2.4000    69.0670    10.8630     8.7430    10.0250    24.4350    -5.5190 
  224.7500     2.4070    69.0670    10.9310     8.7860    10.3180    24.4410    -5.5450 
  224.8750     2.4140    69.0670    11.1470     8.9450    10.8830    24.4430    -5.5870 
  225.0000     2.4240    69.0670    11.4450     9.1790    12.0810    24.4340    -5.6480 
  225.1250     2.4460    69.0670    11.7320     9.4230    13.4420    24.4260    -5.6830 
  225.2500     2.4790    69.0670    11.9340     9.6100    14.5040    24.4230    -5.6450 
  225.3750     2.5070    69.0670    12.0110     9.6860    15.1810    24.4210    -5.6050 
  225.5000     2.5220    69.0670    11.9940     9.6570    14.9120    24.4230    -5.5870 
  225.6250     2.5230    69.0670    11.9450     9.5780    13.6620    24.4320    -5.5820 
  225.7500     2.5170    69.0670    11.9130     9.5080    12.4170    24.4430    -5.5500 
  225.8750     2.5080    69.0670    11.9220     9.4890    11.9340    24.4520    -5.5310 
  226.0000     2.4960    69.0670    11.9600     9.5160    12.5250    24.4520    -5.5370 
  226.1250     2.4820    69.0670    12.0100     9.5590    14.7610    24.4440    -5.5260 
  226.2500     2.4670    69.0670    12.0600     9.5960    18.3590    24.4330    -5.5400 
  226.3750     2.4430    69.0670    12.0980     9.6200    20.8270    24.4340    -5.5810 
  226.5000     2.4140    69.0670    12.1140     9.6370    19.0250    24.4240    -5.6120 
  226.6250     2.4000    69.0670    12.1080     9.6510    15.7280    24.3860    -5.6450 
  226.7500     2.4130    69.0670    12.0830     9.6640    14.1320    24.3360    -5.7060 
  226.8750     2.4480    69.0670    12.0480     9.6730    14.4570    24.3050    -5.7420 
  227.0000     2.4840    69.0670    12.0200     9.6760    16.1620    24.2810    -5.7420 
  227.1250     2.5110    69.0670    12.0070     9.6770    17.3470    24.2540    -5.7560 
  227.2500     2.5250    69.0670    12.0060     9.6770    17.3100    24.2240    -5.7660 
  227.3750     2.5260    69.0670    12.0010     9.6790    16.1590    24.2400    -5.7770 
  227.5000     2.5160    69.0670    11.9880     9.6850    15.1810    24.2920    -5.7920 
  227.6250     2.4990    69.0670    11.9770     9.6920    15.0590    24.3440    -5.7660 
  227.7500     2.4810    69.0670    11.9870     9.6990    15.3870    24.3760    -5.7020 
  227.8750     2.4710    69.0670    12.0310     9.7030    15.4110    24.3520    -5.6520 
  228.0000     2.4730    69.0670    12.0950     9.7040    14.6470    24.2960    -5.6450 
  228.1250     2.4840    69.0670    12.1510     9.7030    13.4040    24.2340    -5.6700 
  228.2500     2.5010    69.0670    12.1830     9.7020    12.0890    24.1770    -5.7060 
  228.3750     2.5160    69.0670    12.1940     9.7000    11.0710    24.1640    -5.6870 
  228.5000     2.5200    69.0670    12.1950     9.6980    10.6460    24.1960    -5.5790 
  228.6250     2.5150    69.0670    12.1910     9.6950    11.0990    24.2370    -5.4640 
  228.7500     2.5070    69.0670    12.1810     9.6890    12.4710    24.2470    -5.3650 
  228.8750     2.4960    69.0670    12.1610     9.6830    14.3910    24.2000    -5.2320 
  229.0000     2.4850    69.0670    12.1310     9.6790    14.8120    24.1340    -5.0870 
  229.1250     2.4790    69.0670    12.0960     9.6790    13.5810    24.0980    -4.9370 
  229.2500     2.4820    69.0670    12.0650     9.6840    12.2570    24.1050    -4.7600 
  229.3750     2.4950    69.0670    12.0550     9.6910    11.8010    24.1400    -4.6530 
  229.5000     2.5120    69.0670    12.0680     9.6960    12.5510    24.2010    -4.6480 
  229.6250     2.5250    69.0670    12.0930     9.6960    14.3750    24.2600    -4.8590 
  229.7500     2.5320    69.0670    12.1080     9.6910    15.8250    24.2940  -999.2500 
  229.8750     2.5330    69.0670    12.1050     9.6850    17.2880    24.2940  -999.2500 
  230.0000     2.5240    69.0670    12.0650     9.6770    20.1310    24.2790  -999.2500 
  230.1250     2.5060    69.0670    12.0190     9.6750    19.4160    24.2750  -999.2500 
  230.2500     2.4820    69.0670    11.9920     9.6780    15.3380    24.2730  -999.2500 
  230.3750     2.4560    69.0670    11.9840     9.6790    12.1340    24.2360  -999.2500 
  230.5000     2.4290    69.0670    11.9840     9.6790    10.7480    24.1000  -999.2500 
  230.6250     2.4050    69.0670    11.9840     9.6790    10.3260    23.7740  -999.2500 
  230.7500     2.3830    69.0670    11.9840     9.6790    10.0700    23.1860  -999.2500 
  230.8750     2.3610    69.0670    11.9840     9.6790     9.3050    22.1660  -999.2500 
  231.0000     2.3360    69.0670    11.9840     9.6790     7.8710    20.5210  -999.2500 
  231.1250     2.3180    69.0670    11.9840     9.6790     6.5070    18.1790  -999.2500 
  231.2500     2.3120    69.0670    11.9840     9.6790     5.7340    15.9380  -999.2500 
  231.3750     2.3160    69.0670    11.9840     9.6790     5.4380    14.6180  -999.2500 
  231.5000     2.3220    69.0670    11.9840     9.6790     5.3520    14.1560  -999.2500 
  231.6250     2.3250    69.0670    11.9840     9.6790     5.3160    14.0780  -999.2500 
  231.7500     2.3230    69.0670    11.9840     9.6790     5.3020    14.0760  -999.2500 
  231.8750     2.3180    69.0670    11.9840     9.6790     5.3150    14.0780  -999.2500 
