~V
VERS. 2.00: Ver 2.00
~W
STRT.M 52.0000:
STOP.M 278.0000:
STEP.M 0.1250:
NULL. -999.2500:
UWI. F11035:
~C
DEPT.M :
DEN.GM/CC :
GR.API :
RML.OHMM :
RI. :
RXO.OHMM :
CALI.CM :
SP.MV :
~A
# ...
  175.7500     2.3030    66.0070    47.5180    47.5990    39.1500    24.7650   -21.0740 
  175.8750     2.3070    65.8260    48.3810    47.3110    38.9230    24.7830   -20.9620 
  176.0000     2.3020    66.6920    52.1290    50.0660    47.7250    24.8100   -20.8410 
  176.1250     2.2910    68.4870    58.8560    56.2370    56.5220    24.8220   -20.7500 
  176.2500     2.2780    70.0530    67.4210    64.8000    63.0830    24.8470   -20.6900 
  176.3750     2.2650    69.8200    76.8550    74.6880    63.3670    24.8640   -20.7130 
  176.5000     2.2530    67.8050    86.0360    84.4720    61.1010    24.8350   -20.7750 
  176.6250     2.2440    66.6510    93.5860    92.4860    76.9630    24.7950   -20.8780 
  176.7500     2.2390    67.2040    98.9830    98.1460    91.5940    24.8070   -20.9940 
  176.8750     2.2390    68.0790   101.9560   101.1470    96.5620    24.8250   -21.1050 
  177.0000     2.2410    69.3670   102.5870   101.5060    96.3020    24.8370   -21.2370 
  177.1250     2.2450    72.2010   101.0920    99.4140    91.5900    24.8350   -21.3700 
  177.2500     2.2460    74.6040    98.6160    96.1750    90.6840    24.7660   -21.4560 
  177.3750     2.2440    75.5010    95.9710    92.7140    84.8900    24.6710   -21.4630 
  177.5000     2.2390    74.7300    93.8460    89.8000    74.9390    24.5630   -21.4510 
  177.6250     2.2350    73.2010    92.9450    88.1680    71.1860    24.4900   -21.3920 
  177.7500     2.2370    71.7300    93.4060    87.9530    73.6320    24.5370   -21.3090 
  177.8750     2.2430    70.2770    95.3730    89.3230    80.2850    24.7770   -21.2020 
  178.0000     2.2500    69.8520    98.8920    92.3650    87.1170    25.1280   -21.0860 
  178.1250     2.2510    71.4120   104.0280    97.2710    89.9700    25.3790   -21.0130 
  178.2500     2.2470    74.2320   109.9450   103.3730    93.5140    25.4090   -20.9650 
  178.3750     2.2400    75.8220   115.4920   109.7930   100.7320    25.3100   -20.9550 
  178.5000     2.2350    74.8090   118.9690   114.8930   109.3740    25.2260   -21.0070 
  178.6250     2.2380    72.3040   117.9190   115.6820   107.1440    25.1200   -21.1050 
  178.7500     2.2470    69.3040   112.6020   111.5740   102.1580    25.0530   -21.2040 
  178.8750     2.2570    67.1560   104.4910   103.7160    95.5680    25.0470   -21.3260 
  179.0000     2.2660    67.1130    96.0700    94.7800    83.2010    25.0580   -21.4880 
  179.1250     2.2660    69.6960    90.2040    88.1030    63.8780    24.9860   -21.6070 
  179.2500     2.2580    72.6980    87.5560    84.8640    55.3970    24.8870   -21.7320 
  179.3750     2.2450    74.6820    87.6170    84.7830    70.6040    24.9310   -21.8430 
  179.5000     2.2330    75.6600    89.0880    86.5820    96.1400    25.0830   -21.9510 
  179.6250     2.2290    73.8930    90.3070    88.4500   120.5220    25.2050   -22.0630 
  179.7500     2.2320    70.7660    90.3540    89.0550   119.6270    25.2280   -22.2010 
  179.8750     2.2400    69.6290    89.3400    88.2510   101.5310    25.1880   -22.3050 
  180.0000     2.2480    71.1860    88.0170    86.8310    86.4820    25.0800   -22.3510 
  180.1250     2.2520    73.0490    87.3410    86.0130    85.2010    24.9710   -22.3640 
  180.2500     2.2550    71.9500    87.4340    86.0960    92.5570    24.8720   -22.3610 
  180.3750     2.2560    69.1870    87.8890    86.6390    96.4170    24.8180   -22.3770 
  180.5000     2.2590    68.4150    88.1470    86.9430    96.3700    24.8040   -22.3530 
  180.6250     2.2590    69.4460    87.8410    86.4090    94.2910    24.8030   -22.3300 
  180.7500     2.2570    69.7810    87.2900    85.3520    87.4910    24.7750   -22.2790 
  180.8750     2.2550    68.7420    86.9830    84.3900    83.2050    24.7290   -22.2330 
  181.0000     2.2560    68.0100    87.3700    84.1230    85.5180    24.6320   -22.2240 
  181.1250     2.2620    69.0640    88.8490    85.0260    89.3550    24.5360   -22.2780 
  181.2500     2.2690    70.4920    91.2430    86.8990    90.3190    24.6000   -22.3120 
  181.3750     2.2690    71.2910    94.3930    89.5620    91.4150    24.7310   -22.3190 
  181.5000     2.2590    70.5370    98.0680    92.7830    95.1260    24.7860   -22.3570 
  181.6250     2.2410    69.5970   101.9490    96.2920   100.1920    24.7850   -22.3760 
  181.7500     2.2240    68.7450   105.5830    99.6800   105.0960    24.7920   -22.3610 
  181.8750     2.2150    68.5360   108.5980   102.5670   106.9660    24.8360   -22.3090 
  182.0000     2.2140    69.6530   110.7570   104.6240   106.8650    24.8660   -22.1970 
  182.1250     2.2170    71.2220   111.9880   105.6400   105.6270    24.8220   -22.1150 
  182.2500     2.2210    70.0780   112.8430   106.1460   104.3780    24.7200   -22.0700 
  182.3750     2.2260    67.9370   113.8530   106.7350    99.4020    24.5930   -22.0490 
  182.5000     2.2300    68.4540   115.4700   107.9670    91.1500    24.5560   -21.9310 
  182.6250     2.2330    69.7500   118.0120   110.3100    99.7320    24.6050   -21.7680 
  182.7500     2.2310    68.8520   121.0880   113.4310   114.8430    24.6230   -21.5900 
  182.8750     2.2260    66.8540   124.1100   116.7610   120.9590    24.6040   -21.4390 
  183.0000     2.2220    65.6120   126.2910   119.4850   116.7950    24.5730   -21.3050 
  183.1250     2.2240    65.6500   126.5090   120.4040   108.9020    24.5190   -21.1430 
  183.2500     2.2310    65.5070   124.5850   119.1900   110.9720    24.4590   -20.9910 
  183.3750     2.2400    65.1440   120.6690   115.8530   118.5250    24.4610   -20.8760 
  183.5000     2.2480    65.3740   115.4660   110.9060   118.2970    24.4670   -20.9140 
  183.6250     2.2530    67.8960   110.3960   105.5530   116.2160    24.4650   -21.0190 
  183.7500     2.2550    71.2260   107.1020   101.5940   110.7140    24.4580   -21.1490 
  183.8750     2.2550    73.1530   106.8170   100.5140   104.2610    24.4040   -21.2360 
  184.0000     2.2510    71.3500   110.1370   103.2820    97.6390    24.2810   -21.2960 
  184.1250     2.2450    67.3160   116.8880   110.5120    94.1600    24.1900   -21.3060 
  184.2500     2.2380    65.3720   124.2370   119.7850   110.3500    24.1790   -21.2660 
  184.3750     2.2320    66.5300   129.0610   127.8040   141.2260    24.1900   -21.1510 
  184.5000     2.2300    68.0660   128.6150   130.8490   152.0080    24.2420   -20.9490 
  184.6250     2.2340    67.9490   121.2080   125.8810   134.3590    24.3820   -20.7340 
  184.7500     2.2410    68.6460   109.9010   115.7590   109.4930    24.5580   -20.5180 
  184.8750     2.2480    70.1400    97.4760   103.5960    92.7720    24.6980   -20.4000 
  185.0000     2.2540    70.4730    86.0120    91.9070    82.3890    24.7880   -20.3970 
  185.1250     2.2550    69.8340    76.6890    82.1430    78.6970    24.8340   -20.4510 
  185.2500     2.2550    69.4870    69.1720    74.0330    76.9450    24.8510   -20.5540 
  185.3750     2.2550    70.7780    63.3410    67.4390    66.2290    24.8470   -20.6760 
  185.5000     2.2570    72.6660    59.2900    62.4830    54.9350    24.8330   -20.8540 
  185.6250     2.2590    71.5670    57.6790    59.8680    50.6410    24.8110   -21.0710 
  185.7500     2.2600    70.1990    58.4800    59.6460    51.5760    24.7970   -21.3780 
  185.8750     2.2600    71.0180    61.8570    62.0530    54.1220    24.7800   -21.6940 
  186.0000     2.2610    72.9810    67.8160    67.2090    59.7300    24.7450   -21.9580 
  186.1250     2.2620    72.1600    76.4990    75.4580    66.9850    24.7930   -22.2460 
  186.2500     2.2610    68.2030    86.9680    85.8560    75.6710    24.8870   -22.6310 
  186.3750     2.2560    64.1130    98.4780    97.5590    88.9060    24.9530   -23.0580 
  186.5000     2.2460    61.2890   110.1350   109.4910   102.4350    24.9630   -23.4160 
  186.6250     2.2320    60.2790   120.7980   120.2730   119.5530    24.9450   -23.7620 
  186.7500     2.2230    61.0900   129.8650   129.1760   121.5150    24.9540   -24.0620 
  186.8750     2.2210    61.6550   137.0210   135.8550   122.5670    24.9750   -24.3190 
