~V
VERS. 2.00: Ver 2.00
~W
STRT.M 50.0000:
STOP.M 275.0000:
STEP.M 0.1250:
NULL. -999.2500:
UWI. F11033:
~C
DEPT.M :
DEN.GM/CC :
GR.API :
RML.OHMM :
RI. :
RXO.OHMM :
CALI.CM :
SP.MV :
~A
# ...
   95.0000     2.2320    67.6890     9.1760     6.5250     7.6720    24.6800   -29.0530 
   95.1250     2.2200    62.6840    10.8350     7.5950    11.4000    24.5090   -29.1810 
   95.2500     2.2070    59.0860    12.6660     8.8910    16.5570    24.4110   -29.3330 
   95.3750     2.1850    56.5870    14.1630    10.1000    17.1640    24.3260   -29.5000 
   95.5000     2.1630    53.8800    14.8180    10.8500    14.2990    24.3580   -29.7300 
   95.6250     2.1660    52.3940    14.3350    10.8280    12.3650    24.6830   -30.0350 
   95.7500     2.2020    54.4230    13.2760    10.3050    12.2420    25.0800   -30.3280 
   95.8750     2.2390    58.8950    12.1180     9.5850    13.2890    25.2730   -30.5850 
   96.0000     2.2350    61.8420    11.1500     8.9040    15.3210    25.1510   -30.8040 
   96.1250     2.1920    60.3190    10.4940     8.3970    12.7000    24.8490   -30.9360 
   96.2500     2.1610    58.1770    10.0530     8.0340    10.8090    24.5940   -30.9870 
   96.3750     2.1520    57.1010     9.7580     7.7790     9.9860    24.4450   -30.9620 
   96.5000     2.1460    57.0410     9.5550     7.5930     9.8820    24.3010   -30.8650 
   96.6250     2.1310    58.2360     9.4000     7.4530     9.4880    24.0880   -30.7270 
   96.7500     2.1180    59.7390     9.2530     7.3370     8.6500    23.8890   -30.5750 
   96.8750     2.1110    60.1890     9.0970     7.2330     8.4020    23.7780   -30.4060 
   97.0000     2.1090    60.2370     8.9360     7.1330     8.6820    23.7800   -30.2120 
   97.1250     2.1050    59.9210     8.7980     7.0430     8.9060    24.0590   -30.0120 
   97.2500     2.1020    57.7940     8.6900     6.9660     8.9410    24.5230   -29.8550 
   97.3750     2.1000    55.2960     8.6040     6.9050     9.0160    24.9030   -29.7440 
   97.5000     2.0990    56.0370     8.5310     6.8660     9.0630    25.0790   -29.6630 
   97.6250     2.1000    58.5210     8.4850     6.8720     9.0440    25.0990   -29.5840 
   97.7500     2.1050    58.7070     8.4960     6.9340     9.0750    25.0730   -29.4860 
   97.8750     2.1130    56.6780     8.5950     7.0610     9.2670    25.0270   -29.3650 
   98.0000     2.1220    56.3070     8.7990     7.2460     9.5890    25.0180   -29.2360 
   98.1250     2.1290    59.2280     9.0820     7.4660     9.9550    25.0800   -29.1260 
   98.2500     2.1350    60.1590     9.3230     7.6490    10.1710    25.1400   -29.0440 
   98.3750     2.1370    56.7790     9.3920     7.7120    10.2450    25.1380   -28.9700 
   98.5000     2.1410    53.3690     9.1900     7.5880    10.0890    25.0630   -28.8880 
   98.6250     2.1580    54.9190     8.6780     7.2360     9.5650    24.9080   -28.8150 
   98.7500     2.1810    60.2050     8.0340     6.7740     8.5240    24.7260   -28.7630 
   98.8750     2.1960    67.5730     7.4250     6.3110     7.1070    24.6500   -28.7340 
   99.0000     2.1960    75.6340     6.9760     5.9320     6.1430    24.6970   -28.7110 
   99.1250     2.1850    81.1090     6.7520     5.6880     5.8290    24.7420   -28.6680 
   99.2500     2.1760    82.5140     6.6820     5.5490     6.2030    24.7830   -28.6010 
   99.3750     2.1810    79.8860     6.7790     5.5320     7.0270    24.8630   -28.5430 
   99.5000     2.2060    75.5280     7.1790     5.7300     7.8530    24.9710   -28.5160 
   99.6250     2.2650    73.9320     8.2590     6.3970     8.3750    25.0400   -28.5130 
   99.7500     2.3510    74.6910    10.1610     7.6640     9.8900    25.0780   -28.5340 
   99.8750     2.4320    72.8230    12.9020     9.6180    14.7520    25.0880   -28.5830 
  100.0000     2.4430    65.9600    16.0820    12.0850    28.2010    25.0460   -28.6740 
  100.1250     2.3420    58.5030    18.2690    14.1270    44.2480    24.9120   -28.8250 
  100.2500     2.2190    56.5480    18.2160    14.6380    35.7100    24.7770   -29.0070 
  100.3750     2.1410    59.8830    16.1250    13.5230    17.8840    24.6970   -29.1980 
  100.5000     2.1180    63.5300    13.4210    11.6690    10.7440    24.6750   -29.3880 
  100.6250     2.1260    62.7990    11.4630    10.0550     9.4990    24.6790   -29.5670 
  100.7500     2.1350    62.2100    10.4240     8.9850     9.5590    24.6570   -29.7210 
  100.8750     2.1390    64.0870    10.0910     8.4270     9.8870    24.5610   -29.8520 
  101.0000     2.1420    64.5270    10.1450     8.2360    10.0750    24.4160   -29.9500 
  101.1250     2.1440    60.0900    10.2910     8.2490     9.6170    24.3300   -30.0190 
  101.2500     2.1440    57.8010    10.3720     8.3050     9.3750    24.2910   -30.0870 
  101.3750     2.1430    60.5630    10.3830     8.3610     9.5730    24.2600   -30.1420 
  101.5000     2.1360    62.7740    10.3470     8.4020     9.8580    24.2410   -30.1760 
  101.6250     2.1200    60.0480    10.2750     8.4080    10.1230    24.2830   -30.2060 
  101.7500     2.1030    57.8980    10.1860     8.3710    10.2600    24.4350   -30.2340 
  101.8750     2.0930    57.9470    10.1030     8.2950    10.1520    24.6820   -30.2610 
  102.0000     2.0930    58.1060    10.0450     8.1940     9.9470    24.8850   -30.3100 
  102.1250     2.0990    56.9900    10.0210     8.0950     9.8080    24.9980   -30.3500 
  102.2500     2.1040    56.5130    10.0230     8.0240     9.7910    25.0320   -30.3470 
  102.3750     2.1100    56.2910    10.0570     7.9950     9.9100    25.0330   -30.3020 
  102.5000     2.1170    55.9810    10.1370     8.0110    10.0130    25.0240   -30.2310 
  102.6250     2.1220    56.0060    10.2610     8.0570    10.1170    25.0180   -30.1270 
  102.7500     2.1170    55.3570    10.3650     8.0900    10.0600    25.0470   -29.9930 
  102.8750     2.1090    54.7820    10.3870     8.0810     9.8750    25.0930   -29.8220 
  103.0000     2.1040    56.5820    10.2920     8.0140     9.6870    25.1370   -29.5960 
  103.1250     2.1060    59.9610    10.0920     7.8980     9.6850    25.0950   -29.3440 
  103.2500     2.1080    62.3310     9.8830     7.7720     9.5940    24.9980   -29.0950 
  103.3750     2.1070    62.3450     9.7330     7.6680     9.6150    24.9460   -28.8600 
  103.5000     2.1030    60.7490     9.6800     7.6100     9.7340    24.9740   -28.6500 
  103.6250     2.1020    58.6770     9.7350     7.6190     9.8590    25.0030   -28.4790 
  103.7500     2.1010    56.8930     9.8490     7.6750     9.9200    24.9810   -28.3320 
  103.8750     2.0970    56.0160     9.9920     7.7590     9.9220    24.9350   -28.2000 
  104.0000     2.0890    55.4890    10.1350     7.8500     9.9060    24.9340   -28.0820 
  104.1250     2.0870    56.2470    10.2470     7.9290     9.8100    25.0290   -27.9590 
  104.2500     2.0960    58.6990    10.3170     7.9930     9.5460    25.1670   -27.8320 
  104.3750     2.1120    61.7280    10.3470     8.0500     9.3930    25.2740   -27.7100 
  104.5000     2.1230    61.9760    10.3560     8.1030     9.6460    25.3700   -27.5880 
  104.6250     2.1230    59.4890    10.3780     8.1530     9.8060    25.4670   -27.4640 
  104.7500     2.1150    58.0360    10.4290     8.1960     9.8410    25.5270   -27.3770 
  104.8750     2.1060    57.5390    10.4850     8.2220     9.7130    25.5310   -27.3220 
  105.0000     2.0990    57.1970    10.4900     8.2130     9.2070    25.4800   -27.3130 
  105.1250     2.0980    58.5020    10.3720     8.1410     8.7830    25.4140   -27.3450 
  105.2500     2.1060    60.4940    10.1420     8.0060     8.7850    25.4640   -27.3830 
  105.3750     2.1310    61.0910     9.8210     7.8110     8.8480    25.5350   -27.4260 
  105.5000     2.1670    60.7180     9.4180     7.5560     8.3720    25.4130   -27.4660 
  105.6250     2.1920    62.7170     8.9380     7.2420     7.6840    25.0140   -27.4960 
  105.7500     2.1960    64.8030     8.4590     6.9160     7.5380    24.6860   -27.4840 
  105.8750     2.1860    65.7230     8.0830     6.6370     7.7070    24.5130   -27.4400 
  106.0000     2.1650    67.9860     7.9150     6.4650     7.3890    24.4560   -27.3440 
  106.1250     2.1340    71.5260     8.0610     6.4720     7.0270    24.4710   -27.2320 
