~V
VERS. 2.00: Ver 2.00
~W
STRT.M 58.0000:
STOP.M 271.0000:
STEP.M 0.1250:
NULL. -999.2500:
UWI. F11072:
~C
DEPT.M :
DEN.GM/CC :
GR.API :
RML.OHMM :
RI. :
RXO.OHMM :
CALI.CM :
SP.MV :
~A
# ...
  170.5000     2.3610    84.5690     7.7980     6.6310     7.1820    23.2730    -9.3660 
  170.6250     2.3850    83.4350     7.8300     6.6790     7.6870    23.2010    -9.4610 
  170.7500     2.4130    83.6280     7.7840     6.6420     7.6910    23.2220    -9.5520 
  170.8750     2.4390    84.8820     7.8150     6.6220     7.1690    23.2270    -9.6550 
  171.0000     2.4540    83.8470     8.1010     6.7510     6.8350    23.2110    -9.7800 
  171.1250     2.4500    78.0300     8.8500     7.2000     7.1730    23.2200    -9.9340 
  171.2500     2.4310    72.3850    10.0120     7.9780     8.0290    23.3060   -10.1060 
  171.3750     2.4050    71.5970    11.4800     9.0430     9.2210    23.4870   -10.2940 
  171.5000     2.3800    74.1470    13.0720    10.2890    10.6770    23.6920   -10.4920 
  171.6250     2.3630    75.2070    14.5650    11.5570    11.9730    23.7850   -10.7180 
  171.7500     2.3540    74.8570    15.8960    12.7360    12.6290    23.7250   -11.0100 
  171.8750     2.3500    75.6640    17.1790    13.8550    13.1570    23.5430   -11.3950 
  172.0000     2.3450    78.0850    18.6480    15.0600    14.6620    23.3000   -11.8960 
  172.1250     2.3360    77.3570    20.6390    16.6090    17.4840    23.1560   -12.5100 
  172.2500     2.3230    73.2180    23.2150    18.6040    20.2040    23.1080   -13.0900 
  172.3750     2.3110    69.8680    26.3510    21.0780    23.6800    23.0850   -13.5170 
  172.5000     2.3020    69.2720    29.9230    23.9770    27.6420    23.0930   -13.9080 
  172.6250     2.2980    68.6170    33.7560    27.2140    30.8210    23.1030   -14.2950 
  172.7500     2.2960    66.2760    37.5440    30.5410    33.7160    23.0850   -14.7710 
  172.8750     2.2960    65.4580    40.9780    33.7190    38.3010    23.0600   -15.2110 
  173.0000     2.3010    66.2950    43.6730    36.4390    45.9840    23.0070   -15.5540 
  173.1250     2.3110    66.6510    44.9860    38.1760    53.8490    22.9060   -15.8920 
  173.2500     2.3220    65.4760    44.8530    38.7790    55.9080    22.8380   -16.1660 
  173.3750     2.3300    64.2430    43.3980    38.2350    49.8700    22.7990   -16.4150 
  173.5000     2.3320    63.8180    41.1360    36.8580    41.3820    22.7860   -16.6340 
  173.6250     2.3300    63.3550    38.9400    35.2920    34.6290    22.8190   -16.7820 
  173.7500     2.3260    63.8420    37.5400    34.2210    30.4070    22.8380   -16.8560 
  173.8750     2.3210    65.4890    37.2600    33.9990    29.1900    22.8370   -16.9190 
  174.0000     2.3150    66.6010    38.1310    34.7430    30.7600    22.8420   -16.9730 
  174.1250     2.3080    64.1830    39.9760    36.4190    35.1200    22.8200   -17.0230 
  174.2500     2.3010    60.9070    42.0040    38.4100    39.6060    22.8040   -17.0790 
  174.3750     2.2950    61.2760    43.4590    40.0670    42.8610    22.8170   -17.1420 
  174.5000     2.2910    66.1520    43.6630    40.7250    45.1090    22.8060   -17.2110 
  174.6250     2.2910    70.1710    42.1880    39.8200    46.5460    22.7930   -17.2850 
  174.7500     2.2930    70.0120    40.0180    38.0470    45.9660    22.8000   -17.3770 
  174.8750     2.2940    68.4440    38.4440    36.4780    40.9490    22.7890   -17.4870 
  175.0000     2.2920    66.7140    38.8200    36.3350    33.7270    22.7650   -17.6110 
  175.1250     2.2860    64.4600    42.8300    39.2280    31.2360    22.7480   -17.7520 
  175.2500     2.2790    62.8830    50.6260    45.5880    35.8560    22.7240   -17.8990 
  175.3750     2.2720    62.8500    62.2250    55.7010    47.1220    22.7480   -18.0520 
  175.5000     2.2700    63.7000    76.8750    69.0940    62.2740    22.9110   -18.2100 
  175.6250     2.2700    63.7880    92.7700    84.2380    71.1570    23.1790   -18.3720 
  175.7500     2.2720    62.8690   107.0310    98.2270    72.7810    23.5030   -18.5280 
  175.8750     2.2740    61.3740   117.6080   108.9430    72.0260    23.8600   -18.6640 
  176.0000     2.2740    58.4960   123.8060   115.5780    72.8480    24.1430   -18.7750 
  176.1250     2.2720    55.2670   125.9120   118.3120    75.8540    24.2620   -18.8640 
  176.2500     2.2680    54.4550   125.3610   118.5920    79.2640    24.2780   -18.9470 
  176.3750     2.2650    57.1090   122.9140   116.5400    80.3080    24.2310   -19.0260 
  176.5000     2.2650    61.4200   118.1340   112.1130    78.4140    24.1810   -19.1040 
  176.6250     2.2680    64.3930   112.1620   105.5290    72.9720    24.1460   -19.1650 
  176.7500     2.2700    66.5210   106.6260    98.3620    67.1410    24.1050   -19.2080 
  176.8750     2.2680    66.7590   100.2020    91.8860    58.9910    24.0590   -19.2380 
  177.0000     2.2630    63.8190    93.2900    86.8770    53.2730    24.0300   -19.2550 
  177.1250     2.2570    61.6390    88.1120    83.4450    53.6380    23.9680   -19.2500 
  177.2500     2.2540    62.6060    83.4580    80.5390    54.9970    23.8870   -19.2180 
  177.3750     2.2550    64.2160    78.4700    77.2760    57.4450    23.8290   -19.1640 
  177.5000     2.2590    64.4770    72.5840    72.9640    56.9180    23.7700   -19.0890 
  177.6250     2.2640    64.8740    65.5560    67.1150    50.1480    23.7140   -19.0030 
  177.7500     2.2730    67.5290    57.9570    60.2430    41.6590    23.6980   -18.9250 
  177.8750     2.2880    70.1370    50.4860    52.9710    36.5310    23.6700   -18.8720 
  178.0000     2.3080    72.0240    43.8710    46.1150    33.5620    23.6300   -18.8550 
  178.1250     2.3310    76.1550    39.1990    40.8310    30.2790    23.5900   -18.8860 
  178.2500     2.3510    80.9420    36.7410    37.5670    25.8810    23.5320   -18.9650 
  178.3750     2.3630    82.6250    36.6060    36.6750    22.2720    23.4960   -19.0890 
  178.5000     2.3650    79.8410    38.7760    38.4060    21.4360    23.4820   -19.2570 
  178.6250     2.3560    74.7380    44.0340    43.4130    24.4810    23.4720   -19.4700 
  178.7500     2.3400    70.1850    52.3770    51.1300    29.9870    23.5170   -19.7160 
  178.8750     2.3170    66.8370    62.5620    61.0500    35.1870    23.6180   -19.9800 
  179.0000     2.2930    65.6550    73.6850    72.2400    40.5610    23.7480   -20.2470 
  179.1250     2.2700    64.9980    84.6260    83.2900    49.9330    23.9780   -20.5130 
  179.2500     2.2520    64.9790    94.6360    93.0850    61.5440    24.3240   -20.7710 
  179.3750     2.2410    65.1880   103.6260   101.3880    74.4940    24.6970   -21.0120 
  179.5000     2.2360    63.9060   112.0250   108.6590    88.7750    25.0090   -21.2320 
  179.6250     2.2380    61.0710   120.6000   115.7330    98.2220    25.1460   -21.4250 
  179.7500     2.2410    59.4740   129.9150   123.4080    96.3020    25.1550   -21.5900 
  179.8750     2.2420    58.6430   139.9920   131.9680    90.2670    25.1430   -21.7220 
  180.0000     2.2370    56.0460   150.0330   140.9610    91.1730    25.1270   -21.8300 
  180.1250     2.2240    53.4680   157.7580   148.6240   101.8410    25.0460   -21.9160 
  180.2500     2.2110    54.9510   161.2380   153.0370   113.7930    24.9510   -21.9740 
  180.3750     2.2060    59.7440   159.1910   152.7140   119.8210    24.8570   -22.0080 
  180.5000     2.2120    64.5340   151.7710   147.2910   117.2060    24.7290   -22.0260 
  180.6250     2.2250    65.3420   140.5490   137.5640   110.1550    24.5680   -22.0330 
  180.7500     2.2380    62.8500   128.9850   126.6880    98.7970    24.4060   -22.0400 
  180.8750     2.2470    59.8410   119.2390   116.8800    83.6490    24.2910   -22.0480 
  181.0000     2.2510    59.5040   112.8360   109.8600    72.2840    24.2690   -22.0550 
  181.1250     2.2490    61.8640   111.6490   107.6480    75.1110    24.2740   -22.0550 
  181.2500     2.2390    61.9190   115.6090   110.3880    86.6340    24.2430   -22.0550 
  181.3750     2.2200    59.5680   124.8980   118.3890    90.7930    24.2030   -22.0540 
  181.5000     2.1950    57.1580   139.0840   131.3630    96.5640    24.1450   -22.0470 
  181.6250     2.1720    55.6370   156.9980   148.3430   115.4000    24.0610   -22.0200 
