~V
VERS. 2.00: Ver 2.00
~W
STRT.M 50.0000:
STOP.M 281.0000:
STEP.M 0.1250:
NULL. -999.2500:
UWI. F11064:
~C
DEPT.M :
SP.MV :
GR.API :
RML.OHMM :
RI. :
RXO.OHMM :
CALI.CM :
DEN.GM/CC :
~A
# ...
  218.7500    -3.8150    64.2620    37.5890    34.5710    31.7300    25.0140     2.2310 
  218.8750    -3.8420    61.4100    41.8380    38.1030    40.1180    25.0240     2.2230 
  219.0000    -3.8900    63.3950    47.8560    43.5250    53.9370    25.0340     2.2130 
  219.1250    -3.9600    66.6000    54.3350    49.9710    60.6930    25.0510     2.2080 
  219.2500    -4.0420    67.1220    59.4710    55.7160    62.3970    25.0550     2.2080 
  219.3750    -4.1190    65.0050    62.1740    59.4240    59.6000    25.0520     2.2100 
  219.5000    -4.1930    62.5510    62.4420    60.6040    54.2640    25.0590     2.2100 
  219.6250    -4.2410    61.6930    61.1250    59.6490    50.5550    25.0990     2.2090 
  219.7500    -4.2680    63.8900    59.4010    57.8890    51.5310    25.1340     2.2090 
  219.8750    -4.2770    67.1860    57.5910    55.8740    53.1700    25.1540     2.2120 
  220.0000    -4.2820    67.6870    56.0420    54.0590    51.6910    25.1450     2.2200 
  220.1250    -4.2600    64.3250    55.5960    53.2440    47.0410    25.0890     2.2280 
  220.2500    -4.2200    62.5020    56.8370    53.9530    43.9850    25.0630     2.2320 
  220.3750    -4.1890    63.8910    60.2030    56.6270    43.8140    25.0330     2.2350 
  220.5000    -4.1640    65.5860    65.7420    55.3010    47.1090    24.9990     2.2370 
  220.6250    -4.1560    64.1950    73.0200    61.4570    64.6700    24.9560     2.2370 
  220.7500    -4.1560    62.0310    80.3380    68.1000    87.0410    24.9560     2.2310 
  220.8750    -4.1760    60.7950    86.2570    73.9650    98.9550    24.9900     2.2200 
  221.0000    -4.2220    59.5300    89.9230    78.0820    93.7550    25.0180     2.2130 
  221.1250    -4.3070    57.5340    91.1460    79.9350    86.6650    25.0360     2.2150 
  221.2500    -4.4010    57.6870    91.1210    80.4360    87.1330    25.0520     2.2250 
  221.3750    -4.4910    58.8640    90.6060    80.3210    91.4840    25.0510     2.2390 
  221.5000    -4.5860    58.9640    90.0700    80.1370    95.2460    25.0340     2.2490 
  221.6250    -4.6770    58.1150    89.8470    80.2260    91.4580    25.0240     2.2450 
  221.7500    -4.7740    58.1320    90.1480    80.7330    84.5950    25.0370     2.2290 
  221.8750    -4.8530    58.7840    91.2770    81.9300    84.9400    25.0730     2.2120 
  222.0000    -4.8950    59.7320    93.5120    84.1640    98.4960    25.1110     2.2020 
  222.1250    -4.9160    62.1930    97.2160    87.8920   107.6740    25.1420     2.2010 
  222.2500    -4.9400    65.5510   102.0930    92.8500   106.9880    25.1750     2.2010 
  222.3750    -4.9590    66.1450   107.7080    98.6570   106.2640    25.1920     2.2030 
  222.5000    -4.9780    61.5710   113.1870   104.5740   118.1900    25.1620     2.2090 
  222.6250    -5.0100    56.0300   116.6080   109.0900   142.8700    25.0990     2.2210 
  222.7500    -5.0100    55.8350   116.3320   110.7930   155.9560    25.0440     2.2340 
  222.8750    -4.9930    60.7730   111.5170   108.6820   146.9150    25.0160     2.2440 
  223.0000    -5.0000    65.4090   103.1610    92.7050   127.6930    24.9850     2.2540 
  223.1250    -5.0100    65.9920    94.1070    86.0230   113.5060    24.9440     2.2640 
  223.2500    -4.9990    64.1400    87.1370    80.3310    97.5310    24.9020     2.2750 
  223.3750    -4.9780    61.3320    83.2610    76.9560    85.9800    24.8730     2.2830 
  223.5000    -4.9670    59.0500    82.2820    76.1870    90.1450    24.8490     2.2910 
  223.6250    -4.9590    59.2490    83.0450    77.3880   106.2460    24.8640     2.3030 
  223.7500    -4.9630    61.9590    83.2400    78.5020   113.2350    24.8620     2.3290 
  223.8750    -4.9760    64.9540    81.1920    77.8230   115.2720    24.8540     2.3710 
  224.0000    -4.9830    65.4930    76.2390    74.3830   119.0490    24.7890     2.4210 
  224.1250    -4.9960    63.1510    69.2290    68.4760   107.7370    24.6270     2.4450 
  224.2500    -5.0090    61.8590    62.5890    62.3520    78.9170    24.5470     2.4170 
  224.3750    -5.0180    61.5140    57.7700    57.5780    51.8120    24.6780     2.3500 
  224.5000    -5.0290    60.8140    55.4370    55.0010    45.0870    24.8220     2.2840 
  224.6250    -5.0590    62.3420    56.1890    55.2710    55.6480    24.8870     2.2490 
  224.7500    -5.0920    66.5360    59.4290    57.8220    72.9650    24.9090     2.2370 
  224.8750    -5.1210    69.7330    64.6480    62.1710    80.8740    24.9210     2.2370 
  225.0000    -5.1490    68.4880    70.8850    67.4440    75.9340    24.9300     2.2390 
  225.1250    -5.1680    66.7350    76.3890    72.1390    81.9830    24.9820     2.2390 
  225.2500    -5.1750    66.6370    79.6430    74.9650    98.7770    24.9960     2.2380 
  225.3750    -5.1690    66.6860    80.1680    75.5000   103.5920    24.9820     2.2360 
  225.5000    -5.1530    66.0590    78.8440    74.3840    82.3360    24.9480     2.2350 
  225.6250    -5.1310    65.4810    78.0640    73.3970    64.0260    24.8630     2.2310 
  225.7500    -5.0810    66.2650    80.3730    74.7000    62.9330    24.7600     2.2250 
  225.8750    -5.0140    67.0560    87.5140    80.0030    75.6880    24.6850     2.2150 
  226.0000    -4.9430    65.0090   100.1260    90.1880    99.2070    24.7850     2.2020 
  226.1250    -4.8780    60.5390   117.0590   104.5760   131.5490    24.9160     2.1910 
  226.2500    -4.8160    58.0910   132.3310   118.1160   164.2000    24.9910     2.1880 
  226.3750    -4.7730    58.9180   139.4640   125.3660   172.4620    24.9790     2.1940 
  226.5000    -4.7330    60.3550   135.2550   123.1440   145.5480    24.9290     2.2050 
  226.6250    -4.7120    61.0930   122.7350   112.7460   109.2730    24.8860     2.2120 
  226.7500    -4.7190    62.5980   110.2060   101.1030    89.6780    24.8900     2.2110 
  226.8750    -4.7490    63.3570   101.3980    92.0700    84.5400    24.9520     2.2010 
  227.0000    -4.7910    61.5980    97.3920    87.2490    90.5070    25.0680     2.1840 
  227.1250    -4.8370    58.6350    98.3890    87.2070    97.9010    25.2030     2.1690 
  227.2500    -4.8790    58.6180   102.3630    90.1760   104.1290    25.2990     2.1630 
  227.3750    -4.8980    62.7380   107.8030    94.7970    92.1160    25.2670     2.1660 
  227.5000    -4.9170    66.4940   113.0770    99.5910    57.0860    25.0230     2.1730 
  227.6250    -4.9270    65.7310   116.3910   102.9690    29.5030    24.4000     2.1820 
  227.7500    -4.9190    63.9650   117.2810   104.3820    22.9330    23.8460     2.1910 
  227.8750    -4.8880    64.1150   115.7890   103.6990    26.3450    23.5320     2.1960 
  228.0000    -4.8420    64.9570   112.3390   101.1160    33.2730    23.4500     2.1950 
  228.1250    -4.8100    64.9210   107.3080    96.8770    44.1200    23.4880     2.1920 
  228.2500    -4.7880    64.3330   101.4560    91.7900    59.1230    23.6290     2.1920 
  228.3750    -4.7710    62.4520    95.1810    86.3210    77.3010    23.9150     2.1940 
  228.5000    -4.7410    60.8310    88.8240    80.8650    92.6870    24.2370     2.1970 
  228.6250    -4.6950    62.7190    82.8040    75.7960    92.1860    24.5280     2.1990 
  228.7500    -4.6610    66.8170    77.4330    71.2820    88.0530    24.7300     2.2010 
  228.8750    -4.6450    67.7640    72.9660    67.4720    81.0690    24.8330     2.2040 
  229.0000    -4.6410    64.6550    69.5470    64.4830    74.5270    24.8720     2.2070 
  229.1250    -4.6350    61.5530    67.2980    62.5010    71.7170    24.8970     2.2090 
  229.2500    -4.6400    60.0330    65.8300    61.2600    71.0320    24.9190     2.2100 
  229.3750    -4.6320    60.5880    64.8950    60.5460    70.1350    24.9050     2.2090 
  229.5000    -4.6080    63.9550    64.2750    60.1400    66.8260    24.8140     2.2090 
  229.6250    -4.5890    68.5480    63.8220    59.8870    57.9660    24.6010     2.2100 
  229.7500    -4.5490    70.2360    63.4110    59.6600    47.5240    24.3470     2.2110 
  229.8750    -4.4540    69.7850    63.0640    59.4200    40.8480    24.1240     2.2120 
