~V
VERS. 2.00: Ver 2.00
~W
STRT.M 52.0000:
STOP.M 269.0000:
STEP.M 0.1250:
NULL. -999.2500:
UWI. F11071:
~C
DEPT.M :
GR.API :
RML.OHMM :
RI. :
RXO.OHMM :
CALI.CM :
DEN.GM/CC :
SP.MV :
~A
# ...
   74.5000    75.6200     9.8520     7.9120     8.6810    24.7990     2.1460   -16.9850 
   74.6250    73.0930     9.5860     7.7300     8.5480    24.7390     2.1290   -17.3920 
   74.7500    75.1570     9.3690     7.5640     8.5280    24.7470     2.1200   -17.8240 
   74.8750    76.5270     9.2690     7.4670     8.6770    24.8400     2.1140   -18.2740 
   75.0000    74.6730     9.2960     7.4560     8.8170    24.9680     2.1080   -18.6630 
   75.1250    72.5900     9.4030     7.5060     8.9260    25.0340     2.1060   -18.9170 
   75.2500    71.1180     9.4930     7.5610     9.2620    25.0680     2.1090   -19.1030 
   75.3750    70.2700     9.5170     7.5920     9.8500    25.0790     2.1180   -19.2340 
   75.5000    71.3680     9.4740     7.5880    10.3650    25.0910     2.1300   -19.2680 
   75.6250    74.3530     9.4200     7.5470     9.6540    25.0960     2.1420   -19.1580 
   75.7500    74.7720     9.4180     7.4890     9.1580    25.0610     2.1500   -18.9590 
   75.8750    72.4280     9.4790     7.4300     9.0210    25.0480     2.1520   -18.7330 
   76.0000    71.0400     9.5690     7.3820     9.1310    25.0890     2.1460   -18.5290 
   76.1250    71.9420     9.6150     7.3540     9.3110    25.1590     2.1340   -18.4100 
   76.2500    71.5560     9.5850     7.3490     9.3780    25.2900     2.1190   -18.3400 
   76.3750    69.0530     9.4850     7.3620     9.4110    25.5860     2.1080   -18.2790 
   76.5000    67.3090     9.3490     7.3870     9.3820    25.9670     2.1030   -18.2120 
   76.6250    68.6700     9.2220     7.4190     9.2280    26.0980     2.1060   -18.1190 
   76.7500    70.3780     9.1280     7.4570     8.9410    26.0030     2.1100   -17.9580 
   76.8750    70.5850     9.0720     7.5000     8.7490    25.8440     2.1110   -17.6970 
   77.0000    70.3720     9.0390     7.5410     8.4980    25.7940     2.1060   -17.3080 
   77.1250    70.1310     8.9880     7.5550     8.2310    25.5800     2.1000   -16.7240 
   77.2500    70.3460     8.8650     7.5070     8.2460    25.2580     2.1070   -15.9290 
   77.3750    73.9770     8.6310     7.3640     8.1780    24.9770     2.1340   -14.9280 
   77.5000    81.3170     8.2880     7.1130     7.6960    24.7800     2.1790   -13.7500 
   77.6250    88.1430     7.9080     6.7860     6.9000    24.5670     2.2230   -12.4770 
   77.7500    94.0690     7.6240     6.4810     6.6050    24.4690     2.2490   -11.3180 
   77.8750    98.9480     7.5370     6.2790     6.5110    24.4330     2.2530   -10.4280 
   78.0000    99.4120     7.6840     6.2360     6.3440    24.4110     2.2380    -9.8620 
   78.1250    93.1760     8.0350     6.3920     6.3720    24.3380     2.2160    -9.6580 
   78.2500    84.5230     8.4480     6.6680     6.7240    24.2330     2.1910    -9.7830 
   78.3750    76.0900     8.8450     6.9910     7.2650    24.2130     2.1630   -10.2240 
   78.5000    68.7860     9.2290     7.3140     7.7940    24.3730     2.1320   -10.9240 
   78.6250    66.1640     9.7150     7.6830     8.2840    24.7110     2.1120   -11.7910 
   78.7500    66.3520    10.3930     8.1880     8.7350    24.9840     2.1240   -12.6240 
   78.8750    65.3570    11.2540     8.8790     8.9970    25.0120     2.1700   -13.2690 
   79.0000    64.8760    12.1450     9.7080    10.3870    24.7570     2.2330   -13.7440 
   79.1250    67.1110    12.7020    10.4300    14.3050    24.3990     2.2750   -14.1150 
   79.2500    69.1790    12.7000    10.7340    15.2480    24.2270     2.2770   -14.4300 
   79.3750    68.9720    12.1240    10.4800    11.8170    24.3720     2.2440   -14.7010 
   79.5000    66.7240    11.2060     9.8000     9.4500    24.8020     2.1990   -14.9160 
   79.6250    64.2340    10.3340     9.0070     9.3820    25.3850     2.1700   -15.1280 
   79.7500    62.6400     9.7540     8.3670     9.6980    25.7840     2.1570   -15.3800 
   79.8750    62.7600     9.4790     7.9560     9.6240    25.9390     2.1530   -15.6410 
   80.0000    63.7720     9.3970     7.7520     9.3270    25.9810     2.1460   -15.8070 
   80.1250    64.0130     9.3790     7.6840     9.0690    26.0080     2.1310   -15.8010 
   80.2500    64.4810     9.3620     7.6530     8.7680    25.9670     2.1110   -15.6700 
   80.3750    66.2150     9.3560     7.6310     8.3440    25.8570     2.0940   -15.4280 
   80.5000    67.7000     9.3740     7.6130     7.9470    25.6620     2.0830   -15.1110 
   80.6250    66.8110     9.3920     7.5960     8.5740    25.4220     2.0820   -14.7560 
   80.7500    65.4860     9.3710     7.5770     9.0150    25.2840     2.0830   -14.3760 
   80.8750    65.6230     9.2970     7.5450     8.9350    25.2920     2.0790   -13.9960 
   81.0000    67.6520     9.1980     7.4940     8.6030    25.3390     2.0660   -13.6340 
   81.1250    69.0150     9.1610     7.4410     8.4640    25.3550     2.0530   -13.2600 
   81.2500    70.3460     9.2630     7.4420     8.4150    25.3360     2.0660   -12.8470 
   81.3750    72.6800     9.5420     7.5510     8.1500    25.2230     2.1240   -12.4470 
   81.5000    74.2810     9.9640     7.7830     8.6140    25.0710     2.2250   -12.1260 
   81.6250    74.0150    10.3980     8.0930    12.5490    25.1040     2.3340   -11.8940 
   81.7500    73.9380    10.6730     8.3440    21.1580    25.3450     2.4020   -11.7360 
   81.8750    75.4070    10.6830     8.4210    22.7470    25.4230     2.4080   -11.6640 
   82.0000    76.5790    10.4300     8.2770    14.1280    24.7740     2.3620   -11.7170 
   82.1250    76.4250    10.0210     7.9660     9.0390    24.1700     2.2920   -11.9740 
   82.2500    74.7830     9.6590     7.6480     8.0920    24.0700     2.2320   -12.4320 
   82.3750    71.0720     9.4630     7.4200     8.3230    24.4240     2.1880   -13.0180 
   82.5000    66.5560     9.4690     7.3290     8.6560    24.8990     2.1570   -13.6220 
   82.6250    63.6440     9.6390     7.3700     8.6640    25.1840     2.1350   -14.1470 
   82.7500    61.8160     9.8380     7.4550     8.6740    25.3520     2.1190   -14.5710 
   82.8750    60.7390     9.9790     7.5300     8.7560    25.3850     2.1050   -14.8710 
   83.0000    62.5500    10.0300     7.5740     8.7600    25.3260     2.0890   -15.0440 
   83.1250    66.7440    10.0000     7.6040     8.6320    25.3340     2.0730   -15.0760 
   83.2500    68.5890     9.9430     7.6530     8.6890    25.3490     2.0690   -14.9310 
   83.3750    67.7450     9.8800     7.7350     8.8880    25.2960     2.0870   -14.6260 
   83.5000    65.9270     9.8120     7.8430     9.0930    25.2050     2.1270   -14.2200 
   83.6250    64.8110     9.7370     7.9520     9.5860    25.1650     2.1740   -13.7840 
   83.7500    66.6020     9.6710     8.0490     9.9130    25.1510     2.2030   -13.3350 
   83.8750    70.8520     9.6300     8.1260     9.4750    25.1700     2.2010   -12.8680 
   84.0000    73.6630     9.5950     8.1660     8.7860    25.1800     2.1770   -12.3100 
   84.1250    71.5170     9.4670     8.0930     8.4830    25.1730     2.1580   -11.4950 
   84.2500    68.2360     9.1380     7.8330     8.6120    25.1670     2.1630   -10.4080 
   84.3750    68.7610     8.5520     7.3330     8.6570    25.1520     2.1930    -9.0840 
   84.5000    75.0030     7.7460     6.6240     7.9520    25.0990     2.2370    -7.6400 
   84.6250    85.9850     6.8740     5.8350     6.1870    25.0000     2.2760    -6.1940 
   84.7500    95.8610     6.1400     5.1430     4.7880    24.9380     2.3030    -4.8270 
   84.8750   103.4340     5.6550     4.6430     4.2770    24.9560     2.3180    -3.5880 
   85.0000   110.6770     5.4450     4.3730     4.2340    24.9790     2.3250    -2.5380 
   85.1250   115.0520     5.4840     4.3600     4.6960    24.9570     2.3250    -1.8600 
   85.2500   113.3990     5.6490     4.5110     5.2590    24.9400     2.3190    -1.6130 
   85.3750   108.1460     5.8960     4.7540     5.6070    24.9550     2.3080    -1.7640 
   85.5000   103.3780     6.2290     5.0400     5.6070    24.9750     2.2960    -2.1960 
   85.6250    99.1480     6.7080     5.3860     6.1930    24.9570     2.2970    -2.8380 
