~V
VERS. 2.00: Ver 2.00
~W
STRT.M 60.0000:
STOP.M 273.0000:
STEP.M 0.1250:
NULL. -999.2500:
UWI. F11028:
~C
DEPT.M :
DEN.GM/CC :
GR.API :
RML.OHMM :
RI. :
RXO.OHMM :
CALI.CM :
SP.MV :
~A
# ...
  116.2500     2.1410    77.5610     8.4260     7.0680     9.6750    23.1290   -21.5580 
  116.3750     2.1630    74.3510     8.8480     7.4710    10.4670    23.9620   -21.3640 
  116.5000     2.1860    73.2860     9.3000     7.8600    12.0910    24.1480   -21.1490 
  116.6250     2.2110    72.7780     9.6280     8.0590    14.2130    23.1970   -20.9380 
  116.7500     2.2290    71.6010     9.6950     8.0080    13.2830    22.7800   -20.7520 
  116.8750     2.2310    72.9440     9.4590     7.7440    10.8670    22.4170   -20.5840 
  117.0000     2.2130    76.2740     8.9950     7.3870     9.5200    22.2190   -20.4350 
  117.1250     2.1850    76.5050     8.4850     7.0820     9.2080    22.0700   -20.3400 
  117.2500     2.1650    74.4790     8.1140     6.9030     9.2180    21.9300   -20.2850 
  117.3750     2.1560    73.9100     7.9330     6.8560     9.2340    21.8810   -20.2710 
  117.5000     2.1570    75.2250     7.9000     6.8960     9.3520    21.8850   -20.2940 
  117.6250     2.1620    75.5720     7.9070     6.9410     9.4770    21.8630   -20.3490 
  117.7500     2.1660    75.2920     7.8510     6.9190     9.4810    21.8530   -20.4100 
  117.8750     2.1660    75.6940     7.7090     6.8200     9.1190    21.7980   -20.4670 
  118.0000     2.1630    77.4320     7.5160     6.6690     8.4250    21.7300   -20.5260 
  118.1250     2.1570    78.4850     7.3540     6.5210     8.0000    21.4400   -20.5400 
  118.2500     2.1520    77.8700     7.2730     6.4160     7.8110    21.1830   -20.5470 
  118.3750     2.1470    76.7710     7.2780     6.3650     7.6380    20.9720   -20.5460 
  118.5000     2.1450    75.1840     7.3460     6.3590     7.4130    20.6480   -20.5630 
  118.6250     2.1440    73.7020     7.4410     6.3840     7.2540    20.5080   -20.5780 
  118.7500     2.1460    73.2870     7.5250     6.4270     7.3120    20.4780   -20.6120 
  118.8750     2.1490    73.1610     7.6020     6.4920     7.4450    20.4790   -20.6820 
  119.0000     2.1520    72.0470     7.6820     6.5830     7.5390    20.4710   -20.7890 
  119.1250     2.1550    70.1900     7.7690     6.6990     7.6920    20.4240   -20.9350 
  119.2500     2.1560    70.5680     7.8700     6.8290     8.0830    20.4720   -21.0970 
  119.3750     2.1540    71.7730     8.0030     6.9660     8.6680    20.7160   -21.2770 
  119.5000     2.1520    69.3330     8.1860     7.1070     9.3080    21.1270   -21.4480 
  119.6250     2.1510    65.4190     8.4090     7.2460     9.8810    21.4510   -21.6190 
  119.7500     2.1540    64.3280     8.6160     7.3680    10.3420    21.7760   -21.7890 
  119.8750     2.1600    65.5910     8.7570     7.4610    10.5070    22.1840   -21.9280 
  120.0000     2.1670    65.8970     8.8100     7.5220    10.5130    22.6700   -22.0460 
  120.1250     2.1690    64.4660     8.7970     7.5630    10.5530    23.0160   -22.1430 
  120.2500     2.1670    62.4320     8.7740     7.5980    10.5590    23.0810   -22.2230 
  120.3750     2.1630    60.1470     8.7540     7.6260    10.5130    23.1350   -22.2750 
  120.5000     2.1580    59.6170     8.7260     7.6380    10.3420    23.1180   -22.3140 
  120.6250     2.1550    61.9460     8.6840     7.6320    10.1820    23.0450   -22.3160 
  120.7500     2.1520    63.6310     8.6560     7.6310    10.0400    22.8810   -22.2780 
  120.8750     2.1460    63.2620     8.6790     7.6620    10.1070    22.5630   -22.2030 
  121.0000     2.1350    63.0490     8.7680     7.7400    10.4220    22.3340   -22.0760 
  121.1250     2.1210    63.3310     8.9020     7.8530    10.6880    22.8090   -21.8660 
  121.2500     2.1120    62.1820     9.0120     7.9550    10.4900    23.6040   -21.6090 
  121.3750     2.1130    60.3800     9.0470     8.0060    10.2600    23.1510   -21.2800 
  121.5000     2.1280    60.1550     8.9900     7.9870    10.3000    22.3980   -20.8740 
  121.6250     2.1570    60.5280     8.8770     7.9030    10.4690    22.3420   -20.3480 
  121.7500     2.1900    61.6730     8.7800     7.8070    10.6270    22.5670   -19.7300 
  121.8750     2.2220    64.4830     8.7440     7.7370    10.5850    22.8700   -19.0290 
  122.0000     2.2510    67.4540     8.7880     7.7200    10.2140    23.3480   -18.2430 
  122.1250     2.2800    65.6480     8.9290     7.7910     9.3840    23.9400   -17.4090 
  122.2500     2.3100    60.5750     9.1460     7.9430     8.6930    23.8800   -16.5710 
  122.3750     2.3360    56.8710     9.4360     8.1700     8.2510    23.8990   -15.7970 
  122.5000     2.3520    56.9200     9.7920     8.4750     8.4820    23.9030   -15.1240 
  122.6250     2.3510    60.1740    10.1820     8.8520     8.8350    23.9130   -14.6260 
  122.7500     2.3340    61.4340    10.5010     9.2170     8.9900    24.0310   -14.2940 
  122.8750     2.3090    59.3720    10.6350     9.4570     8.5850    24.2870   -14.1560 
  123.0000     2.2880    55.4880    10.4890     9.4600     8.5580    24.3590   -14.2330 
  123.1250     2.2810    53.4530     9.9820     9.1230     9.0000    23.7570   -14.5750 
  123.2500     2.2860    55.2400     9.2560     8.5560     9.0050    22.7950   -15.0820 
  123.3750     2.2960    58.8030     8.4890     7.9110     8.4110    22.4630   -15.7260 
  123.5000     2.2990    60.8780     7.8700     7.3480     8.1610    22.6600   -16.4610 
  123.6250     2.2870    61.2550     7.5840     7.0170     8.4400    22.9080   -17.3110 
  123.7500     2.2640    63.2150     7.6050     6.9220     8.9180    22.9620   -18.2130 
  123.8750     2.2400    65.3160     7.8560     7.0400     9.6280    22.9210   -19.1100 
  124.0000     2.2180    65.4730     8.2050     7.3010    10.0920    22.9170   -19.9460 
  124.1250     2.2010    66.2950     8.4800     7.5990    10.2320    22.9510   -20.6480 
  124.2500     2.1880    68.5220     8.5990     7.8360    10.1650    22.9100   -21.2250 
  124.3750     2.1780    68.2380     8.5670     7.9620    10.0860    22.7830   -21.6460 
  124.5000     2.1710    65.2090     8.4280     7.9630    10.0640    22.7250   -21.8870 
  124.6250     2.1660    63.7930     8.2330     7.8540    10.0140    22.6530   -21.9020 
  124.7500     2.1650    63.7700     8.0470     7.7250     9.8810    22.6030   -21.7130 
  124.8750     2.1680    63.7790     7.9180     7.6530     9.6570    22.5640   -21.3680 
  125.0000     2.1780    65.0700     7.8910     7.6940     9.3440    22.5760   -20.8920 
  125.1250     2.1970    67.8330     8.0070     7.8770     9.0190    22.3560   -20.3000 
  125.2500     2.2240    68.0730     8.2060     8.1160     8.6710    22.0620   -19.6040 
  125.3750     2.2550    64.4820     8.3740     8.3000     8.2830    21.7200   -18.8540 
  125.5000     2.2850    60.4800     8.3710     8.3070     7.9030    21.4080   -18.0540 
  125.6250     2.3050    60.1070     8.1060     8.0430     7.7220    21.1220   -17.2320 
  125.7500     2.3130    64.1480     7.7250     7.6340     7.1160    20.9750   -16.4180 
  125.8750     2.3120    69.8300     7.3920     7.2300     6.6220    20.9040   -15.6230 
  126.0000     2.3110    72.5270     7.2390     6.9630     6.5640    20.8110   -14.8740 
  126.1250     2.3180    70.2050     7.3580     6.9520     6.8700    20.6450   -14.1680 
  126.2500     2.3360    66.5290     7.6740     7.1600     7.4100    20.7070   -13.5250 
  126.3750     2.3640    63.6770     8.1110     7.5280     8.1840    21.2170   -12.9330 
  126.5000     2.3940    60.5440     8.5930     7.9700     8.7440    21.8350   -12.4210 
  126.6250     2.4200    58.5230     9.0710     8.4210     9.4720    21.9760   -12.0100 
  126.7500     2.4370    59.2070     9.5660     8.8820     9.7800    21.6650   -11.6970 
  126.8750     2.4470    60.8440    10.1750     9.4200     9.9080    21.3050   -11.4620 
  127.0000     2.4560    61.4340    11.0500    10.1450    10.3370    21.0720   -11.2850 
  127.1250     2.4680    59.7580    12.9900    11.2460    11.8520    20.9540   -11.1620 
  127.2500     2.4840    57.6400    16.6850    12.7660    13.8150    20.9320   -11.1080 
  127.3750     2.5040    54.7050    19.2400    14.6770    15.7800    21.0650   -11.1050 
