~V
VERS. 2.00: Ver 2.00
~W
STRT.M 55.0000:
STOP.M 274.0000:
STEP.M 0.1250:
NULL. -999.2500:
UWI. F11049:
~C
DEPT.M :
SP.MV :
GR.API :
RML.OHMM :
RI. :
RXO.OHMM :
CALI.CM :
DEN.GM/CC :
~A
# ...
  122.5000   -12.7850    86.2530     6.0580     4.6470     5.9750    24.0810     2.3640 
  122.6250   -13.2110    87.6540     6.0850     4.7030     6.2800    24.0910     2.3630 
  122.7500   -13.6600    88.4540     6.1270     4.7450     6.5170    24.0960     2.3570 
  122.8750   -14.1370    89.2450     6.3040     4.8520     7.1100    24.0910     2.3470 
  123.0000   -14.6820    88.1480     6.7510     5.1110     8.1530    24.0780     2.3350 
  123.1250   -15.2800    83.4720     7.6110     5.6240     8.7730    24.0760     2.3220 
  123.2500   -15.8350    75.3950     8.7760     6.3520     9.6320    24.0840     2.3070 
  123.3750   -16.3620    67.6730    10.0500     7.2020    10.7290    24.0970     2.2830 
  123.5000   -16.9080    63.6390    11.1290     7.9980    11.4950    24.1100     2.2510 
  123.6250   -17.5190    62.4870    11.6170     8.4710    11.4920    24.1310     2.2190 
  123.7500   -18.0790    62.9250    11.5320     8.5720    10.7200    24.1380     2.1990 
  123.8750   -18.5060    64.0100    11.0720     8.3830    10.0910    24.1310     2.1920 
  124.0000   -18.8720    65.5800    10.5170     8.0640     9.7740    24.1100     2.1920 
  124.1250   -19.1920    67.4110    10.1250     7.7810     9.8830    24.1070     2.1890 
  124.2500   -19.4540    68.7480     9.9610     7.6150     9.9300    24.1190     2.1820 
  124.3750   -19.6560    68.4940    10.0000     7.5730     9.8070    24.1380     2.1760 
  124.5000   -19.8160    66.6660    10.1720     7.6310     9.8150    24.1600     2.1720 
  124.6250   -19.8960    65.9860    10.3950     7.7490    10.0350    24.2100     2.1690 
  124.7500   -19.9280    65.4520    10.5680     7.8620    10.3150    24.2090     2.1670 
  124.8750   -19.9510    62.5550    10.6150     7.9140    10.4390    24.1960     2.1740 
  125.0000   -19.9490    59.5980    10.5020     7.8700    10.5110    24.2020     2.1930 
  125.1250   -19.9620    62.4150    10.2550     7.7250    10.4700    24.2370     2.2190 
  125.2500   -19.9870    68.0450    10.0130     7.5550     9.9200    24.2390     2.2400 
  125.3750   -19.9810    70.3600     9.8850     7.4310     9.1220    24.2070     2.2550 
  125.5000   -19.9590    70.0810     9.9240     7.4030     9.4910    24.1780     2.2620 
  125.6250   -20.0380    72.2000    10.1210     7.4910    10.1810    24.1820     2.2550 
  125.7500   -20.1780    74.0010    10.3520     7.6340    10.5360    24.2130     2.2350 
  125.8750   -20.2860    73.8090    10.5230     7.7740    10.5990    24.2360     2.2100 
  126.0000   -20.3790    72.7730    10.5820     7.8670    10.6510    24.2270     2.1920 
  126.1250   -20.4940    70.6600    10.5290     7.8890    10.6580    24.1910     2.1830 
  126.2500   -20.5940    66.5110    10.4250     7.8620    10.6470    24.1910     2.1800 
  126.3750   -20.6440    62.9940    10.2980     7.8020    10.5050    24.2170     2.1790 
  126.5000   -20.6580    63.1410    10.1620     7.7180    10.3560    24.2260     2.1800 
  126.6250   -20.6130    65.1460    10.0440     7.6140    10.3450    24.1910     2.1820 
  126.7500   -20.5350    66.8070     9.9670     7.5120    10.3390    24.1590     2.1880 
  126.8750   -20.4250    68.8620     9.9520     7.4380    10.2000    24.1270     2.1980 
  127.0000   -20.2590    71.1440    10.0040     7.4210    10.0820    24.1060     2.2130 
  127.1250   -20.1030    72.8610    10.1070     7.4790    10.1860    24.1060     2.2250 
  127.2500   -20.0050    73.6520    10.2190     7.5770    10.3670    24.1210     2.2300 
  127.3750   -19.9250    71.6020    10.3160     7.6820    10.5540    24.1290     2.2310 
  127.5000   -19.7940    66.3880    10.3860     7.7680    10.7910    24.1140     2.2300 
  127.6250   -19.6450    63.1860    10.4100     7.8140    10.9710    24.1040     2.2280 
  127.7500   -19.5490    64.5730    10.3990     7.8320    10.9640    24.1090     2.2270 
  127.8750   -19.4610    66.3620    10.3640     7.8310    10.9600    24.1290     2.2300 
  128.0000   -19.3590    65.7360    10.3100     7.8160    11.2640    24.1380     2.2340 
  128.1250   -19.2320    65.4990    10.2190     7.7740    11.7910    24.1300     2.2340 
  128.2500   -19.0800    66.0680    10.0910     7.7060    11.9540    24.1200     2.2310 
  128.3750   -18.9290    65.5540     9.9330     7.6220    11.4150    24.1330     2.2280 
  128.5000   -18.7650    65.1760     9.7600     7.5330    10.5600    24.1420     2.2260 
  128.6250   -18.6060    68.2650     9.6040     7.4490     9.8010    24.1320     2.2230 
  128.7500   -18.4620    71.6210     9.4990     7.3840     9.2820    24.1100     2.2220 
  128.8750   -18.3460    73.3530     9.4670     7.3480     9.1220    24.1050     2.2250 
  129.0000   -18.1960    73.3560     9.5110     7.3460     9.2190    24.1170     2.2350 
  129.1250   -18.0200    70.5100     9.5810     7.3630     9.4210    24.1440     2.2490 
  129.2500   -17.8930    66.3710     9.5630     7.3450     9.7310    24.1460     2.2630 
  129.3750   -17.8300    64.0870     9.3740     7.2360     9.8100    24.1280     2.2780 
  129.5000   -17.7850    64.5890     9.0210     7.0160     9.5480    24.1200     2.2950 
  129.6250   -17.6700    65.6660     8.6280     6.7370     8.8590    24.1360     2.3150 
  129.7500   -17.5830    66.9820     8.3510     6.5060     8.0080    24.1540     2.3340 
  129.8750   -17.5870    69.6620     8.2560     6.3860     7.4290    24.1830     2.3470 
  130.0000   -17.6430    72.7320     8.3450     6.4030     7.8320    24.2310     2.3460 
  130.1250   -17.7510    72.4790     8.6060     6.5750     9.0690    24.2430     2.3310 
  130.2500   -17.8930    68.8560     8.9750     6.8560     9.2650    24.2230     2.3190 
  130.3750   -18.0300    64.2620     9.4120     7.2130     9.0000    24.2110     2.3180 
  130.5000   -18.1480    61.7590     9.8560     7.5940     9.3660    24.2350     2.3200 
  130.6250   -18.2790    63.3990    10.1970     7.9160    10.9600    24.2420     2.3180 
  130.7500   -18.3880    65.9010    10.3720     8.1160    13.0260    24.2190     2.3230 
  130.8750   -18.4380    66.2880    10.3880     8.1860    12.9300    24.1960     2.3330 
  131.0000   -18.4330    63.2120    10.3240     8.1720    11.3430    24.2020     2.3300 
  131.1250   -18.3120    60.6340    10.2740     8.1370    10.7670    24.2360     2.3020 
  131.2500   -18.1180    61.8500    10.2590     8.1120    11.6230    24.2380     2.2710 
  131.3750   -17.9150    64.1920    10.2290     8.0820    14.2510    24.2100     2.2570 
  131.5000   -17.6990    66.0900    10.1160     8.0130    17.2810    24.1940     2.2640 
  131.6250   -17.3880    68.5270     9.8840     7.8820    13.6720    24.2100     2.2880 
  131.7500   -17.0120    70.7640     9.6440     7.7360     9.5040    24.2420     2.3160 
  131.8750   -16.6630    69.9170     9.5300     7.6470     8.5160    24.2500     2.3380 
  132.0000   -16.3240    67.1110     9.6250     7.6700     8.6940    24.2340     2.3530 
  132.1250   -15.9420    67.0730     9.9480     7.8400     9.1130    24.2000     2.3740 
  132.2500   -15.5640    68.1520    10.3900     8.1070     9.4930    24.2000     2.4070 
  132.3750   -15.2210    66.5820    10.8620     8.4240     9.5570    24.2230     2.4420 
  132.5000   -14.9430    62.7180    11.2490     8.7180    11.1020    24.2280     2.4640 
  132.6250   -14.7260    59.2740    11.3670     8.8760    12.8520    24.2010     2.4650 
  132.7500   -14.5300    57.8990    11.1810     8.8680    13.5820    24.1980     2.4580 
  132.8750   -14.3800    58.1370    10.7880     8.7410    12.5400    24.2260     2.4540 
  133.0000   -14.3130    60.2250    10.4780     8.6400    10.6940    24.2420     2.4580 
  133.1250   -14.3020    63.5880    10.9010     8.8970     9.5930    24.2260     2.4650 
  133.2500   -14.3060    64.9710    12.4650     9.7790    10.1540    24.1980     2.4730 
  133.3750   -14.3380    65.1810    15.2890    11.4810    11.9400    24.2000     2.4900 
  133.5000   -14.4520    64.3570    18.9430    13.9230    15.6270    24.2350     2.5250 
  133.6250   -14.6270    60.0310    21.8130    16.2440    20.7570    24.2520     2.5740 
