~V
VERS. 2.00: Ver 2.00
~W
STRT.M 50.0000:
STOP.M 283.0000:
STEP.M 0.1250:
NULL. -999.2500:
UWI. F11058:
~C
DEPT.M :
DEN.GM/CC :
GR.API :
RML.OHMM :
RI. :
RXO.OHMM :
CALI.CM :
SP.MV :
~A
# ...
  128.7500     2.6950    61.5830    21.3860    21.0000    35.5520    24.6310   -16.2060 
  128.8750     2.6440    66.5260    19.3090    19.4800    29.3160    24.4110   -16.8410 
  129.0000     2.5500    68.2860    16.1480    16.4500    23.0920    24.0560   -17.6220 
  129.1250     2.4380    66.6890    13.1680    13.3850    15.8940    23.7260   -18.5960 
  129.2500     2.3370    66.2150    11.0220    11.0160    11.7430    23.6230   -19.6790 
  129.3750     2.2590    67.8900     9.7700     9.4330    10.3760    23.6860   -20.8410 
  129.5000     2.2060    69.8620     9.2500     8.5430    10.0570    23.8040   -22.0050 
  129.6250     2.1740    69.6070     9.2800     8.2730    10.1610    24.0000   -23.0410 
  129.7500     2.1560    67.1510     9.5230     8.3440    10.5780    24.2440   -23.9340 
  129.8750     2.1490    65.5300     9.7880     8.5730    11.1160    24.4540   -24.6480 
  130.0000     2.1500    67.1020     9.9500     8.8070    11.2530    24.5520   -25.0810 
  130.1250     2.1540    69.1510     9.9490     8.9350    10.9840    24.5510   -25.2930 
  130.2500     2.1580    70.0900     9.8460     8.9600    10.6620    24.4800   -25.4380 
  130.3750     2.1650    70.2380     9.7030     8.9120    10.5790    24.4260   -25.5190 
  130.5000     2.1780    70.9030     9.5640     8.8260    10.4510    24.3970   -25.6360 
  130.6250     2.2000    71.8500     9.4600     8.7320    10.0140    24.3440   -25.7770 
  130.7500     2.2250    71.1180     9.3870     8.6470     9.7470    24.2610   -25.8010 
  130.8750     2.2460    70.4790     9.3410     8.5790     9.8760    24.2270   -25.8160 
  131.0000     2.2620    72.6020     9.3150     8.5280     9.8640    24.2450   -25.9480 
  131.1250     2.2670    75.0160     9.3110     8.4990     9.8060    24.1960   -26.0710 
  131.2500     2.2640    73.6390     9.3320     8.4900    10.0140    24.1100   -26.1950 
  131.3750     2.2530    69.5410     9.3870     8.5030    10.2950    24.1250   -26.3730 
  131.5000     2.2330    66.1190     9.4770     8.5390    10.2930    24.2290   -26.5340 
  131.6250     2.2070    64.8150     9.5880     8.5990    10.1440    24.2990   -26.6920 
  131.7500     2.1840    63.6790     9.6850     8.6660    10.1440    24.3240   -26.9730 
  131.8750     2.1690    62.6640     9.7370     8.7230    10.1090    24.2860   -27.3130 
  132.0000     2.1610    62.1900     9.7300     8.7530    10.0350    24.2150   -27.7120 
  132.1250     2.1590    63.5510     9.6610     8.7360    10.0310    24.1630   -28.1970 
  132.2500     2.1550    66.7840     9.5620     8.6800    10.2540    24.1700   -28.6060 
  132.3750     2.1490    67.4560     9.4580     8.6030    10.2730    24.2030   -28.9730 
  132.5000     2.1430    64.2600     9.3690     8.5260    10.1660    24.2230   -29.3410 
  132.6250     2.1410    61.4360     9.3150     8.4780     9.7170    24.2070   -29.6570 
  132.7500     2.1430    60.3970     9.2970     8.4630     9.5910    24.1720   -29.9970 
  132.8750     2.1480    60.0770     9.3100     8.4770     9.9190    24.1500   -30.3010 
  133.0000     2.1530    59.8620     9.3480     8.5140    10.2870    24.1690   -30.4640 
  133.1250     2.1570    61.5230     9.4050     8.5720    10.2000    24.1900   -30.5830 
  133.2500     2.1610    62.7760     9.4740     8.6430    10.1770    24.2630   -30.7540 
  133.3750     2.1640    61.3750     9.5530     8.7240    10.3900    24.4190   -30.8980 
  133.5000     2.1700    59.7590     9.6370     8.8110    10.5940    24.6240   -31.0380 
  133.6250     2.1770    62.0920     9.7130     8.8900    10.5480    24.8020   -31.1510 
  133.7500     2.1840    67.2090     9.7630     8.9480    10.5000    24.9230   -31.1780 
  133.8750     2.1910    70.9820     9.7680     8.9680    10.5930    24.9980   -31.3160 
  134.0000     2.1970    70.3640     9.7230     8.9450    10.7800    25.0540   -31.4710 
  134.1250     2.2040    68.6090     9.6290     8.8770    10.9290    25.0890   -31.4470 
  134.2500     2.2120    68.1190     9.5220     8.7870    11.0110    25.0390   -31.4500 
  134.3750     2.2190    67.0990     9.4270     8.6970    11.0820    24.9690   -31.4710 
  134.5000     2.2230    63.8890     9.3670     8.6250    11.1780    24.9330   -31.3740 
  134.6250     2.2250    63.5970     9.3580     8.5860    10.8730    24.9260   -31.2900 
  134.7500     2.2240    66.8800     9.3860     8.5810    10.3430    24.9070   -31.2240 
  134.8750     2.2200    68.6630     9.4350     8.6030     9.9860    24.8490   -31.0030 
  135.0000     2.2130    68.5500     9.4790     8.6360    10.0660    24.7480   -30.7570 
  135.1250     2.2040    70.0910     9.4820     8.6570    10.7100    24.6340   -30.6340 
  135.2500     2.1970    71.7860     9.4270     8.6510    11.4110    24.5310   -30.4460 
  135.3750     2.1940    71.0370     9.3100     8.6110    11.8200    24.4740   -30.2400 
  135.5000     2.1950    70.7600     9.1570     8.5410    11.8110    24.4770   -30.0740 
  135.6250     2.1950    71.8750     9.0610     8.4740    11.8980    24.5150   -29.9000 
  135.7500     2.1930    71.1360     9.1480     8.5050    12.3150    24.5670   -29.7350 
  135.8750     2.1970    69.3510     9.5330     8.7520    12.5170    24.6180   -29.5470 
  136.0000     2.2170    69.3160    10.2630     9.3120    12.5470    24.6760   -29.3050 
  136.1250     2.2610    70.4890    11.2500    10.2270    13.0110    24.7030   -28.9870 
  136.2500     2.3150    69.2620    12.1180    11.2220    15.8980    24.6740   -28.5660 
  136.3750     2.3620    66.3040    12.4700    11.8560    22.1390    24.6120   -27.9850 
  136.5000     2.3860    64.9470    12.0260    11.6510    24.8930    24.5620   -27.2840 
  136.6250     2.3790    67.4860    10.7610    10.4150    16.0030    24.5530   -26.3280 
  136.7500     2.3540    72.7420     9.2730     8.8490    11.3240    24.5820   -25.1450 
  136.8750     2.3220    78.9760     8.0720     7.5020     8.7500    24.6470   -23.9490 
  137.0000     2.3000    83.0620     7.5310     6.6970     7.4820    24.6710   -22.7620 
  137.1250     2.3090    81.4130     7.9920     6.6970     7.7140    24.6560   -21.6170 
  137.2500     2.3550    75.8020     9.3670     7.4800     9.4070    24.6790   -20.6130 
  137.3750     2.4340    70.2080    11.6290     9.1410    12.8250    24.7180   -19.7330 
  137.5000     2.5260    64.9160    14.6440    11.7440    18.7140    24.7330   -18.9410 
  137.6250     2.6070    57.1720    18.0460    15.2810    24.9280    24.7350   -18.4560 
  137.7500     2.6630    50.4090    20.9990    19.0060    29.2960    24.7370   -18.2820 
  137.8750     2.6930    48.4910    22.6310    21.8750    31.3020    24.7430   -18.1900 
  138.0000     2.7000    51.4520    22.2860    22.7340    31.5260    24.7550   -18.1410 
  138.1250     2.6800    55.2570    19.6800    20.7370    32.2540    24.7760   -18.1400 
  138.2500     2.6390    57.9250    16.0810    17.1880    28.7170    24.7870   -18.1500 
  138.3750     2.5800    63.5660    12.5980    13.3730    19.4970    24.7980   -18.2340 
  138.5000     2.5110    74.6760     9.9360    10.2090    10.2640    24.8060   -18.3790 
  138.6250     2.4430    85.9800     8.3740     8.1780     7.3640    24.8140   -18.4940 
  138.7500     2.3860    88.7230     7.5950     7.0270     6.7020    24.8290   -18.6270 
  138.8750     2.3410    84.3220     7.4540     6.5800     7.4980    24.8470   -18.8000 
  139.0000     2.3070    80.3040     7.7500     6.6640     8.4490    24.8580   -19.0080 
  139.1250     2.2820    80.2440     8.1740     7.0860     8.9060    24.8590   -19.2090 
  139.2500     2.2600    79.1590     8.4570     7.5140     8.9580    24.8590   -19.3380 
  139.3750     2.2400    76.3110     8.5110     7.7670     8.9270    24.8590   -19.4380 
  139.5000     2.2230    73.3460     8.3860     7.8060     8.6850    24.8530   -19.5820 
  139.6250     2.2110    72.0480     8.2480     7.7270     8.6900    24.8170   -19.7360 
  139.7500     2.2060    72.5880     8.2990     7.7130     9.0950    24.7340   -19.8230 
  139.8750     2.2080    73.4820     8.6760     7.9040     9.8310    24.6250   -19.9140 
