~V
VERS. 2.00: Ver 2.00
~W
STRT.M 50.0000:
STOP.M 270.0000:
STEP.M 0.1250:
NULL. -999.2500:
UWI. F11070:
~C
DEPT.M :
DEN.GM/CC :
GR.API :
RML.OHMM :
RI. :
RXO.OHMM :
CALI.CM :
SP.MV :
~A
# ...
  117.5000     2.2200    65.5690     8.9670     8.4830     9.0040    24.4660   -25.0440 
  117.6250     2.1530    63.7920     7.8420     7.1760     8.5770    24.6420   -25.4980 
  117.7500     2.1300    65.5030     7.5250     6.5310     8.9990    24.6970   -25.7910 
  117.8750     2.1280    69.6140     7.7630     6.4200     9.2370    24.7530   -26.0700 
  118.0000     2.1310    71.4740     8.3260     6.6980     9.2660    24.8280   -26.3560 
  118.1250     2.1610    69.6400     8.9820     7.2050     9.2240    24.7400   -26.4490 
  118.2500     2.2360    67.4600     9.5010     7.7020     9.1600    24.3500   -26.4960 
  118.3750     2.3370    67.0640     9.7460     8.0310     9.2170    23.9120   -26.6530 
  118.5000     2.3960    67.8260     9.6750     8.1110     9.2490    23.5720   -26.7890 
  118.6250     2.3460    68.4640     9.3460     7.9420     9.1230    23.4230   -26.8700 
  118.7500     2.2640    68.0400     8.9630     7.6860     9.2740    23.3520   -26.9810 
  118.8750     2.2120    65.7900     8.6570     7.4480     9.7480    23.4280   -26.9410 
  119.0000     2.1890    64.1010     8.4810     7.2750    10.0940    23.6510   -26.7150 
  119.1250     2.1810    66.0100     8.3930     7.1430    10.1020    23.9430   -26.4980 
  119.2500     2.1730    68.2240     8.2530     6.9650    10.0060    24.2760   -26.2090 
  119.3750     2.1540    68.2400     7.9700     6.6930     9.6580    24.7960   -25.8220 
  119.5000     2.1120    67.5250     7.5430     6.3360     8.6870    25.5630   -25.5680 
  119.6250     2.0620    69.4480     7.0760     5.9610     7.3570    26.2540   -25.3900 
  119.7500     2.0470    72.5810     6.7240     5.6610     6.7940    26.2020   -25.0910 
  119.8750     2.0820    74.7290     6.5880     5.5070     7.0860    25.3720   -24.8150 
  120.0000     2.1480    75.8000     6.7030     5.5450     8.1060    24.6680   -24.6030 
  120.1250     2.2030    75.1990     7.0660     5.8100     8.8000    24.5740   -24.3540 
  120.2500     2.2280    71.7850     7.5560     6.2200     9.0930    24.6500   -24.1880 
  120.3750     2.2330    68.8910     8.0850     6.6950     9.3470    24.6570   -24.0490 
  120.5000     2.2310    69.5000     8.5710     7.1590     9.6870    24.6520   -23.8090 
  120.6250     2.2260    70.2320     8.9090     7.5190     9.9230    24.6840   -23.5570 
  120.7500     2.2230    66.5700     9.0330     7.7120    10.0310    24.7120   -23.2810 
  120.8750     2.2280    60.9000     8.8680     7.6590    10.0000    24.7660   -22.7260 
  121.0000     2.2400    59.7750     8.3760     7.3060     9.7690    24.8090   -21.8440 
  121.1250     2.2550    66.9310     7.5800     6.6460     8.9620    24.7840   -20.7420 
  121.2500     2.2780    78.3350     6.6990     5.8730     7.7650    24.6960   -19.4170 
  121.3750     2.3070    90.2970     5.9170     5.1550     6.3580    24.6440   -18.0520 
  121.5000     2.3280    98.6510     5.3750     4.6160     5.1820    24.6770   -16.8450 
  121.6250     2.3230   101.3860     5.1730     4.3430     4.9320    24.6570   -15.8690 
  121.7500     2.3010    99.7990     5.2190     4.2720     5.2160    24.4850   -15.1080 
  121.8750     2.2800    94.8150     5.4230     4.3480     5.6930    24.1020   -14.6390 
  122.0000     2.2730    92.0300     5.6800     4.5030     6.0630    23.6500   -14.3850 
  122.1250     2.2810    96.9390     5.8920     4.6680     6.0790    23.5080   -14.1940 
  122.2500     2.2920   104.7560     6.0310     4.8000     5.9510    23.5870   -14.1740 
  122.3750     2.2990   108.3670     6.1090     4.8960     5.9800    23.6050   -14.2090 
  122.5000     2.2960   104.7520     6.1460     4.9690     6.5550    23.4290   -14.2260 
  122.6250     2.2840    98.9680     6.1460     5.0190     6.4380    23.1870   -14.2810 
  122.7500     2.2790    96.9460     6.1140     5.0360     6.0020    22.9380   -14.4300 
  122.8750     2.2890    97.0260     6.0510     5.0040     5.7290    22.7660   -14.5790 
  123.0000     2.3100    95.2170     5.9560     4.9170     5.6260    22.6980   -14.6770 
  123.1250     2.3240    90.6310     5.8300     4.7840     5.8120    22.8800   -14.7350 
  123.2500     2.3210    90.9570     5.6950     4.6450     5.5960    23.2370   -14.5640 
  123.3750     2.3070    96.0010     5.5700     4.5280     5.3170    23.7290   -14.3150 
  123.5000     2.2920    98.4510     5.4790     4.4510     5.1720    24.1040   -14.0360 
  123.6250     2.2850    96.9790     5.4470     4.4280     5.1990    24.2490   -13.6160 
  123.7500     2.2850    94.9090     5.4710     4.4530     5.3810    24.3490   -13.1510 
  123.8750     2.2860    92.6480     5.5500     4.5160     5.5250    24.4930   -12.8270 
  124.0000     2.2830    90.5830     5.6710     4.6080     5.6670    24.6490   -12.7050 
  124.1250     2.2720    90.5450     5.8300     4.7230     5.7570    24.6840   -12.6090 
  124.2500     2.2590    92.1360     6.0110     4.8500     5.7580    24.5870   -12.5680 
  124.3750     2.2500    93.0500     6.1830     4.9720     5.8580    24.3520   -12.4490 
  124.5000     2.2500    94.4820     6.2780     5.0420     6.0930    24.0780   -12.2100 
  124.6250     2.2610    96.0020     6.1550     4.9620     5.8940    23.9690   -12.1010 
  124.7500     2.2790    95.5860     5.7990     4.7150     5.6280    23.9480   -12.0550 
  124.8750     2.3010    96.7250     5.3130     4.3690     5.4370    23.9420   -11.9540 
  125.0000     2.3290   101.2730     4.9290     4.0740     5.1010    23.9230   -11.8990 
  125.1250     2.3640   104.6820     4.9660     4.0430     4.5720    23.8900   -12.0740 
  125.2500     2.4000   101.6140     5.4640     4.3190     4.6940    23.8650   -12.2560 
  125.3750     2.4300    94.4240     6.3370     4.8700     6.7390    23.8730   -12.4420 
  125.5000     2.4530    89.2950     7.3290     5.5600    12.5500    23.8650   -12.6550 
  125.6250     2.4590    87.5000     7.9520     6.1020    17.7160    23.7830   -12.7560 
  125.7500     2.4370    86.3450     7.9750     6.2890    13.0720    23.6990   -12.9180 
  125.8750     2.3850    85.0770     7.5350     6.1350     7.6510    23.6730   -13.2080 
  126.0000     2.3230    84.8890     6.9970     5.8340     6.1040    23.7240   -13.5160 
  126.1250     2.2820    84.7130     6.7360     5.6300     6.6350    23.7630   -13.8770 
  126.2500     2.2660    83.2150     6.8070     5.6250     7.2490    23.8080   -14.3880 
  126.3750     2.2640    81.4180     7.1080     5.8000     7.3860    23.8820   -14.8220 
  126.5000     2.2630    80.8530     7.4340     6.0440     7.2770    23.9460   -15.1090 
  126.6250     2.2530    82.0220     7.5300     6.1740     6.9460    24.0360   -15.2370 
  126.7500     2.2360    83.9770     7.3400     6.1110     6.7030    24.2150   -15.0720 
  126.8750     2.2130    85.2130     6.9170     5.8640     6.5730    24.4660   -14.7060 
  127.0000     2.1930    85.4810     6.3880     5.5020     6.2260    24.5790   -14.3270 
  127.1250     2.1890    87.0800     5.9250     5.1440     5.6620    24.5980   -13.8680 
  127.2500     2.2030    91.7460     5.6370     4.8940     5.3080    24.6020   -13.4050 
  127.3750     2.2250    96.7020     5.5640     4.7880     5.1970    24.5510   -13.1950 
  127.5000     2.2450    98.4130     5.6730     4.8140     5.5320    24.4230   -13.1180 
  127.6250     2.2520    96.1820     5.8730     4.9240     6.2790    24.2960   -12.9850 
  127.7500     2.2530    93.8770     6.0310     5.0380     6.8580    24.2240   -12.9010 
  127.8750     2.2570    92.4860     6.0790     5.1110     6.5960    24.1250   -12.8310 
  128.0000     2.2640    90.7550     6.0100     5.1260     6.1500    23.9960   -12.6720 
  128.1250     2.2720    91.7540     5.8570     5.0740     5.5660    23.8920   -12.5700 
  128.2500     2.2820    94.3500     5.6880     4.9820     5.6000    23.8400   -12.4980 
  128.3750     2.2970    96.1510     5.5400     4.8790     6.0870    23.8900   -12.4080 
  128.5000     2.3150    95.6830     5.4350     4.7980     6.0770    24.0920   -12.4400 
  128.6250     2.3340    94.8080     5.4210     4.7750     5.5880    24.3320   -12.6070 
