~V
VERS. 2.00: Ver 2.00
~W
STRT.M 55.0000:
STOP.M 275.0000:
STEP.M 0.1250:
NULL. -999.2500:
UWI. F11036:
~C
DEPT.M :
GR.API :
RML.OHMM :
RI. :
RXO.OHMM :
CALI.CM :
DEN.GM/CC :
SP.MV :
~A
   55.0000    47.9600     1.0490     0.9040     3.7340    25.7150     2.0620   246.4140 
   55.1250    51.7370     0.9080     0.9070     1.9170    25.5810     2.0570   243.6450 
   55.2500    55.6590     0.7840     0.9100     1.3200    25.2840     2.0460   238.5050 
   55.3750    57.6730     0.7050     0.9110     1.1780    24.9120     2.0330   230.4120 
   55.5000    59.7560     0.6830     0.9120     1.1460    24.7350     2.0230   221.0420 
   55.6250    61.3430     0.7180     0.9180     1.0470    24.8500     2.0260   211.7940 
   55.7500    58.1040     0.7840     0.9330     0.9880    25.0120     2.0460   203.2870 
   55.8750    52.9760     0.8770     0.9600     0.9680    25.0940     2.0810   196.6150 
   56.0000    52.5180     0.9960     0.9950     0.9760    25.1370     2.1220   190.4970 
   56.1250    56.0820     1.1320     1.0280     0.9700    25.2100     2.1590   184.4770 
   56.2500    57.1590     1.2660     1.0490     1.0320    25.1900     2.1860   180.2780 
   56.3750    57.0220     1.3870     1.0570     1.1580    24.9320     2.2050   178.0170 
   56.5000    57.4100     1.4970     1.0580     1.3080    24.6660     2.2190   175.8790 
   56.6250    56.6670     1.6010     1.0620     1.3220    24.7400     2.2310   172.0440 
   56.7500    55.2490     1.6960     1.0740     1.2980    24.9500     2.2410   169.3990 
   56.8750    54.3010     1.7670     1.0890     1.3030    25.0710     2.2460   171.6750 
   57.0000    52.3110     1.7980     1.1040     1.3050    25.1030     2.2410   170.8680 
   57.1250    49.1670     1.7780     1.1120     1.2620    25.1190     2.2290   168.1320 
   57.2500    50.0810     1.7310     1.1130     1.2060    25.1310     2.2220   164.9320 
   57.3750    55.5780     1.6750     1.1090     1.1950    25.0910     2.2300   161.7820 
   57.5000    60.3560     1.6240     1.1020     1.2030    24.9780     2.2540   159.1040 
   57.6250    60.2830     1.5850     1.0930     1.2270    24.7860     2.2870   157.4890 
   57.7500    57.8340     1.5590     1.0800     1.2960    24.5800     2.3180   154.0300 
   57.8750    55.7010     1.5470     1.0630     1.3730    24.3940     2.3430   144.8900 
   58.0000    55.4340     1.5550     1.0390     1.4280    24.2340     2.3600   138.1290 
   58.1250    56.9340     1.5930     1.0030     1.4650    24.1370     2.3680   132.8380 
   58.2500    59.5300     1.6190     0.9470     1.5220    24.0750     2.3690   128.1640 
   58.3750    61.0520     1.5420     0.8470     1.5410    24.0620     2.3660   124.0240 
   58.5000    60.5580     1.2840     0.6710     1.5340    24.0780     2.3780   119.8810 
   58.6250    58.3210     0.8650     0.4390     1.5240    24.2010     2.4330   114.7910 
   58.7500    56.8260     0.4630     0.2470     1.5040    24.3690     2.5310   108.2350 
   58.8750    57.8250     0.1870     0.1330     1.4480    24.3490     2.6450    99.6030 
   59.0000    60.1200     0.0600     0.0890     1.3730    24.2540     2.7270    88.2940 
   59.1250    63.8580     0.0960     0.1100     1.4140    24.2160     2.7230    74.0140 
   59.2500    71.8450     0.3050     0.2000     1.9350    24.3090     2.6450    58.3250 
   59.3750    83.4500     0.7910     0.4150     3.5060    24.4330     2.5320    42.2050 
   59.5000    91.2950     1.6840     0.8460     4.9920    24.5370     2.4310    26.5370 
   59.6250    90.6800     2.9790     1.6360     5.1870    24.6470     2.3800    12.6040 
   59.7500    88.3010     4.2000     2.6410     4.8590    24.7120     2.3620     1.0510 
   59.8750    86.6530     4.9390     3.5870     4.8660    24.7640     2.3460    -7.3930 
   60.0000    85.1630     5.1330     4.2860     5.1190    24.7940     2.3070   -12.2870 
   60.1250    84.8130     5.0810     4.7750     5.3500    24.8040     2.2320   -13.6180 
   60.2500    85.7890     5.1190     5.2070     5.4650    24.8110     2.1490   -13.1690 
   60.3750    85.2500     5.2730     5.5990     5.6690    24.8260     2.0900   -11.9120 
   60.5000    84.2770     5.4670     5.9240     6.3790    24.7540     2.0740   -10.4500 
   60.6250    88.9520     5.6280     6.1400     7.1760    24.5210     2.1070    -9.2500 
   60.7500    95.4510     5.7500     6.2700     6.7970    24.3050     2.1570    -8.5230 
   60.8750    98.4440     5.8500     6.3440     6.0100    24.1300     2.2000    -8.3210 
   61.0000    99.4560     5.9470     6.3850     5.8850    24.0190     2.2280    -8.4980 
   61.1250   103.4730     6.0510     6.4030     6.1700    23.9140     2.2400    -8.8130 
   61.2500   108.5000     6.1580     6.4080     6.3020    23.8930     2.2480    -9.1500 
   61.3750   109.7880     6.2660     6.4110     6.2600    23.9490     2.2550    -9.5220 
   61.5000   105.6540     6.3710     6.4170     6.2460    24.0730     2.2590    -9.9860 
   61.6250    98.9370     6.4730     6.4270     6.0470    24.2580     2.2580   -10.6260 
   61.7500    94.1220     6.5830     6.4460     6.2960    24.4970     2.2550   -11.3100 
   61.8750    94.3640     6.7250     6.4910     7.1160    24.6780     2.2570   -11.9730 
   62.0000    98.6820     6.9300     6.5950     7.2170    24.8330     2.2650   -12.7120 
   62.1250   100.8330     7.2420     6.8130     6.6990    25.0050     2.2750   -13.7240 
   62.2500    98.3240     7.6450     7.1450     6.7510    25.0490     2.2770   -15.0090 
   62.3750    92.0870     8.0950     7.5700     7.5660    24.8690     2.2630   -16.4590 
   62.5000    84.4500     8.5230     8.0300     9.3070    24.5410     2.2320   -17.9510 
   62.6250    77.4300     8.8300     8.4250     9.6680    24.4740     2.1890   -19.3520 
   62.7500    71.1970     9.0020     8.6880     9.3600    24.7720     2.1470   -20.7080 
   62.8750    66.9610     9.0740     8.8100     9.0660    25.2440     2.1160   -22.0280 
   63.0000    65.3950     9.1190     8.8390     9.0590    25.5670     2.1000   -23.1770 
   63.1250    67.0820     9.2100     8.8480     9.3140    25.4830     2.1000   -23.8630 
   63.2500    67.9220     9.3360     8.8600     9.3640    25.1080     2.1080   -24.0110 
   63.3750    67.6160     9.4190     8.8210     9.2410    24.6730     2.1210   -23.6560 
   63.5000    69.7270     9.3350     8.6390     9.1550    24.3280     2.1410   -22.9010 
   63.6250    77.7150     8.9180     8.1900     8.9310    24.1570     2.1690   -21.8580 
   63.7500    88.6560     8.2180     7.5160     8.0950    24.0540     2.2030   -20.6780 
   63.8750    98.5800     7.3990     6.7450     6.9590    23.9120     2.2360   -19.3810 
   64.0000   105.3390     6.7500     6.0960     6.3190    23.7050     2.2660   -18.0430 
   64.1250   108.6760     6.7500     5.9220     5.9560    23.5310     2.2930   -16.8280 
   64.2500   108.8370     7.6780     6.4420     5.8050    23.4220     2.3270   -15.8380 
   64.3750   104.0810     9.7820     7.9210     6.6690    23.3660     2.3760   -15.1030 
   64.5000    93.6400    12.9900    10.5490    10.4590    23.4110     2.4340   -14.6800 
   64.6250    83.3200    16.2620    14.0000    23.7070    23.5410     2.4740   -14.5940 
   64.7500    80.7390    17.8540    16.3690    37.9420    23.6820     2.4730   -14.7210 
   64.8750    86.9000    16.9360    16.0360    31.2510    23.8480     2.4270   -15.0590 
   65.0000    96.8120    14.1550    13.5080    15.8810    24.0430     2.3530   -15.6050 
   65.1250   102.2060    11.2370    10.7800     8.7670    24.1660     2.2860   -16.3470 
   65.2500   100.0610     9.3790     8.9480     7.2520    24.2440     2.2460   -17.1930 
   65.3750    91.7720     8.6920     8.0820     7.9670    24.2670     2.2320   -18.1060 
   65.5000    81.6010     8.8810     7.9930     9.1120    24.1150     2.2310   -18.9840 
   65.6250    76.0300     9.5830     8.4540     8.2140    23.7820     2.2290   -19.7890 
   65.7500    76.4640    10.3090     9.0290     7.7460    23.5230     2.2240   -20.5590 
   65.8750    79.4610    10.7850     9.4320     7.6700    23.3990     2.2210   -21.3020 
   66.0000    79.8630    10.8760     9.5090     8.0640    23.3680     2.2230   -21.9850 
   66.1250    77.0260    10.5620     9.2360     8.4370    23.3820     2.2300   -22.6020 
