~V
VERS. 2.00: Ver 2.00
~W
STRT.M 47.0000:
STOP.M 270.0000:
STEP.M 0.1250:
NULL. -999.2500:
UWI. F11075:
~C
DEPT.M :
GR.API :
RML.OHMM :
RI. :
RXO.OHMM :
CALI.CM :
DEN.GM/CC :
SP.MV :
~A
# ...
  148.2500    57.0450    14.0320    12.3450    13.7350    24.5690     2.2130   -15.7690 
  148.3750    59.4030    14.2590    12.4330    13.8710    24.5670     2.2170   -15.7440 
  148.5000    62.4340    14.3740    12.4110    14.0110    24.5660     2.2140   -15.7480 
  148.6250    65.7730    14.3670    12.2790    14.2410    24.5640     2.2040   -15.7620 
  148.7500    68.0400    14.2670    12.0590    14.1920    24.5600     2.1910   -15.7620 
  148.8750    68.4770    14.1180    11.8040    13.3680    24.5570     2.1790   -15.7700 
  149.0000    67.7940    13.9730    11.5870    12.5820    24.5600     2.1710   -15.7810 
  149.1250    66.6910    13.8430    11.4550    12.1000    24.5750     2.1660   -15.7870 
  149.2500    65.8610    13.7170    11.4190    12.0360    24.6130     2.1600   -15.7920 
  149.3750    66.3050    13.5790    11.4600    12.5810    24.6570     2.1560   -15.7940 
  149.5000    67.0100    13.4360    11.5330    13.2590    24.6770     2.1610   -15.7630 
  149.6250    66.6010    13.3130    11.6140    13.7120    24.6790     2.1840   -15.6830 
  149.7500    65.8860    13.2300    11.6880    14.1240    24.6760     2.2200   -15.5730 
  149.8750    67.2990    13.2080    11.7440    14.2500    24.6560     2.2570   -15.4410 
  150.0000    68.9160    13.2520    11.7860    13.7940    24.6250     2.2770   -15.3100 
  150.1250    68.3300    13.3960    11.8430    13.3200    24.5920     2.2750   -15.1670 
  150.2500    67.2240    13.6700    11.9760    13.6800    24.5760     2.2550   -15.0020 
  150.3750    67.3450    14.0220    12.2110    14.9060    24.5810     2.2350   -14.7880 
  150.5000    68.0250    14.1970    12.3860    16.4800    24.6110     2.2250   -14.5300 
  150.6250    69.1090    13.8970    12.2380    17.0400    24.6680     2.2280   -14.2560 
  150.7500    71.8680    12.9480    11.5310    16.1090    24.7230     2.2410   -13.9700 
  150.8750    78.0260    11.4640    10.2590    13.9060    24.7760     2.2630   -13.6720 
  151.0000    83.7280    10.0100     8.9430    10.9250    24.8430     2.2980   -13.3700 
  151.1250    87.0070     8.9920     7.9640     8.4450    24.9010     2.3490   -13.0790 
  151.2500    87.6810     8.5920     7.4960     7.5500    24.9380     2.4110   -12.8060 
  151.3750    85.6310     8.7880     7.6080     8.6560    24.9310     2.4630   -12.5960 
  151.5000    81.5250     9.1650     8.0340    11.3040    24.8510     2.4850   -12.4590 
  151.6250    78.4540     9.3850     8.4600    13.3170    24.7300     2.4700   -12.3820 
  151.7500    79.7450     9.2380     8.5690    11.6300    24.7290     2.4270   -12.3600 
  151.8750    84.5750     8.7430     8.2270     8.3230    24.9170     2.3760   -12.3800 
  152.0000    87.7430     8.2220     7.7140     7.4240    25.0840     2.3350   -12.4300 
  152.1250    87.9000     7.8810     7.2510     7.4330    25.1650     2.3130   -12.5010 
  152.2500    86.4850     7.7610     6.9640     7.7250    25.2310     2.3090   -12.5950 
  152.3750    86.6620     7.7480     6.8520     7.5670    25.3300     2.3190   -12.6940 
  152.5000    88.4470     7.6600     6.7460     7.3310    25.4010     2.3330   -12.8080 
  152.6250    89.1760     7.4500     6.5540     7.2910    25.4240     2.3440   -12.9490 
  152.7500    89.4980     7.2030     6.3030     7.3470    25.4260     2.3500   -13.1300 
  152.8750    92.0060     7.1380     6.1510     6.7190    25.4290     2.3550   -13.3630 
  153.0000    93.8020     7.3970     6.2530     6.4280    25.4090     2.3640   -13.6360 
  153.1250    90.7370     8.0490     6.7120     7.3470    25.3270     2.3760   -13.9420 
  153.2500    83.8770     9.0600     7.5640    10.0450    25.1550     2.3830   -14.2950 
  153.3750    79.2760    10.2570     8.7620    12.8610    24.9330     2.3730   -14.7070 
  153.5000    76.4360    11.2890     9.9820    15.0660    24.7530     2.3420   -15.1380 
  153.6250    71.9600    11.9110    10.9020    14.5610    24.7170     2.2960   -15.5570 
  153.7500    66.6920    12.0650    11.3360    12.2680    24.7820     2.2480   -15.9290 
  153.8750    66.1910    11.9110    11.3300    11.4500    24.9390     2.2100   -16.2640 
  154.0000    69.3010    11.7840    11.2180    11.5070    25.0910     2.1870   -16.5450 
  154.1250    71.2140    11.8520    11.1830    11.6980    25.1880     2.1780   -16.7640 
  154.2500    70.7560    12.1470    11.2900    11.7300    25.2510     2.1750   -16.8890 
  154.3750    70.1200    12.6030    11.5180    11.8510    25.3380     2.1690   -16.8840 
  154.5000    69.5020    13.0240    11.7460    12.1360    25.4380     2.1580   -16.7580 
  154.6250    67.9760    13.2160    11.8490    12.4090    25.4930     2.1460   -16.5270 
  154.7500    67.0260    13.0020    11.6890    12.7530    25.5340     2.1420   -16.2080 
  154.8750    68.4710    12.2470    11.1180    12.9090    25.5450     2.1580   -15.7690 
  155.0000    71.4360    11.2140    10.2890    12.0560    25.4820     2.1930   -15.2490 
  155.1250    75.3000    10.2510     9.4600    10.4940    25.3780     2.2450   -14.6800 
  155.2500    79.5330     9.7570     8.9500     8.9480    25.3650     2.3100   -14.1000 
  155.3750    83.0000    10.2790     9.2010     8.9200    25.3890     2.3880   -13.5340 
  155.5000    82.2700    11.9420    10.3970    11.2040    25.4240     2.4690   -13.0090 
  155.6250    75.5980    14.6960    12.6750    18.9380    25.4520     2.5400   -12.5490 
  155.7500    65.5080    17.9360    15.7870    32.2150    25.4820     2.5840   -12.1810 
  155.8750    58.3750    20.1640    18.4560    46.2560    25.4900     2.5820   -11.9250 
  156.0000    57.6410    20.5010    19.2700    44.8530    25.4890     2.5490   -11.7420 
  156.1250    61.6380    19.2420    18.2470    31.2350    25.4840     2.5080   -11.6200 
  156.2500    67.4220    17.5960    16.6250    18.2140    25.4830     2.4840   -11.5450 
  156.3750    70.1330    17.0530    15.8290    14.0680    25.4830     2.4930   -11.5230 
  156.5000    68.4420    18.0000    16.2920    17.7640    25.4790     2.5230   -11.5490 
  156.6250    63.5290    20.2780    18.0340    26.3760    25.4760     2.5550   -11.5910 
  156.7500    58.5690    23.3150    20.7700    34.1940    25.4710     2.5730   -11.6260 
  156.8750    56.5920    26.1010    23.7470    33.8860    25.4500     2.5730   -11.6530 
  157.0000    56.9650    27.9010    25.9980    30.5760    25.4080     2.5690   -11.7030 
  157.1250    58.7340    28.6730    27.2480    27.7440    25.3770     2.5730   -11.7690 
  157.2500    60.7060    28.8780    27.8570    27.7210    25.3920     2.5830   -11.8460 
  157.3750    61.0060    29.0420    28.3190    31.5790    25.4610     2.5890   -11.8900 
  157.5000    59.7360    29.2520    28.7390    34.9730    25.4940     2.5830   -11.9010 
  157.6250    58.4440    29.2580    28.8710    34.6600    25.4990     2.5680   -11.9120 
  157.7500    57.5420    28.8280    28.4660    32.5850    25.4900     2.5520   -11.9270 
  157.8750    56.4890    27.9340    27.4580    30.2040    25.4720     2.5440   -11.9330 
  158.0000    54.6370    26.9700    26.2900    28.4200    25.4560     2.5420   -11.9350 
  158.1250    54.1100    26.3000    25.3620    27.3760    25.4620     2.5420   -11.9260 
  158.2500    57.2360    26.1870    24.9640    28.1400    25.4740     2.5410   -11.9060 
  158.3750    60.9290    26.8200    25.3130    28.5750    25.4740     2.5430   -11.9080 
  158.5000    61.2290    27.9350    26.2070    31.0940    25.4680     2.5520   -11.9280 
  158.6250    57.9450    29.2060    27.3950    35.0390    25.4740     2.5680   -11.9370 
  158.7500    54.7800    30.2070    28.4840    38.1080    25.4830     2.5840   -11.9360 
  158.8750    54.5360    30.4450    28.9540    36.8720    25.4850     2.5890   -11.9250 
  159.0000    54.8120    29.9220    28.7380    35.3480    25.4710     2.5840   -11.9290 
  159.1250    54.0740    28.9660    27.9960    32.2800    25.4530     2.5760   -11.9490 
  159.2500    52.4330    28.0160    27.0080    28.9920    25.4410     2.5770   -11.9870 
  159.3750    52.8780    27.2050    26.0270    28.3260    25.4300     2.5930   -12.0280 
