~V
VERS. 2.00: Ver 2.00
~W
STRT.M 55.0000:
STOP.M 281.0000:
STEP.M 0.1250:
NULL. -999.2500:
UWI. F11051:
~C
DEPT.M :
SP.MV :
GR.API :
RML.OHMM :
RI. :
RXO.OHMM :
CALI.CM :
DEN.GM/CC :
~A
# ...
  178.7500   -20.5760    61.2550    85.1770    78.4740    63.0870    23.6950     2.2330 
  178.8750   -20.5300    59.9480    78.1560    72.4610    56.7730    23.6420     2.2270 
  179.0000   -20.4950    63.5510    71.3040    66.2940    49.5650    23.7680     2.2120 
  179.1250   -20.4900    69.0380    65.2610    60.6350    48.8440    24.1160     2.2000 
  179.2500   -20.4530    70.0360    60.1140    55.7080    52.5190    24.4320     2.2020 
  179.3750   -20.4400    66.3400    56.1370    51.8060    53.6110    24.6010     2.2210 
  179.5000   -20.4120    61.9450    53.7580    49.3460    48.7470    24.6790     2.2520 
  179.6250   -20.3700    61.5460    53.8130    49.0890    48.1240    24.6410     2.2830 
  179.7500   -20.3250    64.9140    56.2050    50.9080    51.4180    24.5860     2.3040 
  179.8750   -20.2790    68.3590    60.7770    54.6280    59.4010    24.5820     2.3110 
  180.0000   -20.2370    69.0390    66.9540    59.7170    70.2860    24.6670     2.3060 
  180.1250   -20.1890    66.1100    73.6360    65.2160    79.4610    24.8370     2.2920 
  180.2500   -20.1560    63.8350    79.3790    69.8850    79.8890    24.9380     2.2780 
  180.3750   -20.1460    62.7750    83.3910    73.0320    73.0490    24.9510     2.2700 
  180.5000   -20.1420    61.5700    85.6550    74.6290    67.7050    24.9110     2.2720 
  180.6250   -20.1580    60.7250    86.6710    75.0990    72.0030    24.7830     2.2770 
  180.7500   -20.1490    61.2510    87.1200    75.0890    79.7900    24.6220     2.2760 
  180.8750   -20.1410    61.9340    86.9930    74.6420    74.6980    24.5460     2.2660 
  181.0000   -20.1320    62.6400    86.1180    73.6350    71.4950    24.6230     2.2530 
  181.1250   -20.1050    62.4840    84.3060    71.8630    71.5460    24.7890     2.2510 
  181.2500   -20.0970    61.6880    81.8320    69.5100    67.4300    24.8670     2.2590 
  181.3750   -20.0420    60.7480    78.8050    66.6860    58.0120    24.8120     2.2700 
  181.5000   -20.0000    61.1130    75.1970    63.4320    52.4760    24.7760     2.2780 
  181.6250   -19.9640    62.7050    71.0620    59.8180    49.8620    24.8260     2.2840 
  181.7500   -19.9400    64.5870    67.1950    56.3840    45.6010    24.7850     2.2910 
  181.8750   -19.9260    64.9560    64.6200    53.8490    39.7640    24.7190     2.3000 
  182.0000   -19.8740    62.8540    64.3310    52.9380    32.6450    24.7510     2.3030 
  182.1250   -19.8720    61.6050    67.5780    54.6950    33.5200    24.8770     2.2940 
  182.2500   -19.8720    62.8220    73.9150    59.0360    49.7630    24.9420     2.2760 
  182.3750   -19.8910    63.0560    82.5780    65.6040    66.7810    24.9640     2.2580 
  182.5000   -19.9380    61.9450    92.0050    73.2860    75.9310    24.9670     2.2500 
  182.6250   -19.9840    63.7780    99.4570    79.8490    80.1170    24.9550     2.2520 
  182.7500   -20.0520    66.0250   103.3070    83.5950    76.0890    24.9230     2.2600 
  182.8750   -20.1240    66.4950   103.5700    84.2460    71.4080    24.8310     2.2690 
  183.0000   -20.2150    66.6130   101.7990    82.8980    67.9290    24.6230     2.2740 
  183.1250   -20.3080    67.3750   100.1440    81.2770    73.2190    24.3090     2.2720 
  183.2500   -20.3990    65.7110    99.8360    80.5400    77.0760    24.0010     2.2640 
  183.3750   -20.4940    62.3990   101.1530    80.9780    77.6200    23.8810     2.2520 
  183.5000   -20.5710    60.9570   103.8510    82.4740    78.1650    23.9390     2.2400 
  183.6250   -20.6600    61.4980   107.3590    84.6770    82.0640    24.2340     2.2340 
  183.7500   -20.7370    61.5400   110.7550    86.9350    84.1480    24.4830     2.2340 
  183.8750   -20.7960    62.2510   113.4080    88.8290    83.8660    24.7470     2.2370 
  184.0000   -20.8850    64.6180   114.8070    90.0250    82.9550    24.8870     2.2410 
  184.1250   -20.9330    66.8080   114.3590    90.1260    82.6590    24.8600     2.2430 
  184.2500   -20.9830    65.7450   112.5240    89.3460    84.9290    24.7520     2.2440 
  184.3750   -21.0300    62.9240   110.0390    88.1330    87.2180    24.6120     2.2440 
  184.5000   -21.0700    61.9960   107.8540    87.1590    86.3120    24.5040     2.2460 
  184.6250   -21.1010    62.5330   106.9700    87.3220    83.1950    24.4800     2.2520 
  184.7500   -21.0990    61.7880   107.3340    88.7770    83.8290    24.5060     2.2600 
  184.8750   -21.1240    60.2410   108.2980    91.1880    87.5490    24.5330     2.2700 
  185.0000   -21.1210    58.9530   108.5970    93.5980    93.4730    24.4860     2.2770 
  185.1250   -21.1290    57.9880   105.9880    94.0040    94.7460    24.3300     2.2760 
  185.2500   -21.1470    57.5030    99.1700    90.6730    91.4450    24.1910     2.2650 
  185.3750   -21.1550    58.8280    87.6440    82.4410    82.7150    24.1560     2.2500 
  185.5000   -21.1850    62.4530    72.8190    70.0760    69.3980    24.1880     2.2380 
  185.6250   -21.2280    66.0330    58.0240    56.5920    60.6320    24.0950     2.2390 
  185.7500   -21.2800    68.0030    46.1210    45.2730    44.4400    23.8760     2.2490 
  185.8750   -21.3370    70.1960    38.0120    37.2760    28.3480    23.6880     2.2620 
  186.0000   -21.4070    72.9250    33.3800    32.4610    18.7460    23.6220     2.2690 
  186.1250   -21.4910    73.8050    31.6440    30.3600    21.1050    23.8150     2.2770 
  186.2500   -21.5760    73.4130    31.4980    29.7670    26.9870    24.1510     2.3020 
  186.3750   -21.7060    73.3390    32.6240    30.3260    32.4150    24.4370     2.3430 
  186.5000   -21.8300    74.8920    35.2380    32.0890    30.6420    24.5350     2.3670 
  186.6250   -21.9850    75.0210    40.8460    36.1140    24.7410    24.5180     2.3390 
  186.7500   -22.1910    71.8100    50.6970    43.5730    25.1320    24.6120     2.2680 
  186.8750   -22.3980    66.7450    66.0750    55.9300    32.2610    24.8410     2.1820 
  187.0000   -22.6320    61.1010    87.2010    73.8340    37.3680    25.0310     2.1100 
  187.1250   -22.8510    59.1020   111.5210    95.3970    47.5840    25.0750     2.0750 
  187.2500   -23.0820    60.0540   131.6610   113.6230    60.9260    25.0270     2.0760 
  187.3750   -23.2990    62.1050   142.3800   123.1190    62.8070    24.9240     2.0990 
  187.5000   -23.4890    64.4110   144.8790   124.2660    64.9980    24.7800     2.1270 
  187.6250   -23.6600    65.8250   146.1340   122.8730    78.6610    24.6410     2.1550 
  187.7500   -23.7890    65.0920   151.7710   124.5060    80.4620    24.5520     2.1810 
  187.8750   -23.8860    61.4680   163.0430   130.7000    87.2020    24.5190     2.2000 
  188.0000   -23.9430    56.9890   179.2620   141.1640   113.4260    24.4820     2.2040 
  188.1250   -23.9680    54.2670   198.2930   154.3380   153.0900    24.4510     2.1920 
  188.2500   -23.9720    52.0870   216.5270   167.2510   151.0910    24.4030     2.1790 
  188.3750   -23.9200    50.5140   232.5410   178.6750   122.9450    24.3520     2.1740 
  188.5000   -23.8290    50.5690   247.6110   189.4950   118.6250    24.2780     2.1780 
  188.6250   -23.7020    51.9930   266.6180   203.5940   130.9760    24.1840     2.1850 
  188.7500   -23.5370    53.5490   293.5010   224.3660   153.6230    24.0470     2.1870 
  188.8750   -23.3640    54.0240   329.1440   253.1170   184.1200    23.8690     2.1830 
  189.0000   -23.1720    52.5290   368.8630   287.1370   248.8600    23.7310     2.1780 
  189.1250   -23.0200    49.3820   395.7010   315.2330   312.8290    23.5770     2.1740 
  189.2500   -22.8440    46.8870   391.7380   322.8530   340.2120    23.5070     2.1700 
  189.3750   -22.6810    46.8750   351.5760   301.8610   334.7240    23.6180     2.1700 
  189.5000   -22.5580    49.9640   288.8450   257.5660   314.7240    23.9400     2.1740 
  189.6250   -22.4000    54.4010   226.4630   206.0540   248.8990    24.4640     2.1870 
  189.7500   -22.2700    57.2740   176.9970   162.0520   157.4950    24.8150     2.2030 
  189.8750   -22.1340    58.0640   141.9590   129.5740   102.3730    24.9210     2.2190 
