~V
VERS. 2.00: Ver 2.00
~W
STRT.M 47.0000:
STOP.M 270.0000:
STEP.M 0.1250:
NULL. -999.2500:
UWI. F11075:
~C
DEPT.M :
GR.API :
RML.OHMM :
RI. :
RXO.OHMM :
CALI.CM :
DEN.GM/CC :
SP.MV :
~A
# ...
  103.2500    90.7400     7.5780     6.1060     7.1410    25.1950     2.2790   -12.8050 
  103.3750    89.8770     7.2830     5.9210     6.9780    25.1750     2.2950   -12.6950 
  103.5000    90.0000     7.0480     5.7880     6.9310    25.1650     2.3080   -12.6150 
  103.6250    90.3280     6.9120     5.7220     6.9140    25.2020     2.3160   -12.5670 
  103.7500    90.4150     6.9060     5.7350     6.3630    25.3040     2.3170   -12.5270 
  103.8750    88.7460     7.0530     5.8350     6.5350    25.3730     2.3090   -12.5400 
  104.0000    85.2430     7.2890     5.9830     6.9230    25.3970     2.3000   -12.5750 
  104.1250    84.2980     7.5520     6.1410     7.1250    25.3860     2.2970   -12.5880 
  104.2500    88.2200     7.7750     6.2700     7.0070    25.3510     2.3030   -12.5930 
  104.3750    92.2770     7.8960     6.3270     6.9170    25.2860     2.3170   -12.6030 
  104.5000    93.5700     7.9370     6.3180     6.8840    25.2540     2.3290   -12.6300 
  104.6250    94.5470     7.9470     6.2660     6.8580    25.2350     2.3300   -12.6630 
  104.7500    95.4720     7.9880     6.2090     6.8530    25.2090     2.3200   -12.7040 
  104.8750    92.1860     8.1080     6.1920     6.9080    25.1940     2.3000   -12.7240 
  105.0000    85.9710     8.2780     6.2260     7.0130    25.1890     2.2770   -12.7370 
  105.1250    80.8240     8.4410     6.3070     7.1660    25.1870     2.2560   -12.7720 
  105.2500    80.6510     8.5330     6.4170     7.1980    25.1840     2.2390   -12.8140 
  105.3750    85.3740     8.4960     6.5350     7.2200    25.1820     2.2300   -12.8530 
  105.5000    88.0440     8.3560     6.6400     7.2010    25.1810     2.2270   -12.8770 
  105.6250    85.8600     8.1510     6.7120     7.2070    25.1780     2.2270   -12.9060 
  105.7500    82.7920     7.9250     6.7320     7.2030    25.1650     2.2280   -12.9250 
  105.8750    84.2430     7.7330     6.6880     7.1520    25.1250     2.2300   -12.9410 
  106.0000    87.2150     7.6140     6.5990     7.0820    25.0740     2.2320   -12.9620 
  106.1250    88.1450     7.5910     6.4820     7.0150    25.0320     2.2330   -12.9760 
  106.2500    90.3240     7.6720     6.3650     6.9830    25.0140     2.2360   -12.9980 
  106.3750    94.1090     7.8480     6.2750     6.9310    25.0330     2.2400   -13.0370 
  106.5000    93.8610     8.0590     6.2140     6.8480    25.0910     2.2450   -13.0980 
  106.6250    90.4660     8.2460     6.1780     6.7280    25.1700     2.2530   -13.1470 
  106.7500    89.1570     8.3530     6.1470     6.5930    25.2040     2.2620   -13.2110 
  106.8750    92.0630     8.3220     6.1000     6.5180    25.2060     2.2720   -13.3230 
  107.0000    92.5530     8.1840     6.0370     6.5770    25.2010     2.2800   -13.4680 
  107.1250    88.9580     8.0030     5.9730     6.6750    25.2000     2.2840   -13.6460 
  107.2500    86.0200     7.8740     5.9520     6.5950    25.1930     2.2800   -13.8780 
  107.3750    86.4570     7.9280     6.0490     6.5210    25.1590     2.2630   -14.1810 
  107.5000    85.6810     8.1950     6.2900     6.6420    25.0800     2.2360   -14.5010 
  107.6250    80.1920     8.6480     6.6770     7.2800    24.9610     2.2100   -14.8380 
  107.7500    72.5260     9.1750     7.1510     8.2900    24.8510     2.1950   -15.1750 
  107.8750    68.4160     9.5420     7.5540     9.5690    24.7990     2.2010   -15.4780 
  108.0000    69.3650     9.5940     7.7360    10.3370    24.7500     2.2200   -15.7400 
  108.1250    74.2150     9.3140     7.6400     9.7940    24.6520     2.2400   -15.9470 
  108.2500    79.4740     8.8410     7.3280     8.3680    24.5550     2.2500   -16.1210 
  108.3750    81.3370     8.4210     6.9500     7.2860    24.4730     2.2470   -16.2910 
  108.5000    81.1200     8.2330     6.6580     7.2350    24.4380     2.2370   -16.4690 
  108.6250    80.7860     8.3390     6.5290     7.5980    24.4300     2.2280   -16.6800 
  108.7500    81.8250     8.7100     6.5960     8.1910    24.4420     2.2210   -16.9420 
  108.8750    81.9990     9.2690     6.8610     9.0720    24.4700     2.2160   -17.2680 
  109.0000    78.5870     9.8580     7.2200     9.8950    24.5280     2.2080   -17.6490 
  109.1250    71.9590    10.3690     7.5780    10.4790    24.6210     2.1920   -18.0630 
  109.2500    66.7580    10.7230     7.8540    10.8520    24.7570     2.1720   -18.4510 
  109.3750    66.4710    10.8400     7.9890    10.9720    24.9090     2.1520   -18.7400 
  109.5000    66.7570    10.7630     8.0200    11.2600    25.0400     2.1390   -18.9200 
  109.6250    65.9380    10.5450     7.9870    11.3070    25.0830     2.1370   -19.0060 
  109.7500    65.0820    10.2650     7.9370    11.2200    25.0830     2.1400   -19.0230 
  109.8750    64.4180    10.0220     7.8980    11.2330    25.0780     2.1440   -18.9170 
  110.0000    64.2740     9.8590     7.8890    11.3090    25.0720     2.1450   -18.7080 
  110.1250    64.6180     9.7720     7.9230    11.1800    25.0690     2.1430   -18.4450 
  110.2500    65.6260     9.7160     7.9920    11.0570    25.0710     2.1420   -18.1300 
  110.3750    65.9960     9.6230     8.0530    11.0420    25.0970     2.1450   -17.7750 
  110.5000    64.3860     9.4520     8.0370    10.8970    25.1620     2.1500   -17.3940 
  110.6250    61.4170     9.1880     7.8940    10.3060    25.2370     2.1520   -16.9690 
  110.7500    60.4360     8.8550     7.6210     9.2210    25.2740     2.1500   -16.4820 
  110.8750    64.8710     8.5240     7.2730     8.2590    25.2650     2.1480   -15.9790 
  111.0000    70.5100     8.2970     6.9660     8.1630    25.2310     2.1520   -15.4830 
  111.1250    73.1950     8.2590     6.7920     8.2250    25.2030     2.1590   -14.9700 
  111.2500    72.2080     8.4410     6.8040     8.0520    25.1940     2.1660   -14.4760 
  111.3750    69.8020     8.7830     6.9900     8.1950    25.1950     2.1720   -14.0180 
  111.5000    69.0130     9.0560     7.1900     8.5240    25.1950     2.1880   -13.5790 
  111.6250    69.3210     9.0430     7.2340     9.0280    25.2050     2.2220   -13.1510 
  111.7500    70.9770     8.6150     6.9970     9.4130    25.2470     2.2760   -12.7550 
  111.8750    75.8630     7.7950     6.4540     7.9680    25.3140     2.3370   -12.4330 
  112.0000    83.0520     6.8980     5.8150     6.1950    25.3700     2.3850   -12.1810 
  112.1250    89.7140     6.1630     5.2490     5.2040    25.3810     2.4120   -12.0110 
  112.2500    93.2260     5.7330     4.8680     4.9180    25.3580     2.4220   -11.9210 
  112.3750    95.3680     5.6880     4.7660     5.1280    25.3430     2.4190   -11.9360 
  112.5000    95.0370     5.9090     4.9110     5.4810    25.3190     2.4080   -12.0640 
  112.6250    90.3450     6.3050     5.2570     5.9810    25.2460     2.3860   -12.3190 
  112.7500    84.3160     6.7870     5.7210     6.4490    25.0980     2.3540   -12.6980 
  112.8750    80.1980     7.2820     6.2020     6.8550    24.9630     2.3170   -13.1320 
  113.0000    76.9020     7.7330     6.6060     7.2320    24.8620     2.2830   -13.5660 
  113.1250    74.0970     8.1100     6.8940     7.6930    24.8010     2.2560   -14.0170 
  113.2500    72.8810     8.3960     7.0620     8.1630    24.7530     2.2370   -14.4560 
  113.3750    74.8130     8.5780     7.1170     8.5140    24.7400     2.2250   -14.8460 
  113.5000    77.1880     8.6870     7.1070     8.5950    24.7400     2.2180   -15.1890 
  113.6250    77.9500     8.7440     7.0520     8.4520    24.7440     2.2150   -15.4930 
  113.7500    75.2940     8.7740     6.9710     8.2210    24.7480     2.2150   -15.7390 
  113.8750    71.2730     8.8120     6.8950     7.9450    24.7510     2.2180   -15.9240 
  114.0000    70.6410     8.8820     6.8530     7.5790    24.7510     2.2200   -16.0900 
  114.1250    72.9790     9.0020     6.8670     7.4690    24.7490     2.2220   -16.2520 
  114.2500    74.4550     9.2030     6.9680     7.8210    24.7450     2.2190   -16.4060 
  114.3750    73.3310     9.6000     7.2650     9.3210    24.7540     2.2080   -16.5540 
