~V
VERS. 2.00: Ver 2.00
~W
STRT.M 54.0000:
STOP.M 226.0000:
STEP.M 0.1250:
NULL. -999.2500:
UWI. F11002:
~C
DEPT.M :
GR.API :
RML.OHMM :
RI. :
RXO.OHMM :
CALI.CM :
DEN.GM/CC :
SP.MV :
~A
# ...
  200.2500    92.6690     5.6750     4.9120     5.4040    23.3810     2.4030    -3.1790 
  200.3750    90.8570     5.6600     4.8540     5.3810    23.5190     2.4180    -2.9020 
  200.5000    92.5260     5.6720     4.8170     5.3530    23.6980     2.4270    -2.6190 
  200.6250    95.1990     5.7510     4.8030     5.3640    23.8760     2.4260    -2.3600 
  200.7500    96.1600     5.9370     4.8400     5.4450    23.9530     2.4170    -2.1890 
  200.8750    96.5760     6.2900     5.0020     5.4460    23.9630     2.4070    -2.1130 
  201.0000    97.5940     6.8170     5.3300     5.7910    23.9960     2.4040    -2.0690 
  201.1250    96.5470     7.5320     5.8510     6.8580    24.1240     2.4130    -2.0840 
  201.2500    90.9140     8.4130     6.5210     8.4390    24.2560     2.4320    -2.2150 
  201.3750    85.2890     9.3670     7.2230     9.1790    24.3470     2.4540    -2.4700 
  201.5000    84.4500    10.2220     7.8240     8.5670    24.3880     2.4670    -2.7320 
  201.6250    84.8950    10.8560     8.2680     7.8320    24.3660     2.4620    -2.9220 
  201.7500    83.7380    11.2380     8.5630     7.8030    24.3040     2.4400    -2.9850 
  201.8750    81.6430    11.4270     8.7560     8.6280    24.2670     2.4090    -2.9770 
  202.0000    82.7670    11.5580     8.8970     9.7000    24.2890     2.3870    -3.0140 
  202.1250    84.3240    11.6580     8.9700     9.9060    24.3490     2.3850    -3.0560 
  202.2500    84.2630    11.6790     8.9450     9.4240    24.4420     2.4040    -3.0240 
  202.3750    83.7390    11.5240     8.7990     8.9040    24.4420     2.4360    -2.8940 
  202.5000    82.2870    11.2240     8.5700     8.2840    24.3510     2.4650    -2.7740 
  202.6250    79.6330    10.8630     8.2980     7.8400    24.3030     2.4820    -2.6640 
  202.7500    78.8560    10.5470     8.0280     7.3500    24.3300     2.4840    -2.5380 
  202.8750    82.9400    10.3340     7.7950     6.9560    24.3090     2.4710    -2.3850 
  203.0000    85.9980    10.1500     7.6090     6.2020    24.3080     2.4500    -2.1860 
  203.1250    83.6700     9.9150     7.4780     5.6870    24.3560     2.4270    -1.9670 
  203.2500    78.1760     9.6020     7.4110     5.5920    24.4590     2.4080    -1.7550 
  203.3750    74.4830     9.2900     7.4110     5.7510    24.4820     2.3970    -1.5530 
  203.5000    72.6730     9.1030     7.4490     5.9300    24.3590     2.3940    -1.4220 
  203.6250    72.0160     9.0960     7.4930     6.2050    24.2040     2.3950    -1.4130 
  203.7500    73.0260     9.2390     7.5070     6.6080    24.0920     2.4000    -1.4840 
  203.8750    73.6330     9.4370     7.4750     6.9650    24.0400     2.4090    -1.6180 
  204.0000    72.6000     9.5890     7.4190     6.7570    23.9740     2.4200    -1.8170 
  204.1250    72.2530     9.6720     7.3550     6.1470    23.9470     2.4320    -2.0210 
  204.2500    73.7650     9.7080     7.3010     5.5020    23.9310     2.4420    -2.1440 
  204.3750    73.2250     9.7220     7.2810     5.3450    23.8740     2.4470    -2.1150 
  204.5000    68.8800     9.7280     7.2840     5.6200    23.8170     2.4490    -1.9620 
  204.6250    64.5080     9.7290     7.2920     5.8570    23.8590     2.4510    -1.6990 
  204.7500    63.5490     9.7400     7.2890     5.8550    23.9060     2.4550    -1.4060 
  204.8750    66.1940     9.7890     7.2670     5.7220    23.8860     2.4640    -1.1940 
  205.0000    68.8190     9.8790     7.2340     5.6640    23.8540     2.4760    -1.0180 
  205.1250    68.4330     9.9940     7.2020     5.6650    23.8210     2.4850    -0.8950 
  205.2500    65.2050    10.1020     7.1880     5.6750    23.7690     2.4880    -0.9140 
  205.3750    63.2930    10.1740     7.2150     5.6500    23.7600     2.4810    -1.1890 
  205.5000    64.6060    10.2360     7.2850     5.6200    23.8110     2.4710    -1.6450 
  205.6250    66.4380    10.3390     7.3890     5.6120    23.8050     2.4650    -2.2520 
  205.7500    65.7980    10.5280     7.5080     5.6530    23.7780     2.4670    -2.9520 
  205.8750    62.2020    10.8230     7.6270     5.7960    23.7580     2.4770    -3.6330 
  206.0000    60.3040    11.1590     7.7480     6.1100    23.7650     2.4890    -4.2750 
  206.1250    62.8420    11.4550     7.8740     6.5010    23.7760     2.4980    -4.8690 
  206.2500    67.2950    11.6370     8.0000     6.6290    23.8120     2.5050    -5.4110 
  206.3750    67.7130    11.6370     8.0980     6.7320    23.8400     2.5090    -5.8900 
  206.5000    63.8880    11.5040     8.1570     6.6830    23.8460     2.5100    -6.2550 
  206.6250    60.4820    11.2970     8.1840     6.5910    23.8620     2.5090    -6.4460 
  206.7500    61.2720    11.0830     8.1960     6.6760    23.8900     2.5050    -6.4910 
  206.8750    64.7510    10.9250     8.2150     6.8900    23.8750     2.5040    -6.5170 
  207.0000    65.9260    10.8490     8.2500     7.1300    23.8390     2.5070    -6.5980 
  207.1250    64.1010    10.8660     8.3180     7.2810    23.8090     2.5150    -6.7130 
  207.2500    62.5500    10.9800     8.4270     7.2270    23.8220     2.5240    -6.8020 
  207.3750    63.5620    11.1680     8.5670     7.1010    23.8520     2.5320    -6.8360 
  207.5000    64.0100    11.3440     8.6990     6.9570    23.8720     2.5410    -6.8370 
  207.6250    62.5520    11.4330     8.7890     6.8190    23.8670     2.5530    -6.8490 
  207.7500    60.8560    11.4040     8.8260     6.7420    23.8680     2.5670    -6.9180 
  207.8750    62.3700    11.2920     8.8210     6.7440    23.8760     2.5750    -7.0090 
  208.0000    66.0870    11.2100     8.8090     6.8430    23.9160     2.5710    -7.0740 
  208.1250    70.6360    11.2280     8.8130     6.9950    23.9910     2.5530    -7.1480 
  208.2500    72.9490    11.3490     8.8460     7.2010    24.1520     2.5270    -7.2220 
  208.3750    70.8490    11.5180     8.9230     7.4810    24.2480     2.5000    -7.2870 
  208.5000    69.9750    11.6610     9.0380     7.9870    24.2740     2.4780    -7.3490 
  208.6250    73.7320    11.7600     9.1800     8.7950    24.2470     2.4590    -7.3760 
  208.7500    79.9950    11.8340     9.3410     9.3060    24.1840     2.4430    -7.3390 
  208.8750    82.1720    11.9300     9.5290     9.2150    24.1780     2.4320    -7.2630 
  209.0000    80.6390    12.0840     9.7470     9.2950    24.1130     2.4280    -7.1610 
  209.1250    78.8110    12.3040     9.9890    10.3890    24.0470     2.4340    -7.0440 
  209.2500    78.1750    12.5610    10.2310    12.2660    24.0100     2.4490    -6.9770 
  209.3750    79.2160    12.7690    10.4040    14.4880    23.9580     2.4720    -6.9340 
  209.5000    80.0370    12.8390    10.4530    16.5030    23.7920     2.4940    -6.8920 
  209.6250    80.1740    12.7320    10.3580    17.9050    23.5580     2.5120    -6.9040 
  209.7500    80.2390    12.4860    10.1530    17.4810    23.4160     2.5230    -7.0280 
  209.8750    79.6830    12.2320     9.9410    16.3070    23.3900     2.5280    -7.2760 
  210.0000    79.9790    12.1180     9.8350    15.3930    23.4380     2.5320    -7.5780 
  210.1250    81.6880    12.2260     9.9020    14.3500    23.6350     2.5360    -7.8660 
  210.2500    83.4770    12.5600    10.1490    12.8650    23.9600     2.5370    -8.1350 
  210.3750    83.0720    13.0430    10.5260    11.4040    24.1330     2.5310    -8.3790 
  210.5000    80.5270    13.5000    10.9000    11.6840    24.0850     2.5220    -8.5910 
  210.6250    79.2160    13.8060    11.1820    13.6160    24.0530     2.5140    -8.7640 
  210.7500    79.1530    13.9070    11.3300    15.0390    24.1880     2.5150    -8.8400 
  210.8750    79.0670    13.8290    11.3470    14.1100    24.1270     2.5230    -8.8010 
  211.0000    78.9230    13.7160    11.3120    13.7520    23.9480     2.5300    -8.7330 
  211.1250    79.3830    13.6530    11.2770    14.3000    23.8280     2.5330    -8.6510 
  211.2500    80.0670    13.6580    11.2610    14.2490    23.8140     2.5290    -8.5360 
  211.3750    79.2720    13.6860    11.2550    14.5020    23.9140     2.5200    -8.4180 
