~V
VERS. 2.00: Ver 2.00
~W
STRT.M 62.0000:
STOP.M 218.0000:
STEP.M 0.1250:
NULL. -999.2500:
UWI. F11008:
~C
DEPT.M :
DEN.GM/CC :
GR.API :
RML.OHMM :
RI. :
RXO.OHMM :
CALI.CM :
SP.MV :
~A
# ...
   84.5000     2.4230    60.6840    14.4070    13.1510    17.3420    25.0200   -15.4060 
   84.6250     2.3340    63.6330    13.5250    12.7400    11.1640    25.1490   -16.9060 
   84.7500     2.2520    68.1300    12.2560    11.7560     9.2400    25.2570   -18.2620 
   84.8750     2.1950    71.9620    11.0020    10.6320     8.8570    25.0950   -19.3850 
   85.0000     2.1650    73.5930    10.0060     9.6570     8.3080    24.7220   -20.2830 
   85.1250     2.1610    72.3890     9.3920     8.9740     8.2610    24.4550   -21.0330 
   85.2500     2.1690    71.2490     9.0560     8.5290     8.9160    24.2890   -21.7020 
   85.3750     2.1800    70.7340     8.9280     8.2800     9.8540    24.1790   -22.2510 
   85.5000     2.1890    70.6280     8.9310     8.1830     9.7870    24.1210   -22.6750 
   85.6250     2.1900    70.6230     8.9850     8.1890     9.4940    24.1430   -23.0290 
   85.7500     2.1860    69.7350     9.0140     8.2110     9.1710    24.1520   -23.3470 
   85.8750     2.1810    68.0170     8.9890     8.2040     8.8200    24.0920   -23.5860 
   86.0000     2.1760    69.2050     8.9110     8.1510     8.7570    23.9850   -23.7310 
   86.1250     2.1700    74.4860     8.8070     8.0630     8.9870    23.8930   -23.7970 
   86.2500     2.1640    77.0840     8.7230     7.9730     8.9190    23.8940   -23.8070 
   86.3750     2.1570    73.4120     8.6910     7.9050     8.5950    23.9190   -23.7910 
   86.5000     2.1510    69.9980     8.7270     7.8720     8.6470    23.8960   -23.7430 
   86.6250     2.1510    73.4820     8.8260     7.8810     9.1630    23.8100   -23.6550 
   86.7500     2.1540    76.9900     8.9420     7.9140     9.5740    23.7120   -23.6000 
   86.8750     2.1610    74.2340     9.0320     7.9550     9.5700    23.6420   -23.5860 
   87.0000     2.1710    68.1810     9.0670     7.9900     9.4710    23.6070   -23.5540 
   87.1250     2.1820    66.0320     9.0330     8.0050     9.4570    23.6120   -23.4660 
   87.2500     2.1920    68.5210     8.9620     7.9960     9.6090    23.6810   -23.3710 
   87.3750     2.1990    71.5500     8.8860     7.9640     9.6490    23.8450   -23.3220 
   87.5000     2.1980    72.1680     8.8270     7.9150     9.5690    24.0980   -23.2920 
   87.6250     2.1890    71.9060     8.8070     7.8640     9.5730    24.3870   -23.1960 
   87.7500     2.1780    74.3030     8.8190     7.8280     9.6100    24.6090   -22.9860 
   87.8750     2.1700    79.0290     8.8540     7.8120     9.5250    24.7290   -22.7410 
   88.0000     2.1680    82.6420     8.8890     7.8080     9.4790    24.7710   -22.5470 
   88.1250     2.1720    81.1160     8.8850     7.7860     9.5240    24.7380   -22.3350 
   88.2500     2.1790    78.3990     8.8200     7.7240     9.6640    24.6980   -22.0440 
   88.3750     2.1880    77.9040     8.6990     7.6170     9.7180    24.6790   -21.6970 
   88.5000     2.1970    80.0190     8.5560     7.4810     9.5020    24.6540   -21.3750 
   88.6250     2.2040    81.1820     8.4480     7.3500     8.9380    24.5490   -21.1620 
   88.7500     2.2090    82.4610     8.4060     7.2550     8.3860    24.3570   -21.0430 
   88.8750     2.2100    84.7140     8.4240     7.2080     8.3850    24.1610   -20.9920 
   89.0000     2.2090    84.5400     8.4720     7.2040     8.5240    24.0110   -20.9720 
   89.1250     2.2060    79.4870     8.5190     7.2380     8.4640    23.8690   -21.1130 
   89.2500     2.2010    74.8350     8.5600     7.2880     8.4690    23.7660   -21.4240 
   89.3750     2.1960    74.4630     8.6140     7.3490     8.4410    23.7370   -21.8090 
   89.5000     2.1900    76.5530     8.6990     7.4190     8.4230    23.7660   -22.2050 
   89.6250     2.1870    77.1540     8.8190     7.5060     8.6870    23.7860   -22.6110 
   89.7500     2.1850    76.4330     8.9430     7.6020     9.2140    23.7610   -23.0630 
   89.8750     2.1840    74.9870     9.0460     7.6930     9.5050    23.6850   -23.5280 
   90.0000     2.1840    72.7860     9.1120     7.7590     9.5340    23.6040   -23.9690 
   90.1250     2.1830    70.9210     9.1340     7.7760     9.4670    23.5640   -24.2670 
   90.2500     2.1820    72.7340     9.1370     7.7540     9.4980    23.5450   -24.4510 
   90.3750     2.1810    77.8600     9.1460     7.7190     9.5130    23.5190   -24.5900 
   90.5000     2.1800    81.2930     9.1920     7.7120     9.4550    23.5000   -24.7020 
   90.6250     2.1840    80.7570     9.3030     7.7820     9.3300    23.4940   -24.7370 
   90.7500     2.1920    79.8180     9.4470     7.9210     9.3030    23.4940   -24.6590 
   90.8750     2.2060    79.5760     9.5590     8.0770     9.5990    23.4940   -24.4760 
   91.0000     2.2240    79.0060     9.5530     8.1590    10.3090    23.4940   -24.2260 
   91.1250     2.2400    79.1170     9.3300     8.0460    11.1620    23.5090   -23.9340 
   91.2500     2.2470    80.1890     8.9430     7.7490    11.1130    23.5850   -23.5750 
   91.3750     2.2440    81.4350     8.4840     7.3400    10.0270    23.7990   -23.1300 
   91.5000     2.2330    81.6560     8.0740     6.9310     8.5490    24.1650   -22.6320 
   91.6250     2.2180    82.2500     7.8390     6.6570     7.4050    24.5900   -22.1760 
   91.7500     2.2060    84.6540     7.7840     6.5460     7.5790    24.8400   -21.8120 
   91.8750     2.1970    85.8360     7.8720     6.5790     8.2220    24.9130   -21.4880 
   92.0000     2.1930    83.4030     8.0360     6.7030     8.6200    24.9380   -21.1860 
   92.1250     2.1930    78.6960     8.2050     6.8540     8.4750    25.0840   -20.9910 
   92.2500     2.1930    77.7830     8.3360     6.9800     8.1730    25.1750   -20.9540 
   92.3750     2.1930    81.3720     8.4250     7.0740     8.1190    25.0520   -21.0550 
   92.5000     2.1930    83.7500     8.4830     7.1530     8.2930    24.6820   -21.2100 
   92.6250     2.1910    82.2430     8.5060     7.2300     8.5740    24.1960   -21.3510 
   92.7500     2.1880    80.2880     8.4780     7.2890     8.6680    23.9480   -21.4850 
   92.8750     2.1850    80.0720     8.3770     7.2920     8.7060    23.7790   -21.6970 
   93.0000     2.1810    80.6210     8.2070     7.2120     8.8200    23.5770   -22.0100 
   93.1250     2.1810    80.2830     8.0160     7.0510     8.9210    23.3370   -22.3490 
   93.2500     2.1880    79.1570     7.8870     6.8800     8.5070    23.1780   -22.6750 
   93.3750     2.2050    78.3260     7.8840     6.7670     7.9270    23.1960   -23.0610 
   93.5000     2.2300    77.9650     8.0290     6.7610     8.4720    23.3180   -23.5480 
   93.6250     2.2510    78.5450     8.2970     6.8890    10.2210    23.4730   -24.0870 
   93.7500     2.2580    77.9490     8.5800     7.0900    11.3370    23.6430   -24.6040 
   93.8750     2.2510    77.2080     8.7960     7.3060    10.4930    23.7480   -25.0890 
   94.0000     2.2340    78.5470     8.9050     7.4860     9.4780    23.7180   -25.5320 
   94.1250     2.2180    79.2740     8.9050     7.5960     9.2530    23.7140   -25.9020 
   94.2500     2.2070    78.9390     8.8620     7.6550     9.2630    23.7080   -26.1510 
   94.3750     2.1980    79.4720     8.8110     7.6820     9.1290    23.6180   -26.2400 
   94.5000     2.1900    80.2490     8.7620     7.6820     8.9540    23.5400   -26.1600 
   94.6250     2.1820    78.6530     8.6900     7.6400     8.7460    23.5520   -25.8990 
   94.7500     2.1780    74.5490     8.5740     7.5470     8.7870    23.6230   -25.4950 
   94.8750     2.1790    73.3730     8.3990     7.3960     8.7880    23.6590   -24.9530 
   95.0000     2.1830    75.5740     8.1590     7.1860     8.4840    23.6960   -24.2740 
   95.1250     2.1910    76.4730     7.8470     6.9060     8.1730    23.7970   -23.4730 
   95.2500     2.2000    76.9470     7.5000     6.5770     8.0520    24.0490   -22.5870 
   95.3750     2.2090    79.2610     7.1660     6.2330     7.7240    24.4180   -21.6730 
   95.5000     2.2210    83.7620     6.9140     5.9350     7.3110    24.7970   -20.8380 
   95.6250     2.2370    86.5380     6.8520     5.7820     6.5110    25.0730   -20.2200 
