~V
VERS. 2.00: Ver 2.00
~W
STRT.M 45.0000:
STOP.M 277.0000:
STEP.M 0.1250:
NULL. -999.2500:
UWI. F11056:
~C
DEPT.M :
GR.API :
RML.OHMM :
RI. :
RXO.OHMM :
CALI.CM :
DEN.GM/CC :
SP.MV :
~A
# ...
  168.7500    60.7730   174.8470   181.1480   132.6280    24.6730     2.2630   -27.1320 
  168.8750    63.7580   163.9470   169.7450   131.6310    24.6380     2.2710   -27.1320 
  169.0000    66.7220   154.6170   159.2960   120.0220    24.5990     2.2800   -27.0860 
  169.1250    68.5130   148.1210   151.6400   104.3730    24.5290     2.2870   -27.0210 
  169.2500    68.5430   145.2130   147.8820    97.7130    24.4800     2.2920   -26.9240 
  169.3750    67.1670   146.2530   148.5670    93.2260    24.5840     2.2950   -26.8240 
  169.5000    64.3260   151.4280   154.1680    91.1530    24.9820     2.2950   -26.7050 
  169.6250    59.7990   158.1490   162.2200    90.3940    25.4830     2.2860   -26.5640 
  169.7500    55.3640   162.9410   169.2460   100.7430    25.8730     2.2630   -26.4330 
  169.8750    53.8320   161.9950   170.8420   125.6780    26.0550     2.2290   -26.3110 
  170.0000    57.4040   152.5000   162.7310   146.6460    26.2830     2.1970   -26.1750 
  170.1250    63.4020   138.3310   148.1670   141.3840    26.3840     2.1800   -26.0420 
  170.2500    67.6610   123.8500   131.8880    99.9360    26.3050     2.1840   -25.8950 
  170.3750    68.6690   112.7080   118.5100    95.3910    26.0970     2.2020   -25.6820 
  170.5000    67.3730   107.8010   112.0080    89.0510    25.8730     2.2230   -25.4770 
  170.6250    65.8440   108.7070   112.2390    85.6030    25.5800     2.2380   -25.3020 
  170.7500    64.5710   115.0610   118.6610    86.5560    25.2150     2.2430   -25.0090 
  170.8750    63.2120   125.4410   129.5720    92.9830    24.8480     2.2390   -24.6370 
  171.0000    61.5640   136.0120   140.9690   104.3550    24.6470     2.2310   -24.3700 
  171.1250    60.7390   141.6680   147.2950   120.6400    24.5380     2.2210   -24.0810 
  171.2500    61.4770   139.8550   145.3850   140.8850    24.4430     2.2120   -23.7470 
  171.3750    62.9800   131.7710   136.1750   141.8300    24.3360     2.2080   -23.5430 
  171.5000    63.7200   121.8740   124.4030   123.3670    24.2420     2.2110   -23.3980 
  171.6250    63.5780   114.9900   115.6870    91.1400    24.1180     2.2180   -23.1900 
  171.7500    62.8270   113.2400   112.7070    66.9480    24.0080     2.2230   -23.0720 
  171.8750    61.5350   117.1940   116.2900    54.2830    24.0220     2.2250   -23.0780 
  172.0000    59.6440   126.4750   126.1070    59.3560    24.2520     2.2210   -23.0370 
  172.1250    58.8290   136.8680   137.7510    76.4920    24.5860     2.2150   -23.0080 
  172.2500    59.9650   143.6090   146.3940    98.4800    24.9560     2.2110   -23.0070 
  172.3750    62.8640   142.5200   147.3730   117.8600    25.3260     2.2110   -22.9570 
  172.5000    63.7180   131.5580   137.6590   134.9530    25.6080     2.2150   -22.8790 
  172.6250    61.8250   115.9290   122.1060   138.6750    25.7780     2.2240   -22.7790 
  172.7500    60.8720   100.1210   105.3210   121.7790    25.8520     2.2390   -22.6520 
  172.8750    63.1270    87.2000    90.7840    97.8420    25.8400     2.2620   -22.5160 
  173.0000    65.9840    79.0530    80.9610    83.1560    25.8130     2.2920   -22.4040 
  173.1250    67.5870    74.9370    75.5480    72.4220    25.8350     2.3210   -22.3050 
  173.2500    68.6100    74.4580    74.2600    64.1910    25.9240     2.3430   -22.2320 
  173.3750    67.5220    77.1440    76.5470    61.6140    25.9850     2.3490   -22.1530 
  173.5000    63.1930    82.6890    81.9800    65.5760    25.9900     2.3360   -22.0480 
  173.6250    59.6080    89.6570    88.9950    75.1210    26.0100     2.3160   -21.9780 
  173.7500    60.3230    96.9150    96.4130    87.2860    26.0690     2.2980   -21.9000 
  173.8750    64.5420   103.4140   103.0730   100.1640    26.1430     2.2890   -21.7790 
  174.0000    68.2860   108.2830   107.9890   100.4050    26.1670     2.2830   -21.6440 
  174.1250    68.1680   111.6670   111.4200    97.1610    26.1670     2.2730   -21.5430 
  174.2500    64.9590   113.4880   113.4370   108.5740    26.1580     2.2530   -21.3830 
  174.3750    62.5680   113.2640   113.6160   115.3860    26.1690     2.2270   -21.1810 
  174.5000    65.4830   109.6840   110.5860   109.7210    26.1730     2.2070   -21.0720 
  174.6250    70.1120   102.8980   104.2340   102.9190    26.1380     2.2030   -21.0050 
  174.7500    71.4700    93.6050    94.9520   101.9380    26.0110     2.2160   -20.9030 
  174.8750    70.2410    83.2780    84.1220    81.3500    25.7830     2.2390   -20.8120 
  175.0000    72.4090    73.9150    73.8960    54.4020    25.3980     2.2630   -20.7820 
  175.1250    76.4590    66.6960    65.7640    47.4630    24.9880     2.2790   -20.7150 
  175.2500    76.3840    62.1870    60.4650    43.1650    24.6010     2.2870   -20.6760 
  175.3750    72.4940    60.6630    58.4320    37.6670    24.2040     2.2850   -20.7030 
  175.5000    71.0630    62.9160    60.5910    33.9600    23.8220     2.2720   -20.7300 
  175.6250    70.4220    68.7410    66.6070    43.6330    23.5400     2.2480   -20.7060 
  175.7500    67.0660    78.3540    76.6230    58.5490    23.4150     2.2150   -20.6640 
  175.8750    63.8180    91.1410    90.1950    77.9630    23.3850     2.1780   -20.5820 
  176.0000    66.7680   103.6530   104.6520   108.6830    23.3870     2.1520   -20.4990 
  176.1250    71.0820   110.1110   114.2250   137.3700    23.3880     2.1420   -20.4430 
  176.2500    70.9320   106.7910   113.9010   139.0190    23.3880     2.1520   -20.3740 
  176.3750    66.3840    94.5390   102.7600   130.0210    23.3880     2.1750   -20.2980 
  176.5000    64.6630    78.5500    85.2220   122.0520    23.4070     2.2050   -20.2210 
  176.6250    67.9160    64.9290    68.9890    96.2660    23.4750     2.2300   -20.1380 
  176.7500    71.5790    55.6630    57.2700    60.6670    23.6090     2.2480   -20.0780 
  176.8750    71.3520    50.7480    50.6640    40.9320    23.8110     2.2570   -20.0570 
  177.0000    68.7170    50.0910    49.1850    36.5440    24.0870     2.2590   -19.9780 
  177.1250    69.1580    52.4260    51.1820    39.8340    24.4880     2.2590   -19.8690 
  177.2500    72.1550    57.0890    55.7570    46.8160    25.0130     2.2580   -19.7970 
  177.3750    73.2890    63.1250    61.7500    57.8940    25.5860     2.2580   -19.6820 
  177.5000    69.8600    69.2500    67.6960    65.5560    25.9270     2.2590   -19.4920 
  177.6250    64.9840    74.5070    72.6500    71.8250    26.0300     2.2590   -19.3950 
  177.7500    61.7460    78.7480    76.5700    74.0290    26.0170     2.2590   -19.3390 
  177.8750    61.4300    82.2770    79.8440    76.0840    26.0330     2.2590   -19.2470 
  178.0000    63.7340    85.3090    82.7010    79.3300    26.0920     2.2580   -19.2460 
  178.1250    66.5600    87.7050    84.9270    86.6440    26.1430     2.2550   -19.2920 
  178.2500    68.7910    88.9350    85.9270    92.5000    26.1710     2.2530   -19.3170 
  178.3750    70.1820    88.5870    85.2400    92.7230    26.1730     2.2560   -19.4040 
  178.5000    69.6670    86.6140    82.7650    86.7290    26.1520     2.2690   -19.6220 
  178.6250    68.4260    84.1580    79.6780    79.0700    26.1250     2.2890   -19.8120 
  178.7500    67.9340    82.3000    77.1480    70.6580    26.1130     2.3070   -19.9660 
  178.8750    68.5330    81.9440    76.2030    61.4360    26.1180     2.3100   -20.1110 
  179.0000    68.6730    83.8420    77.6790    55.9900    26.1570     2.2870   -20.2180 
  179.1250    67.2700    87.2970    80.8870    53.3150    26.2610     2.2460   -20.3380 
  179.2500    64.2590    91.2290    84.8460    51.9890    26.4360     2.2020   -20.4570 
  179.3750    61.7070    94.1420    88.1630    48.9400    26.6460     2.1740   -20.5280 
  179.5000    62.0070    94.2800    89.0200    49.5740    26.6430     2.1760   -20.5790 
  179.6250    64.6980    91.9210    87.3300    54.7330    26.5080     2.1960   -20.6580 
  179.7500    67.3580    88.1240    83.9030    62.5880    26.4720     2.2210   -20.7370 
  179.8750    70.9800    84.3600    80.1120    69.2630    26.5190     2.2410   -20.8000 
