~V
VERS. 2.00: Ver 2.00
~W
STRT.M 59.0000:
STOP.M 230.0000:
STEP.M 0.1250:
NULL. -999.2500:
UWI. F11001:
~C
DEPT.M :
GR.API :
RML.OHMM :
RI. :
RXO.OHMM :
CALI.CM :
SP.MV :
DEN.GM/CC :
~A
# ...
  149.0000    78.5830    81.9340    83.8150    77.9670    24.4630   -12.8500     2.2040 
  149.1250    75.2480    90.0090    91.9100    87.9130    24.3380   -13.2810     2.2050 
  149.2500    77.3710    96.3700    97.9300    87.5010    24.3350   -13.8040     2.2100 
  149.3750    78.4250   100.8500   101.5770    87.0060    24.5090   -14.3130     2.2170 
  149.5000    75.3060   103.8610   103.3770    88.4130    24.6480   -14.7390     2.2230 
  149.6250    73.3870   106.2570   104.4190    89.4560    24.7280   -15.1480     2.2290 
  149.7500    75.8040   108.9980   105.8720    88.2380    24.8250   -15.4800     2.2340 
  149.8750    79.8090   112.4350   108.1520    90.9290    24.9080   -15.7290     2.2370 
  150.0000    82.2860   116.4330   111.1630   100.4470    24.9420   -16.0230     2.2360 
  150.1250    80.8410   120.6250   114.5330   115.4350    24.9420   -16.3170     2.2340 
  150.2500    75.4770   124.6620   117.8690   124.8210    24.9380   -16.5240     2.2330 
  150.3750    72.2110   128.6570   121.2060   126.0310    24.9860   -16.7100     2.2340 
  150.5000    72.8820   133.1500   124.9910   120.8670    25.0770   -16.9170     2.2370 
  150.6250    73.2430   138.8650   129.9420   115.6340    25.1480   -17.1170     2.2390 
  150.7500    70.6490   146.4890   136.9760   127.9990    25.1760   -17.3270     2.2350 
  150.8750    69.0900   155.1110   145.3520   141.1330    25.1540   -17.5270     2.2260 
  151.0000    69.2750   163.2270   153.5250   153.8570    25.0870   -17.6470     2.2170 
  151.1250    69.0780   169.1340   159.5930   167.3210    25.0340   -17.7850     2.2100 
  151.2500    68.7750   171.2780   161.7630   171.1560    25.0250   -17.9150     2.2110 
  151.3750    69.6140   170.7020   160.9940   163.6870    24.9940   -18.0130     2.2150 
  151.5000    71.2590   168.7960   158.7890   150.9300    25.0060   -18.1310     2.2200 
  151.6250    73.1190   166.9410   156.7430   151.2170    25.0530   -18.2750     2.2220 
  151.7500    74.5170   166.0940   155.8330   161.4290    25.0450   -18.3480     2.2210 
  151.8750    75.0120   166.1760   155.8500   163.9030    24.9630   -18.4170     2.2180 
  152.0000    72.5730   166.9200   156.5870   163.1070    24.8560   -18.5170     2.2170 
  152.1250    68.6890   167.9250   157.7630   169.9980    24.7540   -18.5010     2.2160 
  152.2500    67.3830   168.5310   158.6800   175.5000    24.5780   -18.4950     2.2160 
  152.3750    67.0390   168.2580   158.6930   173.3050    24.2830   -18.4920     2.2120 
  152.5000    66.6430   166.9600   157.6200   173.6360    24.0330   -18.3710     2.2080 
  152.6250    67.4910   164.8970   155.6910   174.0390    24.0360   -18.2390     2.2040 
  152.7500    69.6090   162.6880   153.5210   159.5440    24.2210   -18.1440     2.2040 
  152.8750    70.8670   160.8890   151.8560   140.5550    24.3870   -18.0620     2.2080 
  153.0000    71.6680   159.4160   150.7780   143.5180    24.4500   -17.9460     2.2130 
  153.1250    73.0400   157.5660   149.5880   155.7200    24.5120   -17.8920     2.2160 
  153.2500    72.5790   154.0480   146.7950   154.5520    24.7230   -17.8940     2.2180 
  153.3750    71.3710   148.6530   141.9720   146.0080    25.0190   -17.8570     2.2190 
  153.5000    72.6430   141.9110   135.5820   134.8510    25.1680   -17.8640     2.2190 
  153.6250    73.7100   134.9380   128.7850   123.0000    25.1920   -17.8480     2.2180 
  153.7500    72.1280   129.1770   123.1060   118.8280    25.2060   -17.8240     2.2160 
  153.8750    72.2010   125.1780   119.1850   118.4330    25.2030   -17.8520     2.2160 
  154.0000    74.0980   123.0320   117.1250   125.4890    25.1620   -17.9250     2.2170 
  154.1250    74.2600   122.5690   116.7180   128.8860    25.0780   -18.0220     2.2220 
  154.2500    72.3230   123.7380   117.9050   120.0710    24.9970   -18.0600     2.2290 
  154.3750    71.9470   125.9260   120.1440   117.5850    24.9780   -18.2040     2.2360 
  154.5000    71.8610   128.5430   122.9100   119.1290    24.9970   -18.3680     2.2380 
  154.6250    70.0350   130.7050   125.3300   119.3600    25.0110   -18.4790     2.2360 
  154.7500    70.4520   131.0570   125.9540   128.8540    25.0550   -18.5880     2.2280 
  154.8750    72.8810   129.2300   124.2470   129.8480    25.0960   -18.5690     2.2200 
  155.0000    72.1850   125.4780   120.3390   130.8410    25.1570   -18.4360     2.2130 
  155.1250    67.6830   120.7540   115.1720   130.8410    25.2240   -18.2170     2.2070 
  155.2500    66.2580   116.5800   110.3340    94.0280    25.0620   -17.9460     2.2020 
  155.3750    68.5460   114.0660   107.0250    92.4620    24.8890   -17.5980     2.2000 
  155.5000    69.8600   113.7870   105.8010    93.5040    24.8220   -17.2270     2.2000 
  155.6250    69.6680   115.9500   106.8470    92.9740    24.8710   -16.8480     2.2040 
  155.7500    70.9030   121.3000   110.5450    96.2450    24.9870   -16.5400     2.2100 
  155.8750    73.2670   128.4070   116.4060   104.9270    25.0660   -16.3380     2.2170 
  156.0000    74.8120   135.4560   124.0890   122.0140    25.1490   -16.3090     2.2200 
  156.1250    75.2480   141.9330   132.8800   138.7940    25.2150   -16.3490     2.2200 
  156.2500    73.7640   148.8610   141.4080   143.5460    25.2690   -16.4500     2.2170 
  156.3750    71.3740   155.7200   148.1290   147.9830    25.3200   -16.6600     2.2150 
  156.5000    69.9470   160.3480   152.0250   154.9960    25.3400   -16.8900     2.2160 
  156.6250    69.5170   161.2810   152.8730   159.1700    25.3390   -17.1880     2.2200 
  156.7500    69.4950   158.4070   150.6890   152.6580    25.3410   -17.5350     2.2280 
  156.8750    71.0000   153.1000   146.5230   142.5300    25.3400   -17.8590     2.2360 
  157.0000    73.5110   146.3450   141.0880   132.8620    25.3420   -18.0780     2.2430 
  157.1250    74.2620   139.1320   135.2870   133.2960    25.3570   -18.3110     2.2490 
  157.2500    73.6710   132.1430   129.8470   117.5160    25.3980   -18.6200     2.2500 
  157.3750    73.0580   125.2560   124.5020    99.3890    25.4530   -18.9020     2.2470 
  157.5000    71.4880   117.9650   118.5440    98.2920    25.4840   -19.2240     2.2400 
  157.6250    69.6220   109.8140   111.3650   113.8990    25.4810   -19.5200     2.2290 
  157.7500    69.4880   100.5450   102.5930   109.6900    25.4380   -19.7260     2.2190 
  157.8750    69.7790    90.6660    92.8570    82.4620    25.4000   -19.9130     2.2110 
  158.0000    69.0980    80.7830    82.8120    60.0190    25.3990   -20.0750     2.2070 
  158.1250    67.0500    71.6900    73.3150    53.3290    25.3550   -20.1280     2.2070 
  158.2500    66.0960    64.7350    65.7710    54.5450    25.3260   -19.9690     2.2140 
  158.3750    68.2210    60.6130    60.9410    46.6050    25.2120   -19.6380     2.2240 
  158.5000    74.0440    60.0430    59.5340    37.3810    24.8930   -19.1290     2.2310 
  158.6250    79.5620    63.5890    62.0910    34.7700    24.4620   -18.5150     2.2290 
  158.7500    78.6500    72.4830    69.8780    47.2580    24.0340   -17.7920     2.2160 
  158.8750    74.8450    86.1370    82.4860    65.2030    23.7380   -17.0000     2.2010 
  159.0000    72.5690   104.1950    99.6450    92.2860    23.5310   -16.1830     2.1900 
  159.1250    73.0620   125.6630   120.1840   119.8850    23.4130   -15.3530     2.1850 
  159.2500    74.1580   149.1070   142.1210   124.3660    23.3700   -14.6440     2.1870 
  159.3750    72.4220   172.2900   163.3140    94.2190    23.3740   -14.0590     2.1960 
  159.5000    67.4210   193.0000   182.3230    64.7760    23.3610   -13.5930     2.2110 
  159.6250    62.4500   207.9470   196.7390    50.7740    23.2840   -13.2460     2.2310 
  159.7500    62.5930   211.0670   200.8150    63.5470    23.1450   -13.0140     2.2460 
  159.8750    65.2200   201.9930   193.2700   102.4070    23.0750   -12.8980     2.2480 
  160.0000    66.6110   183.0590   176.1510   146.6180    23.2190   -12.8750     2.2350 
  160.1250    66.1980   159.4230   154.7930   153.8250    23.6760   -13.0040     2.2140 
