~V
VERS. 2.00: Ver 2.00
~W
STRT.M 57.0000:
STOP.M 276.0000:
STEP.M 0.1250:
NULL. -999.2500:
UWI. F11063:
~C
DEPT.M :
DEN.GM/CC :
GR.API :
RML.OHMM :
RI. :
RXO.OHMM :
CALI.CM :
SP.MV :
~A
# ...
  169.5000     2.2920    78.9030    56.1080    45.8480    42.5450    23.0570   -18.7330 
  169.6250     2.2910    75.7540    53.8020    44.1940    44.0710    22.8450   -18.8570 
  169.7500     2.2840    75.5850    50.5480    41.9050    48.4680    22.7970   -18.9800 
  169.8750     2.2750    77.0730    46.8280    39.1910    47.3770    22.9090   -19.0990 
  170.0000     2.2690    79.1440    43.7450    36.7700    41.1230    23.0410   -19.2090 
  170.1250     2.2690    82.9780    42.9920    35.8960    34.2070    23.1730   -19.3100 
  170.2500     2.2680    85.3380    45.1860    37.2220    32.9140    23.2920   -19.4110 
  170.3750     2.2630    82.6240    50.6560    41.2760    36.6660    23.4400   -19.5070 
  170.5000     2.2530    77.9740    59.0690    48.1300    58.5240    23.5770   -19.5810 
  170.6250     2.2450    76.5890    68.7370    56.8600    84.8080    23.6260   -19.6070 
  170.7500     2.2440    76.9980    75.9480    64.3640   101.8510    23.6560   -19.5970 
  170.8750     2.2510    77.4450    77.9450    67.9440    98.3630    23.6530   -19.5590 
  171.0000     2.2570    79.2170    74.8390    66.9010    87.0740    23.6250   -19.5200 
  171.1250     2.2550    83.0980    69.6940    63.0430    75.4130    23.5560   -19.4820 
  171.2500     2.2500    85.8840    65.9910    59.6370    67.4900    23.4940   -19.4320 
  171.3750     2.2480    86.5150    64.8880    58.1390    67.0380    23.4650   -19.3540 
  171.5000     2.2460    85.3900    66.4510    58.9830    75.9740    23.5150   -19.2640 
  171.6250     2.2390    82.6270    70.5440    62.2850    90.8470    23.5680   -19.2000 
  171.7500     2.2320    79.6850    76.0780    67.0730   104.9250    23.5460   -19.1540 
  171.8750     2.2300    77.6010    82.3590    72.6530   103.4640    23.4910   -19.1220 
  172.0000     2.2320    76.6420    88.7690    78.4070    96.2850    23.4280   -19.0930 
  172.1250     2.2320    75.2010    94.8470    83.9220    92.6820    23.3690   -19.0730 
  172.2500     2.2320    72.8860   100.5780    89.2520    97.0840    23.3380   -19.0690 
  172.3750     2.2340    70.5150   106.0530    94.5470   113.1350    23.3240   -19.1060 
  172.5000     2.2370    67.6460   111.3570    99.8240   129.3730    23.3110   -19.1910 
  172.6250     2.2380    65.1190   116.3450   104.8030   133.8910    23.2860   -19.3210 
  172.7500     2.2350    65.0800   120.6090   109.0490   134.4310    23.2680   -19.4840 
  172.8750     2.2280    67.0650   123.3330   111.9280   132.0990    23.2140   -19.6700 
  173.0000     2.2190    68.8120   123.6020   112.7980   133.9510    23.1100   -19.8620 
  173.1250     2.2110    68.5700   120.6200   110.9840   140.9720    22.9160   -20.0470 
  173.2500     2.2080    68.8570   115.4680   107.2190   142.0240    22.6690   -20.2290 
  173.3750     2.2090    69.6570   109.1010   102.1260   129.1350    22.4320   -20.4010 
  173.5000     2.2130    70.1180   102.4830    96.4260   113.2410    22.2730   -20.5580 
  173.6250     2.2180    69.0650    96.3080    90.7980   107.3970    22.2040   -20.6760 
  173.7500     2.2220    66.8400    90.5930    85.5090   109.1880    22.1680   -20.7570 
  173.8750     2.2250    65.2650    85.3340    80.6570   103.3480    22.1770   -20.8050 
  174.0000     2.2320    66.2920    80.9010    76.5690    91.6010    22.2340   -20.8390 
  174.1250     2.2440    69.3520    78.4650    74.2080    83.2690    22.4240   -20.8600 
  174.2500     2.2530    70.8530    78.7710    74.2050    78.0260    22.7720   -20.8570 
  174.3750     2.2560    70.8850    82.6440    77.3040    74.2110    23.1190   -20.8040 
  174.5000     2.2510    69.9250    90.5010    83.9680    76.9930    23.2930   -20.6870 
  174.6250     2.2350    68.0920   102.2140    94.2660    77.0120    23.3310   -20.5250 
  174.7500     2.2150    65.8930   115.0390   105.8370    77.7090    23.3620   -20.3510 
  174.8750     2.2000    62.7690   125.9890   116.0780    82.4140    23.4210   -20.1770 
  175.0000     2.1930    59.7870   132.3120   122.4520    89.8770    23.4400   -19.9850 
  175.1250     2.1920    59.5370   132.5530   123.2110    94.9970    23.3400   -19.7730 
  175.2500     2.1930    62.3410   130.1440   120.9980    95.2630    23.1620   -19.5670 
  175.3750     2.1970    65.5830   128.3310   118.6620    92.1120    22.9900   -19.3930 
  175.5000     2.2040    66.4460   129.5370   118.6260    89.1410    22.9380   -19.2710 
  175.6250     2.2090    63.4470   135.5750   122.8380    87.6830    22.9860   -19.2020 
  175.7500     2.2100    59.0500   145.2590   130.4180    88.2010    23.0140   -19.1670 
  175.8750     2.2050    55.6530   156.9150   139.9340    92.3660    23.0150   -19.1500 
  176.0000     2.1970    55.5040   168.0110   149.3370   101.5090    22.9870   -19.1490 
  176.1250     2.1920    59.4490   174.5710   155.5980   114.1300    22.8970   -19.1680 
  176.2500     2.1940    62.3520   174.9850   157.2630   123.0780    22.7650   -19.2130 
  176.3750     2.2020    62.0900   169.7300   154.3570   125.9920    22.6270   -19.2940 
  176.5000     2.2070    59.3050   161.3450   148.5970   124.6380    22.5480   -19.3990 
  176.6250     2.2040    57.5360   153.3450   142.6500   122.4290    22.5290   -19.4950 
  176.7500     2.2000    58.6310   148.0560   138.6900   120.6780    22.5250   -19.5580 
  176.8750     2.1990    60.5400   145.8870   137.4330   116.2760    22.5090   -19.5930 
  177.0000     2.2010    62.1490   145.3320   137.8980   111.0070    22.4940   -19.6310 
  177.1250     2.2040    62.5500   142.4140   136.6980   105.4840    22.4480   -19.6610 
  177.2500     2.2120    63.2160   134.2470   130.8260   106.8050    22.4430   -19.6670 
  177.3750     2.2280    64.2880   120.7640   119.5970   105.2830    22.4940   -19.6090 
  177.5000     2.2510    64.6190   104.6640   104.8720    83.4160    22.5500   -19.4840 
  177.6250     2.2720    65.4140    90.4130    90.5730    77.0380    22.5670   -19.2980 
  177.7500     2.2860    65.9470    80.6000    79.9110    66.7290    22.5610   -19.0940 
  177.8750     2.2880    65.5700    76.0070    74.1400    58.7820    22.5490   -18.8890 
  178.0000     2.2770    66.7670    76.4820    73.3510    57.0210    22.4930   -18.6850 
  178.1250     2.2590    69.1160    82.2140    77.8030    62.6420    22.3740   -18.4970 
  178.2500     2.2440    69.1950    91.6690    85.9870    68.0720    22.2790   -18.3190 
  178.3750     2.2340    66.6800   103.7140    96.7630    73.9920    22.2470   -18.1540 
  178.5000     2.2270    64.5220   116.8130   108.5570    79.6410    22.2910   -18.0260 
  178.6250     2.2190    62.9300   129.3700   119.6850    84.6300    22.4420   -17.9590 
  178.7500     2.2100    59.3090   140.8770   129.5960    82.8010    22.6740   -17.9400 
  178.8750     2.2010    56.5500   151.7030   138.5640    79.4320    23.0170   -17.9590 
  179.0000     2.1960    57.1150   162.6900   147.2830    84.6440    23.5600   -17.9770 
  179.1250     2.1910    59.9400   175.0010   156.7650    95.9300    24.0740   -17.9850 
  179.2500     2.1820    61.6920   188.6300   167.2580   108.0750    24.3650   -17.9950 
  179.3750     2.1670    60.1850   202.7050   178.2510   121.3460    24.4670   -18.0380 
  179.5000     2.1520    56.1070   215.6690   188.6330   128.4070    24.4880   -18.1170 
  179.6250     2.1420    53.3170   225.0940   196.5760   129.3840    24.4900   -18.2380 
  179.7500     2.1370    53.4350   230.2820   201.4230   125.8690    24.4840   -18.3830 
  179.8750     2.1360    54.6630   231.4150   203.2120   122.0810    24.4730   -18.5280 
  180.0000     2.1380    54.4930   229.6520   202.8470   122.3800    24.4770   -18.6610 
  180.1250     2.1440    53.9700   226.3790   201.5040   126.3460    24.4770   -18.8070 
  180.2500     2.1520    55.2740   223.0570   200.2610   130.1360    24.4770   -18.9470 
  180.3750     2.1580    56.6260   219.9520   199.3020   132.4790    24.4780   -19.0650 
  180.5000     2.1620    56.9480   215.4170   197.3480   119.7230    24.4760   -19.1240 
  180.6250     2.1660    56.8090   203.7790   189.6440   112.2960    24.4750   -19.0820 
