~V
VERS. 2.00: Ver 2.00
~W
STRT.M 57.0000:
STOP.M 276.0000:
STEP.M 0.1250:
NULL. -999.2500:
UWI. F11063:
~C
DEPT.M :
DEN.GM/CC :
GR.API :
RML.OHMM :
RI. :
RXO.OHMM :
CALI.CM :
SP.MV :
~A
# ...
  180.7500     2.1710    57.3650   182.4010   173.2540   111.7500    24.4630   -18.9510 
  180.8750     2.1780    58.7270   153.1830   148.7050    99.9080    24.4620   -18.7550 
  181.0000     2.1900    60.2430   122.2260   120.6760    82.8060    24.4910   -18.5570 
  181.1250     2.2070    63.0140    97.0590    96.2110    71.4450    24.5870   -18.3460 
  181.2500     2.2280    65.3490    79.9260    78.6490    61.4770    24.6690   -18.1450 
  181.3750     2.2460    66.1110    70.8930    68.5490    54.1370    24.7300   -17.9480 
  181.5000     2.2540    64.9660    69.2790    65.3500    47.4350    24.7690   -17.7630 
  181.6250     2.2450    62.4720    75.6890    69.6680    50.8210    24.8140   -17.5800 
  181.7500     2.2270    59.6400    88.7160    80.4310    56.1930    24.8720   -17.4000 
  181.8750     2.2080    57.3290   107.7280    97.1680    71.4890    24.9100   -17.2430 
  182.0000     2.1920    56.2270   131.0120   118.0870    82.7400    24.9150   -17.0980 
  182.1250     2.1780    55.2900   154.7470   139.2440   101.3430    24.9170   -16.9620 
  182.2500     2.1650    54.8080   174.0830   156.1280   105.6170    24.9040   -16.8270 
  182.3750     2.1550    55.6430   186.1480   166.4040   105.3620    24.8960   -16.6950 
  182.5000     2.1490    57.2850   190.1970   169.7120   110.4950    24.9090   -16.5920 
  182.6250     2.1500    58.4410   185.7670   165.8360   102.6310    24.9090   -16.5760 
  182.7500     2.1570    58.3050   175.5210   156.9050    93.0150    24.8710   -16.6400 
  182.8750     2.1710    58.5960   161.7920   144.5760    88.9900    24.7840   -16.7640 
  183.0000     2.1890    60.7380   147.4120   131.1360    92.9450    24.7020   -16.9150 
  183.1250     2.2060    63.3750   134.6310   118.8240    94.0490    24.7640   -17.0750 
  183.2500     2.2210    65.3840   123.5070   108.2260    88.6060    24.8500   -17.2260 
  183.3750     2.2330    67.2860   113.4410    99.0760    78.4030    24.8480   -17.3680 
  183.5000     2.2420    69.9190   103.9340    90.9130    68.3000    24.7720   -17.5010 
  183.6250     2.2490    71.7340    95.3410    83.8280    68.1160    24.7110   -17.6130 
  183.7500     2.2550    70.5970    88.4380    78.1450    63.6020    24.7500   -17.6870 
  183.8750     2.2620    69.1220    84.0810    74.4430    63.8850    24.8410   -17.7120 
  184.0000     2.2630    68.1100    82.5580    73.0120    68.7480    24.8830   -17.7030 
  184.1250     2.2540    67.6560    83.1870    73.4960    73.0930    24.8960   -17.6720 
  184.2500     2.2390    68.5480    83.5350    73.9280    75.4360    24.8850   -17.6350 
  184.3750     2.2240    70.9470    81.7920    72.6700    73.3760    24.8120   -17.5990 
  184.5000     2.2160    73.9480    77.5300    69.1390    59.8050    24.7050   -17.5380 
  184.6250     2.2220    73.6510    72.1060    64.1790    58.4030    24.5880   -17.4250 
  184.7500     2.2370    71.5030    67.7990    59.7150    54.0670    24.5280   -17.2750 
  184.8750     2.2520    70.7230    65.7440    56.8660    48.7900    24.5380   -17.1300 
  185.0000     2.2570    70.3310    66.1720    56.0810    45.4130    24.5210   -16.9950 
  185.1250     2.2510    67.8540    69.0980    57.6240    44.4190    24.4050   -16.8530 
  185.2500     2.2410    64.6790    73.8500    60.9410    45.7300    24.3010   -16.7170 
  185.3750     2.2240    65.5170    80.3300    65.8160    48.9980    24.2390   -16.5860 
  185.5000     2.1990    69.3660    88.4940    72.0360    52.8540    24.2290   -16.4700 
  185.6250     2.1730    68.7620    98.3250    79.4900    56.9540    24.2590   -16.3770 
  185.7500     2.1550    64.4810   108.6990    87.4270    62.3140    24.2720   -16.3050 
  185.8750     2.1480    62.6260   117.9780    94.7320    66.6190    24.2770   -16.2240 
  186.0000     2.1500    65.0470   123.9710    99.7790    70.1960    24.2820   -16.1340 
  186.1250     2.1650    67.7210   123.2820   100.0160    71.6700    24.2840   -16.0500 
  186.2500     2.1860    69.1300   115.5040    94.9650    68.0840    24.3170   -15.9570 
  186.3750     2.2080    70.8740   101.8720    85.2500    55.0690    24.3810   -15.8590 
  186.5000     2.2290    71.7460    85.9410    73.2490    50.8420    24.4900   -15.7740 
  186.6250     2.2500    69.8590    72.2890    62.2860    49.0400    24.6030   -15.7160 
  186.7500     2.2680    68.5850    62.7090    54.1030    43.2910    24.6460   -15.6640 
  186.8750     2.2800    68.9290    57.1360    48.9920    38.2130    24.6570   -15.6170 
  187.0000     2.2840    69.4610    54.4730    46.4030    39.7890    24.7000   -15.5670 
  187.1250     2.2780    67.6030    53.2130    45.3600    42.9000    24.6980   -15.5070 
  187.2500     2.2700    64.9650    51.8320    44.4880    41.9390    24.6540   -15.4510 
  187.3750     2.2600    63.2570    49.7990    43.1710    39.1120    24.6110   -15.3940 
  187.5000     2.2530    63.2200    47.0070    41.1450    37.8240    24.5720   -15.3220 
  187.6250     2.2560    63.5100    43.7100    38.4730    36.9450    24.5500   -15.2420 
  187.7500     2.2670    63.1050    40.5660    35.7560    36.6740    24.5400   -15.1760 
  187.8750     2.2810    63.9000    38.0270    33.4400    37.3900    24.5420   -15.1330 
  188.0000     2.2880    67.5630    36.3700    31.7900    37.1890    24.5380   -15.1090 
  188.1250     2.2900    73.0860    36.0340    31.1530    35.1950    24.5420   -15.1060 
  188.2500     2.2900    74.3790    36.9910    31.5650    34.8850    24.5330   -15.1210 
  188.3750     2.2870    70.7030    39.1890    33.0570    37.4700    24.5180   -15.1410 
  188.5000     2.2810    66.2980    42.3860    35.4830    40.3420    24.4880   -15.1390 
  188.6250     2.2750    66.4300    46.1520    38.5520    41.3500    24.4440   -15.1270 
  188.7500     2.2740    69.2610    49.7670    41.6330    42.2160    24.3980   -15.1240 
  188.8750     2.2750    70.7020    52.8090    44.2990    42.7280    24.3890   -15.1260 
  189.0000     2.2740    70.0300    55.1050    46.3230    43.4880    24.3820   -15.1330 
  189.1250     2.2680    68.8150    56.3690    47.4390    45.8300    24.3930   -15.1520 
  189.2500     2.2620    67.8760    56.4470    47.5480    47.4200    24.4030   -15.1760 
  189.3750     2.2570    66.7360    55.2640    46.5850    47.8620    24.3930   -15.2140 
  189.5000     2.2560    66.6600    53.3670    44.9590    47.5520    24.3820   -15.2980 
  189.6250     2.2570    70.2820    52.1380    43.6920    44.5410    24.3850   -15.4160 
  189.7500     2.2600    75.1980    52.8530    43.7790    40.3740    24.3720   -15.5360 
  189.8750     2.2630    76.6340    56.2170    45.8600    38.9060    24.3670   -15.6480 
  190.0000     2.2610    73.5190    61.9440    49.9430    45.1760    24.3650   -15.7620 
  190.1250     2.2560    69.4060    68.1090    54.9070    52.5660    24.3680   -15.8780 
  190.2500     2.2540    66.4610    71.5070    58.2700    56.5160    24.3850   -16.0000 
  190.3750     2.2590    66.1640    70.0430    58.1090    56.4570    24.4130   -16.1410 
  190.5000     2.2690    69.1300    64.0180    54.1140    52.4180    24.4280   -16.3050 
  190.6250     2.2830    72.3020    56.3130    48.0250    44.7900    24.4220   -16.4790 
  190.7500     2.2970    72.6670    50.4220    42.7740    38.7880    24.4230   -16.6410 
  190.8750     2.3060    71.4570    47.7780    39.7620    36.8730    24.4040   -16.8070 
  191.0000     2.3080    71.2930    48.8930    39.5980    37.2500    24.3900   -16.9580 
  191.1250     2.3000    71.0050    54.9860    43.3800    39.2270    24.3980   -17.0960 
  191.2500     2.2870    69.1870    66.1340    51.3170    43.9950    24.3960   -17.2150 
  191.3750     2.2680    67.2780    83.1890    64.2120    50.5610    24.4200   -17.2930 
  191.5000     2.2440    65.0480   106.8840    82.7080    57.3380    24.4410   -17.2940 
  191.6250     2.2170    61.1870   137.7100   107.3030    64.3080    24.4420   -17.2320 
  191.7500     2.1920    57.3840   169.9260   133.7190    73.4380    24.4460   -17.1480 
  191.8750     2.1750    54.9870   193.5470   154.9060    79.4990    24.4510   -17.0410 
