~V
VERS. 2.00: Ver 2.00
~W
STRT.M 51.0000:
STOP.M 277.0000:
STEP.M 0.1250:
NULL. -999.2500:
UWI. F11053:
~C
DEPT.M :
GR.API :
RML.OHMM :
RI. :
RXO.OHMM :
CALI.CM :
DEN.GM/CC :
SP.MV :
~A
# ...
  174.7500    58.8570   118.6540   108.5730   125.1220    27.2550     2.1710   -31.7750 
  174.8750    60.1710   130.7980   119.1090    90.5850    27.2850     2.1690   -31.6470 
  175.0000    61.9550   148.6690   135.4090    78.8500    27.3690     2.1680   -31.5020 
  175.1250    60.6750   173.7820   159.1510   110.6550    27.4850     2.1620   -31.3430 
  175.2500    57.0550   207.0890   190.5410   186.2540    27.5510     2.1500   -31.1980 
  175.3750    55.8930   246.5650   226.7010   261.9160    27.5520     2.1380   -31.0520 
  175.5000    59.0250   283.9940   259.1230   288.0360    27.5060     2.1340   -30.8780 
  175.6250    62.0830   310.2370   279.6000   294.7630    27.4830     2.1350   -30.7150 
  175.7500    61.9450   321.7340   286.1880   314.9830    27.5130     2.1410   -30.5640 
  175.8750    60.1720   321.2930   283.1360   338.4350    27.5300     2.1460   -30.4250 
  176.0000    60.1750   313.8170   275.3000   341.2140    27.5730     2.1490   -30.2820 
  176.1250    61.4420   303.3100   265.0900   325.0610    27.6470     2.1530   -30.1430 
  176.2500    60.7370   291.2540   253.5420   287.8330    27.7050     2.1580   -29.9900 
  176.3750    57.9500   278.9130   242.2240   249.8690    27.7020     2.1610   -29.8210 
  176.5000    55.9170   268.0290   233.1780   224.3080    27.6460     2.1600   -29.6930 
  176.6250    56.1830   258.6430   226.7090   208.4540    27.5810     2.1540   -29.5700 
  176.7500    57.9630   248.7950   221.1620   205.5990    27.5180     2.1450   -29.4540 
  176.8750    58.7990   235.4280   213.2390   223.3990    27.4690     2.1380   -29.3450 
  177.0000    58.6570   215.6360   198.9030   223.6940    27.4450     2.1400   -29.2550 
  177.1250    58.7300   191.0510   178.6760   215.1870    27.4030     2.1540   -29.1430 
  177.2500    60.1920   165.1450   155.6080   186.1700    27.2840     2.1750   -29.0230 
  177.3750    62.4800   141.3710   133.2780   146.3970    27.0860     2.2020   -28.9090 
  177.5000    62.9980   122.6030   114.9620   115.9270    26.9510     2.2260   -28.7580 
  177.6250    62.1530   108.8780   101.2630   101.6430    26.8810     2.2450   -28.5640 
  177.7500    61.4900    99.5700    91.8710    89.2810    26.8460     2.2540   -28.3350 
  177.8750    62.7740    93.9880    86.3240    80.0030    26.8180     2.2550   -28.0850 
  178.0000    65.6010    91.8270    84.4730    78.8810    26.8030     2.2510   -27.8140 
  178.1250    66.5820    92.1690    85.3450    79.5350    26.7960     2.2480   -27.5550 
  178.2500    65.0300    94.2210    88.1120    80.2310    26.7930     2.2470   -27.3160 
  178.3750    63.0100    96.8570    91.7480    79.6590    26.7900     2.2480   -27.1130 
  178.5000    63.2830    97.8600    94.2320    85.2030    26.7880     2.2470   -26.9560 
  178.6250    64.5980    95.3420    93.4680    86.4430    26.7650     2.2440   -26.8520 
  178.7500    65.0960    88.6280    88.2940    83.7030    26.7070     2.2410   -26.7660 
  178.8750    66.3880    78.6680    79.2040    81.3430    26.6400     2.2460   -26.7080 
  179.0000    70.3200    67.6810    68.2110    69.3420    26.5970     2.2600   -26.6720 
  179.1250    74.3850    57.8370    57.8310    54.5780    26.5700     2.2790   -26.6590 
  179.2500    77.1300    50.1490    49.4490    41.9090    26.5480     2.2990   -26.6440 
  179.3750    79.1160    44.8290    43.4890    34.8750    26.5370     2.3170   -26.5900 
  179.5000    80.1400    41.9900    40.1160    32.2920    26.5350     2.3310   -26.5190 
  179.6250    78.9760    41.1580    38.8160    30.7050    26.5350     2.3400   -26.4370 
  179.7500    76.2270    42.0570    39.3050    30.6320    26.5370     2.3430   -26.3730 
  179.8750    73.6710    44.5460    41.4520    33.1690    26.5410     2.3380   -26.3350 
  180.0000    71.2100    48.7410    45.3810    37.1560    26.5480     2.3270   -26.3150 
  180.1250    69.0630    54.4420    50.8500    42.4690    26.5470     2.3130   -26.3070 
  180.2500    68.3790    61.4560    57.6160    48.9880    26.5440     2.2980   -26.3240 
  180.3750    70.0590    69.3810    65.2350    54.2070    26.5460     2.2840   -26.3720 
  180.5000    72.2660    77.3230    72.7900    65.7410    26.5710     2.2730   -26.4330 
  180.6250    72.4820    84.0480    79.1570    78.5970    26.6150     2.2660   -26.4870 
  180.7500    70.7920    88.2780    83.3240    86.4310    26.6480     2.2620   -26.5150 
  180.8750    67.7560    88.8350    84.4290    87.5010    26.6610     2.2580   -26.5010 
  181.0000    63.6820    84.4300    81.2890    83.3950    26.6610     2.2550   -26.4730 
  181.1250    60.9080    76.0810    74.2890    76.2180    26.6510     2.2570   -26.4240 
  181.2500    62.4830    65.7210    64.6750    70.2080    26.6270     2.2630   -26.3500 
  181.3750    67.6870    55.6020    54.4680    56.8530    26.6000     2.2770   -26.2710 
  181.5000    71.1860    47.9630    46.1690    42.4480    26.5760     2.2930   -26.2080 
  181.6250    70.9460    43.4340    40.9510    32.2760    26.5520     2.3020   -26.1600 
  181.7500    68.9690    42.1000    39.2190    27.4510    26.5420     2.3020   -26.1510 
  181.8750    67.9140    44.0100    41.1120    28.6590    26.5560     2.2930   -26.1750 
  182.0000    68.2240    49.6990    47.0710    37.3160    26.6020     2.2810   -26.2010 
  182.1250    68.7500    58.4060    56.1090    52.8930    26.6550     2.2710   -26.2510 
  182.2500    69.2110    68.4030    66.4360    66.1880    26.6920     2.2670   -26.3140 
  182.3750    69.2260    76.9330    75.3420    74.2440    26.6960     2.2680   -26.3880 
  182.5000    68.0070    80.5820    79.4550    75.0340    26.6690     2.2750   -26.4330 
  182.6250    66.7200    79.1380    78.5520    68.7630    26.6350     2.2820   -26.4700 
  182.7500    66.7420    74.1850    74.0660    59.8250    26.6090     2.2890   -26.4850 
  182.8750    68.8500    67.8090    67.7820    52.9320    26.5970     2.2920   -26.4950 
  183.0000    71.5110    61.8960    61.3510    48.4500    26.5950     2.2900   -26.5070 
  183.1250    71.9190    57.4390    55.9780    46.3790    26.5950     2.2850   -26.5020 
  183.2500    69.4010    54.9030    52.3580    43.1840    26.5950     2.2820   -26.5020 
  183.3750    67.2630    54.5830    50.9060    40.9600    26.5950     2.2820   -26.5200 
  183.5000    69.5840    57.2130    52.4170    41.5640    26.5950     2.2890   -26.5960 
  183.6250    72.5110    63.1290    57.1720    49.1260    26.5950     2.3010   -26.6920 
  183.7500    71.3230    73.0870    65.7460    56.4390    26.5950     2.3130   -26.7860 
  183.8750    67.4880    88.3390    79.1960    60.9990    26.6070     2.3170   -26.8540 
  184.0000    64.9620   112.0590   100.4410    71.0140    26.6520     2.3040   -26.9040 
  184.1250    63.5810   146.4640   131.1300    95.9670    26.7280     2.2790   -26.9400 
  184.2500    61.1770   194.1750   172.5100   147.4790    26.8100     2.2470   -26.9450 
  184.3750    58.9870   255.7380   223.9520   213.5300    26.8920     2.2160   -26.9090 
  184.5000    58.7380   323.5240   279.9220   272.9640    26.9440     2.1950   -26.8370 
  184.6250    58.0450   377.7190   327.3540   286.7990    26.9510     2.1830   -26.7580 
  184.7500    55.6610   397.1630   352.0290   289.2090    26.9470     2.1760   -26.7030 
  184.8750    53.3690   370.5240   344.5180   323.5260    26.9760     2.1700   -26.6710 
  185.0000    53.5160   303.1720   300.8620   377.3180    27.0450     2.1640   -26.6590 
  185.1250    54.6720   224.8250   237.5580   372.9570    27.0700     2.1610   -26.6580 
  185.2500    55.6170   158.7740   174.2720   281.4790    27.0300     2.1680   -26.6660 
  185.3750    56.9660   114.0440   124.3070   179.7430    26.9150     2.1860   -26.6760 
  185.5000    60.1490    90.1910    93.6510   105.4890    26.8000     2.2110   -26.6560 
  185.6250    63.9140    79.3690    78.1950    65.6860    26.7460     2.2300   -26.6290 
  185.7500    66.0530    77.3460    74.2350    50.4240    26.7540     2.2400   -26.5700 
  185.8750    66.3530    82.4950    79.1810    70.7530    26.8090     2.2430   -26.4930 
