~V
VERS. 2.00: Ver 2.00
~W
STRT.M 55.0000:
STOP.M 283.0000:
STEP.M 0.1250:
NULL. -999.2500:
UWI. F11062:
~C
DEPT.M :
SP.MV :
GR.API :
RML.OHMM :
RI. :
RXO.OHMM :
CALI.CM :
DEN.GM/CC :
~A
# ...
  111.2500    -6.2960    76.9830     5.9640     5.1280     5.9890    22.7140     2.2560 
  111.3750    -6.8000    72.6220     6.2100     5.3660     6.2540    22.7740     2.2400 
  111.5000    -7.2960    68.1550     6.3570     5.5300     6.6200    22.8230     2.2320 
  111.6250    -7.8230    64.8150     6.3920     5.5960     6.9800    22.8500     2.2320 
  111.7500    -8.3590    63.1230     6.3590     5.5850     7.3220    22.8680     2.2350 
  111.8750    -8.8910    65.0720     6.2910     5.5180     7.4180    22.8800     2.2390 
  112.0000    -9.4350    70.6200     6.2250     5.4250     6.9970    22.8850     2.2420 
  112.1250   -10.0510    74.6370     6.2170     5.3590     6.6310    22.8840     2.2440 
  112.2500   -10.7370    74.8130     6.3060     5.3660     6.6020    22.8840     2.2420 
  112.3750   -11.5280    72.8460     6.5320     5.4880     6.7440    22.8930     2.2310 
  112.5000   -12.3870    69.7680     6.9310     5.7590     6.9780    22.9130     2.2130 
  112.6250   -13.2210    63.8950     7.5940     6.2510     7.5930    22.9560     2.1920 
  112.7500   -13.9880    56.0960     8.5230     6.9650     8.6320    23.0310     2.1830 
  112.8750   -14.6670    50.5050     9.6910     7.8900     9.7890    23.1500     2.1990 
  113.0000   -15.1980    49.6920    10.9650     8.9430    10.5400    23.3360     2.2470 
  113.1250   -15.5630    51.8550    12.0200     9.8950    10.8710    23.6130     2.3240 
  113.2500   -15.8040    53.9460    12.5430    10.4790    10.7540    23.8640     2.3990 
  113.3750   -15.9480    56.4850    12.3550    10.5090    10.2880    23.9730     2.4390 
  113.5000   -16.0190    60.4450    11.5130     9.9730     9.5950    23.8770     2.4250 
  113.6250   -16.0890    64.4650    10.3340     9.0630     9.0880    23.6620     2.3600 
  113.7500   -16.1860    66.5730     9.3130     8.1820     8.8650    23.5390     2.2860 
  113.8750   -16.3150    66.6000     8.6930     7.5470     9.0540    23.5060     2.2270 
  114.0000   -16.4920    64.2800     8.5070     7.2290     9.5220    23.5070     2.1910 
  114.1250   -16.6670    60.8560     8.6650     7.2150     9.9250    23.5080     2.1770 
  114.2500   -16.7960    57.3800     8.9160     7.3440    10.1560    23.5100     2.1760 
  114.3750   -16.8610    54.2410     9.1140     7.5080    10.2750    23.5200     2.1810 
  114.5000   -16.8740    52.5080     9.1840     7.6310    10.3120    23.5330     2.1860 
  114.6250   -16.7940    51.5650     9.1220     7.6800    10.2640    23.5450     2.1890 
  114.7500   -16.6530    50.5520     9.0150     7.6910    10.2600    23.5960     2.1910 
  114.8750   -16.4480    49.7240     8.9200     7.6990    10.3210    23.7240     2.1920 
  115.0000   -16.1820    49.3360     8.8760     7.7350    10.3740    23.9130     2.1910 
  115.1250   -15.8430    51.1170     8.9080     7.8190    10.4230    24.1070     2.1880 
  115.2500   -15.4030    53.9300     8.9950     7.9360    10.4270    24.2070     2.1800 
  115.3750   -14.8300    55.7120     9.0910     8.0510    10.3260    24.2370     2.1670 
  115.5000   -14.0860    55.0190     9.1190     8.1020    10.2400    24.2390     2.1520 
  115.6250   -13.1350    54.8300     8.9420     7.9700    10.2670    24.2410     2.1450 
  115.7500   -12.0400    58.0430     8.5310     7.6080    10.3580    24.2440     2.1520 
  115.8750   -10.8860    61.5240     7.8810     7.0110    10.1410    24.2450     2.1770 
  116.0000    -9.7920    64.9140     7.0720     6.2470     9.2200    24.2390     2.2140 
  116.1250    -8.8470    72.1860     6.3160     5.4570     7.5240    24.2270     2.2540 
  116.2500    -8.1520    81.0420     5.6070     4.7960     5.9180    24.2180     2.2850 
  116.3750    -7.7370    84.5930     5.2040     4.3620     5.1500    24.2130     2.2990 
  116.5000    -7.6230    81.6660     5.1540     4.2020     4.9680    24.1870     2.2950 
  116.6250    -7.8190    78.6580     5.4970     4.3710     5.1190    24.1270     2.2730 
  116.7500    -8.1680    76.4560     6.1250     4.8010     5.5840    24.0450     2.2430 
  116.8750    -8.5210    71.9850     6.9650     5.4510     6.5100    23.9360     2.2140 
  117.0000    -8.7500    66.4590     7.9200     6.2550     7.9930    23.7990     2.1910 
  117.1250    -8.7580    62.8590     8.8290     7.0990     9.2650    23.6330     2.1840 
  117.2500    -8.5160    59.7320     9.4950     7.8050    10.3910    23.4310     2.1920 
  117.3750    -8.0500    57.7830     9.7480     8.2100    11.6320    23.2360     2.2140 
  117.5000    -7.4160    58.1780     9.5010     8.2040    13.3990    23.1750     2.2430 
  117.6250    -6.7170    62.0890     8.7800     7.7420    15.9330    23.3110     2.2670 
  117.7500    -6.0540    68.3560     7.9020     7.0600    14.5170    23.4370     2.2760 
  117.8750    -5.4830    75.0840     7.1170     6.3650     9.3420    23.4780     2.2680 
  118.0000    -5.0210    78.7390     6.5800     5.8090     6.5030    23.4620     2.2510 
  118.1250    -4.6670    78.3340     6.3420     5.4800     5.9370    23.4040     2.2400 
  118.2500    -4.3940    78.4070     6.2580     5.3050     6.1410    23.3150     2.2400 
  118.3750    -4.2000    80.3430     6.2310     5.2200     6.4460    23.2100     2.2520 
  118.5000    -4.0540    82.6500     6.2080     5.1770     6.3930    23.1200     2.2700 
  118.6250    -3.9270    83.8160     6.2190     5.1790     5.8990    23.1000     2.2930 
  118.7500    -3.8300    84.9330     6.3220     5.2490     5.5500    23.1400     2.3210 
  118.8750    -3.7650    86.4790     6.5480     5.4110     5.6480    23.2420     2.3530 
  119.0000    -3.7520    86.7160     6.8670     5.6550     5.9940    23.4140     2.3860 
  119.1250    -3.8860    84.0890     7.1870     5.9280     6.3140    23.6790     2.4070 
  119.2500    -4.1390    81.1690     7.4020     6.1460     6.7690    23.9280     2.4050 
  119.3750    -4.4690    80.2470     7.4550     6.2510     7.3430    24.0620     2.3790 
  119.5000    -4.8240    80.8690     7.3450     6.2240     7.4140    24.0720     2.3360 
  119.6250    -5.1900    81.2010     7.1220     6.0840     7.3860    23.9750     2.2910 
  119.7500    -5.4880    79.9470     6.8910     5.9140     7.1590    23.8280     2.2570 
  119.8750    -5.7540    76.2430     6.7140     5.7690     6.9860    23.6340     2.2370 
  120.0000    -5.9750    72.0620     6.6160     5.6780     7.0190    23.4650     2.2290 
  120.1250    -6.0980    70.6260     6.5880     5.6430     6.8990    23.4900     2.2290 
  120.2500    -6.1410    70.3120     6.5790     5.6310     6.4460    23.6920     2.2320 
  120.3750    -6.0980    70.2380     6.5610     5.6170     6.2950    23.9170     2.2380 
  120.5000    -6.0150    71.1480     6.5220     5.5890     6.4330    24.0370     2.2470 
  120.6250    -5.9210    73.8550     6.4700     5.5450     6.5350    24.0640     2.2560 
  120.7500    -5.8610    75.9130     6.4290     5.5040     6.3490    24.0760     2.2620 
  120.8750    -5.8100    75.3930     6.4120     5.4770     6.0800    24.0890     2.2610 
  121.0000    -5.7380    74.2480     6.4160     5.4660     6.0050    24.0640     2.2580 
  121.1250    -5.6520    75.0620     6.4150     5.4570     6.2050    23.9500     2.2560 
  121.2500    -5.5810    78.4080     6.3860     5.4320     6.5070    23.8170     2.2570 
  121.3750    -5.5470    82.5810     6.3420     5.3930     6.5020    23.7380     2.2580 
  121.5000    -5.5400    85.4520     6.3280     5.3660     6.1930    23.7350     2.2580 
  121.6250    -5.5410    84.1630     6.4160     5.3930     6.0160    23.7930     2.2560 
  121.7500    -5.5020    77.8730     6.5980     5.4770     5.8650    23.8730     2.2510 
  121.8750    -5.3940    71.6360     6.8090     5.5820     5.9590    23.8960     2.2490 
  122.0000    -5.2440    71.1000     6.9300     5.6400     6.3990    23.8350     2.2500 
  122.1250    -5.0500    76.0500     6.8080     5.5550     6.8040    23.7230     2.2570 
  122.2500    -4.8430    79.2470     6.4780     5.3320     6.7080    23.6360     2.2690 
  122.3750    -4.6230    79.6150     6.0760     5.0480     6.2570    23.6040     2.2850 
