~V
VERS. 2.00: Ver 2.00
~W
STRT.M 50.0000:
STOP.M 283.0000:
STEP.M 0.1250:
NULL. -999.2500:
UWI. F11066:
~C
DEPT.M :
GR.API :
RML.OHMM :
RI. :
RXO.OHMM :
CALI.CM :
DEN.GM/CC :
SP.MV :
~A
# ...
  140.0000    58.8040    19.3830    16.2040    30.9590    24.8920     2.5400    -9.9980 
  140.1250    56.6380    18.8900    16.3790    30.3130    25.0680     2.4850   -10.0690 
  140.2500    60.0620    16.7380    15.0350    21.9190    25.1250     2.3870   -10.2130 
  140.3750    67.7370    14.1130    13.0450    14.5200    24.8830     2.2840   -10.4300 
  140.5000    72.3920    12.0170    11.2470    12.1320    24.6500     2.2090   -10.6840 
  140.6250    70.5830    10.9590    10.1270    11.7940    24.5300     2.1810   -10.9890 
  140.7500    68.4130    10.6430     9.5900    11.9890    24.4370     2.1820   -11.2980 
  140.8750    69.9880    10.7840     9.4920    11.8660    24.3740     2.1930   -11.5790 
  141.0000    73.4560    11.1030     9.6510    11.7120    24.3710     2.2020   -11.8270 
  141.1250    74.9900    11.3680     9.8820    11.7940    24.3470     2.2040   -12.0050 
  141.2500    73.6530    11.4990    10.0530    11.8670    24.2920     2.2020   -12.1360 
  141.3750    69.7100    11.5050    10.1270    12.0830    24.2770     2.1940   -12.2320 
  141.5000    65.2490    11.4260    10.1080    12.1900    24.2900     2.1830   -12.3180 
  141.6250    63.5340    11.3060    10.0200    12.2690    24.2970     2.1750   -12.4000 
  141.7500    65.9140    11.2040     9.9220    12.1120    24.2880     2.1760   -12.4990 
  141.8750    70.0890    11.1550     9.8520    11.9290    24.3230     2.1810   -12.5830 
  142.0000    72.0620    11.1740     9.8240    12.0460    24.4570     2.1830   -12.7160 
  142.1250    69.7460    11.2420     9.8300    12.1450    24.6670     2.1820   -12.7760 
  142.2500    65.9100    11.2970     9.8390    12.3210    24.8330     2.1820   -12.7850 
  142.3750    62.7780    11.2950     9.8410    12.6920    24.8510     2.1830   -12.7420 
  142.5000    61.1220    11.2310     9.8420    12.9440    24.9560     2.1840   -12.6330 
  142.6250    62.7970    11.2090     9.8980    13.1200    25.1630     2.1860   -12.4180 
  142.7500    65.9420    11.4200    10.0990    13.0370    25.2370     2.1940   -12.1180 
  142.8750    67.3350    12.0320    10.5620    12.8790    25.1100     2.2070   -11.7500 
  143.0000    66.1270    13.0580    11.3510    12.9970    25.1410     2.2230   -11.2680 
  143.1250    66.7440    14.1420    12.3120    14.5150    25.3780     2.2480   -10.7730 
  143.2500    68.4850    14.5800    12.8870    19.2190    25.4350     2.2860   -10.2500 
  143.3750    70.0850    13.8560    12.5500    27.1430    25.1950     2.3360    -9.7270 
  143.5000    74.3040    12.0340    11.2290    23.7890    24.9680     2.3850    -9.2740 
  143.6250    83.3890     9.8320     9.4420    15.8900    24.9960     2.3890    -8.9390 
  143.7500    91.1080     8.0850     7.8960     8.4600    25.0650     2.3470    -8.7440 
  143.8750    91.8720     7.0610     6.8420     6.9060    25.1200     2.2950    -8.7050 
  144.0000    85.8130     6.6900     6.2850     6.6400    25.1100     2.2670    -8.8310 
  144.1250    79.4870     6.7490     6.1430     6.6700    25.0810     2.2690    -9.0810 
  144.2500    79.3280     6.8520     6.1420     6.3670    24.9960     2.2810    -9.3960 
  144.3750    83.8220     6.8040     6.1120     6.0120    24.9820     2.2960    -9.7480 
  144.5000    87.6370     6.6180     6.0030     5.9150    25.0380     2.3090    -9.9620 
  144.6250    88.4290     6.5170     5.9280     6.1180    25.0730     2.3220    -9.9300 
  144.7500    88.5030     6.6490     6.0170     6.5710    25.0680     2.3390    -9.6490 
  144.8750    87.3610     6.9980     6.2980     6.9430    25.0470     2.3610    -9.2340 
  145.0000    82.9620     7.4210     6.6950     7.2390    25.0180     2.3880    -8.7490 
  145.1250    77.6970     7.6840     7.0270     7.6280    24.9870     2.4110    -8.2570 
  145.2500    77.6940     7.7330     7.1920     7.7300    24.9750     2.4140    -7.7800 
  145.3750    83.8300     7.7190     7.2620     7.6630    24.9990     2.3870    -7.3300 
  145.5000    89.5000     7.8870     7.4120     7.6900    25.0100     2.3360    -7.0550 
  145.6250    85.6970     8.4860     7.8650     8.9000    24.9980     2.2830    -7.0400 
  145.7500    75.5740     9.4590     8.6570    10.6760    25.0070     2.2430    -7.2510 
  145.8750    66.1870    10.6180     9.7190    13.2690    24.9890     2.2180    -7.5130 
  146.0000    61.3540    11.6260    10.8150    14.8950    24.8970     2.1990    -7.7340 
  146.1250    61.5400    12.0980    11.5430    14.5110    24.8510     2.1760    -7.8750 
  146.2500    62.8050    12.1880    11.8660    13.3970    24.9200     2.1520    -7.9400 
  146.3750    63.5460    12.2580    12.0180    12.7210    24.9790     2.1450    -7.9040 
  146.5000    64.2610    12.6070    12.2800    12.5160    25.0050     2.1660    -7.7430 
  146.6250    66.4830    13.2540    12.7550    12.5260    24.9870     2.2150    -7.4470 
  146.7500    69.4820    13.7200    13.1230    13.0030    25.0100     2.2820    -7.0300 
  146.8750    72.4850    13.4460    12.8970    14.6760    24.9930     2.3610    -6.5340 
  147.0000    76.0230    12.1450    11.7780    16.0480    24.9650     2.4290    -6.0110 
  147.1250    81.9550    10.1800    10.0440    12.7480    24.9440     2.4460    -5.4900 
  147.2500    88.2330     8.5360     8.5070     8.3790    24.9390     2.4300    -5.0110 
  147.3750    91.1760     7.7560     7.5960     6.9120    24.9770     2.4180    -4.6060 
  147.5000    88.8120     8.0180     7.4690     7.2600    24.9990     2.4330    -4.2740 
  147.6250    81.7520     9.4060     8.2000     9.7410    24.9950     2.4740    -4.0260 
  147.7500    73.6690    11.4510     9.4080    16.2230    24.9590     2.5200    -3.8450 
  147.8750    67.6430    13.6550    11.2900    23.4490    24.9230     2.5480    -3.7280 
  148.0000    64.5660    15.4660    13.1690    23.3330    24.9100     2.5540    -3.6660 
  148.1250    61.7660    16.5590    14.5610    17.1170    24.9290     2.5530    -3.6540 
  148.2500    59.7860    17.3560    15.5710    15.3200    24.9390     2.5610    -3.6550 
  148.3750    59.7620    18.2330    16.4780    18.6420    24.9480     2.5740    -3.6550 
  148.5000    58.2670    19.3300    17.4630    22.9070    24.9880     2.5790    -3.6620 
  148.6250    54.9450    20.4480    18.4570    23.7170    24.9620     2.5710    -3.6760 
  148.7500    53.6950    21.2080    19.1710    23.2950    24.9070     2.5580    -3.7020 
  148.8750    54.3100    21.4550    19.4150    21.7220    24.8670     2.5470    -3.6970 
  149.0000    53.6440    21.3410    19.2620    20.4370    24.8850     2.5400    -3.6760 
  149.1250    52.6010    21.2140    19.0090    20.2410    24.9370     2.5360    -3.6380 
  149.2500    53.7670    21.3190    18.9400    21.4750    24.9880     2.5320    -3.6010 
  149.3750    55.0160    21.7050    19.1570    22.6520    25.0340     2.5290    -3.5540 
  149.5000    55.0920    22.3530    19.6800    23.8310    25.0540     2.5330    -3.5010 
  149.6250    55.1200    23.2580    20.5190    25.1280    25.0220     2.5440    -3.4300 
  149.7500    55.2250    24.3320    21.5570    25.9220    24.9890     2.5560    -3.3650 
  149.8750    55.3530    25.5000    22.7020    27.2810    24.9620     2.5670    -3.3270 
  150.0000    55.9980    26.6300    23.8380    28.8140    24.9350     2.5770    -3.3140 
  150.1250    56.9770    27.4400    24.7520    30.2860    24.9840     2.5880    -3.3130 
  150.2500    57.0020    27.7070    25.2400    31.0540    24.9870     2.5930    -3.3150 
  150.3750    56.2870    27.2650    25.1180    31.4430    24.9620     2.5880    -3.3220 
  150.5000    55.2790    26.1250    24.3330    29.0010    24.9030     2.5770    -3.3410 
  150.6250    55.0130    24.4660    22.9760    27.8800    24.9230     2.5630    -3.3620 
  150.7500    55.4210    22.7420    21.4570    25.0590    24.9440     2.5440    -3.3720 
  150.8750    54.7430    21.2690    20.0840    21.2690    24.9680     2.5200    -3.3960 
  151.0000    52.3240    20.2650    19.0850    19.3990    24.9670     2.5000    -3.4220 
  151.1250    49.4360    19.8960    18.6450    19.6320    24.9480     2.4960    -3.4550 
