~V
VERS. 2.00: Ver 2.00
~W
STRT.M 59.0000:
STOP.M 217.0000:
STEP.M 0.1250:
NULL. -999.2500:
UWI. F11019:
~C
DEPT.M :
DEN.GM/CC :
GR.API :
RML.OHMM :
RI. :
RXO.OHMM :
CALI.CM :
SP.MV :
~A
# ...
  194.0000     2.2580    71.5320    99.8440    83.5570    91.1650    24.6460   -32.1060 
  194.1250     2.2890    68.4140   110.3840    92.5870   106.3140    24.5300   -31.6120 
  194.2500     2.3300    64.7200   118.1650   100.3660   132.5340    24.4190   -31.1020 
  194.3750     2.3800    60.5950   118.9710   103.2840   162.5630    24.2910   -30.5790 
  194.5000     2.4330    56.5470   109.7470    98.3030   180.4630    24.1640   -29.9760 
  194.6250     2.4800    54.4420    90.9000    84.0790   158.9130    24.0700   -29.2270 
  194.7500     2.5150    54.8030    69.8070    66.0780   104.3900    24.0620   -28.2640 
  194.8750     2.5340    56.5930    52.0090    49.1480    57.6110    24.0900   -27.1230 
  195.0000     2.5390    58.3520    39.6010    36.2580    35.8760    24.1180   -25.9850 
  195.1250     2.5370    59.3770    31.1930    28.3940    29.2820    24.2200   -24.7290 
  195.2500     2.5360    59.9020    26.0500    23.5820    26.3550    24.2670   -23.3020 
  195.3750     2.5390    60.1780    22.9050    20.6700    23.5260    24.2120   -21.8890 
  195.5000     2.5450    60.0190    20.9960    18.9130    20.7700    24.1860   -20.6560 
  195.6250     2.5510    59.2230    20.2860    18.1580    18.6700    24.1880   -19.6550 
  195.7500     2.5510    58.1330    20.8250    18.3490    16.2230    24.2950   -18.9110 
  195.8750     2.5440    57.4570    22.6910    19.5670    14.8790    24.3760   -18.3540 
  196.0000     2.5340    57.3850    25.3740    21.5350    16.9450    24.4050   -17.7090 
  196.1250     2.5250    56.7080    27.2700    23.1720    25.0860    24.3670   -17.0890 
  196.2500     2.5160    54.7350    26.6860    23.0600    35.6690    24.2110   -16.5120 
  196.3750     2.4970    52.4230    22.7660    20.2890    44.4770    23.8960   -15.8490 
  196.5000     2.4520    51.1890    16.2650    15.2040    45.8020    23.5410   -15.0600 
  196.6250     2.3600    51.3080     9.8530     9.7750    31.3910    23.8630   -14.2010 
  196.7500     2.2330    51.9630     5.5430     5.7900    14.3350    25.4430   -13.2680 
  196.8750     2.1010    53.1190     3.3250     3.4520     5.8210    28.7560   -12.3500 
  197.0000     1.9890    54.5860     2.4800     2.3500     3.0920    33.9430   -11.5140 
  197.1250     1.9140    55.2850     2.4860     2.1240     2.7380    39.6950   -10.6960 
  197.2500     1.8660    54.6050     2.8690     2.3350     2.7210    43.5580    -9.9090 
  197.3750     1.8380    52.5240     3.4630     2.8040     2.7210    44.6730    -9.1530 
  197.5000     1.8210    49.7980     4.0580     3.3880     2.7500    44.8220    -8.4740 
  197.6250     1.8060    47.8010     4.5520     3.9460     2.8940    44.8400    -7.8580 
  197.7500     1.7920    46.8530     4.8740     4.3970     3.1100    44.9620    -7.3000 
  197.8750     1.7790    46.4760     5.1310     4.7280     3.3310    45.0240    -6.7910 
  198.0000     1.7700    46.2730     5.3550     4.9580     3.4510    44.8710    -6.3690 
  198.1250     1.7660    46.5590     5.5070     5.0990     3.4010    44.0550    -6.0380 
  198.2500     1.7650    47.3600     5.5830     5.1700     3.3080    42.8180    -5.8100 
  198.3750     1.7670    48.5590     5.5820     5.1690     3.2940    41.4330    -5.7570 
  198.5000     1.7720    49.9470     5.5080     5.0990     3.3310    40.5060    -5.8260 
  198.6250     1.7820    50.6490     5.3730     4.9740     3.2880    41.9230    -5.9650 
  198.7500     1.8010    50.3860     5.2250     4.8410     3.1670    44.0470    -6.1250 
  198.8750     1.8310    49.5330     5.1130     4.7410     3.0500    45.0710    -6.2620 
  199.0000     1.8760    48.7240     5.0760     4.7110     3.0120    45.1910    -6.4790 
  199.1250     1.9350    48.2330     5.1750     4.7810     3.0850    44.1190    -6.8010 
  199.2500     1.9980    48.1250     5.3730     4.9200     3.1850    41.6850    -7.1080 
  199.3750     2.0540    48.8150     5.6480     5.0920     3.2460    37.9190    -7.3410 
  199.5000     2.0960    49.7900     5.9590     5.2540     3.3240    33.8080    -7.5230 
  199.6250     2.1200    49.3680     6.1810     5.3680     3.5760    32.4530    -7.6650 
  199.7500     2.1370    47.7510     6.3740     5.4400     3.9230    34.2510    -7.8010 
  199.8750     2.1580    46.7350     6.5620     5.4980     4.2300    36.5500    -7.9640 
  200.0000     2.1880    47.8470     6.7750     5.5840     4.4080    37.9690    -8.1390 
  200.1250     2.2280    51.3010     7.0550     5.7490     4.4560    37.5490    -8.3620 
  200.2500     2.2720    55.5050     7.3980     5.9930     4.4370    34.9670    -8.6980 
  200.3750     2.3150    60.2120     7.7780     6.2980     4.5240    30.9920    -9.2120 
  200.5000     2.3540    65.7030     8.1470     6.6250     4.9050    27.9460    -9.9280 
  200.6250     2.3820    72.1000     8.4460     6.9210     5.5830    26.5020   -10.7950 
  200.7500     2.3980    78.5400     8.6650     7.1570     6.2960    25.9760   -11.7530 
  200.8750     2.4000    83.9240     8.8180     7.3210     6.9690    26.3330   -12.8260 
  201.0000     2.3920    87.2000     8.9240     7.4150     7.5810    26.8950   -14.0360 
  201.1250     2.3780    87.2300     8.9810     7.4330     7.9380    26.9540   -15.5800 
  201.2500     2.3610    85.1450     8.9720     7.3890     7.8430    26.3560   -17.3900 
  201.3750     2.3440    83.2850     8.8690     7.2850     7.2780    25.8270   -19.5290 
  201.5000     2.3320    84.3970     8.6630     7.1260     6.5320    25.7430   -22.3980 
  201.6250     2.3310    90.6940     8.3770     6.9250     6.0780    26.0140   -26.1160 
  201.7500     2.3380    99.0660     8.0910     6.7170     6.0830    26.1110   -29.7890 
  201.8750     2.3500   105.2900     7.8660     6.5330     6.4080    25.9450   -32.1340 
  202.0000     2.3610   107.2750     7.7440     6.4020     6.7530    25.4320   -33.1460 
  202.1250     2.3630   105.0180     7.7590     6.3580     6.9820    25.0250   -33.6730 
  202.2500     2.3580   100.4850     7.8710     6.3950     7.2280    24.9720   -33.8510 
  202.3750     2.3470    95.1800     8.0420     6.4990     7.4950    24.9800   -33.5670 
  202.5000     2.3340    90.7890     8.2320     6.6500     7.6900    25.0140   -32.3350 
  202.6250     2.3210    87.4610     8.4170     6.8390     7.7190    24.9890   -30.0030 
  202.7500     2.3110    83.4320     8.6130     7.0610     7.7330    24.9320   -27.5710 
  202.8750     2.3060    79.3730     8.8590     7.3310     7.8380    24.8670   -26.2690 
  203.0000     2.3060    77.2610     9.1820     7.6570     8.0970    24.7700   -25.9260 
  203.1250     2.3140    77.8460     9.5560     8.0070     8.6110    24.6150   -25.4240 
  203.2500     2.3280    79.3440     9.8610     8.2870     9.3740    24.4620   -24.6930 
  203.3750     2.3450    80.6830     9.9730     8.3930    10.1700    24.2870   -23.7200 
  203.5000     2.3630    81.3180     9.8070     8.2530    10.5850    24.1640   -22.5690 
  203.6250     2.3740    81.6440     9.3330     7.8390     9.9190    24.1670   -21.3030 
  203.7500     2.3770    82.3230     8.7370     7.3060     8.4340    24.4370   -20.0060 
  203.8750     2.3720    82.8860     8.1990     6.8060     7.0810    24.8100   -18.7460 
  204.0000     2.3650    81.9500     7.8800     6.4680     6.5000    25.1710   -17.6440 
  204.1250     2.3600    78.9080     7.9190     6.4120     6.6320    25.1360   -16.7670 
  204.2500     2.3610    75.9020     8.2560     6.6110     7.1480    24.7200   -16.0940 
  204.3750     2.3670    74.6620     8.8110     7.0310     7.7870    24.2790   -15.6590 
  204.5000     2.3790    74.9040     9.4580     7.6020     8.2080    24.0920   -15.4040 
  204.6250     2.3950    75.5330    10.0010     8.2020     8.3700    24.0250   -15.2650 
  204.7500     2.4130    76.5500    10.2740     8.6630     8.6870    24.0350   -15.0840 
  204.8750     2.4280    78.3440    10.1610     8.8440     9.2300    24.0100   -14.7830 
  205.0000     2.4310    80.4510     9.6330     8.6590     9.5860    23.8990   -14.2750 
  205.1250     2.4130    81.8740     8.7450     8.0820     9.0160    24.0250   -13.4190 
