~V
VERS. 2.00: Ver 2.00
~W
STRT.M 62.0000:
STOP.M 272.0000:
STEP.M 0.1250:
NULL. -999.2500:
UWI. F11076:
~C
DEPT.M :
GR.API :
RML.OHMM :
RI. :
RXO.OHMM :
CALI.CM :
DEN.GM/CC :
SP.MV :
~A
# ...
  253.2500   111.5910     9.2290     7.8570     9.1800    24.7840     2.4590    -7.7160 
  253.3750   117.4310     9.2240     7.9250     9.5780    24.7870     2.4510    -7.7110 
  253.5000   129.4880     9.1620     7.9280     9.7680    24.7870     2.4460    -7.6540 
  253.6250   133.9650     9.0910     7.8830     9.1820    24.7840     2.4490    -7.5310 
  253.7500   128.0020     9.0630     7.8420     8.5740    24.7740     2.4560    -7.3210 
  253.8750   117.7080     9.0950     7.8410     8.4950    24.7420     2.4660    -7.0420 
  254.0000   107.7490     9.1710     7.8860     8.9240    24.7040     2.4750    -6.7110 
  254.1250   101.8890     9.2320     7.9450     8.9620    24.6680     2.4780    -6.3610 
  254.2500   101.2990     9.2050     7.9570     8.9600    24.6520     2.4730    -5.9990 
  254.3750   102.7990     9.0340     7.8600     8.8900    24.6400     2.4620    -5.6510 
  254.5000   102.3690     8.7060     7.6110     8.8220    24.6230     2.4470    -5.3550 
  254.6250   103.2970     8.2950     7.2310     8.3350    24.6250     2.4370    -5.1160 
  254.7500   107.2940     8.0030     6.8860     8.1700    24.6350     2.4370    -4.9660 
  254.8750   109.2950     8.0530     6.7500     7.9210    24.6290     2.4400    -4.9140 
  255.0000   105.0480     8.6630     6.9960     7.6740    24.6310     2.4320    -4.9600 
  255.1250    99.5390    10.1210     7.9100     9.3250    24.6290     2.3990    -5.0810 
  255.2500    97.5390    12.2510     9.5370    14.4550    24.6230     2.3530    -5.2190 
  255.3750    96.5990    14.6460    11.7770    20.4010    24.6080     2.3130    -5.3490 
  255.5000    95.4160    16.5380    14.0790    22.6100    24.6730     2.2930    -5.4350 
  255.6250    96.7150    16.8040    15.1070    22.3210    24.7820     2.2950    -5.4210 
  255.7500    99.6140    15.4660    14.3500    20.2000    24.8320     2.3070    -5.3210 
  255.8750   102.4390    13.1480    12.3480    15.6230    24.8420     2.3250    -5.1380 
  256.0000   106.4250    10.7640    10.1170    10.0380    24.8540     2.3490    -4.8430 
  256.1250   109.9560     9.1320     8.4610     8.3120    24.8500     2.3790    -4.4950 
  256.2500   109.7020     8.3100     7.4710     7.8420    24.8100     2.4010    -4.1470 
  256.3750   106.7630     8.1540     7.0760     7.3990    24.7960     2.4060    -3.8120 
  256.5000   104.2460     8.4460     7.1630     7.6180    24.8150     2.3910    -3.4870 
  256.6250   101.6830     8.9400     7.5960     9.0070    24.8280     2.3620    -3.2220 
  256.7500    95.7280     9.3690     8.0890    10.1420    24.8580     2.3350    -3.0000 
  256.8750    88.3570     9.6090     8.4680     9.9530    24.9220     2.3180    -2.8100 
  257.0000    83.3740     9.6520     8.6640     8.8050    24.9600     2.3080    -2.6610 
  257.1250    83.5250     9.5630     8.6980     8.1090    24.9320     2.3030    -2.5160 
  257.2500    87.1280     9.4420     8.6720     8.1650    24.8610     2.3000    -2.3770 
  257.3750    89.8900     9.2900     8.5970     8.6050    24.8030     2.3030    -2.2480 
  257.5000    89.3330     9.0450     8.4150     8.8070    24.7800     2.3120    -2.1620 
  257.6250    88.6910     8.6010     8.0040     8.5180    24.7640     2.3280    -2.1120 
  257.7500    90.1710     7.9970     7.3900     7.7600    24.7530     2.3420    -2.0810 
  257.8750    91.8690     7.3430     6.6810     6.6670    24.7980     2.3500    -2.0510 
  258.0000    91.5870     6.8140     6.0450     5.8460    24.9020     2.3460    -2.0140 
  258.1250    91.0710     6.6580     5.7060     5.5910    24.9470     2.3310    -2.0090 
  258.2500    91.6410     6.9480     5.7410     5.8110    24.9430     2.3140    -2.0260 
  258.3750    89.6720     7.7040     6.1980     6.5610    24.9170     2.3000    -2.0520 
  258.5000    84.8330     8.8450     7.0750     8.3830    24.8580     2.2930    -2.0570 
  258.6250    81.8530    10.1600     8.3000    11.4440    24.7750     2.2910    -2.0080 
  258.7500    82.4220    11.2900     9.5360    13.5240    24.7330     2.2920    -1.9770 
  258.8750    84.9460    11.9820    10.4600    13.0070    24.6920     2.2930    -1.9780 
  259.0000    86.5790    12.1310    10.8710    11.9530    24.6640     2.2950    -2.0140 
  259.1250    85.8810    11.7550    10.7200    11.4190    24.6510     2.2960    -2.0200 
  259.2500    86.1360    11.1020    10.2590    11.1650    24.6490     2.2970    -2.0480 
  259.3750    88.6290    10.2830     9.5980    10.8030    24.6410     2.2980    -2.0940 
  259.5000    91.5410     9.3510     8.7750    10.2050    24.6210     2.2980    -2.1680 
  259.6250    91.2280     8.3640     7.8160     9.0320    24.5870     2.2960    -2.2830 
  259.7500    90.0370     7.4670     6.8780     7.5490    24.5520     2.2920    -2.3470 
  259.8750    90.8300     6.8100     6.1220     6.1270    24.4980     2.2890    -2.3640 
  260.0000    92.3580     6.5130     5.6770     5.2390    24.4280     2.2870    -2.3530 
  260.1250    92.9900     6.6770     5.6610     5.3480    24.3870     2.2850    -2.3850 
  260.2500    93.9510     7.1380     5.9880     6.3280    24.4230     2.2830    -2.3680 
  260.3750    95.4100     7.7110     6.5480     7.6320    24.4390     2.2810    -2.3050 
  260.5000    96.4090     8.1690     7.1410     8.2210    24.4410     2.2840    -2.2600 
  260.6250    96.2770     8.2920     7.4720     7.5860    24.3580     2.2940    -2.1690 
  260.7500    96.5030     8.1640     7.4900     6.3230    24.1230     2.3080    -2.1180 
  260.8750    96.9990     7.9870     7.3560     5.5960    23.8320     2.3210    -2.0910 
  261.0000    96.1280     7.9830     7.3080     5.4410    23.6900     2.3280    -2.0630 
  261.1250    96.1280     8.2990     7.5510     6.0290    23.8710     2.3250    -2.0650 
  261.2500    96.1280     8.7660     8.0080     7.7300    24.1620     2.3160    -2.0540 
  261.3750    96.1280     9.1330     8.4700    10.7740    24.3660     2.3050    -2.0850 
  261.5000    96.1280     9.1470     8.6400    12.2230    24.3980     2.3000    -2.0940 
  261.6250    96.1280     8.6420     8.2360     9.3970    24.3150     2.3050    -2.0740 
  261.7500    96.1280     7.8680     7.4690     6.2080    24.2450     2.3190    -2.0600 
  261.8750    96.1280     7.1160     6.6360     4.9320    24.2640     2.3360    -2.0180 
  262.0000    96.1280     6.6430     5.9970     4.7300    24.3690     2.3520    -1.8970 
  262.1250    96.1280     6.6440     5.7630     4.7910    24.3640     2.3590    -1.7190 
  262.2500    96.1280     7.0210     5.8960     5.2940    24.4070     2.3600    -1.6250 
  262.3750    96.1280     7.6670     6.3280     6.6540    24.5780     2.3660    -1.5130 
  262.5000    96.1280     8.4830     6.9640     8.6790    24.7250     2.3890    -1.3910 
  262.6250    96.1280     9.4760     7.7680     9.7680    24.7680     2.4370    -1.4030 
  262.7500    96.1280    10.7390     8.7590     9.7600    24.7640     2.4890    -1.3850 
  262.8750    96.1280    12.4900    10.0720     9.5800    24.7290     2.5260    -1.3940 
  263.0000    96.1280    14.9890    11.9400    11.0130    24.6450     2.5340    -1.5510 
  263.1250    96.1280    18.5260    14.8520    19.2310    24.5490     2.5130    -1.7270 
  263.2500    96.1280    22.5080    18.6850    34.6780    24.6210     2.4850    -1.8290 
  263.3750    96.1280    25.7430    22.5670    41.4520    24.6930     2.4620    -1.9490 
  263.5000    96.1280    26.7170    24.6250    39.9970    24.6570     2.4480    -2.0140 
  263.6250    96.1280    24.2150    22.7520    37.9200    24.5200     2.4420    -1.9740 
  263.7500    96.1280    19.7860    18.5840    27.5630    24.4360     2.4380    -1.9460 
  263.8750    96.1280    15.1430    14.1760    12.9300    24.4120     2.4340    -1.8260 
  264.0000    96.1280    11.5250    10.7560     6.2910    24.4840     2.4320    -1.6070 
  264.1250    96.1280     9.4830     8.7310     4.9840    24.6560     2.4420    -1.3970 
  264.2500    96.1280     8.5000     7.6310     5.2500    24.8440     2.4700    -1.1750 
  264.3750    96.1280     8.2130     7.1960     5.7670    24.8980     2.5130    -0.9670 
