~V
VERS. 2.00: Ver 2.00
~W
STRT.M 50.0000:
STOP.M 229.0000:
STEP.M 0.1250:
NULL. -999.2500:
UWI. F11009:
~C
DEPT.M :
DEN.GM/CC :
GR.API :
RML.OHMM :
RI. :
RXO.OHMM :
CALI.CM :
SP.MV :
~A
# ...
   72.5000     2.2040    70.6540     7.1510     5.7290     9.2110    27.1170   -28.0780 
   72.6250     2.1800    69.4100     7.2240     5.7900     9.4370    27.3500   -28.5230 
   72.7500     2.1640    69.4320     7.2290     5.8290     9.7270    27.6150   -28.9210 
   72.8750     2.1630    71.3460     7.1650     5.8340     9.8220    27.8030   -29.2760 
   73.0000     2.1800    72.6650     7.0450     5.7980     9.5390    27.9750   -29.5310 
   73.1250     2.2050    71.9410     6.8940     5.7220     9.1960    28.2000   -29.7650 
   73.2500     2.2280    70.2660     6.7560     5.6300     8.8840    28.4050   -29.9830 
   73.3750     2.2430    68.4830     6.6660     5.5460     8.7390    28.5180   -30.0270 
   73.5000     2.2520    67.3000     6.6500     5.4920     8.6870    28.5460   -29.9080 
   73.6250     2.2550    67.6680     6.7220     5.4900     8.6860    28.6320   -29.7220 
   73.7500     2.2510    68.5450     6.8260     5.5190     8.6920    28.9700   -29.3770 
   73.8750     2.2330    67.7560     6.8800     5.5360     8.5960    29.6380   -28.8380 
   74.0000     2.1980    65.0230     6.7860     5.4800     8.5390    30.4930   -28.1100 
   74.1250     2.1530    63.8600     6.4490     5.2800     8.3800    31.3150   -27.0020 
   74.2500     2.1180    67.2480     5.9580     4.9680     7.9810    31.3570   -25.6170 
   74.3750     2.1060    75.6180     5.4570     4.6180     7.2450    30.1210   -24.1240 
   74.5000     2.1230    86.5030     5.1260     4.3400     6.2460    28.4730   -22.6150 
   74.6250     2.1580    94.9310     5.1750     4.2870     5.7210    27.4940   -21.2450 
   74.7500     2.1960    95.9590     5.5860     4.4980     6.0030    27.0500   -20.1260 
   74.8750     2.2300    89.5880     6.2570     4.9520     7.0960    26.7820   -19.1620 
   75.0000     2.2610    80.8570     6.9740     5.5320     8.7920    26.5660   -18.2960 
   75.1250     2.2870    75.7390     7.4000     5.9970    10.3800    26.5110   -17.6030 
   75.2500     2.3070    76.3780     7.3940     6.1640    11.1350    26.5850   -16.9950 
   75.3750     2.3150    82.0960     6.9960     5.9930    10.4420    26.7080   -16.3780 
   75.5000     2.3160    90.7600     6.3920     5.5820     8.1060    26.7680   -15.7500 
   75.6250     2.3140    99.6550     5.8150     5.0980     6.0210    26.7600   -14.8990 
   75.7500     2.3160   105.0200     5.3770     4.6780     5.5170    26.7390   -13.8520 
   75.8750     2.3250   107.5850     5.0720     4.3560     5.7570    26.7410   -12.8240 
   76.0000     2.3360   109.5030     4.8670     4.1280     6.0010    26.7620   -11.9160 
   76.1250     2.3470   114.5060     4.7840     4.0050     5.3580    26.7780   -11.1120 
   76.2500     2.3520   119.7170     4.8740     4.0000     4.9060    26.7840   -10.5450 
   76.3750     2.3490   119.5530     5.2310     4.1660     4.9180    26.7660   -10.2700 
   76.5000     2.3410   113.3810     5.9240     4.5640     5.4000    26.6850   -10.1430 
   76.6250     2.3330   105.9710     6.9850     5.2660     6.7020    26.4920   -10.2860 
   76.7500     2.3260   100.6620     8.1850     6.1640     9.0400    26.3340   -10.7430 
   76.8750     2.3160    95.4150     9.2480     7.0900    12.8640    26.2620   -11.4360 
   77.0000     2.3010    88.4870     9.8960     7.8190    17.4190    26.2020   -12.3870 
   77.1250     2.2810    81.6460     9.9070     8.0930    18.2940    26.1160   -13.5550 
   77.2500     2.2600    78.0360     9.5080     7.9780    15.9810    26.0500   -14.7380 
   77.3750     2.2420    77.8500     8.9720     7.6350    13.2510    26.0490   -15.9260 
   77.5000     2.2280    78.8600     8.5440     7.2630    11.3450    26.1220   -17.1330 
   77.6250     2.2190    79.0330     8.3850     7.0290    10.3780    26.2580   -18.2210 
   77.7500     2.2110    77.4740     8.4130     6.9380     9.9500    26.4090   -19.1110 
   77.8750     2.2030    74.2200     8.5170     6.9360     9.9220    26.5780   -19.8160 
   78.0000     2.1930    70.5880     8.5850     6.9480    10.1410    26.6720   -20.2640 
   78.1250     2.1810    68.8710     8.5260     6.8980    10.3340    26.6840   -20.5580 
   78.2500     2.1700    70.6950     8.3590     6.7750    10.3230    26.6860   -20.8020 
   78.3750     2.1640    74.3610     8.1310     6.5990     9.9600    26.7300   -20.9370 
   78.5000     2.1630    77.7710     7.9020     6.4090     9.6600    26.7870   -21.0060 
   78.6250     2.1680    80.4310     7.7330     6.2500     9.4210    26.8730   -21.0990 
   78.7500     2.1710    82.0710     7.6340     6.1420     9.3430    27.0290   -21.1160 
   78.8750     2.1690    81.5300     7.5930     6.0860     9.2850    27.2750   -21.0910 
   79.0000     2.1610    78.0710     7.5870     6.0690     9.2170    27.5340   -21.1250 
   79.1250     2.1540    74.7340     7.5830     6.0700     9.2530    27.6780   -21.1520 
   79.2500     2.1580    74.3980     7.5590     6.0630     9.3060    27.7070   -21.1790 
   79.3750     2.1780    75.2920     7.5190     6.0380     9.3270    27.7110   -21.2620 
   79.5000     2.2100    75.6470     7.4760     6.0010     9.2370    27.7280   -21.3390 
   79.6250     2.2330    75.6120     7.4520     5.9700     9.1500    27.7820   -21.3450 
   79.7500     2.2280    74.8090     7.4520     5.9560     9.1370    27.8820   -21.4050 
   79.8750     2.1900    71.4770     7.4680     5.9620     9.2150    28.0360   -21.4700 
   80.0000     2.1350    66.3950     7.4870     5.9800     9.7200    28.0680   -21.4650 
   80.1250     2.0910    63.0380     7.4850     5.9960    10.7530    27.8520   -21.5030 
   80.2500     2.0770    64.7890     7.4520     5.9940    11.1330    27.4410   -21.4840 
   80.3750     2.0930    70.4020     7.3880     5.9720    10.3170    27.1500   -21.3660 
   80.5000     2.1210    74.5840     7.3100     5.9330     9.7860    27.0230   -21.2570 
   80.6250     2.1400    74.7540     7.2510     5.8940     9.6480    27.0160   -21.0910 
   80.7500     2.1460    74.1350     7.2340     5.8720     9.5140    27.0780   -20.8390 
   80.8750     2.1450    74.6760     7.2670     5.8800     9.2930    27.1300   -20.5970 
   81.0000     2.1480    74.7780     7.3360     5.9170     9.0940    27.1110   -20.3840 
   81.1250     2.1610    73.0830     7.4140     5.9750     9.0660    27.0880   -20.0580 
   81.2500     2.1770    72.0910     7.4690     6.0300     9.1280    27.0790   -19.7080 
   81.3750     2.1890    72.5450     7.4820     6.0660     9.1560    27.0860   -19.3720 
   81.5000     2.1920    73.5090     7.4430     6.0680     9.1340    27.1200   -18.9630 
   81.6250     2.1890    73.6910     7.3480     6.0270     8.8600    27.1980   -18.5480 
   81.7500     2.1890    73.6970     7.2200     5.9550     8.5800    27.2630   -18.1640 
   81.8750     2.1940    74.5000     7.0750     5.8610     8.4360    27.2870   -17.6960 
   82.0000     2.1980    78.3020     6.9280     5.7580     8.4590    27.2990   -17.0890 
   82.1250     2.1920    83.5520     6.8000     5.6640     8.4820    27.3840   -16.4810 
   82.2500     2.1750    87.3130     6.7070     5.5960     8.4080    27.5770   -15.8730 
   82.3750     2.1550    90.3120     6.6610     5.5640     8.2290    27.7790   -15.2220 
   82.5000     2.1460    92.5220     6.6540     5.5660     8.0660    27.8390   -14.5430 
   82.6250     2.1580    89.9160     6.6270     5.5710     8.2490    27.7250   -13.8240 
   82.7500     2.1780    83.6190     6.5030     5.5230     8.3840    27.5870   -13.0570 
   82.8750     2.1910    79.5480     6.2500     5.3870     8.2870    27.5190   -12.2470 
   83.0000     2.1890    80.1000     5.9100     5.1750     7.9540    27.5470   -11.4630 
   83.1250     2.1710    82.4290     5.6100     4.9550     7.4980    27.7030   -10.6850 
   83.2500     2.1540    84.7610     5.4620     4.8140     6.6840    27.8420    -9.9820 
   83.3750     2.1530    87.5960     5.5030     4.7980     5.8970    27.6820    -9.3930 
   83.5000     2.1700    90.0560     5.6890     4.9030     6.2460    27.3090    -8.8670 
   83.6250     2.2010    91.9670     5.8980     5.0720     7.4220    27.1230    -8.4030 
