~V
VERS. 2.00: Ver 2.00
~W
STRT.M 51.0000:
STOP.M 240.0000:
STEP.M 0.1250:
NULL. -999.2500:
UWI. F11016:
~C
DEPT.M :
GR.API :
RML.OHMM :
RI. :
RXO.OHMM :
CALI.CM :
DEN.GM/CC :
SP.MV :
~A
# ...
  197.2500    75.2910    11.5120    10.1490    11.9390    24.3520     2.4730   -12.9350 
  197.3750    78.3270    11.0970     9.8990    12.0770    24.2870     2.4590   -11.9700 
  197.5000    78.6200    10.3640     9.3610    11.5920    24.2450     2.4440   -10.8670 
  197.6250    75.1940     9.4530     8.6390    10.3650    24.2560     2.4320    -9.6750 
  197.7500    69.6210     8.5370     7.8690     8.4250    24.3090     2.4260    -8.4420 
  197.8750    62.2310     7.7980     7.1980     7.2170    24.3330     2.4250    -7.2400 
  198.0000    53.9730     7.3000     6.7040     6.8390    24.2900     2.4300    -6.1220 
  198.1250    47.5880     7.0090     6.3850     6.7110    24.2160     2.4380    -5.1240 
  198.2500    45.5470     6.8660     6.2100     6.6150    24.1430     2.4470    -4.2710 
  198.3750    46.7580     6.8230     6.1400     6.4240    24.1030     2.4560    -3.6220 
  198.5000    47.6520     6.8450     6.1280     6.2260    24.1020     2.4630    -3.1780 
  198.6250    47.7720     6.9180     6.1420     6.0980    24.1420     2.4660    -2.8990 
  198.7500    49.8350     7.0260     6.1720     6.0630    24.1910     2.4660    -2.7520 
  198.8750    54.8830     7.1230     6.2170     6.0630    24.1920     2.4630    -2.7150 
  199.0000    61.0950     7.2140     6.2740     6.0250    24.1780     2.4570    -2.7590 
  199.1250    65.9250     7.3160     6.3450     5.9500    24.2040     2.4490    -2.8650 
  199.2500    68.5380     7.4560     6.4260     5.9550    24.2420     2.4400    -3.0200 
  199.3750    70.7640     7.5550     6.5090     6.1470    24.2480     2.4310    -3.1950 
  199.5000    73.6430     7.5870     6.5730     6.5190    24.2210     2.4220    -3.3730 
  199.6250    75.7050     7.5610     6.5960     6.9320    24.1900     2.4160    -3.5350 
  199.7500    74.1930     7.4730     6.5600     7.1890    24.1610     2.4130    -3.6880 
  199.8750    69.3610     7.3370     6.4660     7.1720    24.1430     2.4110    -3.8650 
  200.0000    66.4780     7.2020     6.3450     6.8790    24.1350     2.4110    -4.0560 
  200.1250    68.8390     7.1190     6.2450     6.5060    24.1320     2.4100    -4.2270 
  200.2500    73.5990     7.1220     6.2090     6.2590    24.1310     2.4090    -4.4080 
  200.3750    75.8960     7.2310     6.2690     6.2990    24.1310     2.4090    -4.6370 
  200.5000    75.3490     7.4270     6.4230     6.6130    24.1310     2.4100    -4.8950 
  200.6250    74.5640     7.6750     6.6420     7.0680    24.1310     2.4130    -5.1680 
  200.7500    74.4580     7.9550     6.9030     7.5990    24.1310     2.4170    -5.4690 
  200.8750    74.3580     8.2640     7.1900     8.1590    24.1310     2.4200    -5.7940 
  201.0000    73.3020     8.6140     7.5000     8.6610    24.1280     2.4180    -6.1340 
  201.1250    70.6200     9.0200     7.8460     9.0790    24.1160     2.4130    -6.4830 
  201.2500    67.9910     9.4930     8.2430     9.5660    24.0870     2.4030    -6.8170 
  201.3750    69.1660    10.0160     8.6890    10.1330    24.0480     2.3920    -7.1280 
  201.5000    73.4070    10.5330     9.1460    10.6230    24.0110     2.3830    -7.4380 
  201.6250    76.5220    10.9830     9.5600    11.2570    23.9890     2.3780    -7.7520 
  201.7500    75.5510    11.3540     9.9020    12.3560    23.9850     2.3760    -8.0690 
  201.8750    71.6450    11.7810    10.2390    13.5410    23.9880     2.3740    -8.3970 
  202.0000    68.7280    12.6040    10.7970    14.0250    23.9910     2.3650    -8.7290 
  202.1250    68.4300    14.5200    12.0020    13.9400    23.9920     2.3490    -9.0610 
  202.2500    68.5390    18.4310    14.5470    15.0860    23.9880     2.3240    -9.4160 
  202.3750    65.8270    26.1040    19.9360    20.6110    23.9750     2.2950    -9.7970 
  202.5000    62.4830    39.0150    29.6710    33.1250    23.9640     2.2690   -10.1570 
  202.6250    62.1700    57.3640    44.6640    54.6520    23.9680     2.2520   -10.4860 
  202.7500    63.8240    79.8150    64.4970    91.0310    23.9790     2.2430   -10.7970 
  202.8750    64.0470   102.7770    86.1000   131.7450    23.9820     2.2420   -11.0560 
  203.0000    62.4840   120.6190   104.0270   154.6690    23.9640     2.2430   -11.2440 
  203.1250    61.0720   128.6590   113.6090   155.9900    23.9150     2.2440   -11.3860 
  203.2500    60.0320   126.8790   114.1850   144.7400    23.8610     2.2430   -11.4870 
  203.3750    59.9720   120.2690   109.3180   127.6100    23.8040     2.2420   -11.5070 
  203.5000    61.3140   114.1680   103.7300   115.6270    23.7500     2.2430   -11.4670 
  203.6250    62.1330   110.4470    99.7070   111.3980    23.7130     2.2460   -11.4150 
  203.7500    61.3980   108.5540    97.2420   106.6550    23.6860     2.2520   -11.3390 
  203.8750    60.5610   107.3010    95.5530   101.5140    23.6670     2.2600   -11.2230 
  204.0000    61.4150   105.7200    93.8340   100.9680    23.6510     2.2650   -11.0990 
  204.1250    63.2560   103.6560    91.8640   102.1990    23.6240     2.2640   -10.9790 
  204.2500    64.2780   101.8030    90.1480   100.4480    23.5850     2.2580   -10.8260 
  204.3750    64.0880   101.5620    89.8480    93.8690    23.5340     2.2480   -10.6380 
  204.5000    63.0680   103.7820    91.7390    86.0960    23.4830     2.2360   -10.4520 
  204.6250    61.8430   108.2160    95.7120    83.0420    23.4440     2.2260   -10.2520 
  204.7500    60.1570   113.5410   100.7530    88.1340    23.4330     2.2190   -10.0110 
  204.8750    57.7200   116.9530   104.5640   100.1250    23.4530     2.2160    -9.7370 
  205.0000    56.5440   115.7310   104.7150   107.6700    23.4850     2.2180    -9.4460 
  205.1250    57.6070   108.5780    99.8010   101.5020    23.5600     2.2250    -9.1350 
  205.2500    58.8070    96.2130    90.0110    88.8760    23.6790     2.2350    -8.8040 
  205.3750    57.1870    81.3740    77.2640    81.3950    23.7770     2.2480    -8.4750 
  205.5000    54.0010    67.2600    64.4250    74.0100    23.8270     2.2610    -8.1490 
  205.6250    52.8870    55.5850    53.4160    61.6070    23.8500     2.2740    -7.8140 
  205.7500    54.5210    46.5800    44.7600    48.3160    23.8590     2.2820    -7.4990 
  205.8750    56.9110    40.0200    38.4050    40.2040    23.8610     2.2850    -7.2420 
  206.0000    58.3780    35.3330    33.8440    36.2300    23.8610     2.2810    -7.0040 
  206.1250    58.7090    32.0980    30.6740    32.4760    23.8590     2.2710    -6.7700 
  206.2500    58.1310    30.1980    28.7790    27.7430    23.8490     2.2600    -6.5840 
  206.3750    56.6080    29.6390    28.1680    23.8430    23.8360     2.2520    -6.4460 
  206.5000    54.9830    30.1430    28.6000    23.9800    23.8340     2.2480    -6.3240 
  206.6250    54.2610    31.2060    29.6480    28.0810    23.8390     2.2500    -6.2350 
  206.7500    54.6700    32.2750    30.8250    32.3810    23.8330     2.2570    -6.1910 
  206.8750    56.1680    32.7260    31.5250    34.3530    23.8160     2.2640    -6.1500 
  207.0000    58.0270    32.3310    31.4310    33.7990    23.8030     2.2690    -6.1210 
  207.1250    59.3190    31.3180    30.6490    31.8810    23.8010     2.2690    -6.1350 
  207.2500    60.1060    30.1260    29.5440    29.5340    23.7970     2.2640    -6.1520 
  207.3750    60.9390    29.2220    28.5630    27.7960    23.7650     2.2560    -6.1670 
  207.5000    60.2900    28.7390    27.8990    27.9940    23.6920     2.2480    -6.2130 
  207.6250    56.2100    28.4990    27.4640    29.6410    23.6310     2.2450    -6.2680 
  207.7500    50.7580    28.2520    27.0650    29.8670    23.6140     2.2460    -6.3250 
  207.8750    49.3380    27.8280    26.5500    29.0390    23.6110     2.2490    -6.4230 
  208.0000    52.3960    27.3290    25.9810    28.1440    23.6110     2.2520    -6.5360 
  208.1250    55.7090    27.0850    25.6200    26.9320    23.6240     2.2540    -6.6490 
  208.2500    56.9730    27.4740    25.7940    25.3490    23.6510     2.2560    -6.7990 
  208.3750    57.8670    28.8580    26.8550    25.0160    23.7080     2.2570    -6.9740 
