~V
VERS. 2.00: Ver 2.00
~W
STRT.M 58.0000:
STOP.M 277.0000:
STEP.M 0.1250:
NULL. -999.2500:
UWI. F11038:
~C
DEPT.M :
GR.API :
RML.OHMM :
RI. :
RXO.OHMM :
CALI.CM :
DEN.GM/CC :
SP.MV :
~A
# ...
  170.5000    66.1530    92.8700    87.7610    53.0040    25.0720     2.2130   -35.0810 
  170.6250    68.7780    94.6280    88.4240    54.0810    25.0880     2.2200   -35.4750 
  170.7500    71.8050   101.5730    94.2930    57.9230    25.1060     2.2280   -35.7680 
  170.8750    73.2290   112.3570   104.3500    65.1240    25.1080     2.2390   -36.0080 
  171.0000    72.6360   124.5420   116.3850    84.7490    25.0890     2.2500   -36.1890 
  171.1250    70.6800   134.7230   126.7530   136.3030    25.0530     2.2560   -36.3850 
  171.2500    70.7680   141.3700   133.4000   204.3670    24.9400     2.2550   -36.6330 
  171.3750    72.5920   144.8420   136.6590   248.6900    24.7100     2.2490   -36.9390 
  171.5000    71.8440   146.6200   138.2400   254.2000    24.4620     2.2400   -37.2650 
  171.6250    69.8500   148.0320   139.7530   248.4920    24.4120     2.2310   -37.5880 
  171.7500    70.9090   149.1000   141.4570   253.0640    24.5340     2.2240   -37.9130 
  171.8750    73.5600   148.6860   142.3170   268.8300    24.8130     2.2200   -38.2000 
  172.0000    74.9340   145.5280   140.8270   294.2360    25.0360     2.2210   -38.4710 
  172.1250    74.9970   138.8420   135.7070   222.8080    25.1200     2.2300   -38.6770 
  172.2500    74.9360   130.5730   128.5480   159.0280    25.1180     2.2410   -38.7590 
  172.3750    74.5420   122.9320   121.4910   116.9830    25.1000     2.2510   -38.7590 
  172.5000    73.7320   117.9160   116.7320    94.9920    25.0780     2.2560   -38.6720 
  172.6250    72.7520   116.8300   116.0670    89.5880    25.0980     2.2570   -38.4560 
  172.7500    70.0640   117.6510   117.8970    94.0040    25.1490     2.2540   -38.1050 
  172.8750    65.5210   117.4650   119.3370   105.7090    25.2050     2.2510   -37.6310 
  173.0000    62.5330   113.2780   116.7540   121.0800    25.2770     2.2500   -37.0580 
  173.1250    65.5680   103.2380   107.1390   118.0220    25.3480     2.2560   -36.3560 
  173.2500    71.4280    90.5420    93.8060    91.8140    25.2440     2.2670   -35.6410 
  173.3750    75.9970    78.8550    81.0300    61.7350    25.1760     2.2820   -34.8540 
  173.5000    76.4030    71.3460    72.3180    44.1940    25.1390     2.2940   -34.1090 
  173.6250    74.0670    71.0090    70.7170    39.0630    25.1120     2.2950   -33.4520 
  173.7500    73.0270    77.5030    76.1160    44.2450    25.1060     2.2890   -32.9060 
  173.8750    74.3730    90.4960    88.5890    67.0470    25.1230     2.2780   -32.4720 
  174.0000    74.6570   108.2930   106.8910   107.3720    25.1540     2.2680   -32.1250 
  174.1250    71.6590   126.6850   126.9920   153.5930    25.1780     2.2630   -31.9060 
  174.2500    70.8760   140.1610   142.5010   186.3390    25.1690     2.2610   -31.7590 
  174.3750    74.6670   145.4970   149.7560   190.4210    25.1540     2.2600   -31.6650 
  174.5000    79.0600   142.4070   148.5930   173.3600    25.1510     2.2560   -31.5160 
  174.6250    78.3090   132.3870   140.5670   147.2140    25.1650     2.2510   -31.3000 
  174.7500    73.5230   119.4880   129.2360   145.3380    25.1750     2.2490   -31.0300 
  174.8750    68.0790   105.8440   116.2170   144.0350    25.2360     2.2550   -30.7350 
  175.0000    65.0560    93.1760   103.1600   131.3000    25.3360     2.2690   -30.4330 
  175.1250    67.5820    83.3550    92.4680    89.6490    25.4260     2.2870   -30.0540 
  175.2500    71.8110    76.3380    84.9210    62.3150    25.2790     2.3000   -29.6550 
  175.3750    73.2870    71.0560    79.6200    57.7640    25.1890     2.3040   -29.2860 
  175.5000    72.8120    65.5950    74.1890    58.3140    25.1750     2.2980   -29.0010 
  175.6250    75.6500    57.9540    65.6910    61.9270    25.1910     2.2920   -28.8010 
  175.7500    81.4720    48.6090    54.7090    63.2260    25.1790     2.2910   -28.6730 
  175.8750    85.9110    39.2540    43.7490    43.9670    25.0960     2.2990   -28.6090 
  176.0000    87.1900    31.8690    35.3290    18.7390    24.9210     2.3080   -28.6380 
  176.1250    89.2150    28.4050    31.2690    12.0310    24.6900     2.3110   -28.8550 
  176.2500    91.1640    28.7020    31.0160    13.3140    24.5680     2.3060   -29.1430 
  176.3750    89.3090    32.6870    34.5970    22.7560    24.5080     2.2950   -29.4660 
  176.5000    84.0570    40.1360    42.2590    34.2770    24.3980     2.2860   -29.8170 
  176.6250    79.4130    50.7790    54.5120    41.7670    24.2760     2.2810   -30.2310 
  176.7500    77.2360    62.6500    69.0590    46.9660    24.2140     2.2810   -30.6930 
  176.8750    75.5190    73.9110    83.0420    56.1580    24.2290     2.2800   -31.2030 
  177.0000    73.6970    82.9120    93.7440    58.8850    24.2870     2.2760   -31.7430 
  177.1250    71.0820    88.3040    99.3730    56.2770    24.4060     2.2650   -32.2900 
  177.2500    68.0560    90.8640   101.3380    56.9070    24.5870     2.2510   -32.8610 
  177.3750    67.2460    91.2580   100.5940    64.5860    24.8400     2.2380   -33.4700 
  177.5000    69.5300    90.0130    97.8280    69.4800    25.1120     2.2300   -34.1020 
  177.6250    73.1410    87.1280    93.1350    68.4780    25.3110     2.2280   -34.7230 
  177.7500    76.4810    82.9970    86.9960    69.3320    25.3920     2.2310   -35.3340 
  177.8750    78.7540    78.1840    80.0560    73.5290    25.3260     2.2370   -35.9200 
  178.0000    79.2870    73.8920    73.6910    65.9460    25.1690     2.2440   -36.5330 
  178.1250    78.8730    72.5580    70.3490    53.2210    24.9570     2.2500   -37.2130 
  178.2500    78.3450    76.0720    71.6650    47.5480    24.7830     2.2520   -38.0300 
  178.3750    76.4740    86.6580    79.7870    47.3820    24.6680     2.2450   -38.9490 
  178.5000    73.5730   106.8400    97.3810    56.3230    24.5900     2.2280   -39.9940 
  178.6250    70.9510   141.3000   129.2770    95.4280    24.5120     2.2070   -41.1200 
  178.7500    69.5060   187.5930   173.3420   166.0200    24.4560     2.1880   -42.2400 
  178.8750    69.1500   239.1790   223.3910   219.9470    24.4130     2.1790   -43.3790 
  179.0000    69.6060   284.3220   266.8810   235.7420    24.4030     2.1800   -44.4080 
  179.1250    69.3400   308.8940   288.0010   244.9570    24.4170     2.1870   -45.2880 
  179.2500    67.9170   315.3680   290.7360   221.3730    24.4260     2.1920   -45.9480 
  179.3750    66.7340   311.5310   284.6470   189.8450    24.4360     2.1920   -46.4230 
  179.5000    65.9050   305.5280   277.7860   174.6270    24.4680     2.1880   -46.7350 
  179.6250    63.6160   302.0280   274.1010   175.5840    24.5440     2.1830   -46.9360 
  179.7500    61.6690   300.8150   273.2190   186.3800    24.6370     2.1800   -47.1440 
  179.8750    61.9230   300.6340   273.9350   202.6720    24.7100     2.1810   -47.3170 
  180.0000    63.8500   300.1640   274.7810   221.2270    24.7440     2.1860   -47.4740 
  180.1250    64.8260   297.7370   274.3140   236.3380    24.7590     2.1930   -47.5230 
  180.2500    64.0780   291.8210   271.4830   248.1130    24.8050     2.1980   -47.4740 
  180.3750    63.6260   280.3090   264.1740   258.2340    24.9070     2.1960   -47.3040 
  180.5000    64.7580   261.7500   249.9250   247.0220    25.0260     2.1880   -46.9170 
  180.6250    67.9710   236.5200   227.5630   238.5230    25.5390     2.1810   -46.3380 
  180.7500    69.1520   210.0680   202.4740   239.0840    26.1690     2.1810   -45.5360 
  180.8750    65.6790   187.0920   179.8650   213.1180    26.0100     2.1900   -44.4080 
  181.0000    60.7550   170.9800   163.5990   165.2430    25.4680     2.2030   -43.1250 
  181.1250    59.3750   164.6360   156.8550   141.4720    25.0690     2.2130   -41.6860 
  181.2500    60.5900   166.2070   158.1810   163.5640    24.9920     2.2180   -40.1760 
  181.3750    63.0850   173.4250   165.8880   207.4470    24.9840     2.2140   -38.6560 
  181.5000    66.8310   181.6740   175.9430   228.1880    25.0550     2.2040   -37.1680 
  181.6250    72.4190   182.4670   179.5910   215.0380    25.0960     2.1920   -35.7400 
