~V
VERS. 2.00: Ver 2.00
~W
STRT.M 47.0000:
STOP.M 272.0000:
STEP.M 0.1250:
NULL. -999.2500:
UWI. F11040:
~C
DEPT.M :
DEN.GM/CC :
GR.API :
RML.OHMM :
RI. :
RXO.OHMM :
CALI.CM :
SP.MV :
~A
# ...
  215.7500     2.2000    47.3720   211.0960   199.7470   218.9880    24.7530   -15.1660 
  215.8750     2.2140    48.6930   207.3130   194.4770   228.3850    24.5360   -15.1650 
  216.0000     2.2250    49.5260   201.1050   187.3770   242.0750    24.3640   -15.1580 
  216.1250     2.2270    50.5980   191.8960   178.2560   212.2840    24.2510   -15.1180 
  216.2500     2.2210    52.2520   180.9460   168.3100   165.1870    24.1830   -15.0830 
  216.3750     2.2110    53.3520   168.7690   158.6570   134.6330    24.2060   -15.0620 
  216.5000     2.2010    52.7340   158.5450   150.1320   137.8710    24.3590   -15.0450 
  216.6250     2.1970    51.3170   149.9930   143.0300   153.3900    24.4900   -15.0030 
  216.7500     2.1990    50.1750   142.0870   136.5530   160.8830    24.5500   -14.9390 
  216.8750     2.2040    49.5790   134.2870   130.1480   156.4390    24.5660   -14.8390 
  217.0000     2.2110    50.7040   126.5650   123.6770   148.6820    24.6050   -14.7720 
  217.1250     2.2170    52.3400   119.6030   117.6640   143.8510    24.6370   -14.7560 
  217.2500     2.2210    52.9620   114.0500   112.7700   132.9640    24.6270   -14.7400 
  217.3750     2.2220    52.4940   110.3350   109.4720   116.6740    24.5850   -14.6780 
  217.5000     2.2190    52.6350   108.5160   107.8920   104.0240    24.5430   -14.5730 
  217.6250     2.2120    54.3310   108.3540   107.8720   100.3510    24.5240   -14.4530 
  217.7500     2.2030    55.8030   108.6430   108.3160   100.7880    24.4970   -14.3880 
  217.8750     2.1950    55.0420   108.3350   108.2220    98.5360    24.4560   -14.3870 
  218.0000     2.1900    53.4840   106.6120   106.7360    93.2680    24.4460   -14.4170 
  218.1250     2.1900    54.1610   103.1530   103.3850    94.0490    24.4820   -14.4270 
  218.2500     2.1900    56.1760    99.2020    99.2800    94.7970    24.5340   -14.3970 
  218.3750     2.1890    57.3950    96.2150    95.8190    91.6120    24.5740   -14.3810 
  218.5000     2.1860    57.9010    95.5400    94.3800    87.4540    24.6180   -14.4010 
  218.6250     2.1810    58.3330    98.5230    96.3890    94.6360    24.6950   -14.4660 
  218.7500     2.1770    57.8080   104.5390   101.3890   106.8370    24.7940   -14.5120 
  218.8750     2.1750    56.1730   112.6390   108.5700   124.1060    24.8890   -14.5260 
  219.0000     2.1750    54.6250   121.2440   116.4670   145.7200    24.9740   -14.5190 
  219.1250     2.1750    53.6080   128.0440   122.8800   145.0180    25.1640   -14.5150 
  219.2500     2.1740    53.2700   131.8420   126.5450   145.7350    25.2960   -14.5510 
  219.3750     2.1720    54.4920   132.4860   127.2290   141.0870    25.2810   -14.5910 
  219.5000     2.1700    55.6160   130.8150   125.6590   136.1540    25.1680   -14.6260 
  219.6250     2.1690    54.6400   128.0850   122.9960   128.3270    25.0570   -14.6570 
  219.7500     2.1690    53.1130   125.4440   120.3910   126.5950    24.9830   -14.6850 
  219.8750     2.1700    54.0710   123.1820   118.1830   125.7850    24.9600   -14.7170 
  220.0000     2.1700    55.9260   121.2850   116.4030   124.0430    24.9630   -14.7440 
  220.1250     2.1680    55.0330   119.6330   114.9830   122.6130    24.9340   -14.7670 
  220.2500     2.1660    53.5450   117.9640   113.6490   122.7660    24.8530   -14.7720 
  220.3750     2.1640    54.5570   116.0630   112.1520   120.8840    24.7380   -14.7500 
  220.5000     2.1630    57.0690   113.7840   110.2780   119.9490    24.5930   -14.7030 
  220.6250     2.1610    56.4810   111.0510   107.8730   121.3990    24.5070   -14.6690 
  220.7500     2.1610    53.7900   108.0960   105.1260   118.2820    24.4330   -14.6380 
  220.8750     2.1640    52.0650   105.2350   102.3170   111.8100    24.3980   -14.6290 
  221.0000     2.1720    52.7690   102.9390    99.8700   104.3500    24.3850   -14.6330 
  221.1250     2.1820    54.9530   102.0360    98.5200   101.2480    24.3690   -14.6960 
  221.2500     2.1900    55.6280   102.8450    98.5900    97.0220    24.3390   -14.7830 
  221.3750     2.1910    55.6310   105.5530   100.2670    94.5000    24.3070   -14.8750 
  221.5000     2.1860    56.4390   109.4920   103.4380    95.0630    24.2740   -14.9650 
  221.6250     2.1780    58.0560   114.4090   107.7700   102.5570    24.2410   -15.0220 
  221.7500     2.1720    59.2700   119.0040   112.3750   113.9420    24.2410   -15.0760 
  221.8750     2.1690    58.6300   122.2320   116.6410   126.8720    24.2880   -15.1340 
  222.0000     2.1670    55.6960   125.9280   120.1760   129.2700    24.3490   -15.2290 
  222.1250     2.1650    52.5690   128.5650   122.7980   124.0940    24.3670   -15.2940 
  222.2500     2.1620    52.3410   130.9030   124.9130   121.6420    24.3590   -15.3220 
  222.3750     2.1600    55.8890   132.4860   126.8830   123.4620    24.3370   -15.3460 
  222.5000     2.1590    59.3680   134.0180   129.0170   121.8530    24.3300   -15.3660 
  222.6250     2.1580    59.5270   137.4160   131.4800   119.7430    24.3620   -15.3760 
  222.7500     2.1530    57.9240   140.7060   134.0000   122.4660    24.3850   -15.3820 
  222.8750     2.1460    56.6640   143.2100   136.0250   129.3700    24.3630   -15.3750 
  223.0000     2.1370    57.1160   143.9400   136.6950   134.1270    24.3020   -15.3010 
  223.1250     2.1340    58.5380   141.2780   134.5220   136.9070    24.2140   -15.1780 
  223.2500     2.1420    59.8930   135.2670   129.3300   147.2890    24.1450   -15.0280 
  223.3750     2.1610    59.7620   126.6130   121.5420   154.2930    24.0870   -14.8310 
  223.5000     2.1870    58.8740   116.8510   112.3970   144.5390    23.9610   -14.5710 
  223.6250     2.2110    58.8560   107.9790   103.6720   119.7960    23.7280   -14.2130 
  223.7500     2.2250    58.7900   101.0980    96.5920   101.3180    23.4910   -13.7540 
  223.8750     2.2270    58.7520    96.6180    91.6710    91.8370    23.3620   -13.2270 
  224.0000     2.2230    58.0220    94.5770    89.0180    89.1410    23.3240   -12.6880 
  224.1250     2.2190    57.5670    95.2080    88.8740    88.7870    23.3670   -12.1970 
  224.2500     2.2190    57.4820    97.9160    90.6840    87.2750    23.4560   -11.7400 
  224.3750     2.2220    57.6300   102.4270    94.2080    88.8000    23.5700   -11.2920 
  224.5000     2.2240    57.0990   108.2700    99.0420    96.1260    23.7230   -10.8830 
  224.6250     2.2210    56.0450   114.6270   104.4890   110.4260    23.8890   -10.5390 
  224.7500     2.2150    56.4720   120.3000   109.4600   119.9360    23.9620   -10.2950 
  224.8750     2.2090    57.5330   124.4020   113.1470   117.7490    23.8550   -10.1210 
  225.0000     2.2040    58.0390   126.4460   115.0760   116.9230    23.5620    -9.9760 
  225.1250     2.1990    57.9070   126.3000   115.0450   125.3360    23.2870    -9.8170 
  225.2500     2.1970    57.0490   124.9640   113.8660   126.3660    23.3380    -9.6510 
  225.3750     2.1960    55.8020   122.9600   112.0060   121.5460    23.6500    -9.4810 
  225.5000     2.1990    53.8910   120.3820   109.6660   117.1300    24.0090    -9.2770 
  225.6250     2.2100    52.4280   116.5680   106.5610   115.1120    24.1110    -9.0510 
  225.7500     2.2270    51.6610   110.9590   102.3730   106.6760    23.9930    -8.7900 
  225.8750     2.2500    51.4870   103.2480    96.7840    95.9170    23.7670    -8.5140 
  226.0000     2.2750    51.1750    93.8850    89.8530    84.2020    23.6240    -8.2290 
  226.1250     2.2950    50.1210    84.2210    82.1740    75.6410    23.4230    -7.9200 
  226.2500     2.3100    50.7380    75.5610    74.6530    67.2450    23.1510    -7.5770 
  226.3750     2.3250    53.5490    67.8720    67.2950    58.7200    22.9900    -7.2440 
  226.5000     2.3520    56.9300    60.0380    59.2940    52.8450    23.2950    -6.9380 
  226.6250     2.4020    59.0370    50.4070    49.3140    49.9750    23.7250    -6.6640 
  226.7500     2.4600    59.8440    39.1280    37.8170    51.5520    23.9350    -6.4140 
  226.8750     2.5040    59.2330    27.6800    26.5640    58.2110    23.9860    -6.2010 
