~V
VERS. 2.00: Ver 2.00
~W
STRT.M 60.0000:
STOP.M 273.0000:
STEP.M 0.1250:
NULL. -999.2500:
UWI. F11028:
~C
DEPT.M :
DEN.GM/CC :
GR.API :
RML.OHMM :
RI. :
RXO.OHMM :
CALI.CM :
SP.MV :
~A
# ...
  240.0000     2.2310    67.2300    30.1940    27.2280    28.6270    22.8440   -16.7240 
  240.1250     2.2290    67.5420    29.8760    27.0550    27.7500    22.7330   -16.7020 
  240.2500     2.2300    69.1760    29.2750    26.5330    24.7920    22.7800   -16.6990 
  240.3750     2.2320    69.5430    28.8250    26.0230    22.6530    22.8970   -16.7190 
  240.5000     2.2360    67.2860    28.8800    25.8450    22.0470    22.9250   -16.7660 
  240.6250     2.2400    63.4810    29.7490    26.2980    22.8340    22.8830   -16.8290 
  240.7500     2.2470    61.3990    31.2530    27.2880    25.3420    22.8790   -16.9010 
  240.8750     2.2570    62.7530    33.1250    28.6400    29.1510    22.8930   -16.9680 
  241.0000     2.2740    65.7460    35.0110    30.1200    32.1600    22.9950   -17.0410 
  241.1250     2.2970    68.3330    36.5790    31.5240    33.2750    23.0480   -17.1220 
  241.2500     2.3220    71.1500    37.8820    32.8180    33.7880    23.0390   -17.1970 
  241.3750     2.3460    72.8910    39.1560    34.0900    34.8620    22.9480   -17.2710 
  241.5000     2.3630    72.7450    40.6380    35.4590    36.8420    22.9270   -17.3160 
  241.6250     2.3700    72.8020    42.3670    36.9720    38.6100    22.8480   -17.3370 
  241.7500     2.3700    75.6910    43.8400    38.3510    39.8370    22.8750   -17.3100 
  241.8750     2.3650    79.2570    44.2300    38.9990    39.0130    22.7470   -17.2410 
  242.0000     2.3570    80.5080    42.6360    38.1100    39.0000    22.5060   -17.1260 
  242.1250     2.3470    80.7030    38.3240    34.8250    40.5780    22.6840   -16.9660 
  242.2500     2.3370    81.3600    32.4920    29.9940    35.8910    22.6710   -16.7630 
  242.3750     2.3250    82.1160    26.4460    24.7300    26.3610    22.6180   -16.5240 
  242.5000     2.3140    78.4300    21.3230    20.0820    16.9700    22.5920   -16.2720 
  242.6250     2.3050    71.2320    17.9860    16.8510    13.8600    22.7170   -16.0350 
  242.7500     2.2980    70.5450    16.1760    14.8930    12.9180    22.7690   -15.8080 
  242.8750     2.2960    76.3310    15.6560    14.0600    12.7790    22.7970   -15.6170 
  243.0000     2.2970    82.6250    16.1620    14.1880    12.8910    22.9210   -15.4540 
  243.1250     2.3030    83.3310    17.4660    15.1990    13.8490    22.9230   -15.3270 
  243.2500     2.3100    80.1800    18.9780    16.6190    15.8010    22.8560   -15.2250 
  243.3750     2.3170    74.8400    20.2050    17.9910    18.0310    22.8270   -15.1690 
  243.5000     2.3240    68.6330    20.7680    18.8630    20.1120    22.7300   -15.1430 
  243.6250     2.3300    65.9330    20.4090    18.8350    21.2240    22.4750   -15.1340 
  243.7500     2.3360    67.5680    19.4590    18.1120    19.5130    21.8710   -15.1610 
  243.8750     2.3420    71.5710    18.2400    16.9780    15.9070    21.3840   -15.1980 
  244.0000     2.3500    75.0780    17.0360    15.7320    13.9430    21.1380   -15.2340 
  244.1250     2.3600    75.1520    16.0730    14.6280    14.3730    21.0550   -15.3140 
  244.2500     2.3650    74.5480    15.4390    13.7790    13.8880    21.5570   -15.4110 
  244.3750     2.3640    74.4200    15.2190    13.2620    12.4300    22.4280   -15.5180 
  244.5000     2.3560    73.7800    15.4710    13.1200    11.9720    22.9010   -15.6070 
  244.6250     2.3480    72.8040    16.3270    13.4780    13.9360    23.0440   -15.7270 
  244.7500     2.3420    71.9980    17.7420    14.3260    16.9840    22.9860   -15.8320 
  244.8750     2.3390    70.2780    19.6960    15.6790    18.4220    22.8730   -15.9420 
  245.0000     2.3380    69.1750    22.0680    17.4630    17.8810    22.6580   -16.0460 
  245.1250     2.3410    71.2260    24.6110    19.5130    20.1570    22.1510   -16.1250 
  245.2500     2.3480    72.9750    26.9570    21.5190    24.7850    21.6850   -16.1650 
  245.3750     2.3590    71.9530    28.8660    23.2760    27.1710    21.8390   -16.1770 
  245.5000     2.3690    69.6770    30.3060    24.6940    27.1690    22.3880   -16.1800 
  245.6250     2.3710    66.5570    31.4780    25.8100    27.3970    22.8180   -16.1330 
  245.7500     2.3670    61.3780    32.5720    26.7640    29.1510    23.0260   -16.0640 
  245.8750     2.3640    58.0360    33.2910    27.3980    32.3690    23.0410   -15.9640 
  246.0000     2.3690    57.6470    32.9310    27.2430    34.2180    23.0750   -15.8450 
  246.1250     2.3860    54.6830    30.3860    25.4240    35.5160    23.0610   -15.6770 
  246.2500     2.4080    47.8790    26.0130    22.1030    37.5730    22.9540   -15.5060 
  246.3750     2.4270    42.4950    20.8200    18.0020    36.4670    22.9400   -15.3170 
  246.5000     2.4340    42.5910    16.0700    14.0920    28.7700    22.9490   -15.1180 
  246.6250     2.4250    47.5880    12.7330    11.1560    20.4410    22.9580   -14.9370 
  246.7500     2.4090    53.2710     9.7800     9.1400    12.7520    22.8720   -14.7980 
  246.8750     2.3940    56.8130     7.8520     7.8980     7.9560    22.8360   -14.6680 
  247.0000     2.3840    56.8680     7.3750     7.2430     6.2440    22.7500   -14.5630 
  247.1250     2.3770    54.5470     7.2210     7.0290     6.0370    22.7600   -14.4870 
  247.2500     2.3690    52.1240     7.2100     7.0240     6.1210    22.6630   -14.4470 
  247.3750     2.3610    50.8680     7.2920     7.1260     6.1610    22.5150   -14.4120 
  247.5000     2.3530    52.5690     7.4280     7.2610     6.1610    22.5830   -14.4230 
  247.6250     2.3480    55.8840     7.5540     7.3660     6.1170    22.6990   -14.4210 
  247.7500     2.3460    57.2360     7.6140     7.4190     6.1460    22.7110   -14.3890 
  247.8750     2.3490    56.4030     7.5990     7.4250     6.1800    22.8050   -14.3620 
  248.0000     2.3540    56.0250     7.5380     7.4010     6.2990    22.8450   -14.3250 
  248.1250     2.3620    58.3230     7.4770     7.3570     6.4870    22.8170   -14.2550 
  248.2500     2.3690    59.2860     7.4430     7.2960     6.5960    22.8690   -14.1910 
  248.3750     2.3730    56.3110     7.4420     7.2230     6.6140    22.9200   -14.1450 
  248.5000     2.3750    51.1360     7.4960     7.1570     6.7180    22.9290   -14.0690 
  248.6250     2.3740    48.9150     7.6660     7.1560     6.7470    22.8410   -13.9850 
  248.7500     2.3730    51.9220     7.9520     7.2480     6.7560    22.7480   -13.8920 
  248.8750     2.3750    56.0870     8.3200     7.4280     6.9060    22.7580   -13.7710 
  249.0000     2.3810    56.7980     8.6920     7.6510     7.2820    22.7780   -13.6350 
  249.1250     2.3920    54.9410     8.9500     7.8320     7.5970    22.7620   -13.5310 
  249.2500     2.4020    55.7670     9.0690     7.9230     7.4930    22.6520   -13.4400 
  249.3750     2.4070    57.0850     9.0870     7.9250     6.9970    22.7700   -13.3480 
  249.5000     2.4080    55.0600     9.0590     7.8760     6.7220    23.2060   -13.2810 
  249.6250     2.4130    51.1170     9.0130     7.8150     6.7230    23.4320   -13.2460 
  249.7500     2.4250    50.2140     8.9420     7.7530     6.8660    22.9370   -13.2320 
  249.8750     2.4410    52.4820     8.8330     7.6730     6.9270    22.7900   -13.2420 
  250.0000     2.4500    55.2200     8.6870     7.5640     6.5780    22.6810   -13.2630 
  250.1250     2.4400    56.9140     8.5360     7.4310     6.4020    22.7400   -13.2580 
  250.2500     2.4190    57.4720     8.4340     7.3170     6.3820    22.7960   -13.2420 
  250.3750     2.3980    56.9670     8.4090     7.2600     6.3740    22.7840   -13.2340 
  250.5000     2.3820    54.3410     8.4600     7.2780     6.4000    22.7750   -13.2020 
  250.6250     2.3750    50.1730     8.5700     7.3700     6.7400    22.7630   -13.1330 
  250.7500     2.3730    47.6630     8.7010     7.5000     7.2730    22.7230   -13.0370 
  250.8750     2.3730    46.9070     8.8350     7.6430     7.6850    22.6760   -12.9360 
  251.0000     2.3730    48.0590     8.9540     7.7790     7.5600    22.6780   -12.8230 
  251.1250     2.3710    50.2000     9.0120     7.8670     7.0410    22.6500   -12.7460 
