~V
VERS. 2.00: Ver 2.00
~W
STRT.M 57.0000:
STOP.M 280.0000:
STEP.M 0.1250:
NULL. -999.2500:
UWI. F11041:
~C
DEPT.M :
SP.MV :
GR.API :
RML.OHMM :
RI. :
RXO.OHMM :
CALI.CM :
DEN.GM/CC :
~A
# ...
  237.0000    -4.5800    64.8580   148.3470   129.4320   102.8730    24.5190     2.2800 
  237.1250    -4.5850    67.4180   141.3040   123.3080    97.9340    24.4620     2.2840 
  237.2500    -4.5920    66.6460   134.2960   117.2140    95.3990    24.4290     2.2830 
  237.3750    -4.4940    63.5890   129.2110   112.7920    92.8460    24.4510     2.2830 
  237.5000    -4.2750    61.9070   124.9070   109.0500    95.8600    24.4730     2.2850 
  237.6250    -4.0290    62.4900   118.2450   103.2560    96.6250    24.4910     2.2890 
  237.7500    -3.8350    62.9940   108.4490    94.7380    95.5150    24.5250     2.2890 
  237.8750    -3.7100    64.2400    97.1660    84.9270    93.2720    24.5640     2.2830 
  238.0000    -3.6700    67.9750    87.1720    76.2370    82.7770    24.5480     2.2740 
  238.1250    -3.6650    71.5660    81.5160    71.3180    71.2160    24.5010     2.2670 
  238.2500    -3.6030    71.6050    80.3650    70.3170    71.9320    24.4770     2.2660 
  238.3750    -3.5450    67.3530    83.0710    72.6700    86.2600    24.4790     2.2680 
  238.5000    -3.5970    63.1290    88.1780    77.1110    95.8550    24.4850     2.2740 
  238.6250    -3.7690    64.0590    93.6830    81.8980    92.8370    24.4930     2.2880 
  238.7500    -3.9720    67.7630    97.8470    85.5190    85.8520    24.5400     2.3070 
  238.8750    -4.1700    70.5340   100.4760    87.8050    80.7480    24.5970     2.3310 
  239.0000    -4.2920    71.0640   102.7870    89.8150    81.0000    24.6100     2.3570 
  239.1250    -4.2920    72.4030   106.8440    93.3420    83.5600    24.5640     2.3790 
  239.2500    -4.2710    75.9340   113.0830    98.7680    88.6770    24.5000     2.3970 
  239.3750    -4.2770    78.4860   120.7230   105.4110    95.9280    24.4780     2.4060 
  239.5000    -4.3220    75.9990   128.3490   112.0420    96.6660    24.5050     2.4070 
  239.6250    -4.3740    71.0510   134.5380   117.4240    91.0550    24.5440     2.4020 
  239.7500    -4.4110    70.9370   139.2920   121.5580    82.3600    24.5400     2.4010 
  239.8750    -4.3920    74.5570   143.0860   124.8570    86.5850    24.4150     2.4000 
  240.0000    -4.3160    75.9300   146.4150   127.7520    91.7510    24.2590     2.3900 
  240.1250    -4.2650    72.9120   149.4500   130.3910    95.1110    24.2600     2.3680 
  240.2500    -4.3280    70.7970   151.9930   132.6030   100.3190    24.3770     2.3420 
  240.3750    -4.4230    69.9920   153.2820   133.7230   110.5600    24.4900     2.3150 
  240.5000    -4.4010    68.3810   152.2740   132.8470   116.8050    24.5900     2.2860 
  240.6250    -4.2390    65.6700   147.6640   128.8380   110.7270    24.6580     2.2620 
  240.7500    -4.0470    63.2320   140.1080   122.2680    99.0500    24.7230     2.2490 
  240.8750    -3.8780    61.8390   130.4960   113.9090    93.4840    24.7420     2.2530 
  241.0000    -3.7900    60.0380   120.2560   105.0050    90.6010    24.7000     2.2670 
  241.1250    -3.7640    57.6120   111.5120    97.4020    86.6910    24.6710     2.2800 
  241.2500    -3.6650    58.5680   105.4490    92.1300    77.5300    24.6220     2.2870 
  241.3750    -3.4740    63.1100   102.1260    89.2400    70.3350    24.5690     2.2900 
  241.5000    -3.2780    67.4640   100.2690    87.6250    70.2000    24.5370     2.2900 
  241.6250    -3.1580    67.0010    97.0290    84.8080    74.2130    24.6330     2.2860 
  241.7500    -3.1100    65.6040    90.6040    79.2210    80.6100    24.7240     2.2830 
  241.8750    -3.0970    67.2740    81.5490    71.3470    77.3550    24.7070     2.2920 
  242.0000    -3.0450    70.5070    72.2700    63.2780    64.6700    24.5360     2.3170 
  242.1250    -2.8830    72.1500    65.9970    57.8240    52.3650    24.3090     2.3380 
  242.2500    -2.7190    71.5560    63.8870    55.9890    50.1900    24.2440     2.3340 
  242.3750    -2.6730    69.8970    66.2810    58.0700    55.1670    24.2600     2.3100 
  242.5000    -2.7280    67.3050    72.6260    63.5880    66.9160    24.2390     2.2900 
  242.6250    -2.7260    64.2540    80.9940    70.8650    73.6270    24.1930     2.2890 
  242.7500    -2.5960    61.8990    87.3880    76.4250    77.1130    24.2090     2.2950 
  242.8750    -2.4070    60.4440    88.7440    77.6040    78.8450    24.2550     2.2970 
  243.0000    -2.2700    60.7510    84.2400    73.6870    77.1320    24.2960     2.2940 
  243.1250    -2.2600    63.9110    75.8410    66.3840    69.6880    24.3060     2.2880 
  243.2500    -2.2540    68.1050    67.8190    59.4080    62.1600    24.3090     2.2840 
  243.3750    -2.1290    71.4020    62.3510    54.6530    59.8890    24.3060     2.2820 
  243.5000    -1.8910    73.2850    60.3800    52.9390    57.2920    24.2830     2.2800 
  243.6250    -1.6880    73.3270    62.8610    55.0960    55.1930    24.2270     2.2750 
  243.7500    -1.5980    71.4040    68.9500    60.3910    64.1940    24.1820     2.2660 
  243.8750    -1.5810    67.9840    77.6290    67.9380    80.4040    24.1860     2.2550 
  244.0000    -1.5490    65.1950    86.9370    76.0320    87.4250    24.2390     2.2460 
  244.1250    -1.3900    63.9820    93.4620    81.7060    78.7390    24.3280     2.2450 
  244.2500    -1.1950    63.8980    94.8240    82.8900    74.9460    24.3960     2.2510 
  244.3750    -1.0910    65.8200    90.0730    78.7590    73.7660    24.4670     2.2620 
  244.5000    -1.1270    68.7570    80.3250    70.2830    72.0870    24.5940     2.2790 
  244.6250    -1.1910    71.9920    68.0880    59.6410    67.3760    24.8160     2.3070 
  244.7500    -1.1880    76.2460    56.5200    49.5830    58.0390    24.8980     2.3440 
  244.8750    -1.1170    81.2280    47.2870    41.5540    49.0400    24.8620     2.3890 
  245.0000    -1.0230    83.9130    41.2540    36.3080    41.2140    24.7230     2.4370 
  245.1250    -1.0540    82.9440    39.2810    34.5920    39.9240    24.6730     2.4630 
  245.2500    -1.2030    82.3750    41.0050    36.0910    41.4270    24.6910     2.4430 
  245.3750    -1.3480    80.5990    46.9930    41.2990    66.8130    24.7170     2.3870 
  245.5000    -1.3830    74.9200    58.2330    51.0730    86.4300    24.7560     2.3230 
  245.6250    -1.3590    67.0350    77.0490    67.4340    91.5630    24.8450     2.2680 
  245.7500    -1.3830    62.9180   102.3230    89.4110    85.2120    24.8700     2.2160 
  245.8750    -1.4580    62.3760   131.4980   114.7810    75.6350    24.6950     2.1650 
  246.0000    -1.5780    62.8700   159.6230   139.2380    82.2540    24.4300     2.1230 
  246.1250    -1.6500    64.2240   178.6880   155.8150    90.4810    24.3260     2.1070 
  246.2500    -1.5780    65.5040   185.7390   161.9470    93.0510    24.3650     2.1130 
  246.3750    -1.4650    64.1530   181.5140   158.2730    91.1250    24.5040     2.1440 
  246.5000    -1.4500    59.7480   170.3660   148.5790    85.5880    24.5410     2.2080 
  246.6250    -1.5380    55.7090   158.1850   137.9870    82.1980    24.3840     2.2980 
  246.7500    -1.6050    55.3010   149.0210   130.0180    81.8900    24.2810     2.3600 
  246.8750    -1.6170    57.7470   143.9990   125.6510    84.4380    24.4220     2.3470 
  247.0000    -1.5470    60.0160   142.5990   124.4340    90.9070    24.6250     2.2900 
  247.1250    -1.4480    58.5550   143.0490   124.8250   106.2240    24.6690     2.2590 
  247.2500    -1.4520    55.8320   142.8770   124.6760   123.4030    24.6890     2.2650 
  247.3750    -1.5210    56.0780   140.8030   122.8720   128.2870    24.7150     2.2910 
  247.5000    -1.5590    59.5650   136.3720   119.0190   123.1170    24.7370     2.3200 
  247.6250    -1.4930    63.0030   129.6580   113.1810   106.9070    24.7860     2.3560 
  247.7500    -1.3820    66.3330   121.8030   106.3510    93.5540    24.7230     2.4080 
  247.8750    -1.2890    69.3320   113.1590    98.8340    88.9330    24.5800     2.4730 
  248.0000    -1.2720    70.1260   103.6970    90.6060    86.2990    24.5020     2.5290 
  248.1250    -1.3420    69.0940    93.8110    82.0100    78.6350    24.4840     2.5540 
