~V
VERS. 2.00: Ver 2.00
~W
STRT.M 58.0000:
STOP.M 271.0000:
STEP.M 0.1250:
NULL. -999.2500:
UWI. F11072:
~C
DEPT.M :
DEN.GM/CC :
GR.API :
RML.OHMM :
RI. :
RXO.OHMM :
CALI.CM :
SP.MV :
~A
# ...
  238.0000     2.2990    44.4910   102.2060    98.3660   108.2430    25.5570   -11.1300 
  238.1250     2.2980    45.6660   101.4610    98.3570   106.6860    25.4370   -11.1670 
  238.2500     2.2890    50.4710    99.2710    96.9100   104.7090    25.2340   -11.2370 
  238.3750     2.2790    54.5210    94.8330    93.2080   104.6160    25.0590   -11.3480 
  238.5000     2.2720    53.9170    87.8510    86.8750   104.9570    25.0050   -11.5070 
  238.6250     2.2760    50.6970    78.9490    78.3510    98.9450    24.9510   -11.6950 
  238.7500     2.2880    49.5580    70.3710    69.8160    89.2530    24.9150   -11.9250 
  238.8750     2.3010    51.0170    63.9140    63.0500    73.1880    24.8970   -12.1680 
  239.0000     2.3090    53.1430    60.6580    59.1810    57.5530    24.8900   -12.4280 
  239.1250     2.3080    55.7500    61.1890    58.9310    51.9020    24.9760   -12.6990 
  239.2500     2.3010    58.5040    64.0550    61.1270    57.8860    25.0370   -12.9650 
  239.3750     2.2900    58.7320    68.0130    64.7270    73.9320    25.0220   -13.2310 
  239.5000     2.2770    54.8450    71.8550    68.5810    90.7620    25.0000   -13.4590 
  239.6250     2.2600    52.5120    74.6440    71.6090    92.5060    24.9730   -13.6590 
  239.7500     2.2440    53.0640    76.7360    73.8130    85.8510    24.9580   -13.8200 
  239.8750     2.2310    54.2730    79.0490    75.8990    80.0190    25.0020   -13.9310 
  240.0000     2.2240    54.9330    82.5560    78.7970    76.1050    25.0330   -13.9980 
  240.1250     2.2230    55.6720    87.8580    83.1960    79.9420    25.0360   -14.0090 
  240.2500     2.2230    56.0730    94.0230    88.4090    90.2150    25.0500   -13.9780 
  240.3750     2.2230    54.1450    99.8960    93.4270   106.3220    25.0330   -13.9090 
  240.5000     2.2200    53.2740   104.3420    97.1950   118.0630    25.0100   -13.8170 
  240.6250     2.2150    55.9640   106.3650    98.7800   115.4810    24.9930   -13.7020 
  240.7500     2.2110    57.8390   106.5790    98.7340   110.2980    24.9560   -13.5750 
  240.8750     2.2070    57.2800   105.7680    97.7920   106.7490    24.9370   -13.4520 
  241.0000     2.2020    55.4290   104.6910    96.6880   103.8450    24.9510   -13.3180 
  241.1250     2.1950    53.2950   103.7200    95.8560   102.8430    24.9230   -13.1830 
  241.2500     2.1890    51.3960   102.7120    95.1740   105.3020    24.9370   -13.0380 
  241.3750     2.1870    51.7760   101.4210    94.3770   107.5620    24.9700   -12.8750 
  241.5000     2.1910    53.0260    99.6860    93.2360   106.2690    24.9970   -12.6970 
  241.6250     2.2000    52.1310    97.1910    91.3890   100.5400    25.0680   -12.4940 
  241.7500     2.2090    52.4610    93.6600    88.5500    92.3860    25.0730   -12.2740 
  241.8750     2.2160    55.4640    88.7400    84.3820    87.6540    25.0080   -12.0400 
  242.0000     2.2160    56.9600    82.3970    78.8320    90.7750    25.0070   -11.7970 
  242.1250     2.2100    53.5600    75.1940    72.3320   106.9800    25.0740   -11.5520 
  242.2500     2.2040    51.8070    68.5590    66.1550    98.8170    25.1550   -11.3180 
  242.3750     2.2080    53.6040    63.7580    61.4660    73.1560    25.2070   -11.0940 
  242.5000     2.2310    55.2060    61.6950    59.1620    54.9660    25.1970   -10.8960 
  242.6250     2.2760    54.2230    63.1760    60.1190    53.8610    25.1790   -10.7330 
  242.7500     2.3210    53.7710    67.2640    63.6400    58.0150    25.1910   -10.6080 
  242.8750     2.3450    54.5830    73.0010    68.9560    69.1890    25.1820   -10.5200 
  243.0000     2.3370    55.5130    79.0450    74.8540    84.1510    25.1570   -10.4660 
  243.1250     2.3060    56.3110    83.6350    79.5850    99.5030    25.1580   -10.4180 
  243.2500     2.2770    57.4280    86.0450    82.2070   102.1410    25.1760   -10.3690 
  243.3750     2.2600    59.2740    86.4190    82.6570    95.0560    25.2540   -10.3260 
  243.5000     2.2540    60.6320    85.6720    81.6780    79.6880    25.2880   -10.2780 
  243.6250     2.2500    60.9600    85.1550    80.4720    75.2610    25.2940   -10.2160 
  243.7500     2.2380    61.4600    85.7530    80.0250    78.8250    25.3150   -10.1280 
  243.8750     2.2190    61.4550    87.8430    80.7680    82.6710    25.3180   -10.0090 
  244.0000     2.1980    59.8000    91.6910    82.9940    83.3440    25.3130    -9.8610 
  244.1250     2.1930    56.0500    98.1560    87.5240    82.8840    25.3050    -9.7010 
  244.2500     2.2200    55.0000   107.6480    94.8150    80.4870    25.2720    -9.5250 
  244.3750     2.2830    57.1800   120.9810   105.7080    82.0960    25.2600    -9.3360 
  244.5000     2.3770    58.2940   138.7800   120.8860    94.5830    25.2580    -9.1280 
  244.6250     2.4810    55.7440   161.5950   141.0510   125.4380    25.2040    -8.9120 
  244.7500     2.5660    53.0570   186.6380   163.9110   177.9100    25.1220    -8.6820 
  244.8750     2.6170    55.8310   209.0380   185.7240   236.5380    24.9820    -8.4360 
  245.0000     2.6370    64.0360   221.1870   200.2220   273.9900    24.8730    -8.1750 
  245.1250     2.6370    70.5280   211.5880   197.0070   288.1360    24.8400    -7.8840 
  245.2500     2.6290    74.8190   179.4660   173.7760   283.8820    24.7760    -7.5780 
  245.3750     2.6140    78.3610   130.6790   132.7960   248.6720    24.6790    -7.2380 
  245.5000     2.5870    81.5460    81.0200    85.6290   185.9410    24.5840    -6.8800 
  245.6250     2.5460    83.2760    47.1250    49.7550   124.7750    24.4820    -6.5010 
  245.7500     2.4990    85.1500    27.1180    28.0540    59.9960    24.3950    -6.1250 
  245.8750     2.4570    86.8620    16.2360    16.6150    21.4740    24.3200    -5.7650 
  246.0000     2.4270    86.4150    11.0420    11.0740     9.0460    24.2470    -5.4310 
  246.1250     2.4150    83.5450     8.9950     8.8000     7.4410    24.3630    -5.1460 
  246.2500     2.4150    79.4710     8.1790     7.8020     7.6200    24.6460    -4.9060 
  246.3750     2.4210    76.0110     7.9950     7.5000     7.9920    24.9070    -4.7290 
  246.5000     2.4290    75.2830     8.0880     7.5640     8.1430    25.0340    -4.6090 
  246.6250     2.4360    79.0230     8.2310     7.7580     8.3640    25.0360    -4.5460 
  246.7500     2.4400    84.6320     8.3040     7.9070     8.6150    25.0590    -4.5170 
  246.8750     2.4410    88.7930     8.2860     7.9540     8.7990    25.1110    -4.5160 
  247.0000     2.4370    89.3050     8.1900     7.8940     8.8650    25.1280    -4.5320 
  247.1250     2.4320    87.4990     8.0380     7.7400     8.8050    25.1260    -4.5610 
  247.2500     2.4260    89.1710     7.8700     7.5490     8.6040    25.0770    -4.6100 
  247.3750     2.4220    93.4890     7.7190     7.3650     8.4210    24.9700    -4.6580 
  247.5000     2.4180    98.3480     7.6020     7.2240     8.3590    24.8850    -4.7110 
  247.6250     2.4150   102.2760     7.5510     7.1640     8.4430    24.8370    -4.7670 
  247.7500     2.4110   103.1270     7.5430     7.1750     8.5630    24.8060    -4.8110 
  247.8750     2.4070   100.2040     7.6190     7.2340     8.7020    24.8030    -4.8510 
  248.0000     2.4020    98.4240     7.7070     7.3030     8.8650    24.7740    -4.8790 
  248.1250     2.3970   100.6340     7.7580     7.3300     9.0670    24.7520    -4.8870 
  248.2500     2.3920   101.0810     7.7250     7.2910     9.2170    24.7640    -4.8780 
  248.3750     2.3880    95.2840     7.6190     7.1870     9.1620    24.7480    -4.8530 
  248.5000     2.3860    87.1440     7.4700     7.0390     8.7920    24.7240    -4.8050 
  248.6250     2.3880    83.1200     7.2900     6.8910     8.5450    24.7490    -4.7410 
  248.7500     2.3920    82.5420     7.1510     6.7780     8.3650    24.7320    -4.6650 
  248.8750     2.3980    83.8300     7.0310     6.7100     7.8830    24.7190    -4.5760 
  249.0000     2.4050    87.5390     7.0390     6.6760     7.7530    24.7470    -4.4890 
  249.1250     2.4100    92.1990     7.0490     6.6440     7.8170    24.7360    -4.4030 
