~V
VERS. 2.00: Ver 2.00
~W
STRT.M 52.0000:
STOP.M 287.0000:
STEP.M 0.1250:
NULL. -999.2500:
UWI. F11078:
~C
DEPT.M :
GR.API :
RML.OHMM :
RI. :
RXO.OHMM :
CALI.CM :
DEN.GM/CC :
SP.MV :
~A
# ...
  220.7500    67.0740    47.4550    40.9770    72.4240    23.4530     2.3440   -29.3600 
  220.8750    65.0590    51.1840    44.5860    71.3150    23.5680     2.3320   -29.2960 
  221.0000    63.8130    54.2270    47.7540    71.8830    23.6350     2.3160   -29.2340 
  221.1250    63.1780    56.4120    50.1220    70.0960    23.6910     2.3030   -29.1840 
  221.2500    64.4060    57.6980    51.6820    73.2360    23.7450     2.2950   -29.1530 
  221.3750    67.4730    58.0450    52.4870    74.2560    23.7920     2.2920   -29.1090 
  221.5000    68.5040    57.1400    52.2140    73.8280    23.8110     2.2880   -29.0450 
  221.6250    68.9290    55.0960    50.8070    69.6470    23.8120     2.2780   -28.9260 
  221.7500    71.1250    52.1180    48.3510    60.8830    23.7820     2.2620   -28.7730 
  221.8750    73.6060    48.6700    45.2530    49.6240    23.6890     2.2490   -28.6300 
  222.0000    74.0920    45.4070    42.1590    46.3650    23.5220     2.2450   -28.5290 
  222.1250    75.8100    42.7410    39.5540    48.0560    23.3870     2.2540   -28.4680 
  222.2500    78.1800    40.7600    37.5670    49.8520    23.3140     2.2710   -28.4210 
  222.3750    76.2880    39.3150    36.1040    52.1300    23.2870     2.2920   -28.4060 
  222.5000    70.1350    38.1350    34.9670    48.4900    23.2880     2.3100   -28.4910 
  222.6250    67.0180    36.9150    33.8430    43.5530    23.3190     2.3230   -28.6610 
  222.7500    68.0060    35.5840    32.6250    41.5590    23.3370     2.3330   -28.8680 
  222.8750    69.8650    34.2490    31.3910    40.1160    23.3250     2.3410   -29.0590 
  223.0000    70.0610    33.1890    30.3800    36.5040    23.3090     2.3530   -29.1810 
  223.1250    68.8300    32.5520    29.7360    32.9020    23.2400     2.3660   -29.2590 
  223.2500    66.5010    32.3340    29.5000    33.6040    23.1390     2.3750   -29.3500 
  223.3750    65.7010    32.3550    29.5660    35.9930    23.0650     2.3760   -29.4520 
  223.5000    67.6100    32.2980    29.6600    37.5530    23.0620     2.3640   -29.5170 
  223.6250    69.5510    31.9160    29.5150    35.9390    23.0930     2.3460   -29.5730 
  223.7500    69.5830    31.1060    28.9860    33.7290    23.1160     2.3280   -29.6760 
  223.8750    68.6910    29.8800    28.0100    30.4570    23.0660     2.3170   -29.8310 
  224.0000    70.4820    28.3280    26.6040    27.7050    22.9090     2.3150   -30.0070 
  224.1250    72.4620    26.7070    25.0500    25.5660    22.7440     2.3190   -30.1610 
  224.2500    73.3680    25.2260    23.5740    23.7500    22.6550     2.3260   -30.3110 
  224.3750    74.0120    24.0670    22.3750    23.2310    22.6530     2.3330   -30.4730 
  224.5000    75.8360    23.4310    21.6750    21.1190    22.7490     2.3370   -30.6050 
  224.6250    77.0540    23.2490    21.4410    20.5990    22.8410     2.3360   -30.6720 
  224.7500    75.5540    23.4230    21.5860    21.7990    22.8910     2.3310   -30.6450 
  224.8750    73.0130    23.8040    21.9580    23.8650    22.9040     2.3270   -30.5720 
  225.0000    72.5180    24.2180    22.3690    24.8580    22.9090     2.3260   -30.5130 
  225.1250    74.1200    24.5160    22.6580    24.8640    22.9500     2.3300   -30.5130 
  225.2500    76.1010    24.6330    22.7520    24.8170    23.0600     2.3370   -30.5180 
  225.3750    76.1210    24.5550    22.6390    25.2260    23.1900     2.3430   -30.4480 
  225.5000    73.3300    24.2970    22.3030    25.8800    23.2640     2.3450   -30.3570 
  225.6250    70.5240    24.0060    21.8260    26.3910    23.2990     2.3460   -30.3420 
  225.7500    70.3940    23.8870    21.3530    26.1830    23.3360     2.3480   -30.4100 
  225.8750    72.5720    24.2750    21.1420    25.0790    23.3640     2.3530   -30.5410 
  226.0000    73.0270    25.5970    21.6630    23.4210    23.3770     2.3600   -30.7260 
  226.1250    71.6240    27.6720    23.1240    23.2870    23.3790     2.3630   -30.8960 
  226.2500    70.1730    30.3130    25.6200    26.4350    23.3700     2.3580   -31.0520 
  226.3750    69.5550    33.1940    28.8700    36.5100    23.3640     2.3450   -31.2200 
  226.5000    69.6190    35.4240    31.8360    52.5820    23.3620     2.3290   -31.4050 
  226.6250    68.0750    36.1830    33.3150    61.9200    23.3620     2.3170   -31.5680 
  226.7500    65.1190    35.3640    32.9590    56.0220    23.3720     2.3090   -31.6660 
  226.8750    64.7740    33.7760    31.4760    46.1220    23.3790     2.3040   -31.6740 
  227.0000    68.1440    32.7520    30.1870    38.4290    23.2940     2.2990   -31.5730 
  227.1250    69.1370    33.0060    29.9830    36.1710    23.1110     2.2950   -31.4410 
  227.2500    66.3230    34.5080    31.0980    41.4300    22.9230     2.2910   -31.3180 
  227.3750    65.1350    36.5960    33.2080    52.8140    22.7850     2.2890   -31.2320 
  227.5000    67.8230    37.9300    35.2020    64.1780    22.7520     2.2930   -31.1570 
  227.6250    68.2920    37.5100    35.6610    63.4970    22.7470     2.3000   -31.0640 
  227.7500    65.4950    35.0650    33.8670    56.0290    22.7330     2.3110   -30.9800 
  227.8750    62.7200    31.1350    30.1840    49.8350    22.7090     2.3200   -30.9270 
  228.0000    63.5290    26.8790    25.8680    37.7970    22.7010     2.3240   -30.9490 
  228.1250    66.7700    23.4300    22.2390    26.7060    22.7030     2.3240   -31.0020 
  228.2500    70.2460    21.2970    19.7940    21.3520    22.7170     2.3230   -31.0780 
  228.3750    72.9000    20.6320    18.6530    19.8500    22.7410     2.3220   -31.1820 
  228.5000    72.5960    21.5740    18.9940    20.0860    22.7190     2.3140   -31.3430 
  228.6250    68.8240    23.6160    20.5020    21.4300    22.6330     2.2920   -31.5620 
  228.7500    65.1840    26.3150    22.9460    24.4510    22.5330     2.2560   -31.8090 
  228.8750    66.4260    29.0130    25.8450    30.0000    22.4700     2.2130   -32.0910 
  229.0000    68.4690    30.6780    28.1630    34.5340    22.4580     2.1750   -32.3670 
  229.1250    66.0140    30.8210    28.9520    35.4280    22.4610     2.1480   -32.6640 
  229.2500    61.8070    29.4570    27.9120    34.3700    22.4780     2.1330   -32.9800 
  229.3750    60.7750    27.1510    25.5950    32.8750    22.4960     2.1330   -33.2990 
  229.5000    62.3960    24.8130    23.0470    29.0630    22.5070     2.1580   -33.5930 
  229.6250    63.7200    23.1390    21.0670    23.1490    22.5290     2.2160   -33.8930 
  229.7500    65.8930    22.3560    19.8800    20.0460    22.5720     2.3030   -34.2220 
  229.8750    68.3940    22.4350    19.4780    22.3300    22.6200     2.3970   -34.5570 
  230.0000    70.0070    23.3180    19.8570    26.5830    22.6470     2.4570   -34.8790 
  230.1250    71.5990    24.6880    20.7930    26.1730    22.6530     2.4630   -35.1260 
  230.2500    72.6860    26.3560    22.1920    24.7330    22.6270     2.4180   -35.3320 
  230.3750    71.4690    28.0760    23.9090    25.5350    22.6000     2.3420   -35.5340 
  230.5000    67.8340    29.3700    25.5830    32.1240    22.5850     2.2650   -35.7460 
  230.6250    64.6220    29.7910    26.6340    36.4590    22.5780     2.2120   -35.9730 
  230.7500    63.3820    29.0140    26.5280    37.1440    22.5690     2.1890   -36.2330 
  230.8750    63.4050    27.0450    25.0540    34.8680    22.5330     2.1940   -36.5050 
  231.0000    64.2010    24.2640    22.5060    28.9700    22.4800     2.2210   -36.7650 
  231.1250    67.0190    21.5110    19.8590    22.6330    22.4850     2.2530   -37.0340 
  231.2500    70.9390    19.2750    17.6530    19.4120    22.5770     2.2770   -37.2760 
  231.3750    72.9740    17.7580    16.0890    18.5120    22.6630     2.2860   -37.4760 
  231.5000    71.7160    16.9930    15.2210    18.6010    22.6580     2.2790   -37.6440 
  231.6250    69.8450    16.6530    14.8020    18.4660    22.6150     2.2650   -37.7880 
  231.7500    68.3530    16.5270    14.6660    18.0570    22.5850     2.2540   -37.8930 
  231.8750    66.3490    16.4520    14.6430    17.6270    22.5810     2.2530   -37.9740 
