~V
VERS. 2.00: Ver 2.00
~W
STRT.M 50.0000:
STOP.M 220.0000:
STEP.M 0.1250:
NULL. -999.2500:
UWI. F11004:
~C
DEPT.M :
SP.MV :
GR.API :
RML.OHMM :
RI. :
RXO.OHMM :
CALI.CM :
DEN.GM/CC :
~A
# ...
  185.0000   -25.9940    63.3410   191.6820   173.1660   155.5030    24.5160     2.2220 
  185.1250   -26.6020    62.6810   192.3260   173.3700   158.6070    24.7390     2.2040 
  185.2500   -27.1380    59.2640   192.4450   172.5200   167.2220    24.8460     2.1960 
  185.3750   -27.6580    56.6140   193.2580   172.2420   166.5200    24.8150     2.2030 
  185.5000   -28.2050    59.7780   195.0530   173.3720   156.3330    24.8370     2.2130 
  185.6250   -28.6860    63.8830   196.5640   175.0140   157.4880    24.9280     2.2160 
  185.7500   -29.0880    65.2050   196.4840   176.0250   176.3660    24.9110     2.2130 
  185.8750   -29.4880    64.7420   194.3480   175.7460   193.2160    24.8050     2.2110 
  186.0000   -29.8080    66.1380   190.8610   174.3210   181.0860    24.7640     2.2110 
  186.1250   -30.0400    67.0940   187.6990   172.8740   161.4250    24.8100     2.2090 
  186.2500   -30.2800    65.2410   185.7630   172.1740   154.1250    24.8830     2.2050 
  186.3750   -30.4630    62.5510   185.1730   172.5040   159.5380    24.9430     2.2030 
  186.5000   -30.5530    60.4070   185.3010   173.5760   168.2130    24.9890     2.2060 
  186.6250   -30.6580    58.9800   184.9020   174.3730   175.2560    25.0040     2.2090 
  186.7500   -30.7590    58.4600   183.1440   174.0300   180.9980    24.9570     2.2060 
  186.8750   -30.7670    60.0450   179.8070   172.0970   182.3300    24.8870     2.1980 
  187.0000   -30.7920    63.6100   175.3510   168.7100   173.6410    24.9150     2.1920 
  187.1250   -30.8400    65.7430   170.9200   164.9670   162.0570    25.0220     2.1920 
  187.2500   -30.8150    65.5880   167.3620   161.7620   154.2840    25.1180     2.1980 
  187.3750   -30.7720    65.4220   165.4930   159.9900   153.1380    25.1490     2.2060 
  187.5000   -30.7900    65.0050   166.4940   160.8950   159.6670    25.1230     2.2110 
  187.6250   -30.7720    60.8040   170.2520   164.4380   171.3280    25.0810     2.2090 
  187.7500   -30.7530    54.4070   176.3540   170.1730   187.9670    25.0490     2.2010 
  187.8750   -30.8510    51.5270   183.6700   176.9310   208.1500    25.0660     2.1900 
  188.0000   -30.9630    53.8980   189.8380   182.4270   222.2220    25.1050     2.1850 
  188.1250   -31.0520    55.7030   192.5100   184.5960   217.6370    25.0870     2.1850 
  188.2500   -31.1860    56.0570   190.3860   182.2910   196.0640    25.0220     2.1890 
  188.3750   -31.3200    56.7690   183.7930   175.7030   170.8670    24.9510     2.1920 
  188.5000   -31.3480    56.5050   174.5580   166.2210   137.9840    24.9010     2.1910 
  188.6250   -31.3770    55.5790   165.9950   156.9000   103.2110    24.8780     2.1880 
  188.7500   -31.3330    57.0420   160.3530   150.0200    85.3560    24.9260     2.1840 
  188.8750   -31.1290    60.1620   159.1430   147.3280    93.4700    25.0780     2.1790 
  189.0000   -30.8530    61.5950   163.9460   150.6580   149.3600    25.2680     2.1740 
  189.1250   -30.5550    61.8240   173.6760   159.0230   272.6880    25.3670     2.1730 
  189.2500   -30.1520    62.4180   187.1350   171.2360   437.6120    25.3310     2.1760 
  189.3750   -29.6570    63.8170   201.8930   185.0320   489.5910    25.2240     2.1810 
  189.5000   -29.1670    65.0420   212.8570   196.1740   367.0270    25.0920     2.1840 
  189.6250   -28.6190    64.7050   214.8750   200.4650   272.9770    24.9430     2.1820 
  189.7500   -28.0350    62.6380   204.0540   194.4950   211.7710    24.8540     2.1750 
  189.8750   -27.4960    59.6620   180.5370   177.2370   165.4820    24.8780     2.1640 
  190.0000   -26.9280    58.4740   149.7430   151.0330   137.5080    24.8910     2.1610 
  190.1250   -26.2870    60.8420   120.7400   123.7360   106.8980    24.7400     2.1770 
  190.2500   -25.6820    66.8300    97.5320   100.1880    70.3330    24.4780     2.2100 
  190.3750   -25.1450    74.9680    80.9620    82.5800    46.6670    24.2570     2.2450 
  190.5000   -24.5710    79.9650    70.8950    71.6230    40.8880    24.1220     2.2630 
  190.6250   -24.0360    80.3070    64.9190    65.0080    43.7510    24.0240     2.2700 
  190.7500   -23.5940    79.8790    61.8950    61.5140    48.3510    23.9650     2.2780 
  190.8750   -23.1480    81.8350    60.8820    60.1430    48.9950    23.9690     2.2950 
  191.0000   -22.7650    82.1110    61.3720    60.3040    50.1970    24.0640     2.3220 
  191.1250   -22.4850    77.4810    62.8450    61.3570    57.6880    24.1990     2.3480 
  191.2500   -22.2060    70.4380    65.2660    63.2090    65.5040    24.3010     2.3630 
  191.3750   -21.9570    65.8980    68.5930    65.8290    65.3910    24.3250     2.3680 
  191.5000   -21.8270    66.5010    72.7820    69.2170    61.6960    24.3210     2.3660 
  191.6250   -21.6840    69.1000    77.5620    73.1630    64.3940    24.3650     2.3580 
  191.7500   -21.5280    69.1650    82.9820    77.7400    72.0950    24.4340     2.3400 
  191.8750   -21.4180    65.8650    89.1400    83.0530    78.1440    24.4470     2.3250 
  192.0000   -21.2690    65.2970    95.7500    88.8350    83.1060    24.3440     2.3380 
  192.1250   -21.0910    66.5130   101.4470    93.8330    96.3370    24.1960     2.3790 
  192.2500   -20.9600    65.7230   104.3460    96.4480   122.6020    24.0960     2.4370 
  192.3750   -20.7950    65.0860   102.2890    94.9470   149.3880    24.0250     2.4960 
  192.5000   -20.5640    70.2110    92.1590    86.3940   134.2190    23.8430     2.5290 
  192.6250   -20.3910    76.8470    75.6280    71.5440    95.8520    23.6420     2.5260 
  192.7500   -20.2510    80.1320    56.3200    53.5070    67.8080    23.6260     2.5040 
  192.8750   -20.0860    80.3640    38.6270    36.8000    49.9540    23.8230     2.4840 
  193.0000   -20.0240    77.9150    25.8900    24.9030    33.1070    24.0680     2.4680 
  193.1250   -20.0270    71.9920    17.4200    17.0490    20.0800    24.2060     2.4410 
  193.2500   -20.0480    63.8930    12.2230    12.1720    12.9930    24.2480     2.4040 
  193.3750   -20.1820    58.1430     9.2580     9.2600     9.8320    24.2690     2.3680 
  193.5000   -20.4250    57.6030     7.7330     7.7380     8.5090    24.3580     2.3400 
  193.6250   -20.6670    59.1430     6.6960     6.9290     7.8210    24.5080     2.3180 
  193.7500   -20.9500    58.4660     6.4640     6.5550     7.7700    24.5780     2.3070 
  193.8750   -21.3160    55.6240     6.3790     6.4170     7.8920    24.5130     2.3090 
  194.0000   -21.6200    53.5440     6.3420     6.3970     7.6960    24.3860     2.3150 
  194.1250   -21.8620    53.4300     6.3330     6.4190     7.5230    24.2550     2.3140 
  194.2500   -22.0630    52.8530     6.3490     6.4560     7.6230    24.1400     2.3080 
  194.3750   -22.1510    51.9220     6.3650     6.4780     7.8180    24.0620     2.3030 
  194.5000   -22.1730    51.9480     6.3560     6.4580     7.7380    24.0510     2.3020 
  194.6250   -22.1780    52.1640     6.3300     6.4030     7.5620    24.0520     2.3050 
  194.7500   -22.1110    52.5750     6.3110     6.3360     7.4620    24.0270     2.3130 
  194.8750   -21.9920    53.8520     6.3320     6.2850     7.4790    23.9980     2.3280 
  195.0000   -21.9410    55.0470     6.4290     6.2810     7.6350    23.9780     2.3460 
  195.1250   -21.8970    52.1790     6.5850     6.3210     7.9270    23.9590     2.3580 
  195.2500   -21.8700    46.6200     6.7790     6.3940     8.3100    23.9350     2.3600 
  195.3750   -21.9050    42.7150     6.9930     6.4930     8.6390    23.9090     2.3550 
  195.5000   -21.8870    42.7320     7.2120     6.6190     8.7890    23.9090     2.3470 
  195.6250   -21.8470    44.3180     7.4190     6.7540     8.8360    23.9510     2.3400 
  195.7500   -21.8480    45.3620     7.5930     6.8710     9.0310    24.0340     2.3310 
  195.8750   -21.7880    46.2860     7.7090     6.9350     9.4010    24.1240     2.3230 
  196.0000   -21.5830    48.0670     7.7260     6.9020     9.5100    24.1670     2.3220 
  196.1250   -21.3570    49.6680     7.6480     6.7840     9.1810    24.1760     2.3270 
