~V
VERS. 2.00: Ver 2.00
~W
STRT.M 57.0000:
STOP.M 283.0000:
STEP.M 0.1250:
NULL. -999.2500:
UWI. F11039:
~C
DEPT.M :
SP.MV :
GR.API :
RML.OHMM :
RI. :
RXO.OHMM :
CALI.CM :
DEN.GM/CC :
~A
# ...
  113.2500    -8.5410    58.0370     9.9280     8.6030    47.3650    20.9840     2.1520 
  113.3750    -7.9060    56.9080     9.8320     8.5340    44.4640    21.1610     2.1560 
  113.5000    -7.2150    57.6840     9.4970     8.2760    24.3140    21.2860     2.1710 
  113.6250    -6.5060    58.7340     8.9260     7.8200    16.2360    21.4000     2.1960 
  113.7500    -5.7850    61.1070     8.1800     7.2050    13.5120    21.5360     2.2270 
  113.8750    -5.1200    69.1050     7.3680     6.5070    11.0340    21.7510     2.2480 
  114.0000    -4.5370    79.4560     6.6260     5.8420     8.3750    22.1250     2.2540 
  114.1250    -4.0600    87.5010     6.0380     5.2860     7.1060    22.7000     2.2470 
  114.2500    -3.7480    90.2300     5.6580     4.8940     6.5130    23.3640     2.2340 
  114.3750    -3.6490    88.4870     5.5460     4.7270     6.3580    23.7480     2.2230 
  114.5000    -3.6850    86.2430     5.6590     4.7590     6.4310    23.7130     2.2160 
  114.6250    -3.8210    84.1130     5.9730     4.9820     6.7120    23.3710     2.2110 
  114.7500    -4.0180    80.7230     6.4400     5.3660     7.1770    22.8640     2.2040 
  114.8750    -4.2220    76.5650     6.9710     5.8540     7.8710    22.3680     2.1950 
  115.0000    -4.3640    73.1390     7.4200     6.3200     8.8000    22.0050     2.1880 
  115.1250    -4.4240    70.4310     7.6630     6.6450     9.6280    21.8330     2.1870 
  115.2500    -4.3380    68.5060     7.6130     6.7370     9.9050    21.8190     2.1950 
  115.3750    -4.1280    70.7650     7.2400     6.5320     9.4150    21.9340     2.2160 
  115.5000    -3.8380    76.3660     6.7250     6.1580     8.7330    22.1410     2.2410 
  115.6250    -3.4890    82.2420     6.2310     5.7400     7.7140    22.4460     2.2630 
  115.7500    -3.1370    84.0010     5.8800     5.3810     6.8150    22.8580     2.2760 
  115.8750    -2.8550    82.3300     5.7390     5.1470     6.3730    23.2550     2.2800 
  116.0000    -2.6930    81.1280     5.7180     5.0020     6.3000    23.5480     2.2800 
  116.1250    -2.6030    82.0680     5.7280     4.9030     6.3070    23.6070     2.2800 
  116.2500    -2.5590    83.8560     5.6900     4.8030     6.4330    23.4840     2.2810 
  116.3750    -2.5660    82.6100     5.5490     4.6660     6.6260    23.3280     2.2820 
  116.5000    -2.6030    80.1340     5.3540     4.5120     6.6560    23.3000     2.2810 
  116.6250    -2.6860    79.7630     5.2150     4.4030     6.3490    23.4130     2.2800 
  116.7500    -2.8300    82.7270     5.2880     4.4390     5.8550    23.6200     2.2830 
  116.8750    -2.9870    86.7560     5.8030     4.7950     5.8370    23.7780     2.3010 
  117.0000    -3.1240    86.5840     6.7620     5.5040     6.2120    23.8560     2.3380 
  117.1250    -3.2640    82.3410     8.0540     6.5330     7.1070    23.8560     2.3860 
  117.2500    -3.5090    75.9680     9.4010     7.7160     8.6990    23.7910     2.4240 
  117.3750    -3.8130    71.4430    10.3030     8.6940    11.2120    23.6310     2.4250 
  117.5000    -4.1600    69.8860    10.4610     9.1410    12.9840    23.3510     2.3890 
  117.6250    -4.5160    71.0760     9.8340     8.9140    11.7370    22.8840     2.3320 
  117.7500    -4.8050    73.4530     8.6920     8.1450     9.3300    22.2660     2.2800 
  117.8750    -4.9610    75.2000     7.5110     7.1810     7.8350    21.6230     2.2500 
  118.0000    -5.0220    76.2190     6.6230     6.3530     7.2010    21.2430     2.2410 
  118.1250    -5.0380    77.7890     6.0650     5.7460     6.6890    21.2260     2.2480 
  118.2500    -4.9230    80.3750     5.7410     5.3390     6.0330    21.4380     2.2620 
  118.3750    -4.6820    83.3670     5.5400     5.0810     5.5940    21.7560     2.2780 
  118.5000    -4.3770    86.2970     5.3760     4.8940     5.4120    22.0180     2.2910 
  118.6250    -4.0500    89.2680     5.2440     4.7510     5.3800    22.2270     2.2980 
  118.7500    -3.7590    90.5860     5.1480     4.6350     5.3740    22.4320     2.3010 
  118.8750    -3.5670    90.4710     5.0820     4.5360     5.4670    22.5710     2.3010 
  119.0000    -3.4490    90.8650     5.0200     4.4420     5.6060    22.6250     2.2990 
  119.1250    -3.3670    92.0660     4.9610     4.3560     5.6190    22.6210     2.2990 
  119.2500    -3.4070    92.4500     4.9260     4.2890     5.3540    22.7120     2.2990 
  119.3750    -3.6120    94.0040     4.9500     4.2650     4.7390    22.9650     2.2990 
  119.5000    -3.9050    97.1190     5.0240     4.2840     4.5030    23.1920     2.2980 
  119.6250    -4.2900    96.6080     5.1310     4.3450     4.5500    23.2940     2.2960 
  119.7500    -4.7390    90.7650     5.2730     4.4540     4.7530    23.1990     2.2920 
  119.8750    -5.2690    85.2090     5.5170     4.6580     5.1940    22.9690     2.2880 
  120.0000    -5.8780    83.2860     5.9240     4.9870     5.6190    22.8490     2.2890 
  120.1250    -6.6070    81.8770     6.5280     5.4660     5.8620    22.9240     2.2950 
  120.2500    -7.3590    76.7410     7.2930     6.0790     6.1270    23.0810     2.3010 
  120.3750    -8.0420    69.7150     8.0890     6.7560     7.0570    22.9510     2.2980 
  120.5000    -8.6730    66.1510     8.7350     7.3600     8.7250    22.5590     2.2800 
  120.6250    -9.1930    66.4410     9.1150     7.7860    10.7560    22.2050     2.2480 
  120.7500    -9.6070    66.1270     9.1960     7.9780    13.6430    22.0240     2.2090 
  120.8750    -9.9130    62.1950     9.0180     7.9260    16.5480    21.8970     2.1750 
  121.0000   -10.0970    59.9570     8.7590     7.7570    18.3550    21.7050     2.1520 
  121.1250   -10.1060    61.7350     8.5270     7.5580    14.5870    21.5490     2.1420 
  121.2500   -10.0060    66.3260     8.3790     7.3830    10.7240    21.5990     2.1420 
  121.3750    -9.8750    69.9540     8.3310     7.2590     8.8380    21.8220     2.1480 
  121.5000    -9.7480    70.9110     8.3400     7.1820     8.1580    22.0360     2.1580 
  121.6250    -9.6380    70.9180     8.3840     7.1500     7.8550    22.2040     2.1710 
  121.7500    -9.5380    71.7340     8.4480     7.1590     7.6040    22.3420     2.1860 
  121.8750    -9.4550    70.7420     8.5310     7.2070     7.3920    22.4360     2.1990 
  122.0000    -9.3830    68.0340     8.6240     7.2710     7.2470    22.4900     2.2080 
  122.1250    -9.3490    67.6600     8.7100     7.3360     7.1390    22.5050     2.2090 
  122.2500    -9.3140    69.5630     8.7680     7.3880     7.1090    22.4940     2.2020 
  122.3750    -9.2670    68.9700     8.7780     7.4150     7.1260    22.4630     2.1890 
  122.5000    -9.2020    67.2920     8.7560     7.4250     7.1970    22.4100     2.1770 
  122.6250    -9.1140    67.2780     8.7270     7.4280     7.3040    22.3390     2.1680 
  122.7500    -9.0170    66.9970     8.7150     7.4380     7.4770    22.2590     2.1620 
  122.8750    -8.9170    65.1350     8.7390     7.4700     7.6800    22.2200     2.1580 
  123.0000    -8.8470    64.9690     8.7750     7.5210     7.8410    22.2220     2.1540 
  123.1250    -8.7680    66.9700     8.7860     7.5680     7.8940    22.2510     2.1510 
  123.2500    -8.6710    67.4370     8.7280     7.5740     7.8680    22.2740     2.1500 
  123.3750    -8.5200    65.8030     8.5470     7.4840     7.9520    22.2480     2.1520 
  123.5000    -8.3360    64.9650     8.2620     7.3020     8.0270    22.2320     2.1560 
  123.6250    -8.1290    66.9120     7.9080     7.0500     7.9230    22.2570     2.1610 
  123.7500    -7.9100    71.9140     7.5350     6.7690     7.6050    22.3250     2.1670 
  123.8750    -7.6280    75.6510     7.1930     6.4990     7.0520    22.3810     2.1710 
  124.0000    -7.2420    74.3800     6.8970     6.2520     6.5880    22.3700     2.1760 
  124.1250    -6.7610    70.5510     6.6340     6.0200     6.6150    22.3600     2.1830 
  124.2500    -6.2330    71.0760     6.3780     5.7840     6.7230    22.4600     2.1930 
  124.3750    -5.6950    77.9110     6.0970     5.5230     6.5650    22.7070     2.2070 
