~V
VERS. 2.00: Ver 2.00
~W
STRT.M 50.0000:
STOP.M 275.0000:
STEP.M 0.1250:
NULL. -999.2500:
UWI. F11033:
~C
DEPT.M :
DEN.GM/CC :
GR.API :
RML.OHMM :
RI. :
RXO.OHMM :
CALI.CM :
SP.MV :
~A
# ...
  230.0000     2.2520    83.8910    13.8920    11.7990    16.6360    25.2030   -34.9060 
  230.1250     2.2550    82.4980    16.7050    14.1300    21.2740    25.1970   -34.8720 
  230.2500     2.2580    78.7180    19.8740    16.9310    25.0250    25.1820   -34.8170 
  230.3750     2.2580    70.3900    23.0000    19.8880    29.4810    25.1670   -34.7400 
  230.5000     2.2540    62.4940    25.6460    22.5700    32.6660    25.1700   -34.6430 
  230.6250     2.2480    61.6890    27.4080    24.4850    33.5720    25.1820   -34.5340 
  230.7500     2.2430    64.0920    28.5220    25.7140    32.5430    25.1930   -34.4080 
  230.8750     2.2390    66.9690    29.2920    26.5050    31.3870    25.1750   -34.2700 
  231.0000     2.2340    69.9260    29.9810    27.1200    32.7100    25.1220   -34.1250 
  231.1250     2.2270    70.8070    30.7580    27.7450    34.0800    25.0770   -33.9920 
  231.2500     2.2220    68.4300    31.6800    28.4790    35.6010    25.0600   -33.8840 
  231.3750     2.2210    66.8550    32.7710    29.3670    36.5500    25.0570   -33.7940 
  231.5000     2.2210    68.7820    34.0310    30.4260    36.4470    25.0580   -33.7160 
  231.6250     2.2180    70.8120    35.4300    31.6540    36.4960    25.0590   -33.6390 
  231.7500     2.2180    70.1890    36.8180    32.9310    39.2540    25.0590   -33.5570 
  231.8750     2.2240    68.7740    38.0520    34.1410    42.6210    25.0580   -33.4610 
  232.0000     2.2310    67.1710    39.0440    35.2010    44.7070    25.0570   -33.3500 
  232.1250     2.2270    63.0600    39.8120    36.1040    45.1220    25.0570   -33.2000 
  232.2500     2.2150    58.1010    40.5920    37.0060    43.1600    25.0570   -33.0320 
  232.3750     2.2040    57.2660    41.5910    38.0640    42.8800    25.0520   -32.8640 
  232.5000     2.1970    61.4220    42.8910    39.3670    46.7180    25.0360   -32.6900 
  232.6250     2.1920    67.1650    44.3680    40.8670    52.9950    25.0050   -32.4940 
  232.7500     2.1900    69.8230    45.7190    42.3350    55.9170    24.9910   -32.2720 
  232.8750     2.1930    68.3100    46.7120    43.5640    54.7640    24.9880   -32.0510 
  233.0000     2.2020    65.9600    47.1590    44.3370    51.7290    24.9880   -31.8300 
  233.1250     2.2150    65.7710    46.7390    44.2920    50.0260    24.9880   -31.6410 
  233.2500     2.2300    67.5380    45.3720    43.3320    50.2230    24.9880   -31.4510 
  233.3750     2.2470    68.3780    42.9760    41.3640    51.2000    24.9870   -31.2390 
  233.5000     2.2690    68.5400    39.7530    38.5370    49.1170    24.9800   -31.0180 
  233.6250     2.2900    69.0860    36.2800    35.3320    41.1010    24.9580   -30.8090 
  233.7500     2.3040    68.4650    33.2320    32.4130    34.9660    24.9210   -30.6240 
  233.8750     2.3080    65.9480    30.9150    30.1100    31.7640    24.8660   -30.4530 
  234.0000     2.3010    62.2330    29.3670    28.5160    31.9850    24.7690   -30.2980 
  234.1250     2.2810    59.9030    28.4730    27.6090    32.5820    24.6810   -30.1540 
  234.2500     2.2530    59.6390    27.7930    27.0250    31.0460    24.6360   -30.0200 
  234.3750     2.2290    61.2180    27.0170    26.4860    28.8260    24.6400   -29.9040 
  234.5000     2.2140    63.3870    25.9460    25.7640    27.8710    24.6900   -29.8160 
  234.6250     2.2100    64.8030    24.5410    24.7290    27.2460    24.7830   -29.7500 
  234.7500     2.2110    66.5060    23.0440    23.5220    25.8990    24.8800   -29.6940 
  234.8750     2.2150    68.3980    21.6520    22.2950    23.7080    24.9520   -29.6280 
  235.0000     2.2240    68.9690    20.4760    21.1650    21.2980    24.9830   -29.5410 
  235.1250     2.2340    66.6390    19.5480    20.1880    20.0730    24.9880   -29.4070 
  235.2500     2.2440    64.2770    18.7440    19.2990    19.5760    24.9880   -29.3000 
  235.3750     2.2490    64.9180    17.9680    18.4300    18.8790    24.9880   -29.2250 
  235.5000     2.2470    67.4320    17.1500    17.5350    17.4670    24.9880   -29.1690 
  235.6250     2.2400    67.7380    16.2700    16.6040    16.0000    24.9880   -29.1240 
  235.7500     2.2340    66.3180    15.3800    15.6830    14.8660    24.9880   -29.0920 
  235.8750     2.2280    66.0190    14.5560    14.8410    14.1740    24.9880   -29.0790 
  236.0000     2.2200    66.7580    13.9070    14.1670    13.8140    24.9880   -29.0890 
  236.1250     2.2110    65.3840    13.6360    13.8290    13.6910    24.9880   -29.1260 
  236.2500     2.2050    62.4920    13.8620    13.9160    13.7880    24.9880   -29.1470 
  236.3750     2.2040    59.2400    14.7340    14.5600    14.5250    24.9880   -29.1270 
  236.5000     2.2030    56.2110    16.3340    15.8720    16.2390    24.9880   -29.0590 
  236.6250     2.2010    54.5860    18.6160    17.9270    18.8490    24.9810   -28.9730 
  236.7500     2.2010    56.5600    20.9740    20.2550    22.5250    24.9500   -28.8850 
  236.8750     2.2060    59.7010    22.6670    22.1540    26.1990    24.8930   -28.8050 
  237.0000     2.2140    60.2940    23.0220    22.8500    27.5870    24.8510   -28.7410 
  237.1250     2.2270    60.0230    21.7730    21.8950    24.3460    24.8160   -28.6930 
  237.2500     2.2450    62.1210    19.8990    20.1760    18.9830    24.7580   -28.6250 
  237.3750     2.2640    66.3230    18.1670    18.4340    15.6640    24.6980   -28.5630 
  237.5000     2.2810    68.8840    17.0130    17.1270    14.9530    24.7150   -28.5340 
  237.6250     2.2870    69.0130    16.6510    16.5160    17.0270    24.8150   -28.5260 
  237.7500     2.2850    67.8940    16.8570    16.4670    19.9470    24.9320   -28.5190 
  237.8750     2.2820    67.9430    17.4760    16.8770    20.5600    25.0150   -28.5020 
  238.0000     2.2850    69.8940    18.3260    17.6030    20.9150    25.0500   -28.4670 
  238.1250     2.2950    70.7610    19.1600    18.4420    20.9480    25.0420   -28.4120 
  238.2500     2.3050    69.8790    19.7070    19.1010    22.8720    25.0100   -28.3510 
  238.3750     2.3040    68.3550    19.7920    19.3680    25.7220    24.9830   -28.2810 
  238.5000     2.2880    67.8100    19.4100    19.1780    27.5440    24.9990   -28.1920 
  238.6250     2.2650    66.7050    18.7720    18.6680    23.3590    25.0510   -28.0760 
  238.7500     2.2480    65.0600    18.2640    18.1860    19.7020    25.1030   -27.9480 
  238.8750     2.2390    64.0260    18.0910    17.9380    18.3020    25.1240   -27.8150 
  239.0000     2.2360    62.7150    18.2620    17.9850    18.9400    25.1260   -27.6850 
  239.1250     2.2410    60.3050    18.5860    18.2280    20.7630    25.1260   -27.5680 
  239.2500     2.2540    58.7320    18.7520    18.4010    21.8510    25.1230   -27.4750 
  239.3750     2.2670    59.4030    18.5870    18.3220    20.3000    25.1090   -27.4090 
  239.5000     2.2680    59.9220    18.0840    17.9280    18.4480    25.0820   -27.3800 
  239.6250     2.2530    58.2350    17.3890    17.2970    17.1420    25.0840   -27.3740 
  239.7500     2.2380    59.0100    16.7640    16.6720    17.0750    25.1090   -27.3770 
  239.8750     2.2310    62.6830    16.3680    16.2240    17.5010    25.1390   -27.3800 
  240.0000     2.2340    65.8520    16.2790    16.0530    17.3170    25.1760   -27.4110 
  240.1250     2.2370    65.5950    16.5500    16.2200    16.7550    25.1980   -27.5050 
  240.2500     2.2320    64.0810    17.0500    16.6140    17.9940    25.2190   -27.5700 
  240.3750     2.2230    62.3980    17.6350    17.1130    20.3650    25.2490   -27.6380 
  240.5000     2.2180    59.8670    18.1280    17.5580    21.6950    25.2620   -27.7100 
  240.6250     2.2250    54.2390    18.3640    17.7890    21.6680    25.2340   -27.7450 
  240.7500     2.2350    49.5250    18.4260    17.8570    20.9140    25.1760   -27.7800 
  240.8750     2.2410    49.0690    18.4890    17.9090    20.6320    25.1280   -27.7600 
  241.0000     2.2410    53.1190    18.7340    18.1120    20.2730    25.1010   -27.7530 
  241.1250     2.2360    57.1210    19.2450    18.5680    19.6950    25.0970   -27.6890 
