~V
VERS. 2.00: Ver 2.00
~W
STRT.M 52.0000:
STOP.M 279.0000:
STEP.M 0.1250:
NULL. -999.2500:
UWI. F11031:
~C
DEPT.M :
DEN.GM/CC :
GR.API :
RML.OHMM :
RI. :
RXO.OHMM :
CALI.CM :
SP.MV :
~A
# ...
  265.7500     2.4620    68.4680    13.2900    12.3030    10.2790    19.1820   -10.5470 
  265.8750     2.4550    67.0990    13.6060    12.2950     9.7280    18.3140   -10.5320 
  266.0000     2.4530    65.6690    13.9640    12.3120     9.6100    16.8020   -10.5010 
  266.1250     2.4590    65.0590    14.2140    12.3720    10.2650    16.8050   -10.4600 
  266.2500     2.4700    63.6350    14.3120    12.4730    11.5400    18.1540   -10.4130 
  266.3750     2.4840    62.5880    14.3050    12.6160    12.8710    20.5370   -10.3740 
  266.5000     2.4980    64.5400    14.3100    12.8020    13.9620    22.0270   -10.3670 
  266.6250     2.5050    67.6850    14.4620    13.0460    14.4490    22.5120   -10.3850 
  266.7500     2.5060    67.2320    14.7270    13.3350    14.4460    22.6860   -10.3910 
  266.8750     2.5010    63.6690    15.0220    13.6320    13.8630    22.7400   -10.3970 
  267.0000     2.4990    61.2680    15.2680    13.8660    13.8260    22.7400   -10.3910 
  267.1250     2.5060    61.6310    15.3500    13.9200    14.3890    22.6580   -10.4000 
  267.2500     2.5210    60.9290    15.1990    13.7560    14.8340    22.5460   -10.4240 
  267.3750     2.5380    58.5480    14.7760    13.3880    13.9710    22.4180   -10.4440 
  267.5000     2.5490    57.0510    14.1250    12.8900    13.0900    22.5650   -10.4690 
  267.6250     2.5470    58.9480    13.4120    12.3820    11.9470    22.6730   -10.5170 
  267.7500     2.5360    61.8720    12.8720    11.9660    10.9060    22.7470   -10.5790 
  267.8750     2.5220    63.0400    12.6540    11.6940    10.1380    22.6930   -10.6460 
  268.0000     2.5120    63.0330    12.7770    11.5840     9.9420    22.6560   -10.7440 
  268.1250     2.5060    63.2710    13.1320    11.6430    10.9110    22.5610   -10.8470 
  268.2500     2.5040    62.5730    13.4980    11.8060    12.4580    22.4180   -10.9420 
  268.3750     2.5030    62.0320    13.7770    12.0240    13.6990    22.1360   -11.0550 
  268.5000     2.5020    62.0320    13.9390    12.2360    13.6460    21.5740   -11.2130 
  268.6250     2.5030    62.0320    13.9580    12.3480    13.0920    21.2770   -11.3730 
  268.7500     2.5050    62.0320    13.8290    12.3070    11.9480    21.2360   -11.5490 
  268.8750     2.5080    62.0320    13.4940    12.0880    10.6800    21.2520   -11.7330 
  269.0000     2.5100    62.0320    12.9130    11.6960     9.7460    21.0920   -11.9150 
  269.1250     2.5070    62.0320    12.0840    11.1490     9.3050    20.9100   -12.0950 
  269.2500     2.4990    62.0320    11.1650    10.5180     9.2420    20.8630   -12.2690 
  269.3750     2.4870    62.0320    10.2750     9.8490     8.9420    20.8610   -12.4290 
  269.5000     2.4760    62.0320     9.4830     9.1910     7.9390    20.8510   -12.5370 
  269.6250     2.4710    62.0320     8.8520     8.6160     6.9020    21.0000   -12.6250 
  269.7500     2.4710    62.0320     8.4060     8.1620     6.3170    21.1370   -12.6860 
  269.8750     2.4700    62.0320     8.1690     7.8500     6.2110    21.1570   -12.7150 
  270.0000     2.4630    62.0320     8.1330     7.6670     6.3410    21.1350   -12.7070 
  270.1250     2.4490    62.0320     8.2460     7.5880     6.5580    21.2510   -12.6420 
  270.2500     2.4330    62.0320     8.3820     7.5470     6.5550    21.4500   -12.5640 
  270.3750     2.4220    62.0320     8.4730     7.5110     6.2560    21.6500   -12.4860 
  270.5000     2.4220    62.0320     8.5030     7.4800     5.8950    21.7060   -12.3900 
  270.6250     2.4320    62.0320     8.5390     7.5080     5.6820    21.6860   -12.2870 
  270.7500     2.4480    62.0320     8.6830     7.6540     5.6520    21.7020   -12.1790 
  270.8750     2.4660    62.0320     9.0070     7.9580     5.7800    21.6940   -12.0660 
  271.0000     2.4810    62.0320     9.5290     8.4200     6.2660    21.6510   -11.9440 
  271.1250     2.4890    62.0320    10.2040     8.9940     7.4060    21.6200   -11.8140 
  271.2500     2.4910    62.0320    10.8480     9.5550     8.2310    21.6900   -11.6960 
  271.3750     2.4880    62.0320    11.2940     9.9980     7.8830    21.7280   -11.5790 
  271.5000     2.4880    62.0320    11.4500    10.2490     6.9520    21.7090   -11.4490 
  271.6250     2.4960    62.0320    11.3430    10.2560     6.4310    21.5340   -11.3020 
  271.7500     2.5130    62.0320    11.1540    10.1050     6.3090    21.2400   -11.1560 
  271.8750     2.5330    62.0320    10.9760     9.8730     6.2130    21.0790   -11.0090 
  272.0000     2.5500    62.0320    10.8360     9.6250     6.1170    21.0510   -10.8870 
  272.1250     2.5580    62.0320    10.7060     9.4090     6.4250    21.0520   -10.8140 
  272.2500     2.5570    62.0320    10.5480     9.2290     7.0430    21.0560   -10.7530 
  272.3750     2.5470    62.0320    10.3740     9.0790     7.6680    21.0850   -10.6910 
  272.5000     2.5280    62.0320    10.2180     8.9550     8.1150    21.1200   -10.6790 
  272.6250     2.5020    62.0320    10.0830     8.8420     8.1320    21.1200   -10.7020 
  272.7500     2.4760    62.0320     9.9300     8.7120     8.3120    21.0890   -10.7400 
  272.8750     2.4570    62.0320     9.7290     8.5490     8.4000    21.0570   -10.7870 
  273.0000     2.4470    62.0320     9.4860     8.3630     7.8830    21.0510   -10.8130 
  273.1250     2.4470    62.0320     9.2660     8.1930     7.6560    21.0510   -10.8300 
  273.2500     2.4530    62.0320     9.1330     8.0770     7.4500    21.0480   -10.8250 
  273.3750     2.4630    62.0320     9.1040     8.0280     7.3350    21.0330   -10.8160 
  273.5000     2.4760    62.0320     9.1500     8.0330     7.3360    21.0410   -10.7880 
  273.6250     2.4910    62.0320     9.2050     8.0630     7.4150    21.0120   -10.7260 
  273.7500     2.5040    62.0320     9.2260     8.0870     7.4940    20.9620   -10.6660 
  273.8750     2.5130    62.0320     9.2110     8.0970     7.4540    20.9540   -10.6250 
  274.0000     2.5140    62.0320     9.1820     8.0970     7.3040    20.9500   -10.6050 
  274.1250     2.5120    62.0320     9.1630     8.0940     7.2210    20.9350   -10.5910 
  274.2500     2.5080    62.0320     9.1570     8.0910     7.4490    20.9050   -10.6290 
  274.3750     2.5050    62.0320     9.1570     8.0910     7.9530    20.9050   -10.7910 
  274.5000     2.5050    62.0320     9.1570     8.0910     8.6920    20.9010   -10.9950 
  274.6250     2.5080    62.0320     9.1570     8.0910     9.5200    20.8550   -11.2510 
  274.7500     2.5130    62.0320     9.1570     8.0910    10.1170    20.7610   -11.4920 
  274.8750     2.5190    62.0320     9.1570     8.0910    10.6920    20.6420   -11.7190 
  275.0000     2.5240    62.0320     9.1570     8.0910    11.3540    20.5170   -11.9410 
  275.1250     2.5260    62.0320     9.1570     8.0910    12.0330    20.4430   -12.1220 
  275.2500     2.5250    62.0320     9.1570     8.0910    12.5700    20.3760   -12.2920 
  275.3750     2.5140    62.0320     9.1570     8.0910    12.6940    20.2220   -12.3130 
  275.5000     2.5050    62.0320     9.1570     8.0910    12.4130    20.0760  -999.2500 
  275.6250     2.4980    62.0320     9.1570     8.0910    11.0450    19.9250  -999.2500 
  275.7500     2.4930    62.0320     9.1570     8.0910     9.7590    19.8340  -999.2500 
  275.8750     2.4940    62.0320     9.1570     8.0910     8.9800    19.7480  -999.2500 
  276.0000     2.5000    62.0320     9.1570     8.0910     8.6320    19.6100  -999.2500 
  276.1250     2.5090    62.0320     9.1570     8.0910     8.2200    19.5210  -999.2500 
  276.2500     2.5190    62.0320     9.1570     8.0910     7.7660    19.4620  -999.2500 
  276.3750     2.5310    62.0320     9.1570     8.0910     7.4620    19.3540  -999.2500 
  276.5000     2.5400    62.0320     9.1570     8.0910     7.2550    19.2210  -999.2500 
  276.6250     2.5460    62.0320     9.1570     8.0910     7.0830    18.9630  -999.2500 
  276.7500     2.5470    62.0320     9.1570     8.0910     6.9460    18.6610  -999.2500 
  276.8750     2.5440    62.0320     9.1570     8.0910     6.8700    18.3700  -999.2500 
