~V
VERS. 2.00: Ver 2.00
~W
STRT.M 53.0000:
STOP.M 220.0000:
STEP.M 0.1250:
NULL. -999.2500:
UWI. F11005:
~C
DEPT.M :
DEN.GM/CC :
GR.API :
RML.OHMM :
RI. :
RXO.OHMM :
CALI.CM :
SP.MV :
~A
# ...
   98.0000     2.1860    88.0710     8.5090     7.7140     8.0050    24.2960   -13.9870 
   98.1250     2.1880    82.3510     8.5630     7.7150     8.0520    24.4360   -13.7980 
   98.2500     2.1870    87.0510     8.5330     7.6840     8.1110    24.5600   -13.6740 
   98.3750     2.1820    96.3080     8.3930     7.5610     7.8170    24.6290   -13.6970 
   98.5000     2.1730   102.3950     8.2190     7.3840     6.8630    24.6430   -13.8830 
   98.6250     2.1650   101.8770     8.1210     7.2520     6.3620    24.5930   -14.1650 
   98.7500     2.1640    98.6910     8.0930     7.1840     6.4900    24.4640   -14.4610 
   98.8750     2.1770    93.1350     8.0500     7.1170     7.2650    24.2660   -14.7020 
   99.0000     2.2080    87.5750     7.9140     6.9770     8.1260    24.0950   -14.8620 
   99.1250     2.2580    87.6270     7.7130     6.7690     8.0800    24.1080   -15.0160 
   99.2500     2.3100    92.1400     7.6350     6.6310     7.3750    24.2500   -15.2120 
   99.3750     2.3440    97.9840     7.8810     6.7030     6.7190    24.3540   -15.4660 
   99.5000     2.3430    98.2520     8.5720     7.0980     7.4640    24.2550   -15.8090 
   99.6250     2.3010    87.0720     9.6770     7.8790    12.3950    23.9910   -16.2910 
   99.7500     2.2410    73.1720    10.8030     8.8130    21.3250    23.7560   -16.8770 
   99.8750     2.1860    67.3020    11.5760     9.5870    25.4070    23.6600   -17.6250 
  100.0000     2.1510    71.0200    11.7510     9.9090    20.5290    23.7190   -18.5980 
  100.1250     2.1380    73.8770    11.2960     9.6500    13.9180    23.6830   -19.7620 
  100.2500     2.1330    73.3660    10.6260     9.1360    11.0110    23.5640   -20.9100 
  100.3750     2.1320    72.2170    10.0550     8.6350    10.1560    23.4450   -21.9060 
  100.5000     2.1420    71.2360     9.7680     8.3220    10.0680    23.3740   -22.7060 
  100.6250     2.1780    69.4200     9.8410     8.2960    10.0450    23.3540   -23.3720 
  100.7500     2.2350    69.5090    10.1330     8.4800     9.9520    23.3510   -24.0180 
  100.8750     2.2910    73.8360    10.5330     8.7980     9.9040    23.3740   -24.6160 
  101.0000     2.3190    79.9140    10.9290     9.1540    10.0650    23.4770   -25.1550 
  101.1250     2.2970    82.3530    11.2040     9.4280    10.3540    23.7260   -25.6690 
  101.2500     2.2430    80.3180    11.3260     9.5700    10.5680    23.9920   -26.1870 
  101.3750     2.1840    75.4490    11.3020     9.5800    10.6450    24.1830   -26.7140 
  101.5000     2.1420    71.7140    11.1610     9.4820    10.9410    24.2860   -27.2640 
  101.6250     2.1280    71.6270    10.9150     9.2860    11.4880    24.3150   -27.8370 
  101.7500     2.1270    72.8320    10.5880     9.0220    11.4470    24.2960   -28.3550 
  101.8750     2.1260    73.1620    10.1890     8.7050    10.8000    24.2310   -28.7890 
  102.0000     2.1210    72.2720     9.7520     8.3550     9.9580    24.1570   -29.1390 
  102.1250     2.1150    71.8210     9.3500     8.0150     9.2150    24.0950   -29.3610 
  102.2500     2.1130    70.7170     9.0470     7.7380     8.8150    24.0860   -29.4390 
  102.3750     2.1190    68.9060     8.8690     7.5540     8.6970    24.1060   -29.3660 
  102.5000     2.1280    66.7920     8.8030     7.4640     8.5740    24.1190   -29.1450 
  102.6250     2.1340    65.5010     8.8230     7.4580     8.5210    24.0760   -28.7530 
  102.7500     2.1300    63.2030     8.8840     7.4950     8.6820    23.9430   -28.2990 
  102.8750     2.1190    61.6580     8.9670     7.5520     8.8090    23.7600   -27.8750 
  103.0000     2.1080    65.3680     9.0450     7.6080     8.6340    23.6430   -27.4860 
  103.1250     2.1040    72.9170     9.0740     7.6420     8.3790    23.6360   -27.1320 
  103.2500     2.1040    77.5330     9.0470     7.6430     8.6060    23.6830   -26.8790 
  103.3750     2.1040    77.2720     8.9970     7.6250     9.0090    23.7350   -26.7830 
  103.5000     2.1090    75.8590     9.0070     7.6400     9.2140    23.7770   -26.8270 
  103.6250     2.1420    76.9220     9.2060     7.7870     9.3370    23.7390   -26.9300 
  103.7500     2.2070    75.9740     9.5970     8.0950     9.8070    23.6060   -27.0130 
  103.8750     2.2890    71.2560    10.1000     8.5270    11.2400    23.4560   -27.0960 
  104.0000     2.3530    65.1610    10.5450     8.9650    14.8990    23.4730   -27.1860 
  104.1250     2.3610    63.9250    10.6720     9.1740    21.5580    23.7070   -27.2480 
  104.2500     2.3210    65.1710    10.4230     9.0440    22.0660    23.8960   -27.3000 
  104.3750     2.2590    65.3220     9.8750     8.6180    14.8550    23.9450   -27.3520 
  104.5000     2.2050    65.0270     9.2270     8.0630     9.2530    23.9570   -27.4080 
  104.6250     2.1740    65.9320     8.7320     7.5910     7.6850    24.0650   -27.5520 
  104.7500     2.1590    66.2480     8.4890     7.3010     7.5990    24.1400   -27.8130 
  104.8750     2.1520    65.9850     8.4750     7.1990     7.8950    24.1280   -28.1280 
  105.0000     2.1490    66.9980     8.5950     7.2290     8.0730    24.0460   -28.4330 
  105.1250     2.1480    70.0400     8.7270     7.3020     8.1030    23.9030   -28.7610 
  105.2500     2.1490    72.1950     8.7990     7.3440     7.9940    23.7430   -29.0730 
  105.3750     2.1490    73.0110     8.8000     7.3370     7.7240    23.6590   -29.3120 
  105.5000     2.1460    71.8990     8.7480     7.2950     7.4720    23.6770   -29.4850 
  105.6250     2.1420    70.0500     8.6700     7.2370     7.4610    23.7260   -29.6150 
  105.7500     2.1380    69.0590     8.5920     7.1830     7.3690    23.7310   -29.6940 
  105.8750     2.1380    69.2460     8.5280     7.1460     7.3000    23.6840   -29.7430 
  106.0000     2.1410    70.1210     8.4860     7.1340     7.2080    23.6300   -29.8180 
  106.1250     2.1450    71.2220     8.4700     7.1530     7.1740    23.6100   -29.8750 
  106.2500     2.1500    71.7140     8.4820     7.1960     7.1960    23.6060   -29.9030 
  106.3750     2.1560    69.5070     8.5310     7.2680     7.1940    23.6100   -29.9790 
  106.5000     2.1650    64.2850     8.6150     7.3680     7.0590    23.6340   -30.1510 
  106.6250     2.1760    59.9720     8.7070     7.4830     7.0910    23.7110   -30.3470 
  106.7500     2.1850    60.4800     8.7550     7.5820     7.5060    23.8330   -30.5560 
  106.8750     2.1860    66.1580     8.7120     7.6210     8.1230    23.9570   -30.7750 
  107.0000     2.1770    73.6110     8.5600     7.5650     8.3520    24.0560   -30.9080 
  107.1250     2.1610    76.6930     8.3240     7.4080     8.0590    24.1380   -30.8760 
  107.2500     2.1500    73.3240     8.1080     7.2310     7.8150    24.1910   -30.6830 
  107.3750     2.1520    68.5800     7.9950     7.1090     7.8000    24.1970   -30.2600 
  107.5000     2.1700    67.2160     8.0330     7.0890     7.9170    24.1320   -29.5370 
  107.6250     2.1950    70.1310     8.2120     7.1930     8.1610    24.0410   -28.5660 
  107.7500     2.2170    73.6770     8.3910     7.3340     8.5230    24.0260   -27.4340 
  107.8750     2.2280    76.5250     8.4440     7.4110     8.6130    24.0950   -26.1360 
  108.0000     2.2240    76.4750     8.3030     7.3510     8.5600    24.1580   -24.7830 
  108.1250     2.2090    76.0620     7.9890     7.1500     9.4500    24.1800   -23.5780 
  108.2500     2.1910    80.0060     7.6730     6.9230     9.5280    24.1720   -22.5980 
  108.3750     2.1760    85.0380     7.4870     6.7670     7.9870    24.1160   -21.8730 
  108.5000     2.1710    82.8710     7.5040     6.7500     7.1150    24.0820   -21.4000 
  108.6250     2.1770    73.4780     7.7260     6.9010     7.9270    24.0020   -21.1380 
  108.7500     2.1910    67.8040     8.0110     7.1420     8.6920    23.8630   -21.0240 
  108.8750     2.2060    68.1770     8.2430     7.3970     8.9580    23.6750   -21.0470 
  109.0000     2.2160    71.1420     8.3390     7.5840     9.0170    23.5500   -21.1580 
  109.1250     2.2220    71.9320     8.3000     7.6340     8.9230    23.5020   -21.1990 
