~V
VERS. 2.00: Ver 2.00
~W
STRT.M 52.0000:
STOP.M 287.0000:
STEP.M 0.1250:
NULL. -999.2500:
UWI. F11078:
~C
DEPT.M :
GR.API :
RML.OHMM :
RI. :
RXO.OHMM :
CALI.CM :
DEN.GM/CC :
SP.MV :
~A
# ...
  232.0000    65.2030    16.3270    14.5930    17.5450    22.5810     2.2650   -38.1210 
  232.1250    65.8020    16.1580    14.4810    17.4830    22.5700     2.2810   -38.3480 
  232.2500    66.6420    15.9930    14.3340    17.3210    22.5270     2.2940   -38.6220 
  232.3750    67.7460    15.8770    14.1930    17.1430    22.4690     2.2970   -38.8580 
  232.5000    70.6000    15.8400    14.0920    17.3380    22.4400     2.2880   -38.9390 
  232.6250    73.4420    15.8440    14.0230    17.4230    22.4520     2.2740   -38.8020 
  232.7500    74.7080    15.8360    13.9620    17.4460    22.5070     2.2600   -38.4650 
  232.8750    75.3300    15.7520    13.8750    17.7220    22.5430     2.2510   -37.9990 
  233.0000    75.4160    15.5310    13.7270    17.8210    22.5520     2.2460   -37.4170 
  233.1250    72.6420    15.2190    13.5320    17.6940    22.5000     2.2400   -36.7540 
  233.2500    69.4390    14.9230    13.3340    17.0750    22.3870     2.2270   -36.0400 
  233.3750    69.8840    14.7990    13.2230    16.3000    22.2740     2.2050   -35.3600 
  233.5000    71.8870    15.0710    13.3780    15.9530    22.2640     2.1860   -34.8400 
  233.6250    68.8530    15.7410    13.8830    16.3770    22.2990     2.1850   -34.5130 
  233.7500    62.3730    16.7230    14.7640    17.7350    22.2710     2.2120   -34.3450 
  233.8750    58.5120    17.7970    15.9120    20.3420    22.2160     2.2610   -34.2390 
  234.0000    60.5940    18.5630    16.9930    23.2940    22.3410     2.3130   -34.1020 
  234.1250    63.9800    18.7330    17.5560    23.6990    22.3660     2.3430   -33.8840 
  234.2500    65.2410    18.1910    17.3200    20.2820    22.2900     2.3410   -33.5870 
  234.3750    64.5960    17.0520    16.3200    16.8770    22.2430     2.3100   -33.2240 
  234.5000    64.7640    15.6300    14.8880    14.6750    22.2570     2.2690   -32.7650 
  234.6250    65.2780    14.3500    13.5240    13.3420    22.3140     2.2420   -32.2220 
  234.7500    65.8080    13.4280    12.4660    12.5480    22.4260     2.2400   -31.6180 
  234.8750    67.4990    12.9230    11.7910    12.1450    22.5610     2.2640   -30.9580 
  235.0000    72.7250    12.8210    11.5080    11.9760    22.7170     2.3000   -30.2730 
  235.1250    78.9640    12.9340    11.4520    12.0260    22.8450     2.3300   -29.6540 
  235.2500    83.8870    13.1610    11.5320    12.3190    22.8990     2.3460   -29.1230 
  235.3750    85.8010    13.4700    11.7010    12.7220    22.9030     2.3500   -28.6860 
  235.5000    83.2390    13.9960    12.0240    12.8880    22.8240     2.3490   -28.3890 
  235.6250    78.2310    14.9510    12.6400    13.0680    22.7070     2.3570   -28.1630 
  235.7500    73.4770    16.5960    13.7480    13.8650    22.5910     2.3810   -27.9980 
  235.8750    70.5360    19.1430    15.5610    15.9460    22.4890     2.4230   -27.9200 
  236.0000    69.5720    22.8090    18.4100    20.7940    22.4020     2.4790   -27.8630 
  236.1250    70.0700    27.2110    22.1320    28.7290    22.3530     2.5380   -27.7330 
  236.2500    71.5700    31.9050    26.3970    35.9170    22.3480     2.5920   -27.5110 
  236.3750    73.6590    36.3820    30.6250    38.2600    22.3960     2.6370   -27.1790 
  236.5000    75.4890    40.2610    34.2130    37.0750    22.4650     2.6700   -26.6980 
  236.6250    75.4230    43.9320    37.3850    38.8050    22.5310     2.6900   -26.0930 
  236.7500    73.6650    48.2100    40.9030    42.0770    22.6140     2.6960   -25.3610 
  236.8750    71.2350    54.2140    45.9240    42.4850    22.7320     2.6920   -24.5090 
  237.0000    69.1950    63.7990    54.5740    46.2580    22.9190     2.6840   -23.6090 
  237.1250    67.1190    76.9910    67.7310    60.5790    23.1000     2.6830   -22.6750 
  237.2500    66.4720    91.2940    84.8330    93.4960    23.2860     2.6890   -21.6950 
  237.3750    68.1200    99.9780   100.7380   146.4940    23.4760     2.7020   -20.6490 
  237.5000    71.4210    93.0320   100.9020   176.4320    23.5660     2.7090   -19.5560 
  237.6250    74.1510    73.5130    82.1230   159.5180    23.5760     2.7000   -18.5070 
  237.7500    77.5430    50.0920    55.4680   101.3380    23.5850     2.6700   -17.5610 
  237.8750    83.6830    31.1780    33.4950    43.5090    23.6140     2.6220   -16.7640 
  238.0000    92.4340    20.6050    21.2010    19.7840    23.6570     2.5700   -16.1090 
  238.1250    98.9850    15.1440    14.8330    11.4310    23.6770     2.5320   -15.5810 
  238.2500   100.1530    12.7480    11.8990    10.3350    23.7540     2.5190   -15.1930 
  238.3750    97.1490    12.1320    10.8320    11.2210    23.8260     2.5290   -14.9710 
  238.5000    92.4060    12.5470    10.9400    12.8200    23.8390     2.5510   -14.8460 
  238.6250    87.3280    13.2320    11.5250    15.0150    23.8220     2.5660   -14.7650 
  238.7500    82.7350    13.8680    12.1990    15.3400    23.8100     2.5690   -14.6990 
  238.8750    80.1710    14.3860    12.7670    14.1430    23.8090     2.5650   -14.6100 
  239.0000    81.5970    14.9610    13.3480    12.7670    23.7930     2.5650   -14.4980 
  239.1250    83.9650    15.7310    14.1570    12.1710    23.7160     2.5770   -14.3730 
  239.2500    84.1830    16.5310    15.1530    13.9380    23.4930     2.6000   -14.2250 
  239.3750    81.3020    16.8820    15.8910    19.9930    23.1090     2.6270   -14.0180 
  239.5000    77.8430    16.0380    15.3660    25.4290    22.9010     2.6490   -13.7830 
  239.6250    76.3460    14.1150    13.4950    22.3240    23.1530     2.6580   -13.5360 
  239.7500    78.5820    11.6790    10.9870    13.7570    23.6160     2.6510   -13.2600 
  239.8750    85.8150     9.5140     8.7340     8.0490    23.9020     2.6310   -12.9290 
  240.0000    93.3940     8.3640     7.3700     6.3360    23.9800     2.6050   -12.5730 
  240.1250    95.3210     8.1740     6.8290     6.5530    24.0580     2.5860   -12.2220 
  240.2500    93.9300     8.6780     6.9900     8.0050    24.1930     2.5810   -11.8810 
  240.3750    94.2790     9.4400     7.6160    10.2790    24.2940     2.5890   -11.5590 
  240.5000    94.9710     9.8590     8.2320    11.7220    24.3290     2.5990   -11.2730 
  240.6250    91.9510     9.6210     8.3110    11.6030    24.3360     2.5970   -10.9800 
  240.7500    86.6990     8.7540     7.7180     9.7910    24.2960     2.5810   -10.6640 
  240.8750    82.3850     7.5750     6.7260     7.5280    24.2130     2.5570   -10.3520 
  241.0000    79.2120     6.5310     5.7740     5.7810    24.1150     2.5410   -10.0030 
  241.1250    74.1190     5.8520     5.0920     5.0350    24.0010     2.5410    -9.6290 
  241.2500    66.5210     5.5580     4.7170     4.8110    23.8850     2.5530    -9.2700 
  241.3750    60.4630     5.5740     4.6150     4.8230    23.8210     2.5640    -8.9510 
  241.5000    62.6650     5.7880     4.7400     4.7920    23.8070     2.5600    -8.6960 
  241.6250    69.6730     6.0070     4.9260     4.7860    23.8080     2.5430    -8.5650 
  241.7500    77.7640     6.0190     5.0240     4.9510    23.8100     2.5210    -8.5880 
  241.8750    86.7290     5.6730     4.9240     5.2700    23.8190     2.5030    -8.7330 
  242.0000    95.1780     5.0650     4.6010     5.4230    23.8340     2.4940    -8.9880 
  242.1250    99.3150     4.5620     4.2190     5.0720    23.8360     2.4860    -9.2680 
  242.2500    98.9090     4.3460     3.9190     4.5580    23.8610     2.4710    -9.5340 
  242.3750    97.0620     4.4140     3.8060     4.3680    23.9410     2.4490    -9.7790 
  242.5000    94.4540     4.7340     3.9520     5.0550    24.0220     2.4310    -9.9840 
  242.6250    92.2660     5.1850     4.2850     5.8280    24.0520     2.4280   -10.1090 
  242.7500    91.1470     5.6560     4.7230     6.5380    24.0570     2.4420   -10.1590 
  242.8750    89.9790     6.0600     5.1570     7.0720    24.0560     2.4650   -10.2020 
  243.0000    86.1780     6.3550     5.4690     7.1530    24.0570     2.4860   -10.2890 
  243.1250    82.0480     6.6070     5.6660     6.8410    24.0570     2.4990   -10.4320 
