~V
VERS. 2.00: Ver 2.00
~W
STRT.M 62.0000:
STOP.M 272.0000:
STEP.M 0.1250:
NULL. -999.2500:
UWI. F11076:
~C
DEPT.M :
GR.API :
RML.OHMM :
RI. :
RXO.OHMM :
CALI.CM :
DEN.GM/CC :
SP.MV :
~A
# ...
  208.2500    65.1340    74.3480    65.5210    65.8890    26.7620     2.2240   -23.6170 
  208.3750    64.8720    71.4710    62.8320    56.7720    26.8240     2.2390   -23.6140 
  208.5000    63.7160    68.7170    60.2750    49.4350    26.7720     2.2500   -23.5590 
  208.6250    61.5620    66.4840    58.2350    51.2050    26.7190     2.2520   -23.4650 
  208.7500    59.7140    64.7580    56.7060    54.6170    26.7180     2.2520   -23.3240 
  208.8750    59.5060    63.4740    55.6270    57.6150    26.7280     2.2560   -23.1430 
  209.0000    59.7940    62.6040    54.9190    53.5670    26.7150     2.2670   -22.9360 
  209.1250    60.0770    62.4010    54.6970    47.6560    26.7210     2.2750   -22.7470 
  209.2500    61.3810    63.0990    55.1790    46.3070    26.8010     2.2720   -22.6060 
  209.3750    61.8250    64.9100    56.7510    50.6690    26.9700     2.2570   -22.4800 
  209.5000    59.6140    67.6590    59.5780    54.9620    27.0990     2.2360   -22.3870 
  209.6250    56.2770    70.3040    63.1370    58.0850    26.9600     2.2200   -22.2460 
  209.7500    55.7980    71.1890    65.6980    62.5490    26.6090     2.2130   -22.0480 
  209.8750    57.8740    68.9960    65.5370    72.3800    26.3090     2.2150   -21.7860 
  210.0000    61.3420    63.3660    61.6780    76.6540    26.1680     2.2260   -21.4810 
  210.1250    65.7080    55.1100    54.3660    57.4070    26.0030     2.2480   -21.0840 
  210.2500    68.8110    46.7150    46.3100    37.8010    25.7170     2.2760   -20.5750 
  210.3750    69.8760    39.8290    39.4220    29.3360    25.4970     2.3020   -19.9880 
  210.5000    70.9580    35.3280    34.7340    26.4180    25.4590     2.3140   -19.3360 
  210.6250    73.3850    33.5840    32.7640    23.1970    25.3160     2.3020   -18.7060 
  210.7500    73.7570    33.4630    32.6250    21.7250    25.0130     2.2720   -18.1150 
  210.8750    71.9130    33.9800    33.4780    28.2400    24.7280     2.2370   -17.5900 
  211.0000    71.3340    34.1420    34.2080    34.1370    24.6550     2.2100   -17.0980 
  211.1250    74.9880    33.0720    33.5380    27.3710    24.9510     2.2060   -16.6760 
  211.2500    78.6330    30.9750    31.4650    18.7480    25.3960     2.2190   -16.3090 
  211.3750    78.1570    28.4630    28.6150    14.2530    25.5570     2.2410   -16.0070 
  211.5000    75.1450    26.4010    25.9230    14.8110    25.3400     2.2590   -15.7980 
  211.6250    75.6820    25.9830    24.5300    17.1060    25.0210     2.2650   -15.6930 
  211.7500    78.6470    27.7790    24.9430    18.2880    24.8150     2.2610   -15.6770 
  211.8750    78.8680    32.4310    27.7370    18.2270    24.6660     2.2550   -15.7870 
  212.0000    75.0130    40.5580    33.7880    18.3280    24.5400     2.2520   -16.0560 
  212.1250    71.1610    53.0650    45.0390    22.6340    24.4430     2.2460   -16.4930 
  212.2500    67.5400    68.1000    60.8220    31.0500    24.4620     2.2300   -17.0400 
  212.3750    62.0180    82.3460    78.2970    42.8960    24.6950     2.1990   -17.6650 
  212.5000    57.8320    91.2120    91.4300    60.0620    25.1640     2.1630   -18.3500 
  212.6250    59.6520    90.1090    92.5250    72.5510    25.6780     2.1390   -19.0140 
  212.7500    62.8040    82.1150    84.4470    69.4240    25.9920     2.1390   -19.6200 
  212.8750    63.9200    71.6240    72.9290    59.6930    26.0890     2.1620   -20.1420 
  213.0000    64.3420    62.5020    62.6850    48.8650    26.0900     2.1970   -20.5690 
  213.1250    65.7230    56.9710    56.0420    44.2550    26.0800     2.2260   -20.8960 
  213.2500    66.7700    54.3200    52.2610    44.1980    26.0890     2.2440   -21.1580 
  213.3750    66.7650    53.9670    50.8070    45.3730    26.1100     2.2510   -21.3730 
  213.5000    66.7430    55.4910    51.2990    48.6730    26.1340     2.2530   -21.5490 
  213.6250    66.6990    58.9570    53.8330    51.2930    26.1600     2.2440   -21.7260 
  213.7500    65.8440    64.0700    58.0790    55.7630    26.1740     2.2400   -21.9470 
  213.8750    64.3820    70.9130    64.1030    60.8900    26.1930     2.2390   -22.1990 
  214.0000    61.9680    79.5770    72.0320    66.9270    26.2430     2.2430   -22.4920 
  214.1250    59.4990    90.3310    82.2510    77.6480    26.3350     2.2470   -22.8080 
  214.2500    58.2040   102.5220    94.1970    93.4860    26.4140     2.2470   -23.1670 
  214.3750    57.3220   115.2400   107.2300   106.7710    26.3470     2.2420   -23.5310 
  214.5000    55.6050   126.6120   119.9700   116.1280    26.0830     2.2340   -23.8480 
  214.6250    53.4540   132.3630   128.6330   114.8790    25.8410     2.2270   -24.1090 
  214.7500    53.5070   129.9850   129.5470   116.4650    25.6560     2.2250   -24.3170 
  214.8750    56.0150   119.0550   120.7700   121.6650    25.4240     2.2330   -24.4930 
  215.0000    59.2210   102.4410   104.4330   117.5400    25.1180     2.2510   -24.5940 
  215.1250    61.8820    85.6470    86.3770    93.3050    24.8440     2.2730   -24.6450 
  215.2500    62.7990    73.2600    72.1850    68.3890    24.7150     2.2910   -24.6530 
  215.3750    62.8620    67.0300    63.9290    54.2290    24.6810     2.2980   -24.6700 
  215.5000    62.4600    67.1970    62.0060    53.4290    24.6570     2.2920   -24.7240 
  215.6250    62.6360    74.2250    67.1760    66.0550    24.5580     2.2750   -24.8220 
  215.7500    63.4420    86.1720    77.9320    87.8250    24.3750     2.2550   -24.9610 
  215.8750    62.3660   101.3900    93.0600   104.9690    24.2760     2.2380   -25.1280 
  216.0000    59.2110   117.1550   109.8500   113.6040    24.4800     2.2280   -25.3590 
  216.1250    55.6190   129.2620   123.3460   115.7240    25.0600     2.2250   -25.6580 
  216.2500    54.6150   135.8630   130.7950   117.7950    25.6310     2.2280   -25.9630 
  216.3750    56.4080   137.1800   132.3650   121.5110    26.0140     2.2310   -26.2260 
  216.5000    59.4810   135.0170   130.1440   120.3040    26.1920     2.2320   -26.4380 
  216.6250    61.0130   131.4850   126.4140   111.8400    26.2250     2.2300   -26.6020 
  216.7500    59.0390   128.1320   122.8670   108.8590    26.2100     2.2290   -26.7060 
  216.8750    56.3360   125.2040   119.8750   112.5200    26.2120     2.2330   -26.7810 
  217.0000    56.0170   122.4260   117.2480   115.6910    26.1850     2.2410   -26.8140 
  217.1250    57.5840   119.1890   114.4390   111.9410    26.1260     2.2480   -26.7500 
  217.2500    58.2160   115.1420   110.9960   110.8910    26.0770     2.2490   -26.6660 
  217.3750    56.8960   110.2430   106.7420   111.9790    26.0530     2.2470   -26.5990 
  217.5000    55.5860   104.7870   101.8470   102.9080    26.0760     2.2430   -26.5790 
  217.6250    56.9940    99.3750    96.8450   100.3600    26.0950     2.2390   -26.6290 
  217.7500    59.5960    94.5860    92.3080    99.1380    26.1060     2.2320   -26.7550 
  217.8750    60.2770    90.7490    88.5270    95.7550    26.1140     2.2230   -26.8810 
  218.0000    58.7250    87.9800    85.6330    92.2760    26.1510     2.2160   -27.0290 
  218.1250    58.2400    86.2940    83.7660    90.3270    26.2480     2.2160   -27.2340 
  218.2500    58.9060    85.0960    82.5360    92.8720    26.3850     2.2260   -27.4730 
  218.3750    59.0440    83.7650    81.4250    95.5580    26.4720     2.2380   -27.6980 
  218.5000    59.0890    81.6640    79.7100    95.2980    26.4530     2.2450   -27.8860 
  218.6250    61.1890    78.3140    76.6150    94.3590    26.4000     2.2390   -27.9990 
  218.7500    63.9170    74.3490    72.5550    96.8730    26.3960     2.2260   -28.0680 
  218.8750    65.4150    70.7710    68.4940    94.6200    26.4610     2.2110   -28.1420 
  219.0000    65.4350    68.7550    65.6920    83.0060    26.5950     2.2040   -28.2010 
  219.1250    65.0540    69.7510    65.8170    73.5330    26.6390     2.2060   -28.2480 
  219.2500    64.3820    73.5940    69.0760    78.6180    26.5980     2.2110   -28.2780 
  219.3750    62.9460    79.5320    75.1440   100.4000    26.5150     2.2110   -28.3160 
