~V
VERS. 2.00: Ver 2.00
~W
STRT.M 50.0000:
STOP.M 270.0000:
STEP.M 0.1250:
NULL. -999.2500:
UWI. F11070:
~C
DEPT.M :
DEN.GM/CC :
GR.API :
RML.OHMM :
RI. :
RXO.OHMM :
CALI.CM :
SP.MV :
~A
# ...
  106.2500     2.1480    61.1770     8.5870     6.9490     9.0550    25.9630   -30.0390 
  106.3750     2.1460    59.1220     8.7000     6.9990     9.1590    26.0130   -29.6640 
  106.5000     2.1400    57.5920     8.7640     7.0330     9.1440    25.9970   -29.3160 
  106.6250     2.1290    56.8200     8.7780     7.0370     9.2060    26.0790   -28.9560 
  106.7500     2.1150    56.4410     8.7670     7.0130     9.3730    26.1630   -28.4640 
  106.8750     2.1020    56.3780     8.7340     6.9690     9.5450    26.2090   -27.9680 
  107.0000     2.0890    57.2060     8.6700     6.9170     9.5080    26.1540   -27.5700 
  107.1250     2.0840    59.0530     8.5780     6.8650     9.4330    25.8930   -27.1300 
  107.2500     2.0950    60.4170     8.4880     6.8200     9.1530    25.4410   -26.7180 
  107.3750     2.1180    62.1400     8.4280     6.7800     9.0080    25.0450   -26.4250 
  107.5000     2.1460    64.7660     8.4040     6.7400     9.2980    24.8790   -26.1290 
  107.6250     2.1660    66.0790     8.3960     6.6950     9.7490    24.9140   -25.8100 
  107.7500     2.1790    65.8710     8.3610     6.6390     9.5660    25.0870   -25.6500 
  107.8750     2.1950    65.1910     8.2760     6.5710     9.4480    25.3010   -25.5670 
  108.0000     2.2200    65.0820     8.1750     6.5130     9.4580    25.5980   -25.3960 
  108.1250     2.2530    66.0480     8.2000     6.5460     9.7500    25.8400   -25.3250 
  108.2500     2.2860    67.4280     8.4480     6.7300     9.6680    25.8440   -25.3480 
  108.3750     2.3170    69.8730     8.9350     7.0850     9.1320    25.6650   -25.3430 
  108.5000     2.3430    71.2200     9.5760     7.5700     9.4290    25.3180   -25.4510 
  108.6250     2.3720    68.7150    10.1430     8.0520    11.1420    24.8030   -25.7470 
  108.7500     2.4050    66.2290    10.4050     8.3520    12.2210    24.5180   -26.0460 
  108.8750     2.4230    66.7100    10.2670     8.3580    10.2780    24.7130   -26.3310 
  109.0000     2.3950    69.9320     9.8190     8.0820     9.0110    25.2160   -26.7020 
  109.1250     2.3060    71.5680     9.2730     7.6350     9.0900    25.7770   -26.9570 
  109.2500     2.2010    69.8270     8.8130     7.1960     9.2070    26.2580   -27.0710 
  109.3750     2.1120    65.7710     8.4920     6.8500     9.2760    26.5530   -27.1810 
  109.5000     2.0530    61.2650     8.2850     6.6230     9.3590    26.5460   -27.1840 
  109.6250     2.0380    61.5720     8.1360     6.5000     9.2670    26.2280   -27.0620 
  109.7500     2.0560    65.5580     8.0070     6.4250     9.0030    25.7580   -27.0250 
  109.8750     2.0960    67.3050     7.9180     6.3860     8.6730    25.2240   -27.0800 
  110.0000     2.1370    65.3760     7.8970     6.3870     8.5890    24.9330   -27.0130 
  110.1250     2.1500    63.0300     7.9490     6.4330     8.4030    25.0410   -26.7950 
  110.2500     2.1340    61.6750     8.0220     6.4950     8.2260    25.2820   -26.5760 
  110.3750     2.1090    61.3200     8.0540     6.5290     8.1900    25.3810   -26.2850 
  110.5000     2.0970    62.5970     7.9780     6.4880     8.1920    25.3340   -25.9690 
  110.6250     2.1010    65.0600     7.7570     6.3360     8.1590    25.2010   -25.8180 
  110.7500     2.1110    66.0000     7.4770     6.1240     7.9910    25.1010   -25.7060 
  110.8750     2.1250    65.9340     7.2340     5.9140     7.5870    25.0370   -25.5400 
  111.0000     2.1450    66.6470     7.1080     5.7660     7.1460    24.9730   -25.4560 
  111.1250     2.1680    67.4480     7.1590     5.7430     7.0790    24.9580   -25.4650 
  111.2500     2.1860    67.6740     7.3270     5.8260     7.7070    25.0400   -25.3370 
  111.3750     2.1950    67.1820     7.5230     5.9700     8.1450    25.0590   -25.1310 
  111.5000     2.2080    65.7280     7.6510     6.1030     8.2710    24.9270   -24.8820 
  111.6250     2.2420    64.4210     7.6230     6.1440     7.9740    24.8040   -24.4260 
  111.7500     2.2770    64.4440     7.4870     6.0950     7.6530    24.8230   -23.9910 
  111.8750     2.2790    64.5050     7.3280     6.0070     7.1990    24.8780   -23.8170 
  112.0000     2.2360    63.8590     7.2400     5.9460     6.9680    24.9060   -23.8500 
  112.1250     2.1800    65.1260     7.2890     5.9630     7.1770    24.9910   -24.0640 
  112.2500     2.1420    68.3170     7.4230     6.0340     7.7750    25.1290   -24.3960 
  112.3750     2.1220    69.7960     7.5750     6.1180     8.2350    25.2750   -24.6190 
  112.5000     2.1140    67.1970     7.6830     6.1760     8.5220    25.4000   -24.6500 
  112.6250     2.1170    63.4670     7.6920     6.1770     8.5730    25.4770   -24.6460 
  112.7500     2.1280    62.1920     7.6300     6.1380     8.4440    25.5220   -24.6830 
  112.8750     2.1410    63.0950     7.5350     6.0810     8.1810    25.5360   -24.6550 
  113.0000     2.1540    63.9500     7.4450     6.0280     7.7800    25.5300   -24.6070 
  113.1250     2.1640    62.4290     7.3860     5.9890     7.5870    25.5330   -24.7120 
  113.2500     2.1720    61.0620     7.3580     5.9640     7.6000    25.5200   -24.9450 
  113.3750     2.1760    61.6500     7.3550     5.9560     7.7560    25.4920   -25.3250 
  113.5000     2.1740    62.6740     7.3780     5.9720     7.8770    25.4920   -25.8330 
  113.6250     2.1680    62.3590     7.4250     6.0140     8.0570    25.4990   -26.2140 
  113.7500     2.1630    62.0300     7.4810     6.0680     8.1650    25.4880   -26.2540 
  113.8750     2.1610    63.2920     7.5260     6.1170     8.3570    25.5000   -26.1430 
  114.0000     2.1650    65.7740     7.5410     6.1440     8.5140    25.6220   -25.9920 
  114.1250     2.1730    66.7710     7.5180     6.1460     8.5180    25.9320   -25.6280 
  114.2500     2.1810    65.4520     7.4930     6.1520     8.4980    26.2260   -25.2220 
  114.3750     2.1860    63.4260     7.5190     6.1950     8.5350    26.2450   -24.7890 
  114.5000     2.1900    63.8780     7.6500     6.3140     8.6100    25.9980   -24.3190 
  114.6250     2.1950    68.2730     7.9340     6.5530     8.6800    25.7660   -24.0690 
  114.7500     2.2040    72.1370     8.3200     6.8890     8.8370    25.6940   -24.1570 
  114.8750     2.2160    73.4340     8.7320     7.2810     9.1200    25.7560   -24.3780 
  115.0000     2.2310    72.8620     9.0730     7.6570     9.3480    25.9280   -24.6050 
  115.1250     2.2420    71.3320     9.2260     7.9040     9.4680    26.0430   -24.9170 
  115.2500     2.2480    68.8320     9.2120     7.9840     9.5020    25.9430   -25.0780 
  115.3750     2.2470    66.5640     9.1040     7.9180     9.5160    25.8060   -25.0660 
  115.5000     2.2390    66.0480     8.9720     7.7560     9.3840    25.7080   -24.9710 
  115.6250     2.2310    68.4650     8.7850     7.5090     9.2380    25.6170   -24.6310 
  115.7500     2.2280    70.2350     8.4240     7.1450     9.3120    25.5050   -24.0860 
  115.8750     2.2310    70.9450     7.7910     6.6170     9.3140    25.3500   -23.5190 
  116.0000     2.2380    72.2660     6.9190     5.9450     8.7530    25.1210   -23.0180 
  116.1250     2.2440    75.8010     6.0800     5.2820     7.2340    24.9050   -22.5010 
  116.2500     2.2550    79.5950     5.6540     4.8650     5.9890    24.8070   -22.1540 
  116.3750     2.2810    80.5870     5.9530     4.9110     6.0610    24.6430   -22.0370 
  116.5000     2.3280    77.5520     7.2410     5.6340     7.4810    24.3780   -21.9860 
  116.6250     2.4000    70.5370     9.8970     7.4250    11.0590    24.1800   -22.0920 
  116.7500     2.4870    63.4460    13.5410    10.2080    20.0850    24.0240   -22.3400 
  116.8750     2.5730    58.9850    17.2480    13.4910    33.8220    23.9860   -22.6300 
  117.0000     2.6250    56.5250    19.3070    15.9130    44.8700    24.0850   -22.9320 
  117.1250     2.5910    57.5640    17.9310    15.5730    38.6020    24.1260   -23.4190 
  117.2500     2.4840    61.5420    14.6650    13.3310    23.8480    24.1210   -23.9730 
  117.3750     2.3420    65.3120    11.3380    10.6570    12.8840    24.2470   -24.4940 
