~V
VERS. 2.00: Ver 2.00
~W
STRT.M 7.0000:
STOP.M 259.0000:
STEP.M 0.1250:
NULL. -999.2500:
UWI. F11018:
~C
DEPT.M :
DEN.GM/CC :
SP.MV :
GR.API :
RML.OHMM :
RI. :
RXO.OHMM :
CALI.CM :
~A
# ...
  243.2500     2.4330   -10.2110    62.6660     9.3400     8.6600     8.1400    23.9520 
  243.3750     2.4490   -10.0700    63.8560     9.1130     8.3300     7.8500    23.8370 
  243.5000     2.4640    -9.9160    66.8330     9.0510     8.1340     7.7860    23.7050 
  243.6250     2.4760    -9.7760    68.7910     9.1330     8.0760     7.7770    23.5680 
  243.7500     2.4850    -9.6970    67.5800     9.3240     8.1360     7.6790    23.5140 
  243.8750     2.4920    -9.6630    65.8090     9.5430     8.2460     7.6280    23.5870 
  244.0000     2.4920    -9.6610    65.0860     9.7350     8.3550     7.9920    23.7260 
  244.1250     2.4810    -9.7020    63.6150     9.8420     8.4200     8.7240    23.8720 
  244.2500     2.4620    -9.7460    59.2930     9.7960     8.3950     8.8480    23.9250 
  244.3750     2.4460    -9.8150    55.6700     9.6250     8.2880     7.7800    23.8990 
  244.5000     2.4310    -9.9010    56.2390     9.3820     8.1230     7.0510    23.7890 
  244.6250     2.4070    -9.9940    58.7140     9.1140     7.9380     7.0450    23.6260 
  244.7500     2.3690   -10.0670    60.1060     8.8480     7.7780     7.4030    23.5570 
  244.8750     2.3420   -10.1100    62.5540     8.6090     7.6600     7.6930    23.5320 
  245.0000     2.3450   -10.1200    64.5290     8.4600     7.5810     7.9500    23.4610 
  245.1250     2.3720   -10.0970    63.9580     8.4810     7.5270     8.0500    23.3900 
  245.2500     2.3910   -10.0560    62.0820     8.7320     7.4910     7.9680    23.4700 
  245.3750     2.3910   -10.0290    62.4860     9.1130     7.4720     8.0050    23.6210 
  245.5000     2.3890   -10.0220    65.3380     9.5160     7.4800     8.1230    23.7060 
  245.6250     2.3990    -9.9920    68.0220     9.8670     7.5240     8.1230    23.7460 
  245.7500     2.4220    -9.9360    68.5890    10.1330     7.6130     8.0450    23.7500 
  245.8750     2.4410    -9.8850    67.6900    10.3210     7.7330     7.9850    23.7340 
  246.0000     2.4500    -9.8440    67.6700    10.4180     7.8750     8.0540    23.7130 
  246.1250     2.4520    -9.8200    67.9740    10.4060     8.0220     8.2870    23.7040 
  246.2500     2.4550    -9.8110    65.1400    10.2870     8.1410     8.5560    23.6930 
  246.3750     2.4600    -9.7680    59.3860    10.1360     8.2020     8.6480    23.6630 
  246.5000     2.4610    -9.7110    54.2940     9.9860     8.1890     8.7270    23.6240 
  246.6250     2.4560    -9.6730    53.6740     9.8380     8.0970     8.7170    23.5890 
  246.7500     2.4460    -9.6310    59.3830     9.6720     7.9370     8.5520    23.5630 
  246.8750     2.4370    -9.5500    65.2270     9.5080     7.7650     8.4670    23.5230 
  247.0000     2.4320    -9.4510    65.7950     9.3960     7.6230     8.8450    23.4860 
  247.1250     2.4310    -9.3550    63.1230     9.3790     7.5550    10.3270    23.5360 
  247.2500     2.4410    -9.2340    63.6620     9.5150     7.6110    14.0410    23.8020 
  247.3750     2.4600    -9.1100    66.3250     9.7920     7.7850    19.1650    24.2190 
  247.5000     2.4790    -8.9770    67.0170    10.1880     8.0570    23.9680    24.5210 
  247.6250     2.4930    -8.8470    65.3010    10.6510     8.3860    29.2780    24.6370 
  247.7500     2.4950    -8.7660    62.8620    11.0890     8.7100    34.3780    24.6650 
  247.8750     2.4900    -8.7270    60.3530    11.4320     8.9760    35.1030    24.6770 
  248.0000     2.4810    -8.6980    58.4780    11.6580     9.1660    33.5140    24.6830 
  248.1250     2.4700    -8.6570    57.7890    11.7850     9.2900    34.6880    24.6940 
  248.2500     2.4560    -8.6580    58.7620    11.8510     9.3640    33.8750    24.7200 
  248.3750     2.4430    -8.6870    58.7620    11.8790     9.4020    30.5090    24.7410 
  248.5000     2.4380    -8.7290    58.7620    11.8430     9.3870    26.7190    24.7480 
  248.6250     2.4460    -8.7840    58.7620    11.6990     9.2980    24.7440    24.7420 
  248.7500     2.4610    -8.8160    58.7620    11.4120     9.1080    25.6290    24.6940 
  248.8750     2.4700    -8.8050    58.7620    11.0320     8.8430    26.0880    24.5730 
  249.0000     2.4670    -8.7760    58.7620    10.6120     8.5300    26.0960    24.4330 
  249.1250     2.4570    -8.7220    58.7620    10.1950     8.2030    25.4940    24.4240 
  249.2500     2.4460    -8.6300    58.7620     9.8150     7.8940    22.0310    24.5790 
  249.3750     2.4420    -8.5230    58.7620     9.4690     7.6230    15.5700    24.6660 
  249.5000     2.4470    -8.3840    58.7620     9.1390     7.4040    10.9730    24.6300 
  249.6250     2.4590    -8.2200    58.7620     8.8020     7.2400     8.4880    24.5440 
  249.7500     2.4670    -8.0630    58.7620     8.4700     7.1400     7.5270    24.5060 
  249.8750     2.4620    -7.9090    58.7620     8.2250     7.0910     6.9250    24.4990 
  250.0000     2.4510    -7.7630    58.7620     8.1670     7.0860     6.5950    24.4990 
  250.1250     2.4480    -7.6460    58.7620     8.3710     7.1130     6.3890    24.4990 
  250.2500     2.4570    -7.6090    58.7620     8.8630     7.1670     6.3640    24.4990 
  250.3750     2.4670    -7.5990    58.7620     9.4280     7.2340     6.6170    24.4990 
  250.5000     2.4710    -7.6270    58.7620     9.8540     7.3040     7.0040    24.4990 
  250.6250     2.4730    -7.6940    58.7620    10.0330     7.3650     7.4030    24.4990 
  250.7500     2.4770    -7.8000    58.7620     9.9850     7.4070     7.7730    24.4880 
  250.8750     2.4820    -7.9650    58.7620     9.8770     7.4290     7.7760    24.4540 
  251.0000     2.4880    -8.1380    58.7620     9.8100     7.4380     7.5810    24.3920 
  251.1250     2.4920    -8.2910    58.7620     9.8280     7.4400     7.7510    24.3190 
  251.2500     2.4940    -8.4030    58.7620     9.8920     7.4410     8.1110    24.2600 
  251.3750     2.4940    -8.5400    58.7620     9.9290     7.4410     8.5730    24.2210 
  251.5000     2.4920    -8.6910    58.7620     9.9290     7.4410     9.0390    24.2100 
  251.6250     2.4900    -8.8150    58.7620     9.9130     7.4390     9.6510    24.2420 
  251.7500     2.4900    -8.8620    58.7620     9.9080     7.4330    10.5920    24.3240 
  251.8750     2.4890    -8.8660    58.7620     9.9300     7.4260    11.2920    24.3600 
  252.0000     2.4870    -8.8700    58.7620     9.9900     7.4200    11.3610    24.3700 
  252.1250     2.4860    -8.9300    58.7620    10.0750     7.4170    11.3960    24.3790 
  252.2500     2.4850    -9.0180    58.7620    10.1440     7.4160    11.6860    24.4140 
  252.3750     2.4800    -9.0820    58.7620    10.1650     7.4180    11.3650    24.4700 
  252.5000     2.4700    -9.1500    58.7620    10.1320     7.4200    10.4860    24.5220 
  252.6250     2.4580    -9.2030    58.7620    10.0660     7.4220     9.8960    24.5450 
  252.7500     2.4520    -9.2460    58.7620    10.0080     7.4240     9.6960    24.5390 
  252.8750     2.4500    -9.2940    58.7620     9.9790     7.4260     9.5690    24.5160 
  253.0000     2.4500    -9.3520    58.7620     9.9730     7.4270     9.5180    24.4770 
  253.1250     2.4540    -9.3920    58.7620     9.9700     7.4280     9.3590    24.4170 
  253.2500     2.4640    -9.3520    58.7620     9.9650     7.4320     8.6300    24.3090 
  253.3750     2.4730    -9.2900    58.7620     9.9590     7.4360     7.8690    24.2280 
  253.5000     2.4760    -9.2150    58.7620     9.9540     7.4400     7.7940    24.1540 
  253.6250     2.4750    -9.1650    58.7620     9.9510     7.4420     8.6980    24.0960 
  253.7500     2.4760    -9.1830    58.7620     9.9520     7.4430    10.5750    24.1070 
  253.8750     2.4790    -9.2040    58.7620     9.9570     7.4430    13.7390    24.1200 
  254.0000     2.4810    -9.2390    58.7620     9.9620     7.4440    18.4410    24.1350 
  254.1250     2.4860    -9.2490    58.7620     9.9660     7.4440    21.5170    24.1560 
  254.2500     2.5010    -9.2870    58.7620     9.9660     7.4440    23.6950    24.1810 
  254.3750     2.5220    -9.3280    58.7620     9.9660     7.4440    23.7720    24.1480 
