~V
VERS. 2.00: Ver 2.00
~W
STRT.M 50.0000:
STOP.M 276.0000:
STEP.M 0.1250:
NULL. -999.2500:
UWI. F11044:
~C
DEPT.M :
SP.MV :
GR.API :
RML.OHMM :
RI. :
RXO.OHMM :
CALI.CM :
DEN.GM/CC :
~A
   50.0000   199.4520    49.5530     4.9940     0.3740     1.3260    25.4470  -999.2500 
   50.1250   196.3900    52.8130     5.0960     0.3710     1.1860    25.4080  -999.2500 
   50.2500   194.0940    53.1030     5.2420     0.3750     1.0750    25.3750  -999.2500 
   50.3750   192.4090    49.2320     5.3770     0.3830     0.9920    25.3650  -999.2500 
   50.5000   191.4620    45.2510     5.4490     0.3920     0.9700    25.3650  -999.2500 
   50.6250   191.7380    46.1340     5.3970     0.4010     0.9850    25.3650  -999.2500 
   50.7500   192.9300    47.8640     5.2350     0.4040     0.9860    25.3620  -999.2500 
   50.8750   194.7240    45.9940     4.9930     0.4010     0.9550    25.3520  -999.2500 
   51.0000   196.5400    43.5590     4.7340     0.3920     0.9340    25.3290  -999.2500 
   51.1250   197.7890    44.4030     4.5520     0.3820     0.9990    25.3180  -999.2500 
   51.2500   198.5440    46.8110     4.4930     0.3780     1.1400    25.3280  -999.2500 
   51.3750   198.9530    47.8680     4.5490     0.3820     1.4020    25.3800  -999.2500 
   51.5000   198.8680    47.9820     4.6520     0.3870     1.7560    25.4740  -999.2500 
   51.6250   197.5380    49.5070     4.6920     0.3850     2.3860    25.5890  -999.2500 
   51.7500   195.0430    51.3510     4.6230     0.3770     2.9150    25.6470     0.0000 
   51.8750   191.4040    52.0840     4.4620     0.3640     2.8640    25.6010     0.0000 
   52.0000   186.5630    50.2490     4.2640     0.3550     2.1340    25.5070     0.0000 
   52.1250   180.5080    47.0490     4.0930     0.3540     1.4820    25.4990     0.0030 
   52.2500   173.5010    45.7840     3.9690     0.3590     1.1560    25.6380     1.0360 
   52.3750   165.8060    46.6430     3.8800     0.3660     0.8610    25.7390     2.0590 
   52.5000   158.0220    47.3580     3.8090     0.3700     0.4350    25.7710     2.0560 
   52.6250   150.5560    47.2900     3.7530     0.3680     0.1040    25.7190     2.0520 
   52.7500   143.2960    47.8480     3.7210     0.3650    -0.0350    25.6040     2.0460 
   52.8750   136.4680    48.3470     3.7180     0.3620    -0.0750    25.3750     2.0400 
   53.0000   130.4040    46.8050     3.7390     0.3610    -0.0820    25.1030     2.0340 
   53.1250   125.4950    45.0840     3.7690     0.3640    -0.0670    24.9620     2.0280 
   53.2500   121.6730    45.5630     3.7870     0.3700    -0.0430    24.9170     2.0230 
   53.3750   118.5100    46.8000     3.7770     0.3790    -0.0140    24.9650     2.0170 
   53.5000   115.2770    46.2790     3.7370     0.3830     0.0160    25.0730     2.0100 
   53.6250   111.8670    45.5690     3.6830     0.3760     0.0530    25.2500     2.0040 
   53.7500   108.5950    46.6410     3.6430     0.3570     0.1000    25.4350     2.0020 
   53.8750   105.5110    48.4440     3.6350     0.3360     0.1310    25.5810     2.0030 
   54.0000   102.6190    48.2940     3.6600     0.3210     0.1310    25.4670     2.0100 
   54.1250    99.6610    46.6650     3.7050     0.3220     0.0960    25.1060     2.0170 
   54.2500    96.5270    46.5990     3.7430     0.3330     0.0780    24.9540     2.0250 
   54.3750    93.5860    47.8950     3.7610     0.3440     0.0580    25.0500     2.0320 
   54.5000    91.3460    48.1360     3.7460     0.3530     0.0000    25.2400     2.0410 
   54.6250    90.0350    46.6980     3.6740     0.3570    -0.0800    25.3890     2.0510 
   54.7500    89.1850    45.7970     3.5470     0.3600    -0.1100    25.4690     2.0600 
   54.8750    88.5280    46.5890     3.3860     0.3630    -0.1100    25.3620     2.0700 
   55.0000    87.8830    47.7990     3.2380     0.3650    -0.1100    25.0420     2.0860 
   55.1250    87.5950    47.7520     3.1670     0.3670    -0.1100    25.1260     2.1160 
   55.2500    88.1560    45.4190     3.1750     0.3700    -0.1100    25.5440     2.1630 
   55.3750    89.4720    42.3680     3.2240     0.3740    -0.1100    25.9020     2.2250 
   55.5000    91.2050    40.4430     3.2480     0.3790    -0.1100    26.0290     2.2970 
   55.6250    93.2250    40.7300     3.1870     0.3840    -0.1030    26.0270     2.3670 
   55.7500    95.5370    41.3760     3.0530     0.3910    -0.0980    26.0240     2.4260 
   55.8750    98.3190    41.4960     2.8880     0.4000    -0.1000    26.0240     2.4690 
   56.0000   101.6250    41.4440     2.7400     0.4070    -0.1070    26.0270     2.4940 
   56.1250   105.2020    43.2900     2.6620     0.4090    -0.1100    26.0220     2.5060 
   56.2500   108.5790    45.9650     2.6560     0.4040    -0.1100    25.9510     2.5160 
   56.3750   111.6540    47.0480     2.6850     0.3910    -0.1070    25.7300     2.5250 
   56.5000   114.5200    45.9640     2.6320     0.3700    -0.1000    25.3610     2.5310 
   56.6250   117.2490    45.3170     2.2680     0.3320    -0.0900    25.1180     2.5280 
   56.7500   119.6630    46.0750     1.5890     0.2740    -0.0780    24.9860     2.5270 
   56.8750   121.1920    47.4050     0.7820     0.2030    -0.0600    24.8830     2.5480 
   57.0000   121.2660    48.9020     0.1150     0.1360     0.0010    24.8060     2.6010 
   57.1250   118.8100    52.9600    -0.2070     0.0890     0.3240    24.7590     2.6680 
   57.2500   113.3050    59.5380    -0.2640     0.0650     0.9560    24.7210     2.6960 
   57.3750   104.6690    68.8500    -0.1100     0.0740     1.6120    24.7010     2.6520 
   57.5000    93.7190    79.1130     0.2560     0.1400     2.1790    24.7180     2.5400 
   57.6250    81.2050    88.7290     0.9410     0.3370     3.8650    24.7130     2.4060 
   57.7500    67.9760    97.2270     1.9250     0.7220     5.1650    24.5740     2.3080 
   57.8750    54.6660   102.9840     3.0960     1.3620     6.1050    24.3610     2.2640 
   58.0000    41.9520   103.9590     4.2160     2.2500     6.2990    24.2230     2.2640 
   58.1250    30.8460    99.6550     5.0240     3.2760     6.1640    24.2530     2.2870 
   58.2500    22.2150    93.8720     5.5820     4.2580     6.9290    24.3270     2.3160 
   58.3750    16.3780    89.9350     6.0310     5.1110     8.8790    24.4150     2.3440 
   58.5000    12.5190    89.6350     6.4410     5.7730    11.1980    24.5220     2.3620 
   58.6250     9.8820    93.7020     6.7180     6.1350     9.1870    24.5850     2.3610 
   58.7500     7.8800    98.1610     6.8050     6.2500     7.8880    24.5560     2.3410 
   58.8750     6.2190    99.3620     6.7470     6.2120     7.5260    24.4880     2.3150 
   59.0000     4.7800    97.4880     6.6720     6.1440     7.9030    24.4230     2.2940 
   59.1250     3.6080    95.9660     6.7270     6.1600     9.0510    24.3840     2.2840 
   59.2500     2.5030    95.5600     6.9250     6.2790     9.5500    24.3320     2.2760 
   59.3750     1.4710    95.6410     7.2200     6.4610     8.5400    24.2440     2.2660 
   59.5000     0.5150    94.7570     7.5360     6.6430     7.3120    24.0970     2.2500 
   59.6250    -0.3810    94.2790     7.7680     6.7500     7.3990    23.8180     2.2360 
   59.7500    -1.1360    95.7910     7.8410     6.7450     7.8650    23.6160     2.2320 
   59.8750    -1.6790    98.8930     7.7160     6.6100     7.4600    23.6710     2.2380 
   60.0000    -2.1200   101.7650     7.4210     6.3700     6.7950    23.9280     2.2530 
   60.1250    -2.4630   104.8890     7.0670     6.0940     6.3970    24.2260     2.2740 
   60.2500    -2.6560   109.1920     6.8110     5.8810     6.5610    24.3680     2.2960 
   60.3750    -2.8720   112.9010     6.7400     5.7960     6.5350    24.3940     2.3180 
   60.5000    -3.1080   112.4600     6.8700     5.8640     6.0630    24.3700     2.3380 
   60.6250    -3.3000   106.6250     7.1640     6.0690     6.2390    24.3400     2.3470 
   60.7500    -3.5120   100.2160     7.4800     6.3100     6.8580    24.3140     2.3430 
   60.8750    -3.7950    98.3820     7.7050     6.5020     7.5360    24.4120     2.3250 
   61.0000    -4.0950   103.0560     7.7530     6.5790     7.9300    24.6390     2.3010 
   61.1250    -4.3210   109.2610     7.5860     6.4970     7.2810    24.7600     2.2810 
