~V
VERS. 2.00: Ver 2.00
~W
STRT.M 60.0000:
STOP.M 279.0000:
STEP.M 0.1250:
NULL. -999.2500:
UWI. F11060:
~C
DEPT.M :
GR.API :
RML.OHMM :
RI. :
RXO.OHMM :
CALI.CM :
DEN.GM/CC :
SP.MV :
~A
# ...
   71.2500    90.8480     7.4180     5.6210     5.9060    24.2270     2.2420   -10.4920 
   71.3750    89.5150     7.3220     5.4950     5.8140    24.1990     2.2430   -10.5630 
   71.5000    83.1120     7.4360     5.5240     6.4860    24.1530     2.2270   -10.6890 
   71.6250    76.6320     7.7590     5.7170     7.2140    24.1030     2.2060   -10.9430 
   71.7500    72.2010     8.2330     6.0450     7.6260    24.0380     2.1900   -11.3710 
   71.8750    69.2430     8.8300     6.5040     8.1200    24.0090     2.1740   -11.9270 
   72.0000    66.9840     9.4860     7.0680     8.6570    24.0180     2.1490   -12.4860 
   72.1250    65.5320    10.0590     7.6630     9.9790    24.1010     2.1090   -12.9600 
   72.2500    63.6500    10.3940     8.1590    13.9420    24.2020     2.0680   -13.3660 
   72.3750    60.3560    10.3790     8.4380    18.5330    24.1190     2.0400   -13.6990 
   72.5000    57.5040    10.0210     8.4320    15.4530    23.7310     2.0380   -13.9290 
   72.6250    59.7710     9.4680     8.1620     9.9690    23.3720     2.0660   -14.0000 
   72.7500    64.5660     8.9680     7.8120     8.2740    23.2330     2.1030   -14.0370 
   72.8750    67.2590     8.6400     7.5000     8.1920    23.2390     2.1350   -14.0790 
   73.0000    66.2610     8.5030     7.2920     8.4400    23.3880     2.1540   -14.1150 
   73.1250    63.4130     8.5060     7.2080     8.7080    23.7130     2.1620   -14.1260 
   73.2500    61.5650     8.5460     7.1820     9.0020    24.0730     2.1630   -14.0950 
   73.3750    62.7410     8.5900     7.1680     9.2030    24.2890     2.1570   -14.0540 
   73.5000    66.7910     8.6450     7.1440     9.1820    24.3550     2.1490   -14.0560 
   73.6250    68.2070     8.7380     7.1060     9.0800    24.3390     2.1440   -14.0320 
   73.7500    64.8500     8.8580     7.0690     9.0060    24.3390     2.1440   -13.8530 
   73.8750    61.0290     8.9780     7.0410     8.9590    24.3740     2.1450   -13.6230 
   74.0000    62.1410     9.0630     7.0250     8.8920    24.4600     2.1470   -13.4610 
   74.1250    66.6590     9.0830     7.0170     8.7730    24.5050     2.1520   -13.2920 
   74.2500    68.1480     9.0580     7.0090     8.6400    24.4410     2.1600   -13.0560 
   74.3750    65.7530     9.0150     7.0000     8.5730    24.3640     2.1710   -12.7790 
   74.5000    64.6720     8.9820     6.9870     8.6170    24.3470     2.1790   -12.5290 
   74.6250    66.8590     8.9740     6.9670     9.1580    24.3900     2.1780   -12.4080 
   74.7500    66.9440     8.9610     6.9260     9.9480    24.4060     2.1710   -12.3260 
   74.8750    64.0060     8.9110     6.8470    10.0950    24.3980     2.1640   -12.2030 
   75.0000    62.3880     8.8190     6.7350     9.3050    24.3420     2.1590   -12.0920 
   75.1250    66.3770     8.7530     6.6390     8.6210    24.3190     2.1550   -12.0900 
   75.2500    69.7120     8.7970     6.6220     8.2590    24.3730     2.1500   -12.1400 
   75.3750    67.8640     8.9830     6.7140     8.1690    24.5500     2.1450   -12.2210 
   75.5000    64.1030     9.2760     6.9030     8.1590    24.8540     2.1390   -12.2480 
   75.6250    62.6250     9.5740     7.1300     8.2860    25.1340     2.1270   -12.2300 
   75.7500    63.3120     9.7630     7.3090     8.6370    25.1500     2.1150   -12.3160 
   75.8750    64.8330     9.7920     7.3910     8.8760    24.9160     2.1130   -12.4250 
   76.0000    65.5740     9.6890     7.3740     8.9650    24.7280     2.1320   -12.4330 
   76.1250    63.2040     9.5440     7.2990     8.9940    24.6070     2.1670   -12.4160 
   76.2500    59.4150     9.4500     7.2300     9.0580    24.4050     2.1930   -12.3830 
   76.3750    58.1130     9.4420     7.1940     9.1050    24.1400     2.1960   -12.2810 
   76.5000    60.4660     9.5130     7.1920     9.1610    24.0160     2.1800   -12.1370 
   76.6250    61.7470     9.6000     7.2070     9.1650    23.9430     2.1650   -11.9330 
   76.7500    59.5710     9.6380     7.2190     9.1830    23.8390     2.1580   -11.6860 
   76.8750    55.4660     9.6190     7.2180     9.1500    23.6550     2.1540   -11.4260 
   77.0000    53.7770     9.5680     7.1970     9.0630    23.4920     2.1480   -11.1080 
   77.1250    58.4790     9.5080     7.1350     9.0090    23.4450     2.1400   -10.7030 
   77.2500    66.5930     9.4490     7.0290     8.9630    23.4460     2.1380   -10.3250 
   77.3750    72.9600     9.3820     6.8920     8.8410    23.4340     2.1400    -9.9790 
   77.5000    74.6550     9.3000     6.7460     8.5780    23.4170     2.1460    -9.6330 
   77.6250    72.3960     9.2200     6.6280     8.2560    23.4080     2.1560    -9.2430 
   77.7500    70.4500     9.1860     6.5630     8.0250    23.4050     2.1680    -8.8080 
   77.8750    70.0080     9.2290     6.5660     7.9520    23.4050     2.1810    -8.4590 
   78.0000    69.1740     9.3470     6.6390     8.0600    23.4190     2.1890    -8.2440 
   78.1250    67.3570     9.4710     6.7460     8.3210    23.4560     2.1870    -8.0470 
   78.2500    65.2350     9.5010     6.8120     8.3900    23.5130     2.1790    -7.8950 
   78.3750    62.8480     9.3820     6.7850     8.3130    23.5690     2.1690    -7.8210 
   78.5000    61.6940     9.1300     6.6570     8.3360    23.6180     2.1600    -7.8070 
   78.6250    65.6330     8.8310     6.4710     8.0390    23.5510     2.1580    -7.8260 
   78.7500    71.4860     8.6080     6.3130     7.5240    23.3990     2.1650    -7.8420 
   78.8750    73.5160     8.5250     6.2310     7.5340    23.2940     2.1780    -7.8670 
   79.0000    71.9690     8.5820     6.2330     8.1950    23.2810     2.1880    -7.9560 
   79.1250    72.0990     8.7160     6.2830     8.7960    23.3690     2.1900    -8.0650 
   79.2500    71.0410     8.7950     6.3080     8.7770    23.4440     2.1900    -8.1320 
   79.3750    66.7700     8.7260     6.2590     8.4920    23.4800     2.1930    -8.2120 
   79.5000    65.0820     8.4940     6.1230     8.1650    23.4960     2.1960    -8.3740 
   79.6250    69.6600     8.1990     5.9550     8.1430    23.5210     2.1950    -8.6560 
   79.7500    73.4200     8.0130     5.8460     8.0340    23.5230     2.1880    -8.9700 
   79.8750    72.9540     8.0390     5.8510     7.6120    23.4950     2.1770    -9.2350 
   80.0000    70.9910     8.3010     5.9880     7.6820    23.4640     2.1610    -9.4880 
   80.1250    68.3630     8.7470     6.2490     8.7510    23.4570     2.1460    -9.8470 
   80.2500    64.4830     9.2190     6.5600     9.5540    23.5070     2.1400   -10.1480 
   80.3750    59.6970     9.6020     6.8620     9.6560    23.6610     2.1440   -10.3260 
   80.5000    54.2110     9.8260     7.1010     9.5060    23.9350     2.1600   -10.4060 
   80.6250    50.2390     9.8420     7.2210     9.5320    24.1690     2.1810   -10.3960 
   80.7500    50.3600     9.7190     7.2350    10.0950    24.2790     2.2020   -10.2940 
   80.8750    53.2760     9.5680     7.1950    11.2790    24.2920     2.2180   -10.0280 
   81.0000    55.0870     9.5900     7.2190    12.0120    24.3890     2.2220    -9.5110 
   81.1250    54.5880    10.1110     7.5150    11.2140    24.6580     2.2130    -8.7820 
   81.2500    54.2370    11.1830     8.1590    10.5340    24.9460     2.2060    -7.9470 
   81.3750    55.2850    12.6750     9.1320    11.0990    24.8620     2.2160    -6.9420 
   81.5000    57.7900    14.1600    10.2240    15.1560    24.3410     2.2550    -5.7540 
   81.6250    61.8850    14.7270    10.8550    26.0810    23.7050     2.3140    -4.4650 
   81.7500    69.2270    13.9420    10.5830    23.7840    23.2740     2.3570    -3.2100 
   81.8750    80.3940    12.0410     9.4310    13.3360    23.0020     2.3700    -2.0140 
   82.0000    90.0180     9.8040     7.8780     8.5300    22.8230     2.3600    -0.9040 
   82.1250    91.0180     8.0850     6.5140     6.8050    22.8250     2.3420     0.0720 
   82.2500    88.9210     7.0840     5.5780     6.2040    23.0620     2.3200     0.8160 
   82.3750    90.0810     6.7010     5.0780     5.7530    23.5510     2.3010     1.3130 
