~V
VERS. 2.00: Ver 2.00
~W
STRT.M 52.0000:
STOP.M 235.0000:
STEP.M 0.1250:
NULL. -999.2500:
UWI. F11014:
~C
DEPT.M :
DEN.GM/CC :
GR.API :
RML.OHMM :
RI. :
RXO.OHMM :
CALI.CM :
SP.MV :
~A
# ...
  142.0000     2.5500    55.8190    18.3030    16.9810    18.7340    24.7280    -2.1970 
  142.1250     2.5570    55.5270    18.1260    16.7900    18.6620    24.7070    -2.1940 
  142.2500     2.5550    55.0810    17.8510    16.4960    18.0480    24.6790    -2.1980 
  142.3750     2.5490    53.7680    17.5950    16.2030    17.0640    24.6620    -2.1550 
  142.5000     2.5430    51.9070    17.4580    16.0000    16.3520    24.6550    -2.1070 
  142.6250     2.5320    51.2550    17.4740    15.9240    16.3240    24.6570    -2.0830 
  142.7500     2.5140    52.5350    17.6180    15.9630    16.9570    24.6700    -2.0690 
  142.8750     2.4980    53.4870    17.8210    16.0820    17.7050    24.6840    -2.0660 
  143.0000     2.4900    51.9330    18.0060    16.2210    18.1970    24.6860    -2.0720 
  143.1250     2.4910    48.9650    18.1300    16.3380    18.1740    24.6760    -2.0740 
  143.2500     2.4930    47.7960    18.1950    16.4260    17.6730    24.6660    -2.0700 
  143.3750     2.4930    50.0700    18.2280    16.5080    17.3390    24.6610    -2.0670 
  143.5000     2.4890    53.8250    18.2670    16.6120    17.5630    24.6520    -2.0650 
  143.6250     2.4850    56.0750    18.3570    16.7610    17.9670    24.6030    -2.0810 
  143.7500     2.4850    56.1310    18.5220    16.9610    18.4330    24.4620    -2.0980 
  143.8750     2.4940    56.1560    18.7330    17.1730    18.4720    24.2770    -2.0720 
  144.0000     2.5080    57.0130    18.9020    17.3130    18.2170    24.1510    -1.9980 
  144.1250     2.5120    56.9410    18.9130    17.2910    18.0780    24.1460    -1.9370 
  144.2500     2.5010    54.8350    18.6550    17.0330    17.9170    24.3100    -1.9490 
  144.3750     2.4730    53.3460    18.0200    16.4680    17.1200    24.5730    -1.9770 
  144.5000     2.4420    54.2010    17.0460    15.6340    15.8840    24.7090    -1.9420 
  144.6250     2.4220    55.2960    15.8890    14.6510    14.8980    24.5950    -1.8940 
  144.7500     2.4240    53.9480    14.7290    13.6520    13.9290    24.3740    -1.9160 
  144.8750     2.4400    50.7630    13.8030    12.8110    12.9120    24.2570    -1.9840 
  145.0000     2.4550    48.6390    13.2750    12.2660    12.3230    24.3030    -2.0230 
  145.1250     2.4610    48.8040    13.2050    12.0870    12.3810    24.4300    -2.0250 
  145.2500     2.4600    50.1020    13.5810    12.2870    12.6930    24.5660    -2.0260 
  145.3750     2.4600    51.2450    14.3290    12.8380    13.0560    24.6560    -2.0380 
  145.5000     2.4650    52.2800    15.2580    13.5960    14.0400    24.7100    -2.0530 
  145.6250     2.4750    53.4450    16.1300    14.3640    15.5790    24.7600    -2.0590 
  145.7500     2.4850    54.1150    16.7610    14.9700    16.3680    24.7970    -2.0690 
  145.8750     2.4900    54.2710    17.0380    15.2850    16.1680    24.7860    -2.0960 
  146.0000     2.4930    54.8260    17.0150    15.3240    15.9110    24.7510    -2.1270 
  146.1250     2.4960    55.6910    16.8170    15.1740    15.7380    24.7350    -2.1590 
  146.2500     2.4970    56.2840    16.5380    14.9120    15.4540    24.7800    -2.1820 
  146.3750     2.4910    56.4950    16.2510    14.6110    15.4740    24.8160    -2.1810 
  146.5000     2.4810    56.5140    16.0190    14.3370    15.8120    24.8200    -2.1850 
  146.6250     2.4750    55.4640    15.8950    14.1420    15.7300    24.7910    -2.2140 
  146.7500     2.4740    52.4740    15.9200    14.0710    14.9700    24.7610    -2.2300 
  146.8750     2.4740    49.0550    16.1190    14.1620    14.6680    24.7240    -2.2040 
  147.0000     2.4700    48.3810    16.4360    14.3880    15.7140    24.6880    -2.1810 
  147.1250     2.4620    50.6500    16.7660    14.6710    16.9790    24.6850    -2.1850 
  147.2500     2.4530    52.6180    17.0050    14.9130    17.3700    24.7280    -2.1980 
  147.3750     2.4420    51.9030    17.0510    14.9990    17.4510    24.7500    -2.2140 
  147.5000     2.4330    50.1660    16.8820    14.8840    17.2400    24.7210    -2.2190 
  147.6250     2.4320    49.4420    16.5450    14.5970    16.2230    24.6780    -2.2150 
  147.7500     2.4380    49.6110    16.1070    14.2000    14.9540    24.6520    -2.2240 
  147.8750     2.4460    50.6300    15.6290    13.7540    14.2090    24.6490    -2.2450 
  148.0000     2.4570    52.5120    15.1520    13.3040    13.6930    24.6820    -2.2840 
  148.1250     2.4680    53.7580    14.7200    12.8910    13.4110    24.7720    -2.3350 
  148.2500     2.4750    53.2590    14.3930    12.5620    13.2570    24.8600    -2.3460 
  148.3750     2.4720    52.2780    14.2740    12.3890    13.0660    24.9320    -2.3550 
  148.5000     2.4630    53.1650    14.4220    12.4210    12.8770    24.9670    -2.4310 
  148.6250     2.4590    55.8170    14.8290    12.6660    13.0690    24.9690    -2.4970 
  148.7500     2.4690    57.6380    15.4140    13.0880    13.9580    24.9630    -2.4760 
  148.8750     2.4870    56.8830    15.9830    13.5610    15.6400    24.9440    -2.4610 
  149.0000     2.5000    55.1330    16.3200    13.9020    17.4430    24.8780    -2.4960 
  149.1250     2.5000    54.8620    16.3130    13.9800    17.6550    24.7820    -2.4910 
  149.2500     2.4910    55.6990    15.9910    13.7720    15.7740    24.7190    -2.4560 
  149.3750     2.4760    55.2780    15.5190    13.3820    14.1250    24.7070    -2.4730 
  149.5000     2.4600    53.8370    15.1210    12.9910    13.5280    24.6780    -2.4780 
  149.6250     2.4510    53.4280    14.9450    12.7490    13.7380    24.6390    -2.4310 
  149.7500     2.4520    54.3760    15.0170    12.7150    14.0510    24.6290    -2.4130 
  149.8750     2.4600    55.7630    15.2850    12.8840    14.2170    24.6390    -2.4530 
  150.0000     2.4720    57.1520    15.6330    13.1740    14.6500    24.6680    -2.4830 
  150.1250     2.4880    57.8880    15.9640    13.4960    15.0760    24.7150    -2.4850 
  150.2500     2.5050    57.3700    16.2440    13.8040    15.2520    24.7460    -2.5120 
  150.3750     2.5180    56.1450    16.4930    14.0820    14.9650    24.7240    -2.5310 
  150.5000     2.5230    55.3520    16.7450    14.3360    14.9100    24.6740    -2.5140 
  150.6250     2.5250    54.2050    16.9940    14.5580    15.1560    24.6150    -2.5440 
  150.7500     2.5280    51.6770    17.1970    14.7270    15.3490    24.5760    -2.6010 
  150.8750     2.5320    50.7250    17.2670    14.7910    15.3410    24.5800    -2.5960 
  151.0000     2.5300    53.1620    17.1230    14.6960    14.9790    24.5870    -2.5820 
  151.1250     2.5240    57.0010    16.7220    14.3970    14.4960    24.5450    -2.5930 
  151.2500     2.5200    58.9890    16.0650    13.8840    13.9520    24.4370    -2.6030 
  151.3750     2.5240    58.4520    15.2220    13.2130    13.1270    24.3150    -2.5960 
  151.5000     2.5310    57.8920    14.3670    12.5270    12.2820    24.2340    -2.5760 
  151.6250     2.5350    58.4680    13.7060    11.9950    11.7900    24.1760    -2.5480 
  151.7500     2.5360    59.6010    13.4030    11.7490    11.5470    24.1190    -2.5290 
  151.8750     2.5410    59.9640    13.5810    11.9050    11.5000    24.0940    -2.4950 
  152.0000     2.5500    58.9520    14.1760    12.4460    11.6640    24.1000    -2.4220 
  152.1250     2.5630    57.4670    14.9780    13.2490    12.4870    24.0770    -2.3710 
  152.2500     2.5770    56.6150    15.7340    14.1270    14.1560    23.9650    -2.3080 
  152.3750     2.5860    57.2290    16.1480    14.7940    15.4200    23.7970    -2.2320 
  152.5000     2.5870    58.3540    16.1080    15.0610    15.6150    23.6340    -2.2080 
  152.6250     2.5810    58.7860    15.7000    14.9130    14.9840    23.4970    -2.1710 
  152.7500     2.5700    58.3190    15.0960    14.4610    13.8710    23.3970    -2.0810 
  152.8750     2.5610    56.9970    14.5020    13.8900    12.7680    23.3900    -2.0490 
  153.0000     2.5550    55.5440    14.0570    13.3690    11.9070    23.4520    -2.0800 
  153.1250     2.5490    54.3410    13.7900    12.9810    11.3890    23.5520    -2.0790 
