~V
VERS. 2.00: Ver 2.00
~W
STRT.M 53.0000:
STOP.M 220.0000:
STEP.M 0.1250:
NULL. -999.2500:
UWI. F11005:
~C
DEPT.M :
DEN.GM/CC :
GR.API :
RML.OHMM :
RI. :
RXO.OHMM :
CALI.CM :
SP.MV :
~A
# ...
  131.7500     2.4590    67.7210    18.9250    16.8870    14.7760    24.4810    -9.9280 
  131.8750     2.4530    67.4600    18.4630    16.5760    14.3460    24.5090    -9.9010 
  132.0000     2.4470    66.3080    17.9290    16.1860    13.9330    24.5520    -9.8530 
  132.1250     2.4460    64.0040    17.4640    15.8370    12.9460    24.5610    -9.7650 
  132.2500     2.4490    61.6830    17.1750    15.6160    12.7940    24.5240    -9.5860 
  132.3750     2.4560    61.1910    17.1270    15.5760    12.9780    24.4610    -9.3370 
  132.5000     2.4650    62.3100    17.3430    15.7470    13.3790    24.4090    -9.1090 
  132.6250     2.4730    64.7440    17.8050    16.1540    13.6360    24.3790    -8.9600 
  132.7500     2.4760    65.1670    18.3170    16.6550    13.7120    24.3650    -8.8410 
  132.8750     2.4730    63.5490    18.6570    17.0460    13.7480    24.3250    -8.7460 
  133.0000     2.4660    62.5420    18.6050    17.0860    14.3260    24.3450    -8.7230 
  133.1250     2.4590    65.6910    17.9720    16.5420    14.9240    24.3420    -8.7990 
  133.2500     2.4570    69.3170    16.9780    15.6150    14.4720    24.3140    -8.9160 
  133.3750     2.4590    67.7750    15.9170    14.5980    12.7330    24.3110    -9.0290 
  133.5000     2.4610    62.8210    15.1130    13.7960    11.2320    24.3710    -9.1220 
  133.6250     2.4550    61.2310    14.8970    13.4940    11.6240    24.4130    -9.1580 
  133.7500     2.4400    61.4020    15.2250    13.6800    12.4230    24.4420    -9.1320 
  133.8750     2.4210    58.9820    15.9620    14.2800    13.3700    24.5110    -9.1010 
  134.0000     2.4060    56.4270    16.8720    15.1180    14.3020    24.6090    -9.0630 
  134.1250     2.4050    58.2540    17.6600    15.9190    14.7060    24.6530    -8.9780 
  134.2500     2.4160    59.5260    18.1820    16.4820    14.8170    24.6790    -8.8900 
  134.3750     2.4320    57.8660    18.4510    16.7830    14.3710    24.7440    -8.8460 
  134.5000     2.4430    56.4220    18.5920    16.9270    14.1900    24.8390    -8.8480 
  134.6250     2.4420    59.5540    18.7770    17.0830    14.9010    25.0180    -8.8970 
  134.7500     2.4330    63.5940    19.0920    17.3550    15.8850    25.1430    -8.9720 
  134.8750     2.4240    65.0210    19.5130    17.7420    16.3510    25.1700    -8.9930 
  135.0000     2.4230    64.1950    19.9450    18.1670    16.6950    25.1430    -8.9520 
  135.1250     2.4330    62.4380    20.2430    18.4940    17.5100    25.1950    -8.9410 
  135.2500     2.4440    60.0570    20.3550    18.6540    17.7800    25.2560    -9.0010 
  135.3750     2.4510    56.2860    20.2960    18.6530    17.5440    25.3170    -9.0760 
  135.5000     2.4530    53.5250    20.1390    18.5610    16.8500    25.3420    -9.0960 
  135.6250     2.4550    57.4990    19.9760    18.4680    15.9690    25.2730    -9.0780 
  135.7500     2.4630    63.7920    19.8580    18.4220    15.2280    25.1470    -9.1250 
  135.8750     2.4770    65.4880    19.7750    18.4140    15.5220    25.1500    -9.2750 
  136.0000     2.4910    61.5310    19.6730    18.3900    16.4240    25.2540    -9.4550 
  136.1250     2.4960    57.5480    19.4580    18.2520    17.3220    25.3390    -9.6080 
  136.2500     2.4910    55.8370    19.1000    17.9670    16.5990    25.3470    -9.7550 
  136.3750     2.4770    54.0670    18.6200    17.5540    15.5980    25.3140    -9.9070 
  136.5000     2.4590    52.3370    18.0900    17.0830    14.9720    25.2760   -10.0750 
  136.6250     2.4450    52.6110    17.6260    16.6650    14.0790    25.2920   -10.2340 
  136.7500     2.4400    53.5750    17.3090    16.3730    13.5390    25.3440   -10.3760 
  136.8750     2.4470    54.0250    17.1620    16.2370    13.4150    25.3710   -10.5230 
  137.0000     2.4650    54.2080    17.1510    16.2380    13.6390    25.3820   -10.6570 
  137.1250     2.4890    55.0890    17.1980    16.3170    14.1500    25.3990   -10.7640 
  137.2500     2.5080    55.3650    17.2080    16.3740    14.2060    25.3940   -10.8330 
  137.3750     2.5150    53.9130    17.1530    16.3640    14.0080    25.3900   -10.8620 
  137.5000     2.5060    52.5650    17.0620    16.3050    13.3360    25.4030   -10.8460 
  137.6250     2.4850    53.6610    17.0340    16.2790    13.1850    25.4260   -10.7760 
  137.7500     2.4620    54.7670    17.1470    16.3680    13.3350    25.4610   -10.6660 
  137.8750     2.4470    54.2400    17.4330    16.6100    14.0110    25.4120   -10.4980 
  138.0000     2.4440    53.4670    17.8610    16.9940    14.9030    25.2500   -10.2780 
  138.1250     2.4570    53.9030    18.3360    17.4470    15.4270    24.9880   -10.0390 
  138.2500     2.4800    55.7690    18.7110    17.8240    14.8090    24.9680    -9.8400 
  138.3750     2.5050    57.9910    18.8840    18.0100    14.8910    25.1250    -9.6700 
  138.5000     2.5250    57.5710    18.8040    17.9380    15.6390    25.2720    -9.5200 
  138.6250     2.5340    53.6190    18.4600    17.5870    15.7600    25.2780    -9.4700 
  138.7500     2.5320    50.5400    17.9920    17.0960    15.2110    25.2330    -9.4780 
  138.8750     2.5260    49.7760    17.5300    16.5920    14.5040    25.2070    -9.5060 
  139.0000     2.5190    48.5840    17.2000    16.2030    14.0890    25.2270    -9.6050 
  139.1250     2.5170    47.7470    17.1410    16.0610    14.2090    25.2660    -9.7050 
  139.2500     2.5190    48.9000    17.3360    16.1670    13.7860    25.2510    -9.7290 
  139.3750     2.5220    52.2860    17.7370    16.4940    14.0800    25.2360    -9.7440 
  139.5000     2.5260    55.8160    18.2480    16.9720    15.5490    25.2820    -9.7620 
  139.6250     2.5300    58.1800    18.7270    17.4680    16.3040    25.3240    -9.7080 
  139.7500     2.5320    58.6340    19.0610    17.8400    16.2930    25.3140    -9.6350 
  139.8750     2.5290    56.3090    19.2040    18.0140    16.6390    25.2570    -9.5510 
  140.0000     2.5230    53.0850    19.1740    17.9870    16.5290    25.1810    -9.4880 
  140.1250     2.5170    50.9110    19.0460    17.8220    16.4020    25.1060    -9.4650 
  140.2500     2.5170    51.4470    18.9470    17.6570    15.2010    25.1160    -9.4610 
  140.3750     2.5240    53.4960    18.9400    17.5700    14.2960    25.1760    -9.4920 
  140.5000     2.5330    54.1020    19.0210    17.5730    14.5500    25.1800    -9.5790 
  140.6250     2.5320    52.8750    19.0970    17.5920    15.1760    25.1720    -9.6900 
  140.7500     2.5150    52.3550    19.0450    17.5070    15.3080    25.1740    -9.7620 
  140.8750     2.4870    53.6280    18.7910    17.2450    15.0630    25.1820    -9.8780 
  141.0000     2.4590    54.0330    18.3380    16.8060    14.6850    25.2050    -9.9900 
  141.1250     2.4490    52.3490    17.7600    16.2560    13.4060    25.1830   -10.0350 
  141.2500     2.4580    51.6500    17.2100    15.7330    12.4580    25.1240   -10.0560 
  141.3750     2.4800    52.5220    16.7840    15.3250    12.3590    25.0670   -10.0480 
  141.5000     2.5010    52.3110    16.5370    15.0760    12.8360    25.0490    -9.9770 
  141.6250     2.5090    50.2580    16.5090    15.0230    12.4100    25.0360    -9.9530 
  141.7500     2.5050    48.8310    16.6450    15.1160    11.9630    24.9780    -9.9810 
  141.8750     2.4980    48.5970    16.9060    15.3110    12.1180    24.9280    -9.9500 
  142.0000     2.4940    48.5220    17.2430    15.5590    12.8660    24.8890    -9.9190 
  142.1250     2.5000    48.0790    17.5840    15.8140    13.5710    24.8850    -9.9940 
  142.2500     2.5140    49.6450    17.8270    16.0090    13.3470    24.8480   -10.1050 
  142.3750     2.5300    52.5410    17.8690    16.0550    13.1690    24.7980   -10.2400 
  142.5000     2.5430    53.3660    17.6500    15.8720    13.9270    24.7980   -10.4480 
  142.6250     2.5410    50.4850    17.2210    15.4630    14.0440    24.8480   -10.6440 
  142.7500     2.5170    48.9180    16.8620    15.0790    13.0540    24.9100   -10.8690 
  142.8750     2.4710    51.7260    16.8730    14.9770    12.0030    24.9650   -11.1630 
