~V
VERS. 2.00: Ver 2.00
~W
STRT.M 52.0000:
STOP.M 278.0000:
STEP.M 0.1250:
NULL. -999.2500:
UWI. F11035:
~C
DEPT.M :
DEN.GM/CC :
GR.API :
RML.OHMM :
RI. :
RXO.OHMM :
CALI.CM :
SP.MV :
~A
# ...
  142.0000     2.4980    57.6180    12.1420    11.1610    16.4030    25.1030   -12.9070 
  142.1250     2.5170    54.8860    12.3200    11.3750    17.5370    25.0440   -12.8740 
  142.2500     2.5240    54.9890    11.9530    11.0850    15.2600    24.9460   -12.8050 
  142.3750     2.5150    57.3130    10.9120    10.0960    13.1090    24.8080   -12.7170 
  142.5000     2.4900    61.2880     9.3160     8.5790    12.1630    24.7210   -12.5970 
  142.6250     2.4520    68.0990     7.5150     6.9530     9.9950    24.8410   -12.4080 
  142.7500     2.4080    77.2960     5.9840     5.5780     6.7960    25.1190   -12.2090 
  142.8750     2.3630    86.4270     4.9500     4.5640     4.6560    25.2670   -12.0480 
  143.0000     2.3230    91.3430     4.4060     3.9040     3.9560    25.1390   -11.9330 
  143.1250     2.2930    90.7360     4.2310     3.5770     3.9820    24.8490   -11.8540 
  143.2500     2.2750    89.9700     4.2280     3.4530     4.0460    24.6630   -11.7910 
  143.3750     2.2670    92.6870     4.3050     3.4510     4.1060    24.6470   -11.7370 
  143.5000     2.2650    97.3850     4.3800     3.4950     4.1530    24.8710   -11.7230 
  143.6250     2.2680    98.9850     4.3960     3.5250     4.2040    25.0810   -11.7940 
  143.7500     2.2720    96.3050     4.3630     3.5210     4.1750    25.0810   -11.9050 
  143.8750     2.2790    92.4020     4.3060     3.4870     4.1020    24.9120   -12.0160 
  144.0000     2.2900    90.2030     4.2500     3.4360     4.0270    24.8220   -12.0930 
  144.1250     2.3020    90.1350     4.2070     3.3820     3.9970    24.8590   -12.1910 
  144.2500     2.3130    90.5670     4.1730     3.3360     4.0130    24.8430   -12.2840 
  144.3750     2.3200    90.3340     4.1450     3.3050     4.0330    24.8110   -12.3620 
  144.5000     2.3210    89.9510     4.1280     3.2930     4.0790    24.7630   -12.4060 
  144.6250     2.3160    91.5500     4.1350     3.3040     4.1480    24.7480   -12.4080 
  144.7500     2.3110    94.7990     4.1630     3.3290     4.2260    24.7580   -12.3730 
  144.8750     2.3100    97.4030     4.1950     3.3580     4.3540    24.7710   -12.2860 
  145.0000     2.3110    96.9520     4.2090     3.3780     4.4220    24.7700   -12.1960 
  145.1250     2.3150    93.2310     4.1880     3.3750     4.5040    24.7880   -12.0680 
  145.2500     2.3190    90.9430     4.1440     3.3490     4.4860    24.8300   -11.9170 
  145.3750     2.3230    92.5400     4.0980     3.3100     4.3500    24.8720   -11.7710 
  145.5000     2.3280    96.1150     4.0660     3.2680     4.2740    24.8740   -11.6250 
  145.6250     2.3370    94.8340     4.0600     3.2350     4.1400    24.8560   -11.5220 
  145.7500     2.3480    89.8300     4.0760     3.2150     4.1240    24.8260   -11.4890 
  145.8750     2.3580    86.7050     4.1230     3.2060     4.1560    24.7980   -11.5090 
  146.0000     2.3620    88.5720     4.2140     3.2060     4.2090    24.7740   -11.5340 
  146.1250     2.3580    93.8240     4.3560     3.2160     4.2570    24.7610   -11.5580 
  146.2500     2.3520    97.5020     4.5050     3.2350     4.2360    24.7430   -11.6470 
  146.3750     2.3480    97.6230     4.6100     3.2640     4.2380    24.7430   -11.7970 
  146.5000     2.3460    95.9740     4.6390     3.3030     4.2540    24.7570   -12.0030 
  146.6250     2.3430    95.5680     4.6000     3.3550     4.3580    24.7520   -12.1930 
  146.7500     2.3390    95.7170     4.5640     3.4150     4.4450    24.7660   -12.3620 
  146.8750     2.3320    94.6860     4.5870     3.4800     4.5250    24.7940   -12.5260 
  147.0000     2.3250    93.7140     4.6820     3.5440     4.5020    24.8130   -12.7210 
  147.1250     2.3220    95.3430     4.8030     3.5960     4.4920    24.8200   -12.9520 
  147.2500     2.3210    98.6310     4.8630     3.6280     4.5770    24.8110   -13.1700 
  147.3750     2.3220   101.4930     4.8170     3.6390     4.7110    24.8280   -13.3280 
  147.5000     2.3240   102.9590     4.6710     3.6320     4.8420    24.8880   -13.4330 
  147.6250     2.3270   103.4310     4.4850     3.6140     4.7470    24.9310   -13.5230 
  147.7500     2.3310   103.0560     4.3510     3.6030     4.5900    24.9570   -13.6260 
  147.8750     2.3350   103.9910     4.3130     3.6130     4.4790    24.9540   -13.7480 
  148.0000     2.3360   106.5950     4.3770     3.6580     4.4980    24.9530   -13.8760 
  148.1250     2.3330   107.7010     4.5210     3.7490     4.6620    24.9540   -14.0120 
  148.2500     2.3270   103.8770     4.6970     3.8720     4.8180    24.9590   -14.1360 
  148.3750     2.3170    97.0680     4.8730     4.0100     4.9360    24.9530   -14.2780 
  148.5000     2.3050    91.7920     5.0190     4.1360     4.9890    24.9560   -14.4450 
  148.6250     2.2920    90.7680     5.0910     4.2070     5.0540    24.9770   -14.5960 
  148.7500     2.2800    91.7180     5.0860     4.2070     5.1120    24.9910   -14.6890 
  148.8750     2.2700    92.1860     5.0320     4.1470     5.1620    25.0050   -14.7250 
  149.0000     2.2660    90.7210     5.0210     4.0810     5.1920    25.0250   -14.6960 
  149.1250     2.2660    88.3470     5.2620     4.1450     5.2440    25.0180   -14.6280 
  149.2500     2.2700    86.4980     5.9360     4.4670     5.5070    25.0100   -14.5720 
  149.3750     2.2730    84.4750     7.2330     5.2010     6.6620    25.0150   -14.5540 
  149.5000     2.2720    81.8340     9.3320     6.5430     9.6730    25.0100   -14.5550 
  149.6250     2.2680    77.5070    12.5600     8.8730    16.5520    25.0330   -14.6240 
  149.7500     2.2590    71.6400    16.5730    12.1510    22.5320    25.0970   -14.7180 
  149.8750     2.2470    67.0680    20.7220    16.0870    26.4160    25.1980   -14.8490 
  150.0000     2.2340    66.0370    24.1990    19.9270    28.4600    25.3180   -15.0610 
  150.1250     2.2210    66.3220    26.3680    22.6250    28.4090    25.3710   -15.3370 
  150.2500     2.2120    67.7840    27.6730    24.2530    28.7290    25.3650   -15.6040 
  150.3750     2.2080    72.2280    28.5640    25.3250    28.5690    25.3390   -15.8840 
  150.5000     2.2100    76.7840    29.2240    26.1990    28.7360    25.3500   -16.1710 
  150.6250     2.2140    74.1340    29.1540    26.4940    29.3670    25.3290   -16.4080 
  150.7500     2.2150    67.0960    27.9120    25.6190    31.0540    25.2680   -16.5890 
  150.8750     2.2100    62.0870    25.5550    23.4660    36.6200    25.2160   -16.7140 
  151.0000     2.2050    61.0650    22.8250    20.7330    40.9120    25.1650   -16.7520 
  151.1250     2.2080    62.9790    21.1130    18.6760    28.9850    25.1400   -16.7260 
  151.2500     2.2230    65.6560    21.3290    18.1100    18.1390    25.0830   -16.6970 
  151.3750     2.2430    69.1490    24.1420    19.6960    17.1930    25.0890   -16.5980 
  151.5000     2.2570    70.8990    30.1830    24.1830    29.6730    25.1920   -16.4610 
  151.6250     2.2500    66.7350    40.5690    32.9840    58.9490    25.3990   -16.2910 
  151.7500     2.2250    60.5790    53.9030    45.2440    79.1800    25.5100   -16.1700 
  151.8750     2.1930    59.3950    67.6330    58.6640    78.3040    25.5260   -16.1100 
  152.0000     2.1660    63.2990    78.5180    69.6240    72.4270    25.4770   -16.0960 
  152.1250     2.1520    67.0520    84.0220    75.4000    73.5970    25.4440   -16.0900 
  152.2500     2.1470    67.4940    85.9900    78.0360    81.2330    25.4040   -16.0660 
  152.3750     2.1480    64.7230    86.1770    79.0480    92.6390    25.3400   -16.0650 
  152.5000     2.1520    61.8280    85.4490    78.9040    98.5960    25.2990   -16.1170 
  152.6250     2.1590    64.0010    83.5940    77.3300    96.5670    25.2720   -16.2250 
  152.7500     2.1690    69.4530    80.6430    74.6480    87.7250    25.2040   -16.3480 
  152.8750     2.1810    72.4370    76.7620    71.1650    75.3300    25.1130   -16.4340 
  153.0000     2.1940    71.0200    72.2410    67.2080    65.0190    25.0430   -16.4980 
  153.1250     2.2040    68.7240    67.3010    63.0010    61.8820    24.9620   -16.5110 
