~V
VERS. 2.00: Ver 2.00
~W
STRT.M 55.0000:
STOP.M 249.0000:
STEP.M 0.1250:
NULL. -999.2500:
UWI. F11017:
~C
DEPT.M :
GR.API :
RML.OHMM :
RI. :
RXO.OHMM :
CALI.CM :
DEN.GM/CC :
SP.MV :
~A
# ...
  122.5000    61.9970     8.8130     7.6710     8.8750    22.9940     2.3540   -11.2500 
  122.6250    64.6730     7.7770     6.6690     7.1710    23.1360     2.3350   -11.6030 
  122.7500    65.1640     7.2500     6.0560     5.9140    23.2870     2.3210   -12.0170 
  122.8750    64.0670     7.2520     5.8730     5.1850    23.3710     2.3130   -12.4940 
  123.0000    60.6050     7.6810     6.0780     5.4630    23.3680     2.3130   -13.0410 
  123.1250    55.5360     8.3430     6.5780     6.7620    23.3090     2.3180   -13.6640 
  123.2500    52.6170     8.9470     7.1420     7.9440    23.2460     2.3190   -14.3560 
  123.3750    53.6130     9.3140     7.6010     8.3840    23.1520     2.3100   -15.0950 
  123.5000    54.4570     9.3690     7.8380     8.1640    23.0250     2.2890   -15.8250 
  123.6250    51.5070     9.1510     7.8120     7.9830    22.8760     2.2570   -16.4660 
  123.7500    51.0010     8.8750     7.6720     7.8830    22.7480     2.2280   -16.9790 
  123.8750    55.0560     8.6770     7.5360     7.8900    22.6600     2.2080   -17.3560 
  124.0000    60.0760     8.6120     7.4720     8.0980    22.5980     2.2000   -17.6110 
  124.1250    60.9320     8.6730     7.5000     8.4670    22.5210     2.2030   -17.7570 
  124.2500    59.5660     8.7760     7.5700     8.6790    22.4140     2.2070   -17.8270 
  124.3750    58.0280     8.8660     7.6450     8.6190    22.3240     2.2080   -17.8340 
  124.5000    57.1000     8.9150     7.7040     8.4070    22.3090     2.2030   -17.7780 
  124.6250    56.9590     8.9130     7.7400     8.2790    22.3900     2.1980   -17.6430 
  124.7500    56.1420     8.8760     7.7550     8.3480    22.5230     2.1950   -17.4510 
  124.8750    54.0290     8.7970     7.7390     8.4740    22.6630     2.1950   -17.1940 
  125.0000    51.8090     8.6510     7.6640     8.4350    22.7460     2.1970   -16.8600 
  125.1250    52.2250     8.3960     7.4830     8.1550    22.7570     2.2030   -16.4290 
  125.2500    54.9690     8.0590     7.2080     7.8270    22.6980     2.2130   -15.9250 
  125.3750    58.1260     7.6930     6.8780     7.3970    22.5150     2.2320   -15.3790 
  125.5000    59.8410     7.3720     6.5550     6.7300    22.2420     2.2560   -14.8280 
  125.6250    61.5860     7.1910     6.3270     5.9780    22.0050     2.2770   -14.3360 
  125.7500    64.9160     7.1650     6.2280     5.4500    21.9220     2.2890   -13.9140 
  125.8750    67.9510     7.2840     6.2630     5.4600    21.9760     2.2880   -13.5710 
  126.0000    66.7810     7.5080     6.4070     5.9130    22.1500     2.2780   -13.3100 
  126.1250    61.6710     7.7830     6.6200     6.3150    22.4930     2.2650   -13.1250 
  126.2500    58.7400     8.0440     6.8410     6.6930    22.8960     2.2550   -12.9830 
  126.3750    59.9200     8.2840     7.0550     7.0940    23.1960     2.2490   -12.8430 
  126.5000    61.9380     8.5570     7.2890     7.5610    23.3470     2.2480   -12.6620 
  126.6250    61.4220     9.0280     7.6580     8.2230    23.4050     2.2560   -12.3770 
  126.7500    59.6610     9.8290     8.2690     9.1050    23.3920     2.2760   -11.9930 
  126.8750    59.0140    11.0460     9.2110    10.1840    23.3770     2.3110   -11.5290 
  127.0000    59.1390    12.6690    10.5170    11.4630    23.5020     2.3610   -11.0150 
  127.1250    57.3430    14.6000    12.1780    14.0130    23.8080     2.4190   -10.4860 
  127.2500    53.1410    16.5620    13.9850    18.1600    24.1240     2.4730    -9.9660 
  127.3750    48.1120    18.3660    15.7610    21.4260    24.3290     2.5130    -9.4700 
  127.5000    44.7570    19.9200    17.3690    20.5340    24.4180     2.5360    -9.0270 
  127.6250    45.2640    21.2580    18.7640    19.5920    24.4310     2.5470    -8.6730 
  127.7500    47.2220    22.5480    20.0710    21.2310    24.4090     2.5580    -8.4110 
  127.8750    47.6510    23.8220    21.3530    24.1670    24.3810     2.5710    -8.2400 
  128.0000    45.7630    24.9560    22.5480    26.5580    24.3400     2.5840    -8.1470 
  128.1250    42.8590    25.6080    23.3810    27.4730    24.2450     2.5940    -8.1260 
  128.2500    40.2200    25.6400    23.6740    27.8150    24.1310     2.5980    -8.1410 
  128.3750    38.7080    25.0830    23.3940    27.2150    24.0120     2.5970    -8.1740 
  128.5000    39.4510    24.1640    22.7030    25.9690    23.9350     2.5880    -8.2080 
  128.6250    42.2390    23.2080    21.8800    22.7230    24.0370     2.5650    -8.2380 
  128.7500    44.7910    22.4400    21.1770    20.2080    24.2410     2.5340    -8.2700 
  128.8750    46.3430    21.8990    20.6680    19.4540    24.4000     2.5020    -8.2970 
  129.0000    46.5590    21.5250    20.3330    20.3720    24.4610     2.4770    -8.3140 
  129.1250    45.5490    21.2510    20.1270    21.4420    24.4780     2.4650    -8.3070 
  129.2500    44.7290    21.0530    20.0020    21.5640    24.4810     2.4620    -8.2800 
  129.3750    45.3500    20.9760    19.9730    21.0360    24.4720     2.4650    -8.2350 
  129.5000    46.5160    21.0650    20.0670    19.6610    24.4620     2.4740    -8.1870 
  129.6250    46.5190    21.3120    20.2820    19.1200    24.4380     2.4880    -8.1460 
  129.7500    45.5560    21.5520    20.5020    19.9260    24.4010     2.5030    -8.1180 
  129.8750    43.6410    21.6270    20.5940    21.1660    24.3750     2.5110    -8.1070 
  130.0000    41.7690    21.4470    20.4670    21.4280    24.3810     2.5070    -8.1170 
  130.1250    41.2800    21.0550    20.1230    20.1950    24.4220     2.4890    -8.1460 
  130.2500    41.3740    20.6930    19.7600    18.4710    24.4580     2.4690    -8.1710 
  130.3750    41.5090    20.5530    19.5610    16.5660    24.4590     2.4560    -8.1900 
  130.5000    42.2030    20.7450    19.6510    14.9860    24.4390     2.4530    -8.2190 
  130.6250    45.0040    21.2670    20.0740    15.0860    24.4210     2.4580    -8.2710 
  130.7500    45.6000    21.8980    20.6580    16.6170    24.4060     2.4630    -8.3380 
  130.8750    41.8010    22.4620    21.2420    19.1260    24.4130     2.4680    -8.4080 
  131.0000    37.7990    22.8290    21.6840    20.9490    24.4190     2.4720    -8.4580 
  131.1250    39.0060    22.8920    21.8500    21.0940    24.4310     2.4770    -8.4760 
  131.2500    43.8250    22.7150    21.7700    20.3430    24.4480     2.4810    -8.4920 
  131.3750    48.0380    22.3680    21.5030    19.6100    24.4690     2.4830    -8.5170 
  131.5000    49.1410    21.9560    21.1430    19.6150    24.4680     2.4800    -8.5400 
  131.6250    47.8280    21.6240    20.8200    19.9840    24.4380     2.4730    -8.5590 
  131.7500    46.8960    21.4880    20.6440    19.5320    24.4240     2.4660    -8.5730 
  131.8750    46.4460    21.6050    20.6780    18.7610    24.4110     2.4640    -8.5870 
  132.0000    44.7220    21.9510    20.9200    18.3320    24.3730     2.4720    -8.6130 
  132.1250    43.2050    22.4340    21.3190    19.4840    24.3160     2.4890    -8.6590 
  132.2500    44.2470    22.8950    21.7420    21.2750    24.2530     2.5070    -8.7130 
  132.3750    45.8320    23.2380    22.0970    23.0760    24.1850     2.5160    -8.7610 
  132.5000    46.7290    23.4210    22.3260    22.9020    24.1260     2.5150    -8.7990 
  132.6250    47.4400    23.4630    22.4120    21.7200    24.0770     2.5080    -8.8360 
  132.7500    48.1650    23.4800    22.4420    20.4700    24.0030     2.5040    -8.8820 
  132.8750    47.9120    23.5760    22.5030    21.0920    23.9100     2.5070    -8.9360 
  133.0000    46.9830    23.8550    22.6880    21.3780    23.8710     2.5170    -8.9810 
  133.1250    45.0660    24.4660    23.1370    21.2810    23.8540     2.5300    -9.0060 
  133.2500    43.2370    25.4100    23.8750    21.1830    23.8450     2.5410    -9.0250 
  133.3750    43.3750    26.6400    24.8890    22.4670    23.8580     2.5470    -9.0540 
  133.5000    45.5340    27.9940    26.0760    24.8780    23.8820     2.5500    -9.1160 
  133.6250    46.3320    29.1250    27.1790    28.0000    23.8650     2.5500    -9.2100 
