~V
VERS. 2.00: Ver 2.00
~W
STRT.M 50.0000:
STOP.M 257.0000:
STEP.M 0.1250:
NULL. -999.2500:
UWI. F11021:
~C
DEPT.M :
GR.API :
RML.OHMM :
RI. :
RXO.OHMM :
CALI.CM :
SP.MV :
DEN.GM/CC :
~A
# ...
   83.7500    73.9480     9.5890     7.1660    10.4100    24.1910   -18.9520     2.1790 
   83.8750    69.2860     9.6360     7.1950    10.4020    24.2100   -19.1180     2.1910 
   84.0000    68.4530     9.6870     7.2470    10.7290    24.2120   -19.3940     2.2060 
   84.1250    71.7670     9.7300     7.3140    10.9070    24.2010   -19.7040     2.2230 
   84.2500    71.4090     9.7520     7.3780    10.8690    24.1910   -20.0080     2.2360 
   84.3750    66.5830     9.7410     7.4280    10.5010    24.1570   -20.3800     2.2390 
   84.5000    63.2690     9.6950     7.4610    10.1430    24.1240   -20.8780     2.2290 
   84.6250    66.3750     9.6290     7.4810     9.8370    24.1840   -21.4060     2.2080 
   84.7500    71.7530     9.5810     7.5300     9.7060    24.2800   -21.8240     2.1890 
   84.8750    72.8670     9.3090     7.5140     9.8240    24.3700   -22.0770     2.1780 
   85.0000    69.4830     9.0500     7.4760     9.9510    24.4970   -22.1650     2.1780 
   85.1250    68.3680     8.8740     7.3800     9.9360    24.7500   -22.0050     2.1790 
   85.2500    71.7160     8.7200     7.3150     9.5860    24.9580   -21.6070     2.1690 
   85.3750    74.5980     8.5670     7.2370     9.1350    24.9110   -20.9200     2.1400 
   85.5000    74.9970     8.4140     7.0540     8.8130    24.6630   -19.8890     2.1000 
   85.6250    77.6460     8.2400     6.9120     8.2610    24.7540   -18.4710     2.0690 
   85.7500    83.4850     8.0560     6.7650     7.1540    25.1140   -16.8520     2.0670 
   85.8750    89.2860     7.8530     6.5610     6.4410    25.3390   -15.2150     2.0960 
   86.0000    93.9210     7.4920     6.3070     6.3180    25.2320   -13.6940     2.1470 
   86.1250    98.7450     7.3080     5.9740     6.1340    24.8850   -12.4820     2.2000 
   86.2500   102.1550     7.2060     5.6710     5.9920    24.5100   -11.5610     2.2380 
   86.3750   101.6920     7.2000     5.6350     6.4560    24.0780   -10.9820     2.2590 
   86.5000    96.5680     7.3670     6.2600     7.6450    23.5320   -10.8370     2.2680 
   86.6250    89.3360    10.4510     7.2220     8.8770    23.1160   -11.2010     2.2780 
   86.7500    84.5520    11.6490     8.1810     9.9850    23.0120   -11.8410     2.2950 
   86.8750    80.6130    12.2640     8.8670    11.8080    23.0310   -12.5550     2.3160 
   87.0000    75.7070    12.1610     9.0860    13.4270    22.9050   -13.2360     2.3320 
   87.1250    72.0390    11.4820     8.8080    11.5700    22.6930   -13.7930     2.3270 
   87.2500    72.5490    10.7130     8.3340    10.3840    22.6530   -14.2770     2.3050 
   87.3750    74.7510    10.1200     7.8650     9.9070    22.8030   -14.7150     2.2770 
   87.5000    74.4120     9.8050     7.5120     9.7440    22.9430   -15.0850     2.2530 
   87.6250    74.0960     9.7720     7.3300     9.6870    23.0710   -15.4350     2.2410 
   87.7500    75.2080     9.8800     7.2680     9.5350    23.1580   -15.8360     2.2340 
   87.8750    74.7190    10.0400     7.2850     9.5560    23.2260   -16.3290     2.2270 
   88.0000    72.2770    10.1890     7.3460     9.7220    23.2510   -16.9040     2.2180 
   88.1250    72.1410    10.2840     7.4260     9.7150    23.2970   -17.5500     2.2070 
   88.2500    75.0710    10.3210     7.4980     9.7150    23.3680   -18.1770     2.1950 
   88.3750    75.4110    10.3060     7.5490     9.7860    23.4210   -18.6530     2.1800 
   88.5000    69.8350    10.2530     7.5690     9.8550    23.4560   -18.9060     2.1630 
   88.6250    64.1640    10.1760     7.5560     9.9440    23.4710   -18.8510     2.1470 
   88.7500    63.9070    10.0880     7.5200     9.9470    23.5160   -18.5890     2.1350 
   88.8750    68.1090     9.9960     7.4720     9.8300    23.6000   -18.2070     2.1290 
   89.0000    72.1080     9.9090     7.4210     9.7500    23.6540   -17.7280     2.1310 
   89.1250    71.7030     9.8330     7.3730     9.8480    23.6640   -17.1620     2.1400 
   89.2500    70.0920     9.7610     7.3280     9.7540    23.6640   -16.5750     2.1500 
   89.3750    70.7650     9.6840     7.2850     9.4760    23.6640   -16.0880     2.1600 
   89.5000    74.0640     9.5880     7.2400     9.1980    23.6640   -15.7750     2.1650 
   89.6250    75.0630     9.4610     7.1950     9.1420    23.6730   -15.6270     2.1640 
   89.7500    73.6030     9.3170     7.1530     9.2100    23.6980   -15.5340     2.1620 
   89.8750    73.4840     9.1800     7.1230     9.2610    23.7360   -15.4450     2.1590 
   90.0000    74.2650     9.0920     7.1170     9.1620    23.7670   -15.3660     2.1590 
   90.1250    73.3890     9.1170     7.1610     9.0470    23.7490   -15.3020     2.1620 
   90.2500    72.9300     9.2700     7.2680     9.0920    23.4520   -15.1950     2.1670 
   90.3750    73.6130     9.5220     7.4350     8.6150    23.2080   -14.9790     2.1750 
   90.5000    74.2980     9.7760     7.6210     7.7020    23.2210   -14.6150     2.1850 
   90.6250    74.7460     9.8120     7.6920     6.5680    23.3700   -14.0580     2.1980 
   90.7500    75.5880     9.4730     7.5210     8.0410    23.5160   -13.3670     2.2120 
   90.8750    77.7040     8.6970     7.0380     9.0360    23.5880   -12.5520     2.2260 
   91.0000    84.2820     7.5820     6.2860     8.7170    23.6110   -11.6310     2.2400 
   91.1250    96.5140     6.4020     5.4290     7.2440    23.8380   -10.6240     2.2600 
   91.2500   106.7970     5.4760     4.6880     5.5860    23.9190    -9.6620     2.2880 
   91.3750   112.6760     4.9730     4.1900     4.6300    23.9610    -8.8700     2.3200 
   91.5000   116.6560     4.9570     4.0000     4.3240    23.9910    -8.3350     2.3470 
   91.6250   117.1790     5.4920     4.1990     4.7860    23.9710    -8.2570     2.3550 
   91.7500   110.3400     6.4020     4.7130     5.7490    23.8610    -8.5420     2.3410 
   91.8750    98.2020     7.5170     5.4750     6.9520    23.6680    -9.0800     2.3100 
   92.0000    87.4540     8.6090     6.3580     7.9570    23.4630    -9.7940     2.2750 
   92.1250    81.6710     9.4210     7.1700     8.4340    23.2510   -10.6500     2.2500 
   92.2500    80.3670     9.9150     7.7890     9.3230    23.0540   -11.5640     2.2380 
   92.3750    83.0200    10.1070     8.1610    10.6940    22.9090   -12.3680     2.2330 
   92.5000    86.1360    10.0030     8.2550    10.6670    22.8220   -12.8640     2.2240 
   92.6250    85.9160     9.5130     7.9780    10.3280    22.8640   -12.7860     2.2030 
   92.7500    86.7140     8.6870     7.3800     9.4270    23.1590   -12.2500     2.1800 
   92.8750    95.0840     7.6380     6.5540     7.0150    23.6840   -11.4400     2.1710 
   93.0000   110.9470     6.6080     5.6860     5.1350    24.2400   -10.5200     2.1880 
   93.1250   123.0820     5.9680     5.0270     4.4220    24.4450    -9.6430     2.2350 
   93.2500   125.7430     5.8770     4.6960     4.4530    24.4000    -8.8870     2.2910 
   93.3750   121.1710     6.4150     4.7620     4.8710    24.2660    -8.3700     2.3320 
   93.5000   112.3770     7.5730     5.2550     5.8210    23.9890    -8.2250     2.3460 
   93.6250   101.0790     9.2260     6.2070     7.7870    23.5500    -8.6080     2.3230 
   93.7500    90.3430    10.8760     7.3750    10.8670    23.2470    -9.3690     2.2810 
   93.8750    82.0380    12.0420     8.4540    15.0580    23.2060   -10.3550     2.2340 
   94.0000    76.5090    12.4000     9.1180    18.3400    23.2570   -11.4230     2.1950 
   94.1250    75.4420    11.9070     9.1450    17.1540    23.2080   -12.4270     2.1770 
   94.2500    77.9410    11.1000     8.8030    13.2630    23.0640   -13.3280     2.1750 
   94.3750    79.8150    10.3400     8.3410    10.5020    22.9160   -14.1360     2.1830 
   94.5000    78.7690     9.8050     7.9280     9.4420    22.8210   -14.8470     2.1920 
   94.6250    77.4560     9.5190     7.6390     9.1810    22.8250   -15.4350     2.1920 
   94.7500    76.5020     9.3270     7.4220     8.9340    22.9300   -15.8670     2.1800 
   94.8750    74.0630     9.1250     7.2210     8.8300    23.0130   -16.1150     2.1590 
