~V
VERS. 2.00: Ver 2.00
~W
STRT.M 62.0000:
STOP.M 218.0000:
STEP.M 0.1250:
NULL. -999.2500:
UWI. F11008:
~C
DEPT.M :
DEN.GM/CC :
GR.API :
RML.OHMM :
RI. :
RXO.OHMM :
CALI.CM :
SP.MV :
~A
# ...
  129.5000     2.1780    79.0370    15.9860    13.4150    14.7980    28.5220   -17.5480 
  129.6250     2.1620    82.1250    16.4060    13.8370    18.4240    28.6210   -17.4140 
  129.7500     2.1450    82.5280    16.4520    13.9920    18.6060    28.6600   -17.2520 
  129.8750     2.1380    82.7490    16.0720    13.7500    16.1800    28.6690   -17.0580 
  130.0000     2.1430    85.1370    15.4140    13.1930    13.9420    28.6520   -16.8340 
  130.1250     2.1610    85.8970    14.7630    12.5680    12.7760    28.6210   -16.6240 
  130.2500     2.1790    84.5700    14.3580    12.1290    12.1090    28.6010   -16.4130 
  130.3750     2.1890    83.4390    14.2880    11.9770    12.3230    28.6150   -16.1430 
  130.5000     2.1920    83.6580    14.5470    12.1280    12.5440    28.5950   -15.7780 
  130.6250     2.2010    83.0350    15.0990    12.5800    12.7100    28.4550   -15.3210 
  130.7500     2.2320    80.0800    15.7940    13.2080    13.7310    28.2400   -14.8170 
  130.8750     2.2890    77.3490    16.5370    13.9220    14.2780    28.0170   -14.2580 
  131.0000     2.3590    75.0800    17.2480    14.6290    13.7210    27.8630   -13.6240 
  131.1250     2.4160    73.4530    17.8870    15.2490    15.1230    27.7690   -12.9390 
  131.2500     2.4490    72.8650    18.5010    15.8030    15.9300    27.6630   -12.3330 
  131.3750     2.4600    71.4130    19.1410    16.3530    15.8310    27.5450   -11.8230 
  131.5000     2.4670    69.6860    19.8180    16.9530    16.7110    27.4430   -11.3410 
  131.6250     2.4880    68.5440    20.4310    17.5730    17.9140    27.4210   -10.9370 
  131.7500     2.5200    67.6330    20.8260    18.0750    19.7150    27.3820   -10.6820 
  131.8750     2.5530    66.6040    20.8880    18.3220    22.0620    27.3630   -10.5870 
  132.0000     2.5740    65.3290    20.6140    18.2580    22.7170    27.3600   -10.5900 
  132.1250     2.5800    64.0030    20.1470    17.9450    21.1660    27.3490   -10.6390 
  132.2500     2.5820    61.4210    19.7720    17.6310    18.2020    27.3430   -10.7030 
  132.3750     2.5850    59.4700    19.6680    17.4940    18.4770    27.3460   -10.7760 
  132.5000     2.5940    59.5720    19.8940    17.6260    21.0100    27.3500   -10.8650 
  132.6250     2.6020    59.3090    20.3870    18.0360    22.7270    27.3470   -10.9580 
  132.7500     2.6060    59.7110    20.9010    18.5410    22.2620    27.3180   -11.0140 
  132.8750     2.6040    64.5540    21.2390    18.9600    22.5100    27.2990   -11.0480 
  133.0000     2.6000    72.1470    21.2720    19.1350    23.7060    27.2960   -11.0720 
  133.1250     2.5950    73.5470    20.9430    18.9480    24.5530    27.3120   -11.0770 
  133.2500     2.5880    69.0120    20.4450    18.5410    26.2820    27.3070   -11.0690 
  133.3750     2.5780    65.8300    19.9740    18.0840    24.7120    27.2760   -11.0850 
  133.5000     2.5650    67.6200    19.7040    17.7560    20.5610    27.2220   -11.1330 
  133.6250     2.5510    71.0510    19.7510    17.7130    18.2420    27.1490   -11.1430 
  133.7500     2.5400    72.1730    19.9840    17.8840    18.4150    27.0690   -11.1210 
  133.8750     2.5320    69.8530    20.2370    18.1360    20.1750    27.0130   -11.0860 
  134.0000     2.5270    65.7520    20.3530    18.3080    22.4690    26.9660   -11.0720 
  134.1250     2.5260    64.4810    20.2320    18.2560    24.0140    26.9350   -11.0370 
  134.2500     2.5260    65.8810    19.9930    18.0400    22.0200    26.8970   -10.9410 
  134.3750     2.5290    65.7410    19.7900    17.7900    19.6170    26.8520   -10.8220 
  134.5000     2.5310    63.4470    19.7710    17.6690    18.5220    26.7860   -10.7250 
  134.6250     2.5320    63.7860    20.0590    17.8430    19.1690    26.7130   -10.6880 
  134.7500     2.5320    65.6640    20.5650    18.2840    19.5960    26.6480   -10.6480 
  134.8750     2.5310    65.6750    21.1620    18.8880    19.4530    26.6030   -10.5900 
  135.0000     2.5300    63.6190    21.6890    19.4870    19.5130    26.5840   -10.5410 
  135.1250     2.5290    62.1710    21.9560    19.8470    20.4950    26.5910   -10.5350 
  135.2500     2.5270    61.0530    21.9300    19.8950    21.8740    26.6210   -10.5200 
  135.3750     2.5230    59.9580    21.6350    19.6470    22.7640    26.6320   -10.4770 
  135.5000     2.5200    60.5620    21.1540    19.2020    22.5870    26.6140   -10.4500 
  135.6250     2.5210    62.0350    20.5920    18.6840    19.5390    26.5990   -10.4330 
  135.7500     2.5250    61.5360    20.0590    18.2070    17.8280    26.5820   -10.4010 
  135.8750     2.5310    60.9690    19.6150    17.8150    17.8660    26.5690   -10.3550 
  136.0000     2.5340    62.8140    19.3000    17.5240    17.6600    26.5400   -10.3220 
  136.1250     2.5300    63.3150    19.1830    17.3790    16.9560    26.4840   -10.3110 
  136.2500     2.5210    59.5570    19.2760    17.4060    16.5610    26.4340   -10.3190 
  136.3750     2.5130    56.2970    19.5880    17.6440    16.6850    26.3820   -10.3170 
  136.5000     2.5110    58.5410    20.0740    18.0900    17.4540    26.3320   -10.2790 
  136.6250     2.5220    62.9990    20.5950    18.6470    18.5690    26.2650   -10.2060 
  136.7500     2.5390    64.4600    20.9610    19.0980    19.9520    26.2120   -10.1450 
  136.8750     2.5540    64.1890    21.0510    19.2770    21.2640    26.1700   -10.0560 
  137.0000     2.5620    64.8180    20.8480    19.1240    21.2730    26.1070    -9.9310 
  137.1250     2.5600    66.3060    20.4420    18.6990    19.3690    26.0410    -9.8090 
  137.2500     2.5550    66.9230    20.0520    18.2360    17.6610    25.9900    -9.6870 
  137.3750     2.5510    66.9960    19.8200    17.8930    17.6590    25.9600    -9.5510 
  137.5000     2.5510    65.6490    19.8120    17.7590    19.5920    25.9490    -9.3940 
  137.6250     2.5510    62.3360    20.0390    17.8730    20.6240    25.9220    -9.2890 
  137.7500     2.5490    60.3070    20.3810    18.1360    20.3210    25.9570    -9.2230 
  137.8750     2.5440    59.4650    20.7440    18.4620    19.6810    25.9980    -9.1570 
  138.0000     2.5380    57.5870    21.0500    18.7700    19.4880    26.0260    -9.0830 
  138.1250     2.5380    55.4980    21.2150    18.9770    20.1690    26.0410    -9.0420 
  138.2500     2.5440    56.8130    21.2330    19.0520    20.7040    26.0660    -9.0740 
  138.3750     2.5540    58.0560    21.1180    18.9850    20.9820    26.1180    -9.1470 
  138.5000     2.5650    54.7890    20.9160    18.8000    21.3330    26.1780    -9.2230 
  138.6250     2.5730    49.5580    20.7180    18.5650    21.5130    26.1990    -9.3180 
  138.7500     2.5790    48.4080    20.6150    18.3910    21.2660    26.1990    -9.4430 
  138.8750     2.5850    50.8910    20.6600    18.3510    20.5480    26.1970    -9.6180 
  139.0000     2.5930    53.2350    20.8490    18.4710    20.1330    26.2060    -9.8090 
  139.1250     2.6000    53.9570    21.1230    18.7170    20.2190    26.2200    -9.9850 
  139.2500     2.6020    53.9530    21.3610    18.9670    20.7310    26.2340   -10.1660 
  139.3750     2.5960    53.7940    21.4790    19.1310    20.4500    26.2400   -10.3750 
  139.5000     2.5850    53.6060    21.4390    19.1570    20.1810    26.2770   -10.5900 
  139.6250     2.5700    55.0050    21.2350    19.0220    20.5010    26.3520   -10.7110 
  139.7500     2.5580    57.2410    20.9360    18.7810    19.6400    26.3690   -10.7980 
  139.8750     2.5520    58.8670    20.5710    18.4600    19.2370    26.3480   -10.9120 
  140.0000     2.5530    58.6310    20.1560    18.0710    20.3410    26.3060   -11.0720 
  140.1250     2.5590    55.8530    19.7030    17.6210    20.5320    26.2540   -11.1980 
  140.2500     2.5640    53.9360    19.2640    17.1640    19.0790    26.2150   -11.2620 
  140.3750     2.5620    56.4010    18.9070    16.7660    17.5800    26.2150   -11.3350 
  140.5000     2.5510    63.1230    18.6970    16.5020    16.3340    26.2420   -11.4870 
  140.6250     2.5340    67.4400    18.6930    16.4510    16.0820    26.2590   -11.7150 
