~V
VERS. 2.00: Ver 2.00
~W
STRT.M 52.0000:
STOP.M 279.0000:
STEP.M 0.1250:
NULL. -999.2500:
UWI. F11031:
~C
DEPT.M :
DEN.GM/CC :
GR.API :
RML.OHMM :
RI. :
RXO.OHMM :
CALI.CM :
SP.MV :
~A
   52.0000  -999.2500    46.3020     0.9260     0.2370     0.8850    23.5530  -999.2500 
   52.1250  -999.2500    44.0370     0.9670     0.2330     0.9530    23.6740  -999.2500 
   52.2500  -999.2500    43.2150     1.0310     0.2330     1.0210    23.6190   106.7030 
   52.3750  -999.2500    43.3250     1.1110     0.2360     1.0860    23.3760   106.7030 
   52.5000  -999.2500    44.5220     1.1960     0.2360     1.1450    23.1240   105.7890 
   52.6250  -999.2500    46.1680     1.2500     0.2330     1.2190    22.9480   104.4680 
   52.7500  -999.2500    46.8750     1.2420     0.2290     1.2720    22.7600   103.0060 
   52.8750  -999.2500    46.7730     1.1690     0.2290     1.2920    22.7170   101.4570 
   53.0000  -999.2500    46.4420     1.0590     0.2330     1.2890    22.7650    99.8630 
   53.1250  -999.2500    46.8590     0.9620     0.2360     1.3010    22.7820    98.2670 
   53.2500  -999.2500    47.3630     0.9120     0.2370     1.3170    22.8280    96.7200 
   53.3750  -999.2500    47.3970     0.9000     0.2350     1.3260    22.8980    95.3100 
   53.5000  -999.2500    46.9760     0.9030     0.2310     1.3330    22.9380    94.0950 
   53.6250  -999.2500    46.7090     0.9080     0.2240     1.3320    22.9550    93.1240 
   53.7500  -999.2500    46.4570     0.9220     0.2160     1.3280    22.9730    92.3410 
   53.8750  -999.2500    45.9810     0.9660     0.2090     1.2980    23.0140    91.7140 
   54.0000  -999.2500    44.7860     1.0610     0.2060     1.2350    23.0750    91.2090 
   54.1250  -999.2500    43.2480     1.1860     0.2060     1.1560    23.1830    90.8440 
   54.2500  -999.2500    43.0400     1.2660     0.2080     1.1100    23.1940    90.6020 
   54.3750  -999.2500    44.4240     1.2380     0.2100     1.0980    23.1370    90.4230 
   54.5000  -999.2500    46.8770     1.0990     0.2100     1.1080    23.0910    90.2630 
   54.6250  -999.2500    48.5090     0.9260     0.2100     1.1130    23.0190    90.0620 
   54.7500  -999.2500    48.6990     0.8490     0.2090     1.1000    22.9220    89.7870 
   54.8750  -999.2500    49.0140     0.8980     0.2070     1.0430    22.9650    89.4400 
   55.0000  -999.2500    48.7680     0.9930     0.1980     0.9590    23.2440    89.0190 
   55.1250  -999.2500    45.4750     1.0010     0.1840     0.8770    23.6960    88.5210 
   55.2500  -999.2500    41.5760     0.9060     0.1700     0.8700    23.9260    87.9750 
   55.3750  -999.2500    41.4160     0.7730     0.1650     0.9040    23.9230    87.4110 
   55.5000  -999.2500    45.2750     0.6800     0.1710     0.9460    23.9420    86.8090 
   55.6250  -999.2500    45.9430     0.6640     0.1930     0.9440    24.1900    86.2020 
   55.7500     2.1300    43.0530     0.6550     0.2230     0.8940    24.6030    85.6100 
   55.8750     2.1300    40.3980     0.5940     0.2520     0.8570    24.8900    85.0600 
   56.0000     2.1300    38.8870     0.4780     0.2750     0.9510    25.1470    84.5580 
   56.1250     2.1340    37.4550     0.3640     0.2850     1.2280    25.1980    84.0800 
   56.2500     2.1420    35.9110     0.3260     0.2830     1.4210    25.2260    83.6090 
   56.3750     2.1490    34.6310     0.3980     0.2710     1.3970    25.2710    83.1650 
   56.5000     2.1470    33.7960     0.5670     0.2570     1.2730    25.3430    82.8430 
   56.6250     2.1370    34.9980     0.7540     0.2440     1.2100    25.3630    82.7550 
   56.7500     2.1240    37.5200     0.8820     0.2370     1.1880    25.3620    82.9470 
   56.8750     2.1120    37.3640     0.9280     0.2350     1.1760    25.3570    83.3680 
   57.0000     2.1020    33.4760     0.8980     0.2390     1.1400    25.3570    83.9730 
   57.1250     2.0920    32.0370     0.8050     0.2500     1.0050    25.3470    84.7010 
   57.2500     2.0790    34.4670     0.6720     0.2670     0.8210    25.2980    85.4220 
   57.3750     2.0620    36.8530     0.5200     0.2870     0.6830    25.2300    86.0800 
   57.5000     2.0440    36.5120     0.3870     0.3040     0.6170    25.2670    86.6040 
   57.6250     2.0320    35.9820     0.3290     0.3070     0.6750    25.3080    86.9300 
   57.7500     2.0270    37.7220     0.3380     0.2970     0.8170    25.3550    87.0490 
   57.8750     2.0290    41.4440     0.3800     0.2760     0.9240    25.3700    86.9670 
   58.0000     2.0330    46.8420     0.4210     0.2550     0.9340    25.3590    86.7320 
   58.1250     2.0300    52.3590     0.4480     0.2420     0.8980    25.3500    86.4510 
   58.2500     2.0180    54.3480     0.4850     0.2420     0.8350    25.2960    86.2290 
   58.3750     1.9990    52.6080     0.5440     0.2510     0.8030    25.1040    86.0610 
   58.5000     1.9800    50.8850     0.5960     0.2640     0.8650    24.7560    85.8720 
   58.6250     1.9680    50.7390     0.5790     0.2700     0.9830    24.2530    85.5230 
   58.7500     1.9620    49.9960     0.4880     0.2720     1.0790    24.0880    84.9410 
   58.8750     1.9630    48.6990     0.3680     0.2750     1.1250    24.0600    84.1220 
   59.0000     1.9700    49.2330     0.3040     0.2840     1.1080    24.0700    83.0040 
   59.1250     1.9840    50.2660     0.4100     0.2970     1.0540    24.1470    81.3540 
   59.2500     2.0020    50.4090     0.6730     0.2990     0.9880    24.2900    79.1770 
   59.3750     2.0270    50.0610     0.9880     0.2780     0.9000    24.4700    76.4640 
   59.5000     2.0660    49.6660     1.1520     0.2290     0.8040    24.7390    73.1710 
   59.6250     2.1400    49.5350     0.9580     0.1640     0.8020    24.8520    69.1020 
   59.7500     2.2500    49.1880     0.6130     0.1080     0.8550    24.9190    64.2090 
   59.8750     2.3750    48.7690     0.3250     0.0720     0.8700    24.9190    58.2670 
   60.0000     2.4670    48.6130     0.1650     0.0570     0.8460    24.8270    51.0710 
   60.1250     2.4640    48.8030     0.1350     0.0730     0.9870    24.5270    42.4380 
   60.2500     2.3830    51.5930     0.2100     0.1410     1.6560    24.4340    32.9710 
   60.3750     2.2670    56.0860     0.4290     0.3220     3.4830    26.1820    23.2760 
   60.5000     2.1580    59.0980     0.9010     0.7160     5.6730    29.7790    13.8710 
   60.6250     2.0910    57.1610     1.8790     1.5300     7.0520    30.7400     5.1760 
   60.7500     2.0690    54.6780     3.2730     2.7440     7.4820    29.5370    -2.5870 
   60.8750     2.0840    56.3950     4.5690     4.1100     8.0390    25.7870    -9.0690 
   61.0000     2.1220    61.1020     5.2170     5.2120     9.0130    23.2740   -13.9180 
   61.1250     2.1650    67.3730     5.2460     5.7600     9.0290    22.5730   -16.6780 
   61.2500     2.2000    74.8250     5.1550     5.9530     7.7910    22.0880   -18.0200 
   61.3750     2.2250    82.5590     5.1040     5.9640     6.4880    21.7160   -18.5780 
   61.5000     2.2370    88.9390     5.1110     5.9190     5.9470    21.5030   -18.8010 
   61.6250     2.2430    90.2350     5.1330     5.9040     5.9990    21.3580   -18.8480 
   61.7500     2.2500    89.1890     5.1040     5.9210     6.1090    21.0860   -18.8370 
   61.8750     2.2640    89.4120     4.9820     5.9210     5.9100    20.3370   -18.8400 
   62.0000     2.2840    92.3280     4.7950     5.8540     5.5170    19.1850   -18.9530 
   62.1250     2.3010    94.0480     4.6620     5.7260     5.1790    20.1570   -19.2880 
   62.2500     2.3110    92.4680     4.6760     5.6430     5.1040    21.4080   -19.8010 
   62.3750     2.3090    91.5710     4.8630     5.6960     5.1090    21.8780   -20.4650 
   62.5000     2.2980    93.7750     5.1840     5.9260     5.0730    22.1510   -21.2660 
   62.6250     2.2800    94.6140     5.5760     6.3270     5.3100    22.1920   -22.1630 
   62.7500     2.2630    90.9750     5.9420     6.7650     6.0740    21.9600   -23.1000 
   62.8750     2.2480    85.3580     6.1980     7.0970     7.0700    21.5690   -24.0640 
   63.0000     2.2360    81.8020     6.2730     7.2100     7.2250    21.4920   -25.0310 
   63.1250     2.2240    81.9540     6.1360     7.0650     6.4790    21.8610   -26.0290 
