~V
VERS. 2.00: Ver 2.00
~W
STRT.M 62.0000:
STOP.M 273.0000:
STEP.M 0.1250:
NULL. -999.2500:
UWI. F11050:
~C
DEPT.M :
SP.MV :
GR.API :
RML.OHMM :
RI. :
RXO.OHMM :
CALI.CM :
DEN.GM/CC :
~A
# ...
  118.2500   -17.6230    73.1420    10.6510     8.3850    10.3440    23.6270     2.2780 
  118.3750   -17.3080    74.0000    10.6020     8.3320    10.3730    23.5430     2.2860 
  118.5000   -17.0820    74.0180    10.5720     8.2900    10.5130    23.5360     2.2810 
  118.6250   -16.8350    73.3420    10.5620     8.2840    10.4620    23.6260     2.2650 
  118.7500   -16.5770    72.6570    10.5570     8.3060    10.3700    23.7630     2.2520 
  118.8750   -16.3460    70.0800    10.5160     8.3140    10.3600    23.9110     2.2440 
  119.0000   -16.1080    66.2710    10.3570     8.2280    10.3440    24.0150     2.2410 
  119.1250   -15.8790    66.3170     9.9230     7.9130    10.2530    24.1230     2.2420 
  119.2500   -15.5610    70.1520     9.2020     7.3690     9.9000    24.2520     2.2490 
  119.3750   -15.2660    75.6370     8.2780     6.6640     8.9600    24.4570     2.2670 
  119.5000   -14.8670    81.2230     7.3500     5.9380     7.4130    24.6320     2.2920 
  119.6250   -14.4630    86.0420     6.7070     5.3950     6.1190    24.7510     2.3110 
  119.7500   -14.1420    90.1470     6.4540     5.1210     5.8720    24.7920     2.3100 
  119.8750   -13.8580    92.0460     6.6450     5.1670     6.1630    24.7970     2.2900 
  120.0000   -13.6740    89.4050     7.3230     5.5720     6.9370    24.7390     2.2710 
  120.1250   -13.5340    81.6190     8.5890     6.4410     8.3840    24.5770     2.2700 
  120.2500   -13.4670    72.7980    10.2140     7.6690     9.6910    24.4360     2.2890 
  120.3750   -13.3220    69.0290    11.8270     9.0500    10.4960    24.4380     2.3290 
  120.5000   -13.2110    70.4710    12.8650    10.1690    11.6880    24.4650     2.3960 
  120.6250   -13.0730    75.0140    12.5970    10.3470    14.1440    24.2740     2.4770 
  120.7500   -12.8170    81.8270    11.2400     9.5680    13.7530    24.0210     2.5220 
  120.8750   -12.5200    88.0200     9.3730     8.2110     9.5070    23.7940     2.4970 
  121.0000   -12.1680    90.9240     7.6510     6.8000     6.7370    23.6540     2.4250 
  121.1250   -11.8610    91.0840     6.5450     5.7460     6.1920    23.5440     2.3660 
  121.2500   -11.5670    93.9310     5.9970     5.1020     6.1260    23.4980     2.3400 
  121.3750   -11.4330    99.0080     5.8900     4.8360     6.0620    23.5580     2.3350 
  121.5000   -11.3570    99.6430     6.0690     4.8650     5.9390    23.7880     2.3360 
  121.6250   -11.3000    93.8250     6.3770     5.0880     6.0780    24.1130     2.3330 
  121.7500   -11.3780    88.0730     6.6660     5.3470     6.3020    24.3080     2.3320 
  121.8750   -11.4560    86.3540     6.8630     5.5540     6.7340    24.3430     2.3350 
  122.0000   -11.5530    89.5240     6.9150     5.6430     6.8850    24.3150     2.3410 
  122.1250   -11.6030    93.1720     6.7470     5.5490     6.7980    24.3390     2.3490 
  122.2500   -11.6870    94.6180     6.3990     5.3030     6.0780    24.4230     2.3590 
  122.3750   -11.7120    94.9690     5.9230     4.9480     5.5580    24.5120     2.3690 
  122.5000   -11.7550    96.2180     5.3890     4.5420     5.3080    24.5410     2.3780 
  122.6250   -11.8860    97.7990     4.9330     4.1780     4.9260    24.6050     2.3830 
  122.7500   -11.9530    98.8660     4.6930     3.9490     4.5690    24.6780     2.3910 
  122.8750   -12.0940    99.9230     4.7780     3.9310     4.4520    24.7300     2.4010 
  123.0000   -12.2680    98.2980     5.2450     4.1740     4.8130    24.7620     2.4100 
  123.1250   -12.5410    90.3610     6.1040     4.7240     6.5790    24.7620     2.4140 
  123.2500   -12.8180    80.4190     7.1000     5.4520     9.6520    24.7310     2.4070 
  123.3750   -13.1670    72.6270     7.9420     6.1820    10.3340    24.6820     2.3810 
  123.5000   -13.5380    69.1460     8.3640     6.6950     9.6140    24.6340     2.3370 
  123.6250   -13.8180    69.6870     8.2420     6.7960     8.8320    24.6840     2.3020 
  123.7500   -14.1580    71.7750     7.8750     6.6280     9.0910    24.7490     2.2910 
  123.8750   -14.4440    73.7270     7.5310     6.3750     9.8260    24.7620     2.2930 
  124.0000   -14.7350    75.2020     7.3970     6.2040     8.4470    24.7020     2.2950 
  124.1250   -14.9840    74.8400     7.5810     6.2360     7.8370    24.5680     2.2940 
  124.2500   -15.2580    72.4240     7.9700     6.4390     7.7830    24.4280     2.2970 
  124.3750   -15.5030    71.2370     8.4360     6.7520     8.1620    24.3460     2.3070 
  124.5000   -15.6940    72.8610     8.8540     7.1000     8.7270    24.3350     2.3210 
  124.6250   -15.9690    75.8440     9.2210     7.4520     9.6940    24.3440     2.3290 
  124.7500   -16.2040    76.8170     9.7920     7.9180    10.4510    24.2740     2.3330 
  124.8750   -16.4350    77.9170    10.9470     8.7270    10.4270    24.1150     2.3410 
  125.0000   -16.6290    81.7980    13.0270    10.1440    10.6830    23.9590     2.3640 
  125.1250   -16.8090    83.0280    16.2310    12.4970    13.6770    23.7720     2.4050 
  125.2500   -16.9440    76.5680    19.7490    15.4110    21.7090    23.5810     2.4490 
  125.3750   -17.0550    65.2560    22.2410    17.9310    30.4540    23.4250     2.4710 
  125.5000   -17.2520    57.3360    22.2650    18.6820    28.6230    23.3740     2.4550 
  125.6250   -17.3850    57.9650    19.3770    16.8770    17.3180    23.4190     2.3980 
  125.7500   -17.5790    60.9150    15.6980    14.1080    12.2580    23.5230     2.3260 
  125.8750   -17.7910    60.8660    12.6370    11.5510    10.5110    23.6680     2.2600 
  126.0000   -18.0040    58.5150    10.7080     9.7080    10.0980    23.8570     2.2140 
  126.1250   -18.1760    59.4160     9.9190     8.6930    10.0060    24.0510     2.1950 
  126.2500   -18.3210    64.5970     9.7270     8.1840     9.9240    24.1950     2.1890 
  126.3750   -18.4800    68.5840     9.8210     7.9970     9.7670    24.2440     2.1920 
  126.5000   -18.5230    67.7250     9.9810     7.9850     9.5570    24.2020     2.2020 
  126.6250   -18.5970    64.6870    10.0830     8.0520     9.5400    24.1780     2.2200 
  126.7500   -18.6330    64.1240    10.1230     8.1230     9.4840    24.1690     2.2400 
  126.8750   -18.6470    66.1420    10.1330     8.1810     9.4860    24.1640     2.2560 
  127.0000   -18.6700    67.6460    10.1590     8.2290     9.6190    24.1570     2.2650 
  127.1250   -18.7180    66.6440    10.2550     8.2980     9.7910    24.1510     2.2630 
  127.2500   -18.7740    65.0450    10.4360     8.4150     9.9140    24.1430     2.2580 
  127.3750   -18.7990    64.8080    10.7030     8.6000     9.9490    24.1430     2.2520 
  127.5000   -18.9340    65.9470    11.0310     8.8480    10.1800    24.1720     2.2450 
  127.6250   -19.0070    67.1140    11.3490     9.1100    10.5780    24.2210     2.2340 
  127.7500   -19.0680    65.7440    11.5710     9.3070    10.7200    24.2800     2.2220 
  127.8750   -19.1340    62.6870    11.6350     9.3850    10.7120    24.2910     2.2150 
  128.0000   -19.1780    62.3760    11.5290     9.3300    10.6910    24.2600     2.2140 
  128.1250   -19.1590    66.5650    11.2900     9.1720    10.6900    24.2500     2.2160 
  128.2500   -19.1570    69.5720    11.0310     8.9980    10.6290    24.2420     2.2180 
  128.3750   -19.1290    69.0840    10.8190     8.8550    10.6190    24.2060     2.2170 
  128.5000   -19.0260    68.4400    10.6760     8.7450    10.6160    24.1820     2.2140 
  128.6250   -18.9840    69.2480    10.5830     8.6400    10.4620    24.1890     2.2130 
  128.7500   -18.8680    67.5470    10.4830     8.5090    10.1090    24.1970     2.2150 
  128.8750   -18.7520    64.0660    10.3530     8.3440     9.7350    24.1880     2.2190 
  129.0000   -18.6060    63.5220    10.1920     8.1610     9.5130    24.1620     2.2280 
  129.1250   -18.5330    67.0740    10.0110     7.9920     9.3690    24.1590     2.2390 
  129.2500   -18.4110    68.5700     9.8330     7.8570     9.2680    24.1740     2.2450 
  129.3750   -18.3210    66.4830     9.6720     7.7580     9.1710    24.1930     2.2480 
