~V
VERS. 2.00: Ver 2.00
~W
STRT.M 62.0000:
STOP.M 236.0000:
STEP.M 0.1250:
NULL. -999.2500:
UWI. F11006:
~C
DEPT.M :
GR.API :
RML.OHMM :
RI. :
RXO.OHMM :
CALI.CM :
SP.MV :
DEN.GM/CC :
~A
# ...
  185.7500    70.6990     6.3570     5.2730     5.0460    24.4940   -13.4560     2.3600 
  185.8750    79.6340     6.1640     5.0760     5.0380    23.9190   -12.9940     2.3780 
  186.0000    89.7840     6.0670     4.9390     5.1380    23.4260   -12.8020     2.3970 
  186.1250    96.7090     6.0670     4.8840     5.2650    23.3860   -12.9080     2.4080 
  186.2500    99.6070     6.1180     4.8740     5.3660    23.6410   -13.2630     2.4080 
  186.3750    96.2410     6.2150     4.9090     5.6370    24.1080   -13.7790     2.4030 
  186.5000    91.4910     6.2940     4.9600     5.7670    24.3950   -14.4010     2.3970 
  186.6250    90.7510     6.3170     4.9920     5.7480    24.5190   -15.1040     2.3950 
  186.7500    93.0890     6.2680     4.9810     5.6170    24.5350   -15.8720     2.3960 
  186.8750    94.1100     6.1700     4.9220     5.5760    24.5300   -16.6730     2.4000 
  187.0000    93.6450     6.0850     4.8560     5.4640    24.5520   -17.5250     2.4040 
  187.1250    94.7050     6.0690     4.8200     5.2820    24.6050   -18.4260     2.4080 
  187.2500    98.5800     6.1540     4.8450     5.2560    24.6250   -19.3840     2.4120 
  187.3750   103.5480     6.3530     4.9550     5.6540    24.5580   -20.4360     2.4150 
  187.5000   107.5800     6.6070     5.1240     6.2940    24.4780   -21.5370     2.4160 
  187.6250   108.8120     6.8590     5.3200     6.6060    24.4140   -22.5950     2.4160 
  187.7500   105.8590     7.0640     5.5080     6.6000    24.3870   -23.5560     2.4140 
  187.8750   102.1810     7.1930     5.6540     6.5540    24.3980   -24.4310     2.4140 
  188.0000    99.0440     7.2770     5.7600     6.7020    24.3880   -25.2280     2.4140 
  188.1250    96.1090     7.3510     5.8440     7.0490    24.3780   -25.9730     2.4140 
  188.2500    95.2170     7.4440     5.9320     7.3360    24.3620   -26.6380     2.4140 
  188.3750    96.9680     7.5730     6.0450     7.4770    24.3470   -27.1060     2.4140 
  188.5000    98.2350     7.7190     6.1800     7.5990    24.3380   -27.3750     2.4160 
  188.6250    96.3160     7.8590     6.3220     7.7040    24.3520   -27.5440     2.4190 
  188.7500    93.8800     7.9760     6.4550     7.9250    24.3750   -27.6510     2.4190 
  188.8750    95.6580     8.0570     6.5630     8.2470    24.4100   -27.6700     2.4170 
  189.0000    99.5850     8.1220     6.6490     8.0210    24.4410   -27.5840     2.4130 
  189.1250   100.8360     8.1870     6.7220     7.8670    24.4320   -27.3100     2.4090 
  189.2500    96.3780     8.2590     6.7910     8.2490    24.4130   -26.8370     2.4040 
  189.3750    89.6880     8.3200     6.8510     8.2960    24.4320   -26.1980     2.3950 
  189.5000    88.2080     8.3400     6.8870     8.2880    24.4660   -25.4530     2.3850 
  189.6250    90.8850     8.3040     6.8810     8.5760    24.4920   -24.5540     2.3780 
  189.7500    92.7130     8.2360     6.8370     8.6140    24.4770   -23.5560     2.3810 
  189.8750    91.9520     8.2350     6.8160     8.4580    24.4030   -22.5130     2.3970 
  190.0000    93.9560     8.4040     6.9090     8.3440    24.3400   -21.4760     2.4150 
  190.1250    99.2140     8.8000     7.1860     8.3040    24.3170   -20.5020     2.4220 
  190.2500   101.9470     9.3900     7.6580     8.8820    24.3260   -19.6340     2.4120 
  190.3750    98.4670    10.0270     8.2590    10.8510    24.3270   -18.8940     2.3900 
  190.5000    93.1370    10.5190     8.8190    13.1000    24.2440   -18.2430     2.3730 
  190.6250    90.8230    10.7850     9.2340    14.9430    24.0740   -17.7370     2.3720 
  190.7500    92.1010    10.8800     9.4900    14.1210    23.9380   -17.3840     2.3850 
  190.8750    95.8290    10.9780     9.6850    11.8910    23.9150   -17.1490     2.4000 
  191.0000   101.2860    11.2220     9.9660    11.7050    23.9890   -16.9320     2.4050 
  191.1250   105.3190    11.5930    10.3740    14.4010    24.1240   -16.7160     2.3970 
  191.2500   103.4560    11.9270    10.8210    17.2870    24.3940   -16.4930     2.3830 
  191.3750    95.3440    11.9250    11.0580    17.0930    24.5440   -16.3080     2.3730 
  191.5000    88.2170    11.5100    10.9330    14.8410    24.5440   -16.2020     2.3720 
  191.6250    88.5920    10.7780    10.4540    12.2830    24.4830   -16.1250     2.3780 
  191.7500    96.9070     9.9600     9.7860    10.6770    24.4420   -16.0130     2.3860 
  191.8750   106.9440     9.3310     9.1800     9.4550    24.4530   -15.8610     2.3910 
  192.0000   110.0350     8.9630     8.7720     9.2020    24.4330   -15.7180     2.3900 
  192.1250   106.2230     8.7990     8.5570     9.6830    24.4140   -15.5990     2.3860 
  192.2500   102.8910     8.7220     8.4520    10.0960    24.3880   -15.5070     2.3800 
  192.3750   102.8690     8.6050     8.3390     9.8830    24.4000   -15.4420     2.3800 
  192.5000   103.0970     8.3960     8.1410     9.2780    24.4030   -15.3850     2.3850 
  192.6250   102.0410     8.1210     7.8550     8.6190    24.3960   -15.3420     2.3930 
  192.7500   102.0340     7.8800     7.5470     8.8990    24.3840   -15.2950     2.3960 
  192.8750   102.3640     7.8740     7.3890    10.0570    24.3730   -15.2200     2.3930 
  193.0000   100.0860     8.4970     7.5720    10.6130    24.3570   -15.1350     2.3910 
  193.1250    97.3870    10.3440     8.3470    11.0900    24.3510   -15.0550     2.3960 
  193.2500    94.7420    13.8870    10.1030    12.9510    24.3270   -14.9750     2.4060 
  193.3750    89.6140    19.8610    13.8930    17.2990    24.2860   -14.9140     2.4050 
  193.5000    82.5300    28.5560    20.5380    27.3520    24.2710   -14.8620     2.3830 
  193.6250    78.7790    40.5260    30.8620    48.0460    24.3140   -14.7920     2.3420 
  193.7500    79.3730    55.1050    44.4930    75.3310    24.3310   -14.6610     2.2970 
  193.8750    79.0030    68.4490    58.2640   105.1150    24.2900   -14.4910     2.2730 
  194.0000    77.5710    75.6390    67.2660   110.8920    24.1670   -14.3500     2.2720 
  194.1250    77.0370    74.3050    68.6900   106.4990    24.1070   -14.2180     2.2850 
  194.2500    78.6370    65.9670    63.0590    88.7850    23.9670   -14.0900     2.2960 
  194.3750    81.6880    54.9040    53.5140    61.6040    23.9630   -13.8880     2.2930 
  194.5000    84.5420    45.3400    44.3580    41.0750    24.0640   -13.5870     2.2800 
  194.6250    85.6270    38.4750    37.2570    32.7730    24.2640   -13.2470     2.2640 
  194.7500    84.7710    34.2290    32.5530    29.1800    24.3490   -13.0200     2.2510 
  194.8750    83.6420    32.2950    30.1720    29.0150    24.2840   -12.9460     2.2480 
  195.0000    81.3120    31.6680    29.2030    29.2050    24.2050   -12.9110     2.2520 
  195.1250    77.3090    31.8610    29.1980    30.9450    24.1060   -12.8850     2.2610 
  195.2500    74.8830    32.5160    29.8010    31.4870    24.0060   -12.8210     2.2700 
  195.3750    77.3830    33.4380    30.7860    30.3080    23.9670   -12.7270     2.2730 
  195.5000    81.3800    34.5170    31.9500    30.1730    23.9900   -12.6670     2.2670 
  195.6250    83.1870    35.7800    33.2700    33.0870    24.0720   -12.6850     2.2560 
  195.7500    80.3480    37.2580    34.7620    36.7610    24.2110   -12.7060     2.2390 
  195.8750    75.2250    38.9020    36.4130    40.6820    24.3280   -12.6930     2.2230 
  196.0000    71.8570    40.4360    38.0110    44.0010    24.3730   -12.6390     2.2100 
  196.1250    71.5120    41.5280    39.2570    48.1100    24.3880   -12.5310     2.2030 
  196.2500    72.5470    41.8730    39.8420    52.2130    24.4150   -12.3980     2.2030 
  196.3750    73.6230    41.2300    39.4720    52.6430    24.4690   -12.3090     2.2100 
  196.5000    74.4400    39.9710    38.4400    47.0780    24.4890   -12.2990     2.2190 
  196.6250    74.6020    38.4920    37.0990    42.7640    24.4610   -12.3470     2.2280 
  196.7500    73.7510    37.1790    35.8320    42.4930    24.4090   -12.4180     2.2320 
  196.8750    73.9530    36.3440    34.9750    45.4970    24.3920   -12.4660     2.2300 
