~V
VERS. 2.00: Ver 2.00
~W
STRT.M 55.0000:
STOP.M 286.0000:
STEP.M 0.1250:
NULL. -999.2500:
UWI. F11067:
~C
DEPT.M :
GR.API :
RML.OHMM :
RI. :
RXO.OHMM :
CALI.CM :
DEN.GM/CC :
SP.MV :
~A
# ...
  111.2500    66.2060     9.8090     8.5680    10.9090    24.4960     2.1910    -8.7540 
  111.3750    67.6770     9.8820     8.6290    11.1020    24.5030     2.1890    -8.6910 
  111.5000    66.8900     9.9410     8.6650    10.8260    24.5050     2.1830    -8.6460 
  111.6250    63.3980     9.9410     8.6620    10.3410    24.5050     2.1760    -8.6190 
  111.7500    62.0580     9.8960     8.6270    10.1860    24.5060     2.1740    -8.6060 
  111.8750    63.3220     9.8190     8.5600    10.4710    24.5070     2.1780    -8.5800 
  112.0000    63.9480     9.7130     8.4650    10.9380    24.5050     2.1900    -8.5300 
  112.1250    63.6450     9.5970     8.3740    11.4450    24.5060     2.2020    -8.4780 
  112.2500    65.3800     9.5180     8.3360    11.5620    24.5050     2.2080    -8.4220 
  112.3750    67.3490     9.5250     8.3950    11.4230    24.5030     2.2020    -8.3590 
  112.5000    67.6560     9.6380     8.5430    11.4640    24.5040     2.1870    -8.2960 
  112.6250    67.0100     9.8090     8.6860    11.2650    24.5090     2.1750    -8.2090 
  112.7500    67.3290     9.9070     8.6990    11.2880    24.5120     2.1780    -8.1230 
  112.8750    68.4640     9.8350     8.5350    11.5410    24.5010     2.1960    -8.0510 
  113.0000    69.7340     9.5810     8.2460    11.3110    24.4650     2.2200    -8.0150 
  113.1250    70.7780     9.2460     7.9800    10.0770    24.4390     2.2330    -8.0180 
  113.2500    70.1380     9.0190     7.8690     9.1580    24.4280     2.2290    -8.0860 
  113.3750    68.9700     9.0110     7.9600    10.4420    24.4320     2.2110    -8.2010 
  113.5000    67.8050     9.2380     8.2230    12.2370    24.4270     2.1900    -8.3210 
  113.6250    64.3000     9.6210     8.5760    12.5680    24.4070     2.1770    -8.4750 
  113.7500    61.1190     9.9860     8.8910    12.2310    24.3850     2.1750    -8.6200 
  113.8750    61.5180    10.2290     9.1000    12.0310    24.3770     2.1810    -8.7380 
  114.0000    65.3520    10.3230     9.1950    12.0260    24.3760     2.1920    -8.8280 
  114.1250    67.7150    10.3150     9.2200    12.0040    24.3750     2.1990    -8.8810 
  114.2500    67.1960    10.3070     9.2320    12.1660    24.3730     2.1990    -8.8750 
  114.3750    65.3950    10.3360     9.2470    12.4800    24.3750     2.1910    -8.8140 
  114.5000    64.0470    10.3990     9.2620    12.7780    24.3750     2.1780    -8.7120 
  114.6250    63.8690    10.4620     9.2740    12.4160    24.3760     2.1650    -8.5620 
  114.7500    64.0230    10.5050     9.2830    12.3540    24.3700     2.1560    -8.3840 
  114.8750    63.1310    10.5280     9.2940    12.2360    24.3250     2.1530    -8.2130 
  115.0000    61.2510    10.5380     9.3120    11.9160    24.2070     2.1580    -8.0200 
  115.1250    61.8390    10.5400     9.3420    12.2000    24.0790     2.1700    -7.8050 
  115.2500    65.1610    10.5310     9.3710    12.1660    24.0200     2.1830    -7.5680 
  115.3750    68.5870    10.5060     9.3940    11.9860    24.0060     2.1940    -7.3170 
  115.5000    70.5090    10.4660     9.4130    11.7790    24.0030     2.1990    -7.0800 
  115.6250    71.1570    10.4350     9.4490    11.5980    24.0050     2.1970    -6.8520 
  115.7500    71.0300    10.4430     9.5220    11.6010    24.0050     2.1950    -6.6470 
  115.8750    70.8990    10.5140     9.6450    11.7510    24.0030     2.2020    -6.4280 
  116.0000    72.1770    10.6480     9.8090    11.9130    24.0150     2.2190    -6.2140 
  116.1250    75.8150    10.7940     9.9420    11.7930    24.0500     2.2410    -5.9560 
  116.2500    78.3790    10.8500     9.9340    11.6600    24.1110     2.2570    -5.7120 
  116.3750    77.6890    10.7180     9.6940    11.6760    24.1870     2.2640    -5.4820 
  116.5000    76.3500    10.3360     9.2030    11.3910    24.3000     2.2640    -5.2280 
  116.6250    80.3610     9.7030     8.5260    10.4240    24.4350     2.2680    -4.9590 
  116.7500    88.2860     8.9860     7.8620     8.7010    24.5820     2.2750    -4.6990 
  116.8750    92.8300     8.3430     7.3440     7.7490    24.6870     2.2830    -4.4800 
  117.0000    91.1100     7.9120     7.0590     7.8390    24.7200     2.2840    -4.3260 
  117.1250    89.1490     7.8300     7.0790     8.3490    24.6780     2.2740    -4.2780 
  117.2500    89.2290     8.0470     7.3410     8.8680    24.6060     2.2590    -4.3230 
  117.3750    87.2020     8.4990     7.7790     9.2420    24.5380     2.2430    -4.4430 
  117.5000    81.8290     9.0800     8.2920     8.9680    24.4510     2.2290    -4.6400 
  117.6250    76.8130     9.6480     8.7420     9.4780    24.3960     2.2160    -4.9070 
  117.7500    74.7350    10.0740     9.0260    10.5530    24.3770     2.2020    -5.1550 
  117.8750    74.1610    10.2630     9.0560    11.2640    24.3880     2.1880    -5.3820 
  118.0000    74.0610    10.1620     8.8170    11.3700    24.4130     2.1750    -5.5770 
  118.1250    75.5210     9.7920     8.4250    11.1580    24.4230     2.1760    -5.7090 
  118.2500    77.7150     9.4090     8.1780    11.4220    24.4280     2.2040    -5.7710 
  118.3750    77.7110     9.3380     8.3710    11.3630    24.4350     2.2690    -5.7790 
  118.5000    73.5980     9.9750     9.3510    11.8330    24.4700     2.3690    -5.7370 
  118.6250    69.4530    11.9860    11.7690    15.1350    24.5600     2.4840    -5.6440 
  118.7500    67.5030    15.4550    15.6900    23.6130    24.6500     2.5820    -5.5830 
  118.8750    66.5290    20.0510    20.6190    35.5180    24.7190     2.6390    -5.5420 
  119.0000    65.7930    24.5250    24.7110    54.7500    24.7600     2.6440    -5.5290 
  119.1250    63.6360    26.3960    24.7130    59.5620    24.7360     2.5910    -5.5850 
  119.2500    62.2300    24.9140    21.3210    40.7000    24.6350     2.5070    -5.6640 
  119.3750    64.8090    20.9750    16.9120    21.0910    24.5080     2.4130    -5.7700 
  119.5000    70.8480    16.4830    13.2570    13.5880    24.4550     2.3260    -5.9260 
  119.6250    72.7300    13.2360    11.0260    11.8860    24.4840     2.2620    -6.1150 
  119.7500    69.1330    11.4280     9.8140    11.4840    24.5330     2.2160    -6.2990 
  119.8750    65.9170    10.7410     9.3570    11.7700    24.5590     2.1860    -6.4690 
  120.0000    66.0700    10.7450     9.3880    12.7590    24.5360     2.1690    -6.6170 
  120.1250    69.0390    11.0440     9.6250    13.9160    24.4630     2.1650    -6.6930 
  120.2500    72.2500    11.2860     9.8130    12.8600    24.4050     2.1680    -6.7240 
  120.3750    72.6670    11.3590     9.8880    11.8670    24.3800     2.1730    -6.7270 
  120.5000    69.5600    11.2820     9.8780    11.4730    24.3780     2.1760    -6.7020 
  120.6250    67.1260    11.1340     9.8240    11.5280    24.4050     2.1790    -6.6620 
  120.7500    67.9870    10.9900     9.7550    11.6300    24.4480     2.1840    -6.6170 
  120.8750    70.6510    10.8630     9.6640    11.6340    24.4330     2.1910    -6.5580 
  121.0000    72.9400    10.7410     9.5410    11.7020    24.3930     2.1980    -6.5040 
  121.1250    73.9250    10.6140     9.4010    11.5710    24.3700     2.2000    -6.4890 
  121.2500    74.3770    10.4970     9.2840    11.2740    24.3610     2.1960    -6.4790 
  121.3750    74.8960    10.4110     9.2080    11.2750    24.3420     2.1890    -6.4610 
  121.5000    75.8590    10.3640     9.1670    11.7360    24.3270     2.1820    -6.4350 
  121.6250    75.8060    10.3450     9.1360    12.2130    24.2870     2.1780    -6.3940 
  121.7500    74.7650    10.3270     9.1060    11.9360    24.2090     2.1740    -6.3540 
  121.8750    73.8300    10.3060     9.0980    11.2880    24.1620     2.1680    -6.3140 
  122.0000    73.8770    10.3030     9.1550    10.4670    24.2970     2.1620    -6.2640 
  122.1250    74.3250    10.3800     9.3440    10.0460    24.4770     2.1590    -6.1890 
  122.2500    74.4330    10.5780     9.6720    11.0890    24.5610     2.1650    -6.1150 
  122.3750    73.9990    10.9010    10.1070    11.6450    24.5820     2.1760    -6.0190 
