~V
VERS. 2.00: Ver 2.00
~W
STRT.M 52.0000:
STOP.M 282.0000:
STEP.M 0.1250:
NULL. -999.2500:
UWI. F11052:
~C
DEPT.M :
SP.MV :
GR.API :
RML.OHMM :
RI. :
RXO.OHMM :
CALI.CM :
DEN.GM/CC :
~A
# ...
  119.5000   -10.1670    75.2820     7.9550     7.0510     8.0720    25.2180     2.2410 
  119.6250   -10.9360    76.8130     8.1470     7.1480     8.1320    25.1980     2.2360 
  119.7500   -11.5170    77.8570     8.5060     7.3840     8.2750    25.1710     2.2280 
  119.8750   -11.8490    77.0130     8.9480     7.7230     8.5090    25.1540     2.2110 
  120.0000   -12.0350    75.9830     9.3490     8.1080     8.7310    25.1250     2.1870 
  120.1250   -11.9460    74.8500     9.4990     8.3850     8.9440    25.1540     2.1720 
  120.2500   -11.6100    74.3810     9.2930     8.3950     9.3250    25.2090     2.1870 
  120.3750   -10.9870    76.8670     8.7170     8.0550     9.7470    25.2170     2.2370 
  120.5000   -10.1180    82.7050     7.8810     7.4150     9.5120    25.2130     2.3090 
  120.6250    -9.2010    88.5130     6.9980     6.6470     7.1170    25.2660     2.3710 
  120.7500    -8.2070    91.4640     6.2670     5.9620     6.0270    25.2200     2.4020 
  120.8750    -7.2080    92.9150     5.7690     5.4480     5.8150    25.0210     2.4000 
  121.0000    -6.2840    95.3330     5.5000     5.1220     6.0460    24.7950     2.3820 
  121.1250    -5.5640    97.7360     5.4360     4.9970     5.8110    24.6820     2.3630 
  121.2500    -5.0760    96.9530     5.4880     5.0060     5.5420    24.6870     2.3490 
  121.3750    -4.8550    94.4690     5.6210     5.1150     5.3190    24.7320     2.3370 
  121.5000    -4.8410    92.9530     5.8090     5.2960     5.3310    24.7120     2.3270 
  121.6250    -4.9540    92.9850     5.9980     5.5130     6.1520    24.6240     2.3180 
  121.7500    -5.1060    94.0130     6.1060     5.6860     6.6350    24.5590     2.3150 
  121.8750    -5.1990    95.3850     6.0640     5.7350     6.4100    24.5400     2.3180 
  122.0000    -5.2230    97.0440     5.8470     5.6140     5.9470    24.5430     2.3290 
  122.1250    -5.1930    99.7350     5.4940     5.3220     5.6150    24.5610     2.3440 
  122.2500    -5.1160   103.9110     5.1390     4.9750     5.2390    24.6200     2.3610 
  122.3750    -4.9920   107.3050     4.8780     4.6640     4.9290    24.6960     2.3760 
  122.5000    -4.8660   107.5550     4.7750     4.4560     4.7840    24.7640     2.3880 
  122.6250    -4.7500   105.2880     4.8860     4.4080     4.8380    24.7590     2.3980 
  122.7500    -4.6810   101.9200     5.1660     4.5110     4.9430    24.7050     2.4050 
  122.8750    -4.7780    97.1350     5.5720     4.7570     5.3010    24.6550     2.4060 
  123.0000    -4.9650    91.0370     6.0350     5.0990     5.8170    24.6310     2.3960 
  123.1250    -5.2500    84.3890     6.4420     5.4510     6.4400    24.6340     2.3700 
  123.2500    -5.5660    80.1410     6.7080     5.7160     7.4950    24.6480     2.3400 
  123.3750    -5.8490    79.6790     6.8120     5.8370     7.9930    24.6550     2.3160 
  123.5000    -6.1300    81.5890     6.8270     5.8350     7.3970    24.6740     2.3010 
  123.6250    -6.3500    82.7550     6.9720     5.8490     6.9250    24.7220     2.2910 
  123.7500    -6.6320    82.8010     7.4810     6.0770     7.1490    24.7530     2.2810 
  123.8750    -6.8680    81.9140     8.5270     6.6880     8.1110    24.8160     2.2790 
  124.0000    -7.0110    80.3440    10.1620     7.8140     9.8570    24.9950     2.3000 
  124.1250    -7.1550    77.5060    12.2410     9.5710    14.7350    25.2810     2.3580 
  124.2500    -7.3560    73.1400    14.1600    11.5760    22.8100    25.4670     2.4360 
  124.3750    -7.6880    68.4900    15.3000    13.1880    29.0620    25.4680     2.5080 
  124.5000    -8.1520    66.3130    15.2340    13.7170    29.0400    25.2970     2.5520 
  124.6250    -8.6590    68.4540    13.9880    12.8720    22.5370    25.0320     2.5500 
  124.7500    -9.1290    71.5170    12.5010    11.4720    16.0450    24.7470     2.5150 
  124.8750    -9.6170    71.3990    11.3500    10.1180    12.0510    24.4620     2.4590 
  125.0000   -10.1180    69.9680    10.6870     9.1370    10.1590    24.2900     2.3960 
  125.1250   -10.5800    70.8270    10.4080     8.6470     9.5180    24.3030     2.3400 
  125.2500   -10.9260    71.6350    10.2610     8.4220     9.4970    24.3850     2.2970 
  125.3750   -11.0910    69.9380    10.0750     8.2460     9.6470    24.4630     2.2650 
  125.5000   -11.0370    67.4850     9.6900     7.9430     9.6810    24.5960     2.2410 
  125.6250   -10.8070    69.0910     9.1200     7.4640     9.4750    24.7950     2.2310 
  125.7500   -10.5560    73.4190     8.6000     6.9830     8.5140    24.8850     2.2360 
  125.8750   -10.3740    77.0670     8.3330     6.6690     6.9200    24.8330     2.2550 
  126.0000   -10.3890    75.9730     8.4300     6.6390     6.3650    24.8390     2.2750 
  126.1250   -10.5400    70.6490     8.9090     6.9660     7.9830    24.8950     2.2720 
  126.2500   -10.8120    67.2130     9.5340     7.5080     9.9940    24.9350     2.2440 
  126.3750   -11.2450    66.6150    10.0840     8.0980    11.3710    24.9640     2.1990 
  126.5000   -11.8070    65.3810    10.3730     8.5320    10.1480    24.9990     2.1570 
  126.6250   -12.5420    60.5700    10.2870     8.6220     9.0530    25.0140     2.1350 
  126.7500   -13.2160    56.3490     9.9900     8.4680     8.6230    25.0010     2.1330 
  126.8750   -13.7740    56.2170     9.6440     8.2140     8.7190    24.9610     2.1460 
  127.0000   -14.1990    59.2740     9.3720     7.9800     8.7610    24.9190     2.1640 
  127.1250   -14.4500    61.7740     9.2390     7.8400     8.6600    24.9080     2.1790 
  127.2500   -14.6270    61.8950     9.2000     7.7820     8.5670    24.9070     2.1880 
  127.3750   -14.6940    62.0100     9.2150     7.7800     8.5830    24.9010     2.1930 
  127.5000   -14.6430    63.7820     9.2520     7.8060     8.6790    24.8900     2.1950 
  127.6250   -14.5210    66.5380     9.2850     7.8340     8.7640    24.8030     2.1990 
  127.7500   -14.3960    69.7570     9.2970     7.8460     8.8310    24.6440     2.2030 
  127.8750   -14.2160    71.5410     9.2750     7.8340     8.8790    24.5280     2.2070 
  128.0000   -13.9960    70.4770     9.2140     7.7940     8.9040    24.4880     2.2110 
  128.1250   -13.7980    69.3620     9.1210     7.7260     9.0100    24.4900     2.2140 
  128.2500   -13.5920    70.4900     9.0250     7.6490     8.9450    24.5050     2.2180 
  128.3750   -13.4450    72.3030     8.9510     7.5830     8.7380    24.5460     2.2210 
  128.5000   -13.3420    72.2010     8.9170     7.5480     8.4970    24.5960     2.2240 
  128.6250   -13.2450    71.5500     8.9390     7.5590     8.5510    24.5790     2.2270 
  128.7500   -13.1660    72.2390     8.9980     7.6090     8.7160    24.4920     2.2300 
  128.8750   -13.1200    73.3740     9.0780     7.6940     8.8870    24.3930     2.2370 
  129.0000   -13.0830    72.9480     9.1560     7.8010     8.9120    24.3540     2.2480 
  129.1250   -13.0050    71.3920     9.2050     7.9130     8.8250    24.4720     2.2600 
  129.2500   -12.9410    71.4690     9.2160     8.0050     8.6210    24.6680     2.2660 
  129.3750   -12.8370    73.9570     9.1840     8.0630     8.4370    24.7990     2.2610 
  129.5000   -12.7750    75.5090     9.1170     8.0820     8.4840    24.7960     2.2460 
  129.6250   -12.7290    71.7890     9.0380     8.0700     8.5780    24.8270     2.2260 
  129.7500   -12.6790    66.7140     8.9820     8.0600     8.6800    24.8640     2.2090 
  129.8750   -12.6670    64.6430     8.9760     8.0810     8.8210    24.8380     2.1980 
  130.0000   -12.5900    65.8260     9.0250     8.1500     8.9570    24.7510     2.1930 
  130.1250   -12.5150    66.7200     9.1070     8.2620     9.0860    24.6410     2.1970 
  130.2500   -12.3710    66.8450     9.1700     8.3630     9.2080    24.5450     2.2090 
  130.3750   -12.1540    67.7210     9.1730     8.4010     9.4620    24.4930     2.2270 
  130.5000   -11.9120    70.3520     9.0980     8.3470     9.7070    24.4660     2.2470 
  130.6250   -11.6250    73.8670     8.9400     8.1920     9.9730    24.4600     2.2600 
