~V
VERS. 2.00: Ver 2.00
~W
STRT.M 53.0000:
STOP.M 279.0000:
STEP.M 0.1250:
NULL. -999.2500:
UWI. F11068:
~C
DEPT.M :
GR.API :
RML.OHMM :
RI. :
RXO.OHMM :
CALI.CM :
SP.MV :
DEN.GM/CC :
~A
# ...
  165.5000   106.1920     4.6910     3.5290     4.1940    24.8130    -8.9680     2.3800 
  165.6250   112.0730     4.7130     3.5350     4.1950    24.8130    -8.9710     2.3900 
  165.7500   117.8460     4.7150     3.5410     4.1390    24.8130    -8.9100     2.3970 
  165.8750   119.8800     4.7100     3.5500     4.0790    24.8130    -8.7750     2.3960 
  166.0000   114.7070     4.7060     3.5580     4.1220    24.8130    -8.6010     2.3840 
  166.1250   106.4890     4.6890     3.5570     4.2460    24.8130    -8.4370     2.3640 
  166.2500   104.3090     4.6460     3.5410     4.2630    24.8080    -8.2710     2.3510 
  166.3750   110.1850     4.5750     3.5090     4.1620    24.7820    -8.1540     2.3510 
  166.5000   118.9620     4.4940     3.4680     4.0350    24.7100    -8.0930     2.3630 
  166.6250   122.6690     4.4310     3.4350     4.0800    24.5800    -8.0580     2.3790 
  166.7500   119.3590     4.4020     3.4250     4.4660    24.4220    -8.1630     2.3900 
  166.8750   111.6710     4.4040     3.4480     4.8620    24.2940    -8.3270     2.3920 
  167.0000   106.1750     4.4260     3.4990     4.6920    24.2390    -8.5380     2.3900 
  167.1250   106.7430     4.4510     3.5600     4.6220    24.2250    -8.7460     2.3860 
  167.2500   109.3650     4.4650     3.6020     4.6770    24.2060    -8.9980     2.3820 
  167.3750   109.8260     4.4580     3.6050     4.5920    24.1940    -9.3090     2.3770 
  167.5000   107.5390     4.4270     3.5600     4.1780    24.2000    -9.6410     2.3700 
  167.6250   105.6130     4.3730     3.4720     4.0850    24.2100    -9.9580     2.3640 
  167.7500   104.0990     4.3110     3.3680     4.4760    24.2100   -10.2050     2.3610 
  167.8750   101.9820     4.2570     3.2660     5.1410    24.2030   -10.4380     2.3620 
  168.0000   100.7280     4.2310     3.1880     5.6370    24.1960   -10.6590     2.3650 
  168.1250   100.5080     4.2580     3.1630     5.2730    24.2350   -10.9340     2.3620 
  168.2500    99.2010     4.3230     3.1930     4.7000    24.3330   -11.2630     2.3520 
  168.3750    96.5180     4.3930     3.2610     4.4030    24.4300   -11.5700     2.3340 
  168.5000    95.0820     4.4370     3.3330     4.4960    24.4920   -11.8490     2.3130 
  168.6250    97.9910     4.4660     3.3820     4.6160    24.5620   -12.2010     2.3030 
  168.7500   101.6740     4.5780     3.4520     4.6780    24.6080   -12.5620     2.3120 
  168.8750   103.6970     4.9030     3.6370     4.6130    24.6490   -12.9050     2.3390 
  169.0000   101.8110     5.5490     4.0410     4.7140    24.6850   -13.2210     2.3760 
  169.1250    95.2200     6.5680     4.7760     5.9310    24.7220   -13.4840     2.4080 
  169.2500    87.9920     7.7070     5.7430     9.6990    24.7410   -13.6840     2.4250 
  169.3750    83.4610     8.6430     6.7230    15.7440    24.7110   -13.8520     2.4270 
  169.5000    84.2430     9.0750     7.3750    19.9510    24.6920   -14.0560     2.4170 
  169.6250    87.4350     8.8570     7.3880    13.1110    24.6870   -14.1530     2.4020 
  169.7500    89.0650     8.3710     7.0340     8.2660    24.6700   -14.2690     2.3900 
  169.8750    90.0220     7.9800     6.6530     6.8770    24.5900   -14.3890     2.3830 
  170.0000    91.8180     7.9270     6.4970     6.9730    24.3960   -14.5310     2.3770 
  170.1250    93.0440     8.3000     6.7180     7.4530    24.0540   -14.6360     2.3710 
  170.2500    92.5610     8.8770     7.1900     8.1130    23.7670   -14.8050     2.3640 
  170.3750    92.5330     9.4470     7.7410     8.4870    23.7190   -15.0020     2.3610 
  170.5000    92.9550     9.8240     8.1720     8.5480    23.8740   -15.1950     2.3650 
  170.6250    89.8570     9.8630     8.2930     8.7770    24.1490   -15.3720     2.3760 
  170.7500    85.8880     9.6730     8.1600     8.9940    24.4830   -15.5270     2.3860 
  170.8750    85.4510     9.4170     7.9060     9.0590    24.7720   -15.6410     2.3920 
  171.0000    88.9070     9.2870     7.7050     8.7530    24.9100   -15.7010     2.3940 
  171.1250    91.9120     9.4950     7.7520     8.5040    24.9210   -15.7690     2.3950 
  171.2500    91.5940    10.0390     8.0870     8.8060    24.8870   -15.8400     2.3950 
  171.3750    88.0000    10.8360     8.6930     9.7870    24.8540   -15.8800     2.3960 
  171.5000    84.0600    11.7070     9.4710    11.5530    24.8150   -15.9310     2.3980 
  171.6250    84.5140    12.3790    10.2090    12.4090    24.7710   -16.0820     2.4030 
  171.7500    87.4510    12.7430    10.7120    12.6570    24.7280   -16.2300     2.4080 
  171.8750    88.8220    12.8630    10.9290    12.3220    24.6930   -16.3820     2.4100 
  172.0000    88.3890    12.9290    10.9770    11.7870    24.6600   -16.5770     2.4050 
  172.1250    88.0760    13.1830    11.0890    11.9910    24.6150   -16.7620     2.3910 
  172.2500    88.1310    13.6570    11.4010    13.0110    24.5990   -16.9520     2.3770 
  172.3750    86.1200    14.2480    11.8920    14.8750    24.6350   -17.1560     2.3700 
  172.5000    80.9670    14.7870    12.4410    17.6750    24.6620   -17.3210     2.3710 
  172.6250    76.3890    15.0910    12.8740    19.8140    24.6230   -17.4410     2.3810 
  172.7500    75.9540    15.1750    13.1350    18.8120    24.6480   -17.5250     2.3940 
  172.8750    81.1040    15.1330    13.2590    15.1040    24.8190   -17.6400     2.4100 
  173.0000    87.1800    15.0830    13.3390    13.2250    25.0080   -17.7590     2.4290 
  173.1250    87.5850    15.1180    13.4490    15.4170    25.0600   -18.0210     2.4500 
  173.2500    84.3920    15.2200    13.5780    17.4980    24.8850   -18.2070     2.4650 
  173.3750    81.4050    15.3680    13.6920    17.2250    24.5480   -18.3700     2.4690 
  173.5000    81.5050    15.5970    13.8100    15.4540    24.2410   -18.5700     2.4580 
  173.6250    82.6980    16.0600    14.0930    15.0890    24.0930   -18.8690     2.4330 
  173.7500    81.4720    16.8120    14.7050    15.4630    24.0660   -19.2710     2.4040 
  173.8750    78.9490    17.7450    15.6860    16.1670    24.0800   -19.7610     2.3810 
  174.0000    78.2940    18.5240    16.8080    17.4990    24.1300   -20.3270     2.3740 
  174.1250    80.3990    18.5870    17.4000    21.6780    24.1990   -20.8240     2.3870 
  174.2500    82.4800    17.8980    17.0900    25.6350    24.2460   -21.2900     2.4050 
  174.3750    85.2820    16.8130    16.0990    23.5160    24.2930   -21.7340     2.4130 
  174.5000    90.9260    15.9540    15.0770    15.8390    24.3330   -22.1200     2.4010 
  174.6250    93.4690    16.0820    14.8220    12.5060    24.3290   -22.4430     2.3750 
  174.7500    89.9830    17.2900    15.6050    14.6150    24.3120   -22.6810     2.3530 
  174.8750    84.1130    19.3450    17.4850    22.8600    24.3030   -22.8550     2.3450 
  175.0000    79.7710    21.6000    20.1440    36.0520    24.3020   -22.9430     2.3530 
  175.1250    78.1320    22.8800    22.4240    36.6970    24.3070   -23.0260     2.3680 
  175.2500    79.7610    22.6070    23.0270    28.6680    24.3220   -23.1220     2.3810 
  175.3750    82.7130    20.9220    21.7010    22.0580    24.3470   -23.2590     2.3890 
  175.5000    83.4180    18.5560    19.2830    19.3230    24.3740   -23.4060     2.3960 
  175.6250    83.3420    16.4420    16.9150    16.9540    24.4520   -23.4820     2.4010 
  175.7500    84.5970    15.0220    15.1640    14.4580    24.5760   -23.5030     2.4030 
  175.8750    86.4550    14.3440    14.1430    13.5860    24.6580   -23.4510     2.3990 
  176.0000    88.5460    14.4340    13.8590    14.8450    24.6040   -23.3560     2.3870 
  176.1250    90.3020    15.8950    14.4570    16.1240    24.5400   -23.1920     2.3720 
  176.2500    88.8110    18.6990    15.8630    17.4200    24.5480   -23.0440     2.3580 
  176.3750    84.1660    22.3620    18.1090    20.6690    24.6310   -22.8540     2.3500 
  176.5000    80.6520    26.1960    21.1340    25.4300    24.7490   -22.6650     2.3470 
  176.6250    79.4460    29.7020    24.6750    32.9630    24.8030   -22.4680     2.3500 
