~V
VERS. 2.00: Ver 2.00
~W
STRT.M 57.0000:
STOP.M 278.0000:
STEP.M 0.1250:
NULL. -999.2500:
UWI. F11043:
~C
DEPT.M :
SP.MV :
GR.API :
RML.OHMM :
RI. :
RXO.OHMM :
CALI.CM :
DEN.GM/CC :
~A
# ...
  147.0000   -20.1040   108.5380     5.5260     4.3040     5.8100    24.0740     2.3370 
  147.1250   -20.0620   108.2630     5.4350     4.2630     5.6330    24.1830     2.3300 
  147.2500   -19.9930   102.2740     5.3610     4.2120     5.5480    24.2900     2.3380 
  147.3750   -19.9240    96.1130     5.3140     4.1670     5.5270    24.3290     2.3580 
  147.5000   -19.9010    95.1560     5.2930     4.1310     5.6220    24.3240     2.3810 
  147.6250   -19.9560    96.8740     5.2900     4.0950     5.6580    24.3220     2.3960 
  147.7500   -20.0410    93.8940     5.2850     4.0520     5.6600    24.3280     2.4030 
  147.8750   -20.1300    89.5810     5.2660     4.0050     5.6630    24.3310     2.4080 
  148.0000   -20.1870    90.3370     5.2340     3.9580     5.7180    24.3240     2.4110 
  148.1250   -20.1890    96.6070     5.2030     3.9220     5.8420    24.3130     2.4140 
  148.2500   -20.2220   100.9770     5.1880     3.8990     5.8520    24.3210     2.4190 
  148.3750   -20.3430    99.6620     5.1900     3.8890     5.6730    24.3270     2.4230 
  148.5000   -20.4960    95.1110     5.1980     3.8880     5.5060    24.3100     2.4240 
  148.6250   -20.6380    91.9960     5.1980     3.8820     5.4300    24.2980     2.4190 
  148.7500   -20.7340    91.1190     5.1860     3.8670     5.4290    24.3030     2.4140 
  148.8750   -20.7700    91.8020     5.1730     3.8490     5.5130    24.3220     2.4070 
  149.0000   -20.7570    93.6210     5.1770     3.8440     5.6550    24.3340     2.3990 
  149.1250   -20.7450    94.9730     5.2200     3.8770     5.8750    24.3320     2.3870 
  149.2500   -20.7750    92.8610     5.2910     3.9360     5.9310    24.3330     2.3730 
  149.3750   -20.8280    87.7470     5.3580     4.0010     5.8760    24.3360     2.3600 
  149.5000   -20.8480    86.1860     5.3880     4.0450     5.8720    24.3340     2.3510 
  149.6250   -20.8000    92.0660     5.3420     4.0360     5.8860    24.3300     2.3490 
  149.7500   -20.7400    99.1250     5.2360     3.9760     5.6820    24.3300     2.3510 
  149.8750   -20.7210   102.3730     5.0990     3.8750     5.3110    24.3340     2.3530 
  150.0000   -20.7730   101.5310     4.9620     3.7610     5.0970    24.3330     2.3580 
  150.1250   -20.9280    97.8610     4.8560     3.6690     5.0140    24.3220     2.3700 
  150.2500   -21.0930    94.1320     4.7930     3.6110     4.9740    24.3120     2.3870 
  150.3750   -21.1880    90.6810     4.7750     3.5840     4.9680    24.3210     2.4030 
  150.5000   -21.2410    86.8100     4.8000     3.5760     4.9700    24.3320     2.4170 
  150.6250   -21.3080    85.3050     4.8530     3.5810     4.9860    24.3320     2.4260 
  150.7500   -21.3900    88.7960     4.9110     3.5960     4.9590    24.3190     2.4240 
  150.8750   -21.4910    94.8970     4.9540     3.6140     4.9430    24.2870     2.4120 
  151.0000   -21.6370    98.1060     4.9560     3.6160     4.9750    24.2280     2.3980 
  151.1250   -21.8010    95.3530     4.8740     3.5670     5.0750    24.2070     2.3950 
  151.2500   -21.9260    91.5330     4.7220     3.4740     5.1380    24.2090     2.3980 
  151.3750   -22.0320    88.3370     4.5740     3.3850     5.1430    24.2070     2.3950 
  151.5000   -22.2030    85.9070     4.5760     3.3830     5.1630    24.1900     2.3860 
  151.6250   -22.4680    84.6910     4.9750     3.6150     5.5250    24.1830     2.3790 
  151.7500   -22.7910    83.3590     5.8610     4.1530     6.9660    24.1790     2.3790 
  151.8750   -23.1280    79.9610     7.2680     5.0620    10.2580    24.1790     2.3810 
  152.0000   -23.3980    75.5290     9.0970     6.3430    13.2870    24.1790     2.3770 
  152.1250   -23.5320    75.5260    11.0330     7.8820    15.4940    24.1800     2.3610 
  152.2500   -23.6110    80.1600    12.6360     9.3470    15.6730    24.1800     2.3360 
  152.3750   -23.7040    82.9800    13.7130    10.5070    14.7690    24.1790     2.3090 
  152.5000   -23.7870    81.6600    14.3950    11.3300    15.1750    24.1780     2.2890 
  152.6250   -23.8230    78.5910    15.0600    11.9960    17.3450    24.1800     2.2780 
  152.7500   -23.8230    76.9070    16.0020    12.7540    18.5490    24.1840     2.2720 
  152.8750   -23.7590    76.8350    17.2560    13.6920    19.0540    24.1880     2.2700 
  153.0000   -23.6510    75.2060    18.6740    14.7690    19.7240    24.1830     2.2730 
  153.1250   -23.5460    71.8710    19.9720    15.8200    21.1830    24.1810     2.2820 
  153.2500   -23.4920    69.2470    21.0000    16.6960    21.9910    24.1820     2.2940 
  153.3750   -23.4890    69.3100    21.8010    17.3850    22.4650    24.1800     2.3070 
  153.5000   -23.4730    70.4850    22.5260    17.9760    22.5330    24.1770     2.3120 
  153.6250   -23.3950    68.8160    23.3420    18.5970    22.1450    24.1800     2.3020 
  153.7500   -23.2500    66.0780    24.3190    19.3330    23.0750    24.1840     2.2830 
  153.8750   -23.0770    64.5620    25.4820    20.2340    28.3870    24.1870     2.2630 
  154.0000   -22.9470    64.4030    26.8450    21.3500    34.1000    24.1930     2.2420 
  154.1250   -22.9220    64.0540    28.5290    22.8090    32.5450    24.2050     2.2220 
  154.2500   -22.9310    63.0450    30.5660    24.6280    29.2410    24.2070     2.2090 
  154.3750   -22.8890    63.2130    32.8720    26.7440    29.3010    24.2000     2.2030 
  154.5000   -22.8050    65.1990    35.1380    28.9110    31.9670    24.1970     2.2040 
  154.6250   -22.7440    67.9890    36.7060    30.6110    36.4690    24.2010     2.2060 
  154.7500   -22.7220    69.3730    37.1990    31.5050    36.5370    24.1960     2.2080 
  154.8750   -22.7730    69.3480    36.5260    31.4590    32.6930    24.1870     2.2150 
  155.0000   -22.8830    69.8620    34.8820    30.5470    28.4500    24.1800     2.2280 
  155.1250   -22.9800    70.2530    32.4540    28.8240    26.8330    24.1770     2.2430 
  155.2500   -23.0040    68.0870    29.5760    26.5700    27.1340    24.1750     2.2530 
  155.3750   -23.0010    67.6550    26.4640    23.9940    26.2780    24.1760     2.2580 
  155.5000   -23.0400    73.4500    23.4480    21.4080    22.5400    24.1800     2.2620 
  155.6250   -23.1510    83.4270    21.0720    19.2660    17.7780    24.1810     2.2680 
  155.7500   -23.3050    89.7100    19.5960    17.7940    14.5060    24.1780     2.2760 
  155.8750   -23.4540    89.0400    19.0570    17.0640    15.0170    24.1760     2.2820 
  156.0000   -23.5330    84.5390    19.2400    16.9790    16.6900    24.1760     2.2780 
  156.1250   -23.5250    82.1650    19.7440    17.3290    17.1760    24.1870     2.2680 
  156.2500   -23.5230    84.4200    20.0750    17.6940    16.6890    24.2090     2.2610 
  156.3750   -23.5720    87.4670    20.0560    17.8520    16.0990    24.2270     2.2620 
  156.5000   -23.6290    88.8750    19.8380    17.8120    15.7890    24.2240     2.2680 
  156.6250   -23.6850    89.8890    19.8700    17.8520    16.9970    24.1960     2.2760 
  156.7500   -23.7320    89.3410    20.4720    18.2650    18.1380    24.1970     2.2830 
  156.8750   -23.7570    85.9380    21.7710    19.2120    19.4730    24.2340     2.2870 
  157.0000   -23.7740    79.7490    23.7260    20.7410    22.5460    24.2630     2.2870 
  157.1250   -23.8120    75.5440    31.4050    22.7970    27.0190    24.2570     2.2830 
  157.2500   -23.9260    75.0240    34.2700    24.9790    30.4770    24.2200     2.2770 
  157.3750   -24.1000    75.0030    36.6390    26.9260    30.9360    24.2250     2.2710 
  157.5000   -24.2740    72.2380    38.2650    28.3810    30.5600    24.2530     2.2670 
  157.6250   -24.3630    70.0870    39.1280    29.2350    31.7530    24.2860     2.2660 
  157.7500   -24.3920    72.7070    39.6480    29.7670    33.1480    24.3190     2.2650 
  157.8750   -24.4110    77.6520    40.0710    30.1860    34.3690    24.3290     2.2630 
  158.0000   -24.4860    80.8230    40.5130    30.6200    35.1720    24.3170     2.2600 
  158.1250   -24.8010    79.5690    40.9780    31.1260    35.3480    24.2960     2.2560 
