~V
VERS. 2.00: Ver 2.00
~W
STRT.M 62.0000:
STOP.M 218.0000:
STEP.M 0.1250:
NULL. -999.2500:
UWI. F11008:
~C
DEPT.M :
DEN.GM/CC :
GR.API :
RML.OHMM :
RI. :
RXO.OHMM :
CALI.CM :
SP.MV :
~A
# ...
   95.7500     2.2560    86.7440     6.9980     5.8130     6.0310    25.1840   -19.8370 
   95.8750     2.2750    85.7500     7.3370     6.0380     6.3560    25.1230   -19.7060 
   96.0000     2.2840    84.6650     7.7940     6.4210     8.2960    24.8830   -19.8250 
   96.1250     2.2760    83.9210     8.2420     6.8650    10.8240    24.7650   -20.1740 
   96.2500     2.2560    83.3330     8.5640     7.2340    10.2800    24.7770   -20.6700 
   96.3750     2.2310    81.9070     8.7140     7.4510     9.4060    24.8330   -21.1940 
   96.5000     2.2120    80.2650     8.7100     7.5060     9.0820    24.8080   -21.6560 
   96.6250     2.2030    79.6770     8.6150     7.4410     8.8480    24.7350   -21.9890 
   96.7500     2.2010    79.0380     8.5180     7.3510     8.4640    24.6320   -22.1410 
   96.8750     2.2030    78.3140     8.4470     7.2750     8.2750    24.4650   -22.0560 
   97.0000     2.2060    79.4850     8.3950     7.2160     8.4610    24.3460   -21.7780 
   97.1250     2.2100    82.9390     8.3310     7.1510     8.6260    24.3260   -21.4380 
   97.2500     2.2130    85.3150     8.2440     7.0610     8.5150    24.4090   -21.1220 
   97.3750     2.2130    83.6860     8.1470     6.9490     8.2790    24.6060   -20.8380 
   97.5000     2.2070    81.0420     8.0650     6.8260     7.9690    24.9560   -20.5820 
   97.6250     2.1950    82.2140     8.0270     6.7140     7.5930    25.2540   -20.4310 
   97.7500     2.1820    84.4120     8.0260     6.6290     7.4560    25.2760   -20.4170 
   97.8750     2.1750    85.8220     8.0420     6.5800     7.6690    25.0050   -20.4900 
   98.0000     2.1750    87.2400     8.0580     6.5690     7.9460    24.7460   -20.5820 
   98.1250     2.1840    89.0570     8.0690     6.6040     8.0690    24.6760   -20.6470 
   98.2500     2.1970    89.8370     8.0880     6.6730     8.0620    24.7800   -20.6920 
   98.3750     2.2080    88.8120     8.1220     6.7670     8.1240    24.9130   -20.7040 
   98.5000     2.2150    87.9920     8.1630     6.8650     8.3880    24.9240   -20.6550 
   98.6250     2.2160    87.2240     8.1860     6.9310     8.5180    24.8220   -20.4540 
   98.7500     2.2120    87.2620     8.1810     6.9480     8.6020    24.8000   -20.1120 
   98.8750     2.2060    88.3930     8.1610     6.9280     8.7280    24.8950   -19.6690 
   99.0000     2.2040    88.5730     8.1620     6.9110     8.7170    25.0840   -19.1170 
   99.1250     2.2170    85.7080     8.2380     6.9600     8.4610    25.3660   -18.4180 
   99.2500     2.2510    81.5680     8.3900     7.0840     8.3210    25.6440   -17.6980 
   99.3750     2.2970    79.2870     8.5890     7.2590     8.9440    25.8560   -17.0970 
   99.5000     2.3400    79.5530     8.7750     7.4350    11.0970    25.9950   -16.6450 
   99.6250     2.3560    81.5060     8.8700     7.5390    12.9830    25.9820   -16.3700 
   99.7500     2.3460    82.8380     8.8560     7.5430    11.5300    25.7430   -16.3000 
   99.8750     2.3190    81.9820     8.7450     7.4470     9.4670    25.4160   -16.4770 
  100.0000     2.2920    80.9450     8.5730     7.2810     9.1500    25.1560   -16.8650 
  100.1250     2.2740    81.8510     8.3880     7.0880     9.5540    25.0310   -17.3900 
  100.2500     2.2630    82.3590     8.2240     6.9170     9.3170    25.0740   -17.9880 
  100.3750     2.2520    81.4370     8.0970     6.7940     8.7000    25.2230   -18.6180 
  100.5000     2.2410    80.8080     8.0150     6.7310     8.2380    25.3260   -19.2450 
  100.6250     2.2300    81.4500     8.0040     6.7440     8.3280    25.2020   -19.8330 
  100.7500     2.2180    81.5250     8.0700     6.8300     8.5300    24.9460   -20.3710 
  100.8750     2.2040    80.5620     8.2270     6.9920     8.6810    24.6690   -20.8590 
  101.0000     2.1880    79.6740     8.4780     7.2320     8.8530    24.4280   -21.2900 
  101.1250     2.1790    77.7530     8.8050     7.5510     9.2090    24.2550   -21.5920 
  101.2500     2.1810    76.0500     9.1260     7.9090     9.6980    24.2360   -21.6710 
  101.3750     2.1960    77.8800     9.3380     8.2400     9.9250    24.4170   -21.4990 
  101.5000     2.2190    82.5920     9.3240     8.4350     9.9230    24.7480   -21.0880 
  101.6250     2.2400    86.8340     8.9640     8.3170     9.6020    25.0070   -20.3800 
  101.7500     2.2540    91.1080     8.3550     7.8860     8.8750    24.9900   -19.4160 
  101.8750     2.2630    94.8370     7.6350     7.2160     8.2840    24.8300   -18.2460 
  102.0000     2.2710    96.5900     6.9450     6.4590     7.1870    24.9530   -16.9990 
  102.1250     2.2800    97.3260     6.4060     5.7980     5.6150    25.3590   -15.8900 
  102.2500     2.2840    99.7160     6.0420     5.3170     5.1610    25.6220   -14.9970 
  102.3750     2.2810   101.1300     5.8640     5.0320     5.4020    25.6950   -14.3380 
  102.5000     2.2720    99.3630     5.8570     4.9280     5.8560    25.6680   -13.9590 
  102.6250     2.2600    98.6260     5.9910     4.9910     5.7380    25.5980   -13.9840 
  102.7500     2.2460   100.5730     6.1800     5.1510     5.3600    25.4690   -14.3160 
  102.8750     2.2310   100.8380     6.3760     5.3560     5.3230    25.1780   -14.9010 
  103.0000     2.2130    96.9040     6.5500     5.5510     5.6190    24.7430   -15.6810 
  103.1250     2.1950    91.4010     6.7290     5.7030     6.3720    24.3320   -16.5580 
  103.2500     2.1870    87.8830     7.0260     5.8710     6.9210    24.0800   -17.4080 
  103.3750     2.2030    88.0770     7.6070     6.1800     7.2100    24.1100   -18.1710 
  103.5000     2.2540    88.8940     8.6370     6.7950     7.2420    24.4340   -18.8670 
  103.6250     2.3430    86.5700    10.2310     7.9460     8.6800    24.9490   -19.5650 
  103.7500     2.4350    82.8890    12.0600     9.5250    12.9780    25.4970   -20.2860 
  103.8750     2.4960    80.8860    13.6500    11.2080    20.4870    25.7930   -21.0240 
  104.0000     2.5010    81.4910    14.4830    12.4460    24.3610    25.7370   -21.8020 
  104.1250     2.4430    80.8010    14.1040    12.5760    17.8000    25.2000   -22.6810 
  104.2500     2.3590    78.6350    12.9090    11.7810    12.6000    24.4480   -23.6430 
  104.3750     2.2800    76.3230    11.4040    10.5150     9.8780    23.9110   -24.6220 
  104.5000     2.2220    74.3780    10.0810     9.2870     8.9420    23.7950   -25.5620 
  104.6250     2.1910    75.4910     9.2980     8.4670     8.8110    23.9280   -26.3770 
  104.7500     2.1770    78.4350     8.9670     8.0330     8.7580    24.0410   -27.0330 
  104.8750     2.1730    80.7750     8.9440     7.8990     8.7860    24.1010   -27.4790 
  105.0000     2.1760    81.7210     9.0760     7.9490     8.8960    24.1070   -27.6860 
  105.1250     2.1830    83.1190     9.2430     8.0750     9.0920    24.0700   -27.6620 
  105.2500     2.1940    86.2950     9.3700     8.1810     9.1460    24.0490   -27.5760 
  105.3750     2.2070    90.5880     9.4390     8.2380     9.0590    24.0460   -27.5050 
  105.5000     2.2200    96.2680     9.4440     8.2430     8.9340    24.0550   -27.3870 
  105.6250     2.2290   102.2200     9.3790     8.2030     8.8740    24.0930   -27.1920 
  105.7500     2.2300   103.8600     9.2630     8.1390     8.7670    24.1640   -27.0390 
  105.8750     2.2230   101.5050     9.1110     8.0530     8.7410    24.2590   -26.9640 
  106.0000     2.2090    96.4190     8.9470     7.9420     8.7500    24.3610   -26.9110 
  106.1250     2.1930    90.1890     8.8090     7.8170     8.7090    24.4630   -26.8300 
  106.2500     2.1800    86.0950     8.7350     7.7160     8.5810    24.5250   -26.7280 
  106.3750     2.1730    84.6400     8.7550     7.6850     8.5200    24.5940   -26.6170 
  106.5000     2.1730    84.2200     8.8770     7.7560     8.7400    24.7200   -26.5080 
  106.6250     2.1830    83.6440     9.0770     7.9360     9.3600    24.8960   -26.4080 
  106.7500     2.1970    82.2990     9.2740     8.1480    10.1610    25.0240   -26.3160 
  106.8750     2.2080    81.5460     9.3950     8.3150    10.8600    24.9910   -26.3020 
