~V
VERS. 2.00: Ver 2.00
~W
STRT.M 50.0000:
STOP.M 276.0000:
STEP.M 0.1250:
NULL. -999.2500:
UWI. F11044:
~C
DEPT.M :
SP.MV :
GR.API :
RML.OHMM :
RI. :
RXO.OHMM :
CALI.CM :
DEN.GM/CC :
~A
# ...
  230.0000   -13.3420   111.0830     9.5930     8.9270    11.4370    25.0080     2.4390 
  230.1250   -13.4760   111.9770     9.6310     8.9020    11.3150    25.0060     2.4350 
  230.2500   -13.5890   112.2220     9.6630     8.9050    11.3450    25.0050     2.4320 
  230.3750   -13.6380   109.8480     9.6820     8.9250    11.2530    25.0060     2.4270 
  230.5000   -13.6050   105.2730     9.6790     8.9420    11.2560    24.9990     2.4230 
  230.6250   -13.4760   102.7680     9.6510     8.9310    11.3760    24.9770     2.4210 
  230.7500   -13.3260   101.7000     9.6100     8.8870    11.1990    24.9520     2.4210 
  230.8750   -13.2180   100.0140     9.5750     8.8200    10.4880    24.9490     2.4210 
  231.0000   -13.1300    99.2650     9.5640     8.7510    10.2760    24.9630     2.4220 
  231.1250   -12.9790   103.0660     9.5980     8.7040    10.3780    24.9830     2.4200 
  231.2500   -12.8130   108.1720     9.6630     8.6780    10.4590    24.9890     2.4180 
  231.3750   -12.6890   110.4850     9.7330     8.6550    10.3860    24.9980     2.4150 
  231.5000   -12.6110   112.6560     9.7700     8.6000    10.4370    24.9970     2.4120 
  231.6250   -12.5900   117.7730     9.7240     8.4610    10.7230    24.9700     2.4100 
  231.7500   -12.6170   122.5190     9.6180     8.2330    10.8930    24.9320     2.4080 
  231.8750   -12.6200   125.0280     9.5550     7.9640    10.9090    24.9170     2.4070 
  232.0000   -12.5720   124.3250     9.7580     7.7860    10.7350    24.9250     2.4060 
  232.1250   -12.5470   118.4710    10.7840     8.0060    10.8530    24.9340     2.4110 
  232.2500   -12.6620   110.7310    13.1680     8.9460    11.3830    24.9340     2.4240 
  232.3750   -12.8540   105.3450    17.6790    11.2000    13.9310    24.9300     2.4390 
  232.5000   -12.9830    99.8260    25.2610    15.7670    22.1710    24.9190     2.4470 
  232.6250   -13.0580    87.6290    37.7030    24.9880    51.9920    24.9140     2.4350 
  232.7500   -13.2200    72.9440    54.5040    39.6190    98.6450    24.9150     2.4040 
  232.8750   -13.4920    61.9390    73.5850    58.7680   127.3100    24.9320     2.3590 
  233.0000   -13.7910    57.8700    90.3990    77.8860   128.4230    24.9600     2.3120 
  233.1250   -13.9910    59.5230    98.2780    88.7810   127.3990    24.9930     2.2750 
  233.2500   -14.1110    62.2350    97.0870    90.1190   130.2680    25.0090     2.2510 
  233.3750   -14.1980    63.5330    89.8590    84.7200   132.6090    25.0210     2.2430 
  233.5000   -14.2720    64.9290    80.9490    76.6550   121.7830    25.0330     2.2470 
  233.6250   -14.3610    68.2570    74.1250    69.5470    93.4390    25.0120     2.2600 
  233.7500   -14.4480    71.4840    70.3750    65.0940    70.7580    24.9860     2.2750 
  233.8750   -14.4670    73.4600    69.4390    63.5930    64.2180    24.9630     2.2860 
  234.0000   -14.4060    74.3060    70.1650    64.3080    74.0580    24.9640     2.2920 
  234.1250   -14.4170    72.0730    70.4650    65.4100   100.3210    24.9970     2.2930 
  234.2500   -14.4480    68.8280    68.5950    64.6630   107.1450    25.0220     2.2920 
  234.3750   -14.4060    66.3420    64.1950    61.1010    82.8170    25.0280     2.2920 
  234.5000   -14.3420    67.3510    58.3290    55.4350    59.2840    25.0090     2.2930 
  234.6250   -14.2830    72.3720    53.3130    49.8970    51.2490    24.9800     2.2950 
  234.7500   -14.2560    75.9980    50.9690    46.5320    49.4100    24.9520     2.2950 
  234.8750   -14.2670    75.6670    52.2960    46.4280    46.7220    24.9600     2.2910 
  235.0000   -14.3230    75.0100    57.8390    50.2880    47.9060    25.0220     2.2810 
  235.1250   -14.3690    75.8690    68.6670    59.4570    63.1430    25.1530     2.2660 
  235.2500   -14.4510    72.4170    83.8230    73.2430    93.9320    25.2490     2.2500 
  235.3750   -14.6720    64.1860   102.1060    90.6180   130.8320    25.2880     2.2370 
  235.5000   -15.0090    58.9560   120.9800   109.2060   152.6800    25.2920     2.2310 
  235.6250   -15.3120    60.6600   135.7860   124.7490   146.5290    25.2420     2.2310 
  235.7500   -15.4870    63.6020   143.4600   134.2100   145.6480    25.1560     2.2340 
  235.8750   -15.6660    65.0020   142.6370   136.0060   157.6350    25.0940     2.2350 
  236.0000   -15.9580    65.8040   134.0600   130.1680   182.2260    25.0700     2.2340 
  236.1250   -16.2580    67.9270   119.8550   117.6470   179.1500    25.0660     2.2340 
  236.2500   -16.4360    69.8820   104.6270   102.7730   139.4830    25.0550     2.2390 
  236.3750   -16.5460    68.7580    91.3150    88.8450   102.5040    25.0280     2.2500 
  236.5000   -16.6510    64.8610    81.7820    78.2810    82.2550    24.9980     2.2670 
  236.6250   -16.7710    63.4670    77.3920    72.8500    76.4290    24.9710     2.2900 
  236.7500   -16.9390    67.5860    76.9860    71.5920    75.3050    24.9590     2.3170 
  236.8750   -17.1360    73.8750    79.6930    73.7480    79.3780    24.9290     2.3460 
  237.0000   -17.2920    77.0440    84.4350    78.2880    92.7670    24.8120     2.3710 
  237.1250   -17.3670    76.9030    90.1090    84.1040   108.1360    24.5880     2.3850 
  237.2500   -17.4740    78.4450    95.6550    89.9810   101.4550    24.4760     2.3900 
  237.3750   -17.6250    81.7780   100.7440    95.4840    83.8430    24.4130     2.3890 
  237.5000   -17.7530    82.2150   105.0980   100.5090    79.6880    24.2990     2.3830 
  237.6250   -17.8190    77.1060   109.4590   105.0870    97.9420    24.1460     2.3760 
  237.7500   -17.8300    73.4110   115.8360   109.4160   118.5070    24.2120     2.3750 
  237.8750   -17.7690    75.1890   123.9960   113.4570   126.2360    24.5530     2.3810 
  238.0000   -17.7020    80.3960   131.1220   116.9980   117.9060    24.8270     2.3960 
  238.1250   -17.7120    84.5240   133.7870   119.4590   118.4680    24.8870     2.4110 
  238.2500   -17.6930    84.8990   132.4850   120.1220   128.3160    24.8520     2.4170 
  238.3750   -17.5580    82.5920   127.7310   117.8130   146.8470    24.8070     2.4080 
  238.5000   -17.3940    80.6740   119.3490   111.7640   144.0970    24.7600     2.3880 
  238.6250   -17.3090    81.1570   108.2510   102.2300   131.4740    24.7510     2.3650 
  238.7500   -17.2210    80.7010    97.2900    91.9380   104.1550    24.7550     2.3490 
  238.8750   -17.0560    77.2330    88.5170    83.1020    79.6950    24.7540     2.3430 
  239.0000   -16.8040    73.9230    83.1800    77.2960    68.3590    24.7410     2.3440 
  239.1250   -16.5660    72.9400    82.1680    75.7240    69.3040    24.6490     2.3440 
  239.2500   -16.4200    73.1730    84.2740    77.4160    72.4010    24.4710     2.3340 
  239.3750   -16.2690    73.8320    88.5040    81.5680    78.8630    24.3020     2.3150 
  239.5000   -16.0160    73.7150    93.6130    87.0710    92.6100    24.2310     2.2940 
  239.6250   -15.7740    70.5710    98.0660    92.3550   108.4010    24.2130     2.2810 
  239.7500   -15.6020    66.8790   100.9530    96.1610   118.4080    24.2590     2.2780 
  239.8750   -15.4450    66.2060   102.0980    98.0540   115.4760    24.4280     2.2790 
  240.0000   -15.2910    67.9680   101.9950    98.2710   111.2730    24.5960     2.2770 
  240.1250   -15.1770    68.0380   101.7900    97.6670   114.4500    24.7050     2.2700 
  240.2500   -15.0310    68.0840   102.8060    97.8400   105.4540    24.7700     2.2610 
  240.3750   -14.8470    69.7490   105.8800   100.0150   103.6500    24.7910     2.2510 
  240.5000   -14.7520    71.3810   111.1900   104.7590   112.3310    24.7720     2.2420 
  240.6250   -14.7460    68.4100   117.9090   111.8300   130.4470    24.7420     2.2360 
  240.7500   -14.6950    62.8860   123.4890   118.8510   172.0780    24.7690     2.2340 
  240.8750   -14.6100    60.8600   125.3420   122.9610   197.7520    24.7970     2.2330 
  241.0000   -14.4900    64.5840   121.7140   121.5780   172.2890    24.7980     2.2330 
  241.1250   -14.3040    70.1280   112.3520   113.3980   136.0930    24.7610     2.2310 
