~V
VERS. 2.00: Ver 2.00
~W
STRT.M 52.0000:
STOP.M 271.0000:
STEP.M 0.1250:
NULL. -999.2500:
UWI. F11069:
~C
DEPT.M :
GR.API :
RML.OHMM :
RI. :
RXO.OHMM :
CALI.CM :
DEN.GM/CC :
SP.MV :
~A
# ...
   97.0000    99.6010     4.2280     4.6640     4.8730    24.5450     2.3270     0.1170 
   97.1250   100.2940     4.1330     4.4560     4.6030    24.5480     2.3380     0.0880 
   97.2500   102.8000     4.2260     4.3640     4.4330    24.5790     2.3390     0.0620 
   97.3750   104.9080     4.4740     4.4030     4.4560    24.6310     2.3320     0.0650 
   97.5000   105.8590     4.8540     4.5790     4.6870    24.6530     2.3190     0.0670 
   97.6250   104.3520     5.3640     4.9020     4.9600    24.5420     2.3020    -0.0220 
   97.7500    98.5600     5.9160     5.3080     5.2660    24.2920     2.2820    -0.1890 
   97.8750    88.5550     6.3800     5.7170     5.9460    24.0310     2.2620    -0.3840 
   98.0000    81.8040     6.5900     5.9940     6.9280    23.8260     2.2440    -0.5650 
   98.1250    84.3570     6.3720     5.9310     6.9650    23.6640     2.2330    -0.7130 
   98.2500    89.7230     5.8740     5.5630     6.4320    23.5300     2.2320    -0.8150 
   98.3750    94.5080     5.3680     5.0600     5.6800    23.4100     2.2430    -0.8930 
   98.5000   100.4510     5.2120     4.6780     4.7980    23.3280     2.2660    -0.9520 
   98.6250   105.8180     5.8940     4.7540     4.3840    23.4270     2.3030    -0.9500 
   98.7500   104.5030     7.4930     5.4540     5.5580    23.6760     2.3560    -0.9330 
   98.8750    97.6220     9.9120     6.9310     9.5740    23.9220     2.4230    -0.9760 
   99.0000    90.7590    12.6730     9.1890    20.6470    24.1490     2.4990    -1.0440 
   99.1250    86.0480    14.6800    11.6770    29.2420    24.3270     2.5600    -1.1180 
   99.2500    80.3750    15.1540    13.0960    29.5340    24.4880     2.5830    -1.2760 
   99.3750    75.5080    14.0440    12.7440    20.3150    24.4330     2.5550    -1.5160 
   99.5000    75.9570    12.0330    11.1520    12.8890    24.2690     2.4800    -1.7860 
   99.6250    80.1390    10.1410     9.4430    10.1200    24.1720     2.3760    -2.0950 
   99.7500    81.2300     8.9150     8.2310     9.2200    24.2020     2.2730    -2.4420 
   99.8750    77.4740     8.4040     7.5920     8.9300    24.2700     2.1920    -2.7780 
  100.0000    72.6340     8.4690     7.4460     8.8600    24.3230     2.1400    -3.0940 
  100.1250    70.1100     8.9110     7.6740     8.8800    24.4220     2.1200    -3.3540 
  100.2500    67.1220     9.3900     8.0090     8.9150    24.5760     2.1150    -3.5410 
  100.3750    65.6350     9.6830     8.2720     8.9090    24.6950     2.1130    -3.6740 
  100.5000    66.8280     9.6710     8.3520     8.9190    24.7120     2.1090    -3.7970 
  100.6250    68.8560     9.3270     8.2130     8.8700    24.5970     2.1070    -3.8960 
  100.7500    68.3390     8.8190     7.9630     8.7620    24.4310     2.1120    -3.9390 
  100.8750    66.2880     8.2770     7.6900     8.5810    24.2930     2.1260    -3.9400 
  101.0000    66.6920     7.8230     7.4570     8.5330    24.2410     2.1460    -3.9600 
  101.1250    69.2430     7.6060     7.3180     8.6570    24.2650     2.1640    -4.0240 
  101.2500    71.7600     7.6450     7.2710     8.9000    24.2950     2.1670    -4.0610 
  101.3750    72.7390     7.9070     7.3090     9.0750    24.3080     2.1520    -4.0730 
  101.5000    71.5430     8.2930     7.4160     9.1320    24.3040     2.1290    -4.0750 
  101.6250    69.6880     8.6690     7.5650     9.9840    24.3550     2.1210    -4.0430 
  101.7500    69.0580     8.9350     7.7130    13.4460    24.4290     2.1410    -4.0040 
  101.8750    69.0650     9.0540     7.8240    18.8200    24.4140     2.1810    -3.9690 
  102.0000    69.7820     9.0240     7.8780    15.0210    24.2270     2.2200    -3.8790 
  102.1250    71.2290     8.8660     7.8620    10.7900    23.8950     2.2360    -3.7750 
  102.2500    71.6630     8.6590     7.8040     8.9660    23.6370     2.2300    -3.7510 
  102.3750    71.0030     8.4630     7.7240     8.6400    23.5050     2.2120    -3.7670 
  102.5000    69.9440     8.3210     7.6450     8.6340    23.5070     2.1940    -3.7260 
  102.6250    68.9120     8.2390     7.5830     8.7680    23.6490     2.1770    -3.7080 
  102.7500    66.3820     8.1650     7.5290     9.0760    23.8740     2.1600    -3.7670 
  102.8750    63.1790     8.0710     7.4720     9.4800    24.1250     2.1450    -3.8460 
  103.0000    62.1670     7.9540     7.4080     9.8700    24.3100     2.1360    -3.9390 
  103.1250    63.3670     7.8240     7.3470     9.6350    24.3720     2.1370    -4.0040 
  103.2500    65.2860     7.6810     7.3040     9.4760    24.3650     2.1410    -4.0040 
  103.3750    67.5410     7.5230     7.2870     9.2310    24.3430     2.1450    -3.9590 
  103.5000    70.2000     7.3670     7.2920     9.0780    24.3320     2.1470    -3.9440 
  103.6250    72.2110     7.2760     7.3030     8.9560    24.3310     2.1480    -3.8980 
  103.7500    74.0060     7.2890     7.3130     8.7890    24.3300     2.1510    -3.7970 
  103.8750    75.3050     7.4010     7.3160     8.6350    24.3300     2.1580    -3.7040 
  104.0000    75.5100     7.5640     7.3090     8.7200    24.3260     2.1690    -3.6500 
  104.1250    74.5120     7.6990     7.2870     8.8730    24.3190     2.1810    -3.6280 
  104.2500    74.7030     7.7690     7.2580     8.9050    24.3050     2.1900    -3.6010 
  104.3750    76.3100     7.7690     7.2230     8.6470    24.2830     2.1890    -3.5730 
  104.5000    77.1110     7.7090     7.1750     8.0370    24.2380     2.1770    -3.5080 
  104.6250    75.9730     7.5860     7.0960     7.9540    24.1790     2.1570    -3.4170 
  104.7500    74.6070     7.4180     6.9740     8.3500    24.0840     2.1370    -3.3360 
  104.8750    74.3620     7.2300     6.8060     8.5190    23.9270     2.1240    -3.2310 
  105.0000    74.7830     7.0970     6.6210     8.3630    23.6990     2.1150    -3.0770 
  105.1250    75.0540     7.1950     6.5340     8.2650    23.5550     2.1030    -2.8730 
  105.2500    74.6670     7.6590     6.6870     8.1740    23.6150     2.0900    -2.7200 
  105.3750    72.8690     8.5840     7.2080     8.5280    23.7510     2.0910    -2.6050 
  105.5000    69.7560     9.9370     8.1670    10.5170    23.8200     2.1250    -2.4940 
  105.6250    68.2640    11.4480     9.5550    18.0530    23.8760     2.2030    -2.4250 
  105.7500    68.3600    12.5840    10.9490    31.4060    24.0200     2.2970    -2.3850 
  105.8750    67.2110    12.9140    11.7990    37.6860    24.1330     2.3710    -2.3500 
  106.0000    66.6400    12.2940    11.6920    27.9620    24.0720     2.3980    -2.3140 
  106.1250    70.9700    10.9280    10.6560    16.3760    23.9340     2.3670    -2.3520 
  106.2500    76.7410     9.4780     9.3890    10.9440    23.8760     2.3080    -2.4320 
  106.3750    78.2070     8.3210     8.2940     9.3180    23.9150     2.2450    -2.5020 
  106.5000    76.0290     7.6030     7.5510     9.2570    23.9880     2.1940    -2.5650 
  106.6250    75.7260     7.3280     7.2170     9.3480    24.0710     2.1620    -2.5950 
  106.7500    76.5650     7.2980     7.1290     9.2970    24.1820     2.1430    -2.6060 
  106.8750    76.5820     7.4120     7.1930     9.1580    24.1600     2.1310    -2.6250 
  107.0000    75.8320     7.6130     7.3460     9.1880    23.9310     2.1250    -2.6580 
  107.1250    74.4710     7.8820     7.5540     9.3010    23.5830     2.1270    -2.6580 
  107.2500    72.1470     8.1770     7.7610     9.5090    23.5490     2.1370    -2.6330 
  107.3750    69.5610     8.4400     7.9140     9.8590    23.8220     2.1540    -2.6290 
  107.5000    67.9370     8.5830     7.9460    10.4190    24.1090     2.1740    -2.6520 
  107.6250    69.6440     8.4610     7.7670    10.4560    24.1030     2.1860    -2.6600 
  107.7500    74.3310     8.0620     7.3960     9.9770    23.9470     2.1870    -2.6410 
  107.8750    77.9810     7.4530     6.8800     9.2900    23.7050     2.1750    -2.5980 
  108.0000    76.9740     6.8190     6.3280     8.8750    23.5600     2.1540    -2.5320 
  108.1250    71.8100     6.5390     5.9670     8.7310    23.7030     2.1280    -2.4550 
