~V
VERS. 2.00: Ver 2.00
~W
STRT.M 53.0000:
STOP.M 276.0000:
STEP.M 0.1250:
NULL. -999.2500:
UWI. F11074:
~C
DEPT.M :
DEN.GM/CC :
SP.MV :
GR.API :
RML.OHMM :
RI. :
RXO.OHMM :
CALI.CM :
~A
# ...
  176.7500     2.3300   -11.8370   108.4780     8.4050     6.2910     7.9320    25.0960 
  176.8750     2.3390   -11.9530   106.9120     8.4210     6.3470     7.8490    25.0960 
  177.0000     2.3470   -12.0990   106.1040     8.5010     6.4270     7.8520    25.0960 
  177.1250     2.3490   -12.2820   109.7310     8.7720     6.6230     8.0230    25.0960 
  177.2500     2.3510   -12.5070   113.6900     9.2290     6.9590     8.3800    25.0960 
  177.3750     2.3560   -12.7420   114.5420     9.8100     7.4190     8.9070    25.0960 
  177.5000     2.3660   -12.9950   113.8990    10.3890     7.9340     9.4780    25.0960 
  177.6250     2.3790   -13.2250   112.8830    10.7830     8.3770     9.8160    25.0960 
  177.7500     2.4000   -13.4390   109.7390    10.9270     8.6490     9.5960    25.0960 
  177.8750     2.4280   -13.6540   105.7770    10.8530     8.7270     8.9180    25.0960 
  178.0000     2.4530   -13.8720   103.1900    10.6830     8.6680     8.3440    25.0960 
  178.1250     2.4590   -14.1010   102.7670    10.5710     8.5800     8.1690    25.0960 
  178.2500     2.4530   -14.2920   103.6320    10.5810     8.5520     8.4340    25.0960 
  178.3750     2.4370   -14.4570   104.5270    10.7010     8.6070     8.9190    25.0960 
  178.5000     2.4150   -14.5970   102.5200    10.8830     8.7290     9.3180    25.0960 
  178.6250     2.3940   -14.7950    98.1130    11.1170     8.9120     9.6220    25.1070 
  178.7500     2.3850   -15.0330    94.9760    11.4640     9.1800    10.0610    25.1310 
  178.8750     2.3890   -15.2790    94.5720    12.0340     9.6120    10.7600    25.1540 
  179.0000     2.3960   -15.5290    96.4460    12.9270    10.2970    12.0880    25.1660 
  179.1250     2.3980   -15.7850   101.0960    14.2240    11.3470    14.3930    25.1550 
  179.2500     2.3950   -16.0810   104.4020    15.7490    12.6710    16.7870    25.1300 
  179.3750     2.3900   -16.4090   102.6980    17.2940    14.1230    18.3380    25.1060 
  179.5000     2.3840   -16.7480    97.0720    18.6440    15.5070    19.2930    25.0960 
  179.6250     2.3810   -17.0290    92.4030    19.6060    16.6080    20.8640    25.0960 
  179.7500     2.3810   -17.2760    92.0860    20.2080    17.3880    21.4630    25.0880 
  179.8750     2.3820   -17.5040    93.7960    20.4600    17.8270    21.2960    25.0590 
  180.0000     2.3820   -17.6990    94.0520    20.3610    17.9100    20.9930    24.9970 
  180.1250     2.3840   -17.8590    94.5600    19.8950    17.6010    20.6700    24.9640 
  180.2500     2.3880   -17.9730    98.3200    19.2750    17.0770    20.0470    24.9530 
  180.3750     2.3940   -18.0550   102.3350    18.8050    16.5710    19.0050    24.9520 
  180.5000     2.4020   -18.1550   101.2530    18.9050    16.4040    18.0820    24.9520 
  180.6250     2.4040   -18.2850    95.8580    20.2960    17.1230    19.1490    24.9520 
  180.7500     2.3950   -18.4080    92.4450    23.3090    19.1070    21.7990    24.9520 
  180.8750     2.3740   -18.4990    91.4460    28.1570    22.7590    28.4300    24.9520 
  181.0000     2.3500   -18.5750    90.0790    34.5910    28.1860    35.8240    24.9520 
  181.1250     2.3340   -18.6590    88.5720    41.5240    34.8550    43.1780    24.9520 
  181.2500     2.3260   -18.7540    87.4170    46.8950    40.8500    55.2610    24.9490 
  181.3750     2.3190   -18.8460    85.3290    49.0320    44.3520    66.4120    24.9460 
  181.5000     2.3160   -18.8790    82.4220    47.4710    44.4360    61.6770    24.9490 
  181.6250     2.3220   -18.8680    83.9060    43.3480    41.5390    45.5930    24.9510 
  181.7500     2.3350   -18.8600    90.2950    39.6210    38.2550    35.3370    24.9520 
  181.8750     2.3460   -18.8790    94.7780    38.1930    36.4410    32.9410    24.9520 
  182.0000     2.3480   -18.9080    92.4970    40.0250    37.2920    37.0960    24.9520 
  182.1250     2.3410   -18.9070    88.1800    45.5420    41.7460    47.2660    24.9520 
  182.2500     2.3320   -18.8860    87.5270    52.9000    48.5510    52.8850    24.9490 
  182.3750     2.3210   -18.8870    89.0760    60.1600    56.0400    54.4930    24.9340 
  182.5000     2.3080   -18.9180    89.7080    65.7170    62.5070    55.3480    24.9020 
  182.6250     2.2940   -18.9430    89.1290    68.8250    66.9730    65.3400    24.8850 
  182.7500     2.2810   -18.9390    86.7080    70.1840    69.4410    82.0760    24.8800 
  182.8750     2.2730   -18.9170    84.7520    70.0580    68.2290    93.8410    24.8800 
  183.0000     2.2730   -18.8930    85.9820    66.7860    62.9390    91.5740    24.8800 
  183.1250     2.2810   -18.8880    87.3840    59.4050    54.3630    72.6500    24.8800 
  183.2500     2.2960   -18.8950    84.7890    50.5920    45.3430    51.7550    24.8800 
  183.3750     2.3160   -18.8980    83.4280    42.5100    37.7230    37.9660    24.8800 
  183.5000     2.3410   -18.9400    88.3220    36.4540    32.3840    32.3050    24.8800 
  183.6250     2.3610   -19.0540    95.2180    33.1890    29.9350    29.9120    24.8800 
  183.7500     2.3700   -19.2140    98.3820    32.4150    30.1400    28.6830    24.8800 
  183.8750     2.3690   -19.3830    98.6980    34.6370    33.5100    29.1850    24.8800 
  184.0000     2.3590   -19.5550    97.5660    40.8980    40.7400    34.9010    24.8800 
  184.1250     2.3410   -19.7710    93.6480    53.1630    52.9890    52.1510    24.8800 
  184.2500     2.3200   -20.0120    89.9390    70.0960    68.6880    70.2740    24.8800 
  184.3750     2.3040   -20.2530    87.7210    88.7360    85.1230    74.6420    24.8800 
  184.5000     2.2960   -20.4510    85.2210   105.0830    98.8580    70.2480    24.8800 
  184.6250     2.2870   -20.5880    83.6260   117.4040   108.7380    81.0480    24.8800 
  184.7500     2.2710   -20.6970    82.8210   129.1710   118.4570   106.1810    24.8800 
  184.8750     2.2530   -20.8110    82.3480   142.3660   130.1210   126.6770    24.8800 
  185.0000     2.2360   -20.9310    82.0240   155.4010   142.4260   133.8340    24.8800 
  185.1250     2.2220   -20.9940    82.5860   162.4400   150.1200   142.2730    24.8760 
  185.2500     2.2140   -21.0470    83.8600   162.5450   152.0850   140.8770    24.8520 
  185.3750     2.2120   -21.1180    85.1030   159.6050   151.5970   142.5520    24.7940 
  185.5000     2.2100   -21.2050    85.9500   158.2070   152.4070   158.2010    24.7310 
  185.6250     2.2020   -21.2970    86.0090   159.7920   155.5550   171.2210    24.6660 
  185.7500     2.1920   -21.3620    85.3990   161.5870   159.0090   168.6530    24.6230 
  185.8750     2.1850   -21.4190    84.1280   162.3910   161.6070   148.1180    24.5860 
  186.0000     2.1860   -21.4780    81.4280   164.9380   161.6630   126.7290    24.4410 
  186.1250     2.1920   -21.5550    76.5580   169.6800   162.6750   102.4420    24.0480 
  186.2500     2.2000   -21.6230    73.7410   176.7500   166.6020    84.4450    23.5730 
  186.3750     2.2080   -21.6320    75.0840   185.6480   173.3990    80.9190    23.2890 
  186.5000     2.2140   -21.6170    78.5840   195.3570   181.9240    76.5930    23.0720 
  186.6250     2.2170   -21.6390    79.9910   205.4950   191.2680    66.1200    22.6070 
  186.7500     2.2170   -21.7040    77.6870   216.0160   200.9480    52.8570    21.8810 
  186.8750     2.2160   -21.7600    73.3700   226.1540   210.5880    42.3840    20.8970 
  187.0000     2.2120   -21.7800    68.9230   234.3960   219.7440    35.3560    19.9000 
  187.1250     2.2050   -21.7750    67.9850   239.0840   228.0630    32.3940    19.4760 
  187.2500     2.1980   -21.7670    69.6080   240.4210   234.8390    33.1810    19.5860 
  187.3750     2.1920   -21.7820    69.6940   237.8180   237.8160    37.6620    20.2190 
  187.5000     2.1910   -21.7850    67.2280   230.0950   234.0500    44.6380    21.1820 
  187.6250     2.1950   -21.7060    66.4670   215.9830   221.0630    52.0600    21.9440 
  187.7500     2.1990   -21.5520    68.4490   198.8410   203.2040    59.8770    22.4440 
  187.8750     2.2010   -21.3740    70.0750   182.7260   185.5640    71.8540    22.8530 
