~V
VERS. 2.00: Ver 2.00
~W
STRT.M 62.0000:
STOP.M 218.0000:
STEP.M 0.1250:
NULL. -999.2500:
UWI. F11008:
~C
DEPT.M :
DEN.GM/CC :
GR.API :
RML.OHMM :
RI. :
RXO.OHMM :
CALI.CM :
SP.MV :
~A
# ...
  197.0000     2.3380    84.0090    15.8970    13.1580    18.6500    24.2730   -11.8720 
  197.1250     2.3240    85.2320    17.3510    14.5630    20.0660    24.2720   -11.4740 
  197.2500     2.3210    82.8460    18.8270    15.9320    20.8260    24.3510   -11.1730 
  197.3750     2.3270    77.9750    20.4900    17.3790    21.8880    24.4450   -10.9460 
  197.5000     2.3390    74.8410    22.5250    19.0820    23.9110    24.4670   -10.7920 
  197.6250     2.3460    75.2600    25.1410    21.2920    26.2290    24.4210   -10.7120 
  197.7500     2.3420    77.3070    28.1850    23.9890    29.7360    24.3780   -10.6510 
  197.8750     2.3270    80.3360    31.3590    27.0360    35.1740    24.3900   -10.6450 
  198.0000     2.3050    81.4210    34.1640    30.0740    43.0180    24.4060   -10.6390 
  198.1250     2.2820    80.6270    35.7370    32.3440    47.1890    24.3850   -10.6800 
  198.2500     2.2630    82.1790    35.7370    33.2680    46.9820    24.3860   -10.6450 
  198.3750     2.2470    84.6330    34.0990    32.5180    46.1670    24.4760   -10.6060 
  198.5000     2.2360    84.8210    31.1720    30.2180    43.0920    24.5450   -10.5780 
  198.6250     2.2330    82.8960    27.6130    26.8940    34.5340    24.5370   -10.5320 
  198.7500     2.2380    82.1260    24.2820    23.5560    27.8050    24.5070   -10.4900 
  198.8750     2.2470    81.6530    21.6510    20.7960    23.5260    24.4720   -10.3920 
  199.0000     2.2590    80.9520    19.9370    18.9220    19.8160    24.4450   -10.3100 
  199.1250     2.2710    81.9160    19.2570    18.1160    17.9730    24.4370   -10.1770 
  199.2500     2.2830    82.3460    19.2300    18.0320    17.7970    24.4480   -10.0990 
  199.3750     2.2910    79.3200    19.5380    18.3680    19.3240    24.4750   -10.0710 
  199.5000     2.2950    74.5350    19.8480    18.7660    21.2510    24.4780   -10.0350 
  199.6250     2.2960    72.1670    19.8450    18.8480    22.9080    24.4820   -10.0320 
  199.7500     2.2950    73.7420    19.5390    18.5590    23.2520    24.4790   -10.0650 
  199.8750     2.2890    77.7620    19.1300    18.0660    22.1060    24.4800   -10.1260 
  200.0000     2.2790    79.0630    18.9510    17.6880    19.9530    24.5000   -10.1690 
  200.1250     2.2700    75.3290    19.4760    17.8870    18.2260    24.5690   -10.2740 
  200.2500     2.2740    71.6710    20.8010    18.8330    17.5280    24.5930   -10.3860 
  200.3750     2.3010    70.7360    22.8440    20.5480    18.9530    24.5370   -10.4830 
  200.5000     2.3460    71.4870    25.2810    22.8150    23.1990    24.3930   -10.6510 
  200.6250     2.3890    71.4650    27.5100    25.1110    28.7110    24.3880   -10.7930 
  200.7500     2.4110    71.1630    29.0050    26.8120    33.4650    24.3960   -10.9050 
  200.8750     2.4080    71.0870    29.5030    27.5570    36.4750    24.3710   -11.0390 
  201.0000     2.3920    72.0920    29.0420    27.3080    36.3540    24.3940   -11.1520 
  201.1250     2.3740    72.9940    27.8760    26.2720    31.6690    24.3270   -11.2540 
  201.2500     2.3570    71.7580    26.5680    25.0160    28.3520    24.1580   -11.3530 
  201.3750     2.3350    69.1420    25.4500    23.8850    29.7190    24.2000   -11.3840 
  201.5000     2.3070    69.0460    24.7240    23.1230    29.1890    24.3870   -11.3720 
  201.6250     2.2800    73.7620    24.5540    22.9580    24.2530    24.4980   -11.3990 
  201.7500     2.2640    78.1520    24.8300    23.3050    22.5260    24.5370   -11.3930 
  201.8750     2.2640    78.9690    25.4410    24.0430    24.0020    24.5120   -11.3870 
  202.0000     2.2730    76.6920    26.2080    24.9590    27.6730    24.5000   -11.4630 
  202.1250     2.2800    75.0420    26.8820    25.7450    32.0070    24.4910   -11.5150 
  202.2500     2.2780    76.3930    27.3060    26.2030    34.4130    24.4990   -11.5640 
  202.3750     2.2660    78.4640    27.4410    26.2920    32.8790    24.5600   -11.7220 
  202.5000     2.2520    79.2010    27.3420    26.0870    32.8080    24.6100   -11.9090 
  202.6250     2.2450    77.9380    27.0580    25.6850    33.0670    24.5960   -12.0600 
  202.7500     2.2510    75.9750    26.6470    25.1890    35.9350    24.6100   -12.2570 
  202.8750     2.2640    74.3740    26.1160    24.6210    35.9540    24.6730   -12.4950 
  203.0000     2.2770    72.3980    25.5270    24.0150    33.1850    24.7220   -12.7450 
  203.1250     2.2830    71.6850    25.0850    23.5050    29.1270    24.7030   -13.0650 
  203.2500     2.2820    73.4930    25.0470    23.2750    27.1110    24.6170   -13.4590 
  203.3750     2.2800    78.0630    25.6870    23.5380    29.0080    24.5490   -13.8660 
  203.5000     2.2760    83.1510    27.3030    24.5430    32.6750    24.5150   -14.2650 
  203.6250     2.2710    86.8070    30.4930    26.8830    32.1850    24.4670   -14.6780 
  203.7500     2.2720    89.4400    35.2550    30.8530    37.1830    24.3770   -15.0890 
  203.8750     2.2890    89.2270    41.1540    36.5710    51.8700    24.3600   -15.4620 
  204.0000     2.3300    84.9680    46.6530    43.0290    69.0960    24.3890   -15.7540 
  204.1250     2.3900    78.1550    48.3710    46.6120    81.1270    24.3490   -15.8840 
  204.2500     2.4490    73.1110    44.7580    44.4040   105.9360    24.2310   -15.8730 
  204.3750     2.4880    72.1950    36.3710    36.3500   104.7320    24.0900   -15.7020 
  204.5000     2.4980    76.1580    25.8600    25.5380    54.9030    23.9780   -15.3690 
  204.6250     2.4780    81.4780    16.7830    16.3740    21.6410    23.9150   -14.8630 
  204.7500     2.4450    81.0390    10.5630    10.3680     8.2120    23.9060   -14.2250 
  204.8750     2.4090    75.3050     7.0160     7.0340     5.0750    23.8740   -13.5370 
  205.0000     2.3770    70.7930     5.3980     5.4430     4.5730    23.8130   -12.8730 
  205.1250     2.3540    72.8830     5.1200     4.9980     5.0610    23.8370   -12.2700 
  205.2500     2.3390    78.3380     5.4150     5.0930     6.0320    24.0240   -11.6650 
  205.3750     2.3310    82.4220     5.9100     5.4610     6.5030    24.1660   -11.0820 
  205.5000     2.3280    83.4870     6.3470     5.8690     6.4780    24.1860   -10.5900 
  205.6250     2.3310    84.1010     6.5410     6.0910     6.4630    24.1570   -10.2180 
  205.7500     2.3360    86.2910     6.5030     6.0860     6.4240    24.2680    -9.9280 
  205.8750     2.3440    90.6780     6.2940     5.9060     5.9980    24.4000    -9.6380 
  206.0000     2.3560    95.8660     6.0060     5.6560     5.6530    24.4430    -9.2780 
  206.1250     2.3710   100.7770     5.7350     5.4380     5.5050    24.3920    -8.9160 
  206.2500     2.3870   104.6920     5.5380     5.2860     5.3260    24.2910    -8.6220 
  206.3750     2.3990   106.5000     5.4390     5.1860     5.3470    24.2000    -8.3730 
  206.5000     2.4050   105.5900     5.4390     5.1100     5.3360    24.2500    -8.1490 
  206.6250     2.4030   104.0270     5.5110     5.0290     5.2770    24.3000    -8.0010 
  206.7500     2.4000   105.0190     5.5870     4.9360     5.1830    24.2920    -7.9020 
  206.8750     2.3980   107.6650     5.6170     4.8360     5.0590    24.2430    -7.8120 
  207.0000     2.3980   108.1320     5.5790     4.7390     5.0540    24.2180    -7.7700 
  207.1250     2.3990   105.4660     5.4830     4.6580     5.0780    24.1980    -7.7600 
  207.2500     2.4000   103.6550     5.3790     4.5970     5.2020    24.2240    -7.7400 
  207.3750     2.3980   104.6520     5.2920     4.5560     5.2860    24.2800    -7.7430 
  207.5000     2.3960   108.4460     5.2280     4.5290     5.2740    24.3190    -7.7580 
  207.6250     2.3970   110.6640     5.1810     4.5060     5.1520    24.3250    -7.7120 
  207.7500     2.4010   109.9200     5.1420     4.4810     5.1460    24.3180    -7.6420 
  207.8750     2.4070   107.8680     5.1230     4.4610     5.1230    24.2960    -7.6040 
  208.0000     2.4160   107.4260     5.1420     4.4580     5.0260    24.2770    -7.6060 
  208.1250     2.4220   107.4260     5.2200     4.5010     4.9830    24.2920    -7.6300 
