~V
VERS. 2.00: Ver 2.00
~W
STRT.M 50.0000:
STOP.M 276.0000:
STEP.M 0.1250:
NULL. -999.2500:
UWI. F11044:
~C
DEPT.M :
SP.MV :
GR.API :
RML.OHMM :
RI. :
RXO.OHMM :
CALI.CM :
DEN.GM/CC :
~A
# ...
  218.7500   -19.3850    64.6220    91.8600    94.2760   108.5690    25.1460     2.1960 
  218.8750   -19.3230    65.4690    88.8350    90.6340   107.3150    25.0580     2.2070 
  219.0000   -19.2030    66.4100    86.6650    87.4070    96.3130    25.0220     2.2200 
  219.1250   -19.2330    65.7280    86.6350    85.9470    88.5670    25.0850     2.2320 
  219.2500   -19.4240    65.1530    89.3140    87.1310    86.7350    25.1330     2.2400 
  219.3750   -19.5330    65.3100    95.0350    91.5780    99.3300    25.1010     2.2430 
  219.5000   -19.4660    64.2900   103.4980    99.2190   121.8730    25.0730     2.2420 
  219.6250   -19.3180    63.7530   113.6600   109.1500   147.4980    25.1470     2.2390 
  219.7500   -19.2640    66.2160   123.3600   118.8550   158.9060    25.2080     2.2360 
  219.8750   -19.3000    68.5420   131.0950   126.4220   159.2380    25.2240     2.2350 
  220.0000   -19.3370    67.8990   136.2510   130.9880   151.5060    25.1660     2.2320 
  220.1250   -19.1930    67.1460   139.1630   132.9390   147.2710    25.0760     2.2280 
  220.2500   -18.9080    68.5710   141.4740   134.2350   152.3290    25.0510     2.2240 
  220.3750   -18.6800    67.4570   144.0960   135.8980   167.3810    25.1590     2.2230 
  220.5000   -18.6130    61.6190   147.3450   138.2610   178.9340    25.2440     2.2250 
  220.6250   -18.5710    57.7530   151.0130   141.1810   177.5130    25.2650     2.2290 
  220.7500   -18.4360    60.2260   154.5060   144.0970   170.6470    25.2550     2.2310 
  220.8750   -18.2820    66.5170   157.3810   146.6010   171.8800    25.2390     2.2320 
  221.0000   -18.1890    71.3470   159.3400   148.4360   174.4770    25.2090     2.2290 
  221.1250   -18.1800    71.6360   160.0390   149.3720   181.9950    25.1890     2.2230 
  221.2500   -18.1450    68.4590   159.5470   149.4790   181.0040    25.2010     2.2140 
  221.3750   -18.0660    64.6580   157.6870   148.5900   175.6670    25.2120     2.2030 
  221.5000   -17.9590    61.5300   154.1700   146.3770   166.6320    25.2230     2.1910 
  221.6250   -17.8030    60.4630   148.3070   142.0650   168.4520    25.2080     2.1830 
  221.7500   -17.6320    61.8240   140.3680   135.6080   175.4990    25.1560     2.1800 
  221.8750   -17.4500    63.8530   130.8790   127.1680   162.4970    25.0290     2.1800 
  222.0000   -17.2660    65.2860   121.0300   117.6460   140.0930    24.8550     2.1770 
  222.1250   -17.1510    67.1640   112.9830   109.0660   122.5130    24.7940     2.1640 
  222.2500   -17.1220    67.8650   108.3040   103.3870   109.5240    24.8440     2.1460 
  222.3750   -17.0400    65.4670   108.0070   101.9760   102.7840    24.9080     2.1290 
  222.5000   -16.8880    62.1980   112.3050   105.4890   101.4520    24.9300     2.1230 
  222.6250   -16.8770    63.2260   120.6800   114.1260   114.9030    24.9180     2.1310 
  222.7500   -17.0640    67.2250   129.7550   124.7040   145.4330    24.8930     2.1430 
  222.8750   -17.3290    71.5610   135.8830   133.3030   176.6220    24.8730     2.1520 
  223.0000   -17.5230    73.7380   135.7380   135.6440   188.1040    24.8670     2.1540 
  223.1250   -17.6030    70.9660   127.1690   128.3640   165.9150    24.8690     2.1550 
  223.2500   -17.7440    66.0250   113.9460   115.3070   129.6440    24.8660     2.1590 
  223.3750   -18.0680    63.8490    99.7260   100.5930   101.3050    24.8580     2.1690 
  223.5000   -18.4590    66.5560    87.3620    87.4780    85.9240    24.8230     2.1830 
  223.6250   -18.7170    70.2250    78.6250    77.9040    76.6500    24.7450     2.2000 
  223.7500   -18.8600    71.5910    72.8160    71.2530    71.6480    24.6290     2.2170 
  223.8750   -18.9490    71.3970    69.3050    66.9680    68.2870    24.5470     2.2340 
  224.0000   -19.0100    71.6690    67.4330    64.4400    66.7890    24.5300     2.2490 
  224.1250   -18.9930    71.0860    66.7510    63.2010    65.6830    24.5490     2.2650 
  224.2500   -18.8660    69.4450    66.6980    62.5700    63.4250    24.5600     2.2820 
  224.3750   -18.6380    68.8520    67.1780    62.3650    62.9320    24.5560     2.3000 
  224.5000   -18.3500    68.7520    68.3100    62.6310    62.8240    24.5880     2.3100 
  224.6250   -18.0360    67.0900    71.0140    63.8770    57.5920    24.6080     2.3020 
  224.7500   -17.7210    65.2580    75.1330    66.7310    50.1210    24.5470     2.2830 
  224.8750   -17.4220    64.3190    80.1730    72.0920    48.6720    24.4590     2.2670 
  225.0000   -17.1510    63.9540    86.7110    80.6420    57.9610    24.4740     2.2650 
  225.1250   -16.9470    64.2130    96.4280    92.5110    87.7560    24.6720     2.2760 
  225.2500   -16.7500    64.5790   107.2590   104.8200   155.7160    25.0050     2.2840 
  225.3750   -16.5290    64.2470   114.8740   113.6600   239.8900    25.3120     2.2780 
  225.5000   -16.3680    63.1910   115.7730   115.4720   238.0350    25.3790     2.2580 
  225.6250   -16.2910    62.1100   109.4040   108.9220   151.2420    25.1450     2.2310 
  225.7500   -16.1540    61.2720   100.2350    98.9200    94.4440    24.8670     2.2070 
  225.8750   -15.9100    63.3760    91.6260    89.1480    75.9020    24.7550     2.1880 
  226.0000   -15.6250    68.5740    85.5250    81.7780    75.2220    24.8360     2.1730 
  226.1250   -15.3840    71.0640    82.7410    77.8220    82.3310    25.0180     2.1660 
  226.2500   -15.2300    70.0070    82.1790    76.2120    88.4610    25.1720     2.1660 
  226.3750   -15.0810    68.5430    83.2160    76.2430    89.6500    25.2090     2.1730 
  226.5000   -14.7970    67.7840    85.5330    77.5100    86.0700    25.1090     2.1870 
  226.6250   -14.4090    65.7200    89.5060    80.3550    86.4020    24.9000     2.2140 
  226.7500   -14.1180    65.2870    95.3890    85.1160    89.2540    24.6110     2.2580 
  226.8750   -13.9360    68.6470   103.6560    92.3910    85.2280    24.2630     2.3220 
  227.0000   -13.7710    72.9430   114.6010   102.5480    65.3470    23.7500     2.4000 
  227.1250   -13.5340    74.5340   128.3130   115.9770    48.2070    23.0540     2.4720 
  227.2500   -13.2810    73.8820   142.0460   131.3650    50.5800    22.7160     2.5200 
  227.3750   -13.0180    71.9350   150.0780   145.5000    87.0050    23.0350     2.5410 
  227.5000   -12.7520    69.5660   144.6900   150.2750   178.3890    23.7350     2.5480 
  227.6250   -12.5510    70.0620   119.9440   131.5240   241.6910    24.3150     2.5620 
  227.7500   -12.3290    72.8360    86.2410    96.0810   219.6970    24.5000     2.5860 
  227.8750   -12.0050    75.5980    54.6810    59.9370   142.6960    24.5230     2.6070 
  228.0000   -11.5910    76.8670    32.1420    34.0180    54.8850    24.5740     2.6070 
  228.1250   -11.2500    77.8300    20.1190    20.5080    22.0820    24.6970     2.5780 
  228.2500   -10.9660    79.7090    13.8160    13.5820    11.7660    24.9070     2.5360 
  228.3750   -10.7540    82.2170    10.8080    10.2110    10.0120    25.1260     2.4960 
  228.5000   -10.6360    84.9130     9.6100     8.6620    10.2630    25.2090     2.4670 
  228.6250   -10.5320    85.6070     9.4310     8.2350    10.5020    25.1070     2.4520 
  228.7500   -10.4430    85.8240     9.5780     8.3180    10.9050    25.0330     2.4450 
  228.8750   -10.4850    88.8120     9.7660     8.5980    11.0130    25.0040     2.4420 
  229.0000   -10.7770    93.7240     9.8540     8.8530    10.5520    24.9950     2.4430 
  229.1250   -11.1810    97.6950     9.8120     8.9820    10.2800    24.9860     2.4450 
  229.2500   -11.4950    99.8730     9.7190     9.0290    10.2980    24.9980     2.4470 
  229.3750   -11.7510   101.3900     9.6280     9.0370    10.5790    25.0060     2.4500 
  229.5000   -12.0910   103.7680     9.5650     9.0350    10.9160    25.0070     2.4520 
  229.6250   -12.5420   107.3890     9.5390     9.0290    11.0700    25.0070     2.4500 
  229.7500   -12.9280   110.4510     9.5410     9.0090    11.2120    25.0090     2.4470 
  229.8750   -13.1890   111.4830     9.5600     8.9710    11.3790    25.0100     2.4420 
