~V
VERS. 2.00: Ver 2.00
~W
STRT.M 50.0000:
STOP.M 257.0000:
STEP.M 0.1250:
NULL. -999.2500:
UWI. F11021:
~C
DEPT.M :
GR.API :
RML.OHMM :
RI. :
RXO.OHMM :
CALI.CM :
SP.MV :
DEN.GM/CC :
~A
# ...
  207.5000    95.2940     5.8090     5.4840     5.0230    23.7860    -2.3290     2.4530 
  207.6250    97.2170     5.4500     5.0950     4.8250    23.8010    -1.3630     2.4370 
  207.7500    95.4630     5.2880     4.8800     4.9600    23.8460    -0.4220     2.4310 
  207.8750    92.6810     5.2500     4.7990     4.9810    23.9270     0.4790     2.4310 
  208.0000    92.1980     5.2910     4.8190     4.9580    24.0130     1.3210     2.4290 
  208.1250    93.0490     5.3970     4.9280     4.8820    23.9220     1.9800     2.4220 
  208.2500    92.6360     5.5530     5.0970     5.2230    23.5000     2.4350     2.4100 
  208.3750    91.4730     5.7400     5.3050     6.1790    23.4000     2.7150     2.3980 
  208.5000    90.6610     5.9150     5.5120     7.6860    23.1000     2.8830     2.3870 
  208.6250    90.0100     6.0030     5.6500     6.8940    22.9670     2.9990     2.3780 
  208.7500    89.2750     5.9760     5.6830     6.2970    22.9670     3.0660     2.3680 
  208.8750    88.8400     5.8470     5.6060     5.9460    22.9670     3.0470     2.3560 
  209.0000    89.0130     5.6690     5.4550     5.7890    22.9670     2.9080     2.3420 
  209.1250    90.4560     5.5230     5.2910     5.5500    23.5450     2.6450     2.3290 
  209.2500    93.1640     5.4590     5.1700     5.3110    23.5120     2.2820     2.3220 
  209.3750    95.8950     5.4840     5.1160     5.2840    23.4520     1.8690     2.3230 
  209.5000    97.3240     5.5780     5.1250     5.4420    23.3270     1.4490     2.3300 
  209.6250    98.5700     5.7080     5.1810     5.7130    23.1350     1.0540     2.3350 
  209.7500   101.2430     5.8490     5.2570     5.8780    22.9900     0.7320     2.3300 
  209.8750   103.5160     6.0160     5.3530     5.8040    22.8700     0.5330     2.3170 
  210.0000   102.4250     6.2620     5.4910     5.8850    22.8030     0.4480     2.3030 
  210.1250    98.5210     6.6930     5.7400     5.8930    22.7550     0.4430     2.3020 
  210.2500    96.5170     7.3390     6.1390     6.3530    22.6890     0.4880     2.3150 
  210.3750    97.7960     8.2100     6.7160     7.2380    22.5640     0.5230     2.3340 
  210.5000   100.1070     9.2650     7.4710     8.3140    21.9000     0.5090     2.3470 
  210.6250   100.4490    10.4340     8.3850     9.9700    21.9000     0.4530     2.3420 
  210.7500    99.0810    11.6040     9.3690    11.1270    21.8330     0.3750     2.3230 
  210.8750    96.9300    12.7060    10.3550    11.3580    21.7670     0.2650     2.3000 
  211.0000    94.6180    13.6910    11.2890    11.0810    21.6330     0.1120     2.2830 
  211.1250    92.8760    14.5030    12.1170    12.3160    21.6330    -0.0910     2.2810 
  211.2500    91.7370    15.1530    12.8400    14.0930    21.6330    -0.3150     2.2950 
  211.3750    90.4930    15.6470    13.4650    15.3670    21.7330    -0.5210     2.3190 
  211.5000    89.0200    15.9910    13.9990    15.7880    23.6050    -0.6510     2.3430 
  211.6250    88.6390    16.1260    14.3920    15.8440    24.1130    -0.7210     2.3590 
  211.7500    89.2840    16.0010    14.5830    16.3080    24.3130    -0.7510     2.3650 
  211.8750    89.6400    15.5430    14.4900    17.2290    24.3620    -0.7410     2.3660 
  212.0000    89.1910    14.7540    14.0790    18.1670    24.3560    -0.6690     2.3700 
  212.1250    88.8340    13.7630    13.3980    17.0750    24.3640    -0.5210     2.3780 
  212.2500    88.7190    12.8740    12.6960    13.4930    24.3720    -0.3640     2.3870 
  212.3750    87.9820    12.3040    12.1710    11.1520    24.3720    -0.2340     2.3940 
  212.5000    86.4420    12.1270    11.9350    11.0850    24.3550    -0.1620     2.3980 
  212.6250    85.3520    12.2260    11.9700    12.1900    24.3500    -0.0980     2.4020 
  212.7500    85.7920    12.2510    12.0100    12.8320    24.3390    -0.0250     2.4080 
  212.8750    87.7970    11.9590    11.8250    13.2850    24.3160     0.0120     2.4180 
  213.0000    90.5740    11.3050    11.3070    14.3080    24.2840    -0.0520     2.4300 
  213.1250    92.6270    10.5390    10.5740    12.4780    24.2780    -0.2130     2.4410 
  213.2500    92.9680    10.1640     9.9990     9.8990    24.3010    -0.3640     2.4450 
  213.3750    91.5570    10.6660     9.9380     8.6020    24.2980    -0.4780     2.4380 
  213.5000    89.0560    12.5330    10.7590     8.9410    24.3040    -0.5650     2.4210 
  213.6250    86.2600    16.6170    13.2300    13.5490    24.3510    -0.7280     2.3950 
  213.7500    83.5260    23.2910    17.8420    22.8650    24.3550    -0.9990     2.3680 
  213.8750    80.7100    33.1360    25.2870    29.6380    24.2470    -1.3420     2.3420 
  214.0000    77.8160    46.0880    35.8760    29.7520    24.0990    -1.6760     2.3150 
  214.1250    75.5340    61.0220    49.1460    44.4350    24.1000    -1.9570     2.2830 
  214.2500    74.2280    75.4230    62.6510    59.7700    24.2180    -2.2280     2.2510 
  214.3750    73.4050    87.5980    74.4370    67.4430    24.3530    -2.5090     2.2320 
  214.5000    72.1840    96.7910    83.4220    73.5870    24.3920    -2.8300     2.2380 
  214.6250    70.3260   102.9990    89.3580    81.7770    24.2800    -3.1590     2.2740 
  214.7500    68.9590   107.7160    93.5990    74.4530    24.1230    -3.4890     2.3220 
  214.8750    68.8530   111.4300    96.7450    65.4000    23.9480    -3.7860     2.3580 
  215.0000    69.4380   113.8250    98.8060    61.2620    23.8240    -4.0690     2.3670 
  215.1250    68.9590   113.6600    99.0080    64.8470    23.9740    -4.3480     2.3400 
  215.2500    67.5920   110.8110    97.2280    75.7340    24.2660    -4.6090     2.2940 
  215.3750    67.1950   105.6490    93.6220    86.2390    24.4950    -4.8470     2.2490 
  215.5000    69.0940    99.1340    88.7840    83.2680    24.6380    -5.0820     2.2190 
  215.6250    72.4590    92.5830    83.6280    72.2960    24.6540    -5.3410     2.2120 
  215.7500    74.6200    87.0940    79.1250    63.7520    24.6310    -5.5490     2.2200 
  215.8750    74.4880    83.2310    75.8600    60.7680    24.6000    -5.6920     2.2320 
  216.0000    73.0760    81.2080    74.1500    64.0940    24.5770    -5.7710     2.2410 
  216.1250    72.8150    81.2460    74.3240    66.5390    24.5820    -5.8630     2.2410 
  216.2500    74.0400    82.7680    75.9320    70.0910    24.6560    -5.9820     2.2370 
  216.3750    75.1450    85.4090    78.6530    70.0800    24.8260    -6.0690     2.2310 
  216.5000    74.6600    88.7880    82.1080    74.3930    24.9610    -6.0460     2.2230 
  216.6250    72.5510    92.6370    86.0050    83.7890    25.0150    -5.8890     2.2060 
  216.7500    70.3690    96.7520    90.1240    88.9960    25.0530    -5.7620     2.1800 
  216.8750    68.8820   101.1940    94.4850    94.7930    25.0880    -5.7040     2.1530 
  217.0000    67.7080   106.0330    99.1230    93.0270    25.0640    -5.7170     2.1420 
  217.1250    65.6810   111.0930   103.8740    83.6430    24.8850    -5.7090     2.1670 
  217.2500    63.2660   115.7370   108.2130    87.6550    24.5870    -5.6680     2.2150 
  217.3750    62.1430   119.3300   111.5730    97.1230    24.3710    -5.6400     2.2630 
  217.5000    63.3280   121.5520   113.6510   103.8790    24.4590    -5.6920     2.2870 
  217.6250    66.0330   122.6510   114.6790    99.3220    24.6360    -5.8290     2.2760 
  217.7500    68.3060   123.8780   115.8270    97.6850    24.8190    -5.9180     2.2470 
  217.8750    69.5160   126.0910   117.8960    94.8610    24.9620    -5.9610     2.2140 
  218.0000    69.9080   129.1050   120.7160    94.7000    25.0810    -5.9360     2.1840 
  218.1250    69.8710   130.4830   122.0040    92.0950    25.1440    -5.8520     2.1600 
  218.2500    69.5880   127.3260   119.0510   104.6840    25.1090    -5.7070     2.1410 
  218.3750    69.1620   118.2800   110.5910   130.6860    25.0380    -5.4940     2.1320 
  218.5000    69.0310   104.6620    97.8540   138.7100    25.0630    -5.2770     2.1420 
  218.6250    69.8900    90.3460    84.4640    89.1920    25.1910    -5.1430     2.1780 
