~V
VERS. 2.00: Ver 2.00
~W
STRT.M 52.0000:
STOP.M 235.0000:
STEP.M 0.1250:
NULL. -999.2500:
UWI. F11014:
~C
DEPT.M :
DEN.GM/CC :
GR.API :
RML.OHMM :
RI. :
RXO.OHMM :
CALI.CM :
SP.MV :
~A
# ...
   97.0000     2.0820    72.5430     8.7120     6.4800    12.7010    24.6720    -6.4050 
   97.1250     2.0700    70.7850     9.1930     6.8570    13.4690    24.7300    -6.4700 
   97.2500     2.0760    71.0560     9.4780     7.1860    12.4050    24.6860    -6.4660 
   97.3750     2.1080    72.9300     9.4970     7.3690    10.7850    24.5050    -6.3950 
   97.5000     2.1600    73.5690     9.4260     7.4710     9.8430    24.3100    -6.3050 
   97.6250     2.2130    71.5330     9.5940     7.6780     9.6770    24.2290    -6.1820 
   97.7500     2.2570    67.8050    10.3320     8.2150    10.8180    24.2830    -6.0120 
   97.8750     2.2890    64.1640    11.9830     9.3770    15.5320    24.4010    -5.7850 
   98.0000     2.3260    62.5670    14.5180    11.2770    25.7440    24.5230    -5.4890 
   98.1250     2.3810    64.4970    17.4560    13.7290    36.6110    24.5760    -5.1680 
   98.2500     2.4520    68.3450    19.9410    16.1540    41.6140    24.5190    -4.8630 
   98.3750     2.5100    70.0310    20.7680    17.4590    40.8110    24.4010    -4.5890 
   98.5000     2.5200    70.4590    19.6400    17.0920    37.5620    24.2950    -4.3540 
   98.6250     2.4650    72.1880    17.2700    15.4330    33.6820    24.2230    -4.1400 
   98.7500     2.3610    73.3600    14.5820    13.2350    30.1050    24.1850    -3.9250 
   98.8750     2.2490    72.9780    12.2520    11.1420    26.5140    24.1590    -3.7450 
   99.0000     2.1710    74.8610    10.4400     9.3990    21.3620    24.0980    -3.6130 
   99.1250     2.1420    80.2190     9.0630     8.0180    14.6850    23.9910    -3.4410 
   99.2500     2.1540    85.1710     8.0500     6.9710     9.1580    23.8950    -3.2090 
   99.3750     2.1860    86.7220     7.3670     6.2480     6.6150    23.8660    -2.9900 
   99.5000     2.2150    86.4330     6.9500     5.7900     5.9380    23.8970    -2.7240 
   99.6250     2.2300    87.1120     6.7210     5.5310     5.9300    23.9810    -2.3610 
   99.7500     2.2320    89.6680     6.6020     5.4100     6.1520    24.1180    -1.9880 
   99.8750     2.2330    92.6130     6.5030     5.3490     6.2270    24.2940    -1.6820 
  100.0000     2.2380    93.6480     6.3690     5.2820     6.1420    24.4820    -1.4300 
  100.1250     2.2460    92.1880     6.2080     5.1850     6.0420    24.6480    -1.2200 
  100.2500     2.2570    89.4460     6.0540     5.0770     5.9710    24.7520    -1.0650 
  100.3750     2.2680    88.1540     5.9670     5.0120     5.9240    24.7930    -0.9620 
  100.5000     2.2800    90.3630     6.0070     5.0470     5.9690    24.8020    -0.9320 
  100.6250     2.2940    94.3960     6.2130     5.2140     6.1680    24.7940    -0.9690 
  100.7500     2.3100    96.5530     6.5900     5.5130     6.5210    24.7660    -1.0580 
  100.8750     2.3290    94.2980     7.0790     5.9040     7.4860    24.7230    -1.2060 
  101.0000     2.3540    89.6040     7.5370     6.2940     9.4610    24.6840    -1.3730 
  101.1250     2.3780    86.7980     7.7990     6.5720    10.7750    24.6600    -1.5370 
  101.2500     2.3800    87.5340     7.7700     6.6530     9.6350    24.6430    -1.7550 
  101.3750     2.3430    88.9510     7.4580     6.5070     7.8900    24.6200    -2.0190 
  101.5000     2.2920    88.9920     7.0140     6.2120     7.0520    24.6000    -2.2460 
  101.6250     2.2600    88.6770     6.6100     5.8870     6.7030    24.6010    -2.4580 
  101.7500     2.2510    89.0190     6.3650     5.6320     6.4360    24.5790    -2.7130 
  101.8750     2.2500    90.1110     6.3660     5.5340     6.2120    24.4380    -2.9900 
  102.0000     2.2450    91.0520     6.6360     5.6220     6.3510    24.1870    -3.2580 
  102.1250     2.2370    89.5340     7.1540     5.8960     7.2980    23.9590    -3.5380 
  102.2500     2.2280    84.1210     7.8290     6.3240     9.3830    23.8600    -3.8360 
  102.3750     2.2220    78.7850     8.3900     6.7500    12.1230    23.8740    -4.1070 
  102.5000     2.2300    77.9180     8.5320     6.9470    14.4070    23.9030    -4.3400 
  102.6250     2.2620    81.0430     8.1770     6.8010    15.5360    23.8440    -4.5710 
  102.7500     2.3190    84.7600     7.5930     6.4310    12.9720    23.7140    -4.7960 
  102.8750     2.3800    86.0770     7.4140     6.2100     8.7260    23.6650    -4.9970 
  103.0000     2.4160    84.6680     8.2280     6.5400     7.3170    23.7290    -5.1980 
  103.1250     2.4260    81.3340    10.3470     7.7220    10.6300    23.7870    -5.4420 
  103.2500     2.4400    76.0500    13.7560     9.9390    21.1660    23.7980    -5.7600 
  103.3750     2.4680    69.5150    17.6840    13.0110    36.2710    23.8020    -6.1800 
  103.5000     2.4920    65.1030    20.3600    15.7630    38.5700    23.8190    -6.7060 
  103.6250     2.4890    64.6940    20.2810    16.6960    28.8360    23.8560    -7.3150 
  103.7500     2.4520    65.6890    17.7160    15.4950    21.0850    23.9750    -7.9840 
  103.8750     2.3760    66.3360    14.4800    13.2700    18.2940    24.1380    -8.7070 
  104.0000     2.2820    68.0160    12.0430    11.2630    16.2360    24.2500    -9.4440 
  104.1250     2.2040    70.7410    10.7180     9.9360    13.7920    24.2680   -10.1360 
  104.2500     2.1590    71.9180    10.2460     9.2470    12.1160    24.2300   -10.7560 
  104.3750     2.1460    70.8040    10.2930     9.0530    11.2650    24.1750   -11.2930 
  104.5000     2.1500    69.4380    10.5260     9.1290    10.7500    24.0920   -11.7440 
  104.6250     2.1510    68.5770    10.7320     9.2760    10.4170    23.9520   -12.1300 
  104.7500     2.1370    68.1190    10.8270     9.3800    10.3060    23.8210   -12.4560 
  104.8750     2.1060    66.9490    10.7770     9.3650    10.1020    23.7660   -12.6760 
  105.0000     2.0730    64.1080    10.5900     9.2130     9.5080    23.7470   -12.8100 
  105.1250     2.0500    61.0540    10.2940     8.9470     8.8010    23.6840   -12.9440 
  105.2500     2.0440    60.6250     9.9200     8.5970     8.3390    23.5810   -13.0570 
  105.3750     2.0520    64.3710     9.5250     8.2050     8.0040    23.5230   -13.0900 
  105.5000     2.0620    69.5820     9.1670     7.8170     7.7580    23.5290   -13.1070 
  105.6250     2.0640    73.3460     8.8850     7.4720     7.5670    23.5010   -13.1600 
  105.7500     2.0620    74.8690     8.6950     7.2040     7.2920    23.3850   -13.2390 
  105.8750     2.0650    73.6250     8.6090     7.0400     6.9460    23.2320   -13.3630 
  106.0000     2.0800    70.3910     8.6190     6.9820     6.7400    23.1510   -13.5470 
  106.1250     2.0990    67.2500     8.7140     7.0110     6.9390    23.1740   -13.7540 
  106.2500     2.1150    65.9130     8.8870     7.1050     7.4710    23.2450   -14.0030 
  106.3750     2.1260    65.9930     9.1320     7.2370     8.0690    23.3550   -14.3290 
  106.5000     2.1360    65.1830     9.4060     7.3790     8.5310    23.5520   -14.6670 
  106.6250     2.1450    63.0050     9.6540     7.5050     8.8710    23.8280   -14.9620 
  106.7500     2.1500    61.1190     9.8280     7.5950     9.1650    24.1200   -15.2250 
  106.8750     2.1490    60.5200     9.8860     7.6230     9.2960    24.4000   -15.4550 
  107.0000     2.1420    60.8070     9.8240     7.5790     9.2560    24.6790   -15.6240 
  107.1250     2.1340    60.7370     9.6730     7.4700     9.0820    24.9090   -15.7180 
  107.2500     2.1270    60.4500     9.4780     7.3200     8.9460    25.0150   -15.7410 
  107.3750     2.1260    62.3430     9.3080     7.1770     8.9010    25.0080   -15.6870 
  107.5000     2.1280    66.4360     9.2190     7.0800     8.8430    25.0170   -15.5810 
  107.6250     2.1330    69.9160     9.2460     7.0510     8.6780    24.9740   -15.4590 
  107.7500     2.1400    70.6710     9.3820     7.0890     8.5080    24.6980   -15.3200 
  107.8750     2.1530    69.3190     9.5770     7.1710     8.5120    24.3230   -15.1340 
  108.0000     2.1660    67.5590     9.7570     7.2550     8.6290    24.0940   -14.9190 
  108.1250     2.1700    65.2250     9.8630     7.3050     8.7460    23.9360   -14.7100 
