~V
VERS. 2.00: Ver 2.00
~W
STRT.M 53.0000:
STOP.M 279.0000:
STEP.M 0.1250:
NULL. -999.2500:
UWI. F11057:
~C
DEPT.M :
GR.API :
RML.OHMM :
RI. :
RXO.OHMM :
CALI.CM :
DEN.GM/CC :
SP.MV :
~A
# ...
  120.5000   101.8700     6.4220     4.7760     5.9100    24.5990     2.3330   -16.6670 
  120.6250   101.5620     7.1480     5.1600     6.8070    24.4090     2.3500   -16.9710 
  120.7500   100.8720     8.1390     5.7950     7.2540    24.2890     2.3510   -17.3850 
  120.8750    97.5000     9.1560     6.5500     7.7480    24.2190     2.3180   -17.8810 
  121.0000    93.0750     9.9110     7.2180     8.6950    24.1890     2.2550   -18.3950 
  121.1250    91.8530    10.1370     7.5550     9.1660    24.1810     2.2050   -18.8460 
  121.2500    93.0010     9.9790     7.5870     9.3360    24.1810     2.1880   -19.1740 
  121.3750    93.5310     9.6280     7.4190     9.4220    24.1780     2.1950   -19.3510 
  121.5000    93.6420     9.2740     7.1820     9.5350    24.1770     2.2120   -19.3730 
  121.6250    95.0860     9.1160     7.0210     9.9690    24.1900     2.2320   -19.2000 
  121.7500    95.7310     9.2420     7.0310    10.1090    24.2310     2.2570   -18.8450 
  121.8750    93.1810     9.6410     7.2440     9.9500    24.3110     2.2900   -18.3070 
  122.0000    88.6630    10.1450     7.5940     9.7230    24.4520     2.3380   -17.6400 
  122.1250    87.9960    10.3750     7.8560     9.4150    24.6380     2.3950   -16.9210 
  122.2500    94.2190    10.0820     7.8090     9.2150    24.7630     2.4350   -16.2030 
  122.3750   105.7070     9.2630     7.3800     9.2980    24.8050     2.4350   -15.5490 
  122.5000   114.0410     8.1760     6.6810     8.4880    24.8090     2.3950   -14.9490 
  122.6250   111.7440     7.2480     5.9680     7.5270    24.8090     2.3430   -14.4430 
  122.7500   106.7410     6.6930     5.4450     7.1520    24.8070     2.3100   -14.0280 
  122.8750   106.7270     6.4990     5.1670     7.1130    24.8060     2.2950   -13.7090 
  123.0000   110.4010     6.5350     5.0920     7.0550    24.8060     2.2920   -13.5340 
  123.1250   112.1820     6.6220     5.1250     6.9480    24.8060     2.2940   -13.4680 
  123.2500   110.5430     6.6330     5.1470     6.8290    24.8070     2.2980   -13.4490 
  123.3750   107.8220     6.5470     5.1150     6.7580    24.8090     2.3020   -13.4610 
  123.5000   107.2520     6.3980     5.0290     6.6900    24.8080     2.3040   -13.4670 
  123.6250   110.4210     6.2200     4.9120     6.6030    24.8070     2.3100   -13.5030 
  123.7500   115.4250     6.0320     4.7860     6.2940    24.8060     2.3240   -13.5840 
  123.8750   119.3870     5.8620     4.6690     5.9670    24.8060     2.3390   -13.7020 
  124.0000   120.3570     5.7750     4.5970     5.7480    24.8060     2.3480   -13.8650 
  124.1250   116.5600     5.8890     4.6500     5.9090    24.8060     2.3380   -14.0470 
  124.2500   110.7290     6.2220     4.8620     6.4510    24.8060     2.3140   -14.2440 
  124.3750   106.4140     6.7290     5.2310     7.0770    24.8060     2.2850   -14.4230 
  124.5000   103.2730     7.2690     5.6860     7.4970    24.8060     2.2640   -14.5430 
  124.6250   102.4160     7.5720     6.0480     7.7750    24.8060     2.2580   -14.5720 
  124.7500   103.9560     7.4850     6.1550     7.6170    24.8060     2.2630   -14.4950 
  124.8750   105.6310     7.0170     5.9530     7.0350    24.8060     2.2780   -14.3490 
  125.0000   105.6530     6.3500     5.5310     6.4050    24.8060     2.3000   -14.1170 
  125.1250   108.3780     5.7430     5.0600     6.0650    24.8060     2.3200   -13.8480 
  125.2500   115.5250     5.3410     4.6840     5.8100    24.8060     2.3310   -13.5800 
  125.3750   121.5450     5.1690     4.4520     5.6030    24.8060     2.3380   -13.3120 
  125.5000   122.3800     5.2090     4.3740     5.4760    24.8000     2.3420   -13.1350 
  125.6250   120.0660     5.4590     4.4710     5.6100    24.7760     2.3450   -13.0480 
  125.7500   118.1060     5.8590     4.7070     5.8830    24.7200     2.3510   -13.0680 
  125.8750   113.0990     6.3710     5.0570     6.3440    24.6380     2.3580   -13.1710 
  126.0000   104.0880     6.9260     5.4680     6.6320    24.5620     2.3600   -13.3430 
  126.1250    96.1190     7.4220     5.8460     6.6760    24.5320     2.3540   -13.5740 
  126.2500    91.8540     7.8060     6.1330     6.7670    24.5320     2.3470   -13.8100 
  126.3750    91.0850     8.1000     6.3380     6.9610    24.5650     2.3430   -14.0790 
  126.5000    90.8660     8.3910     6.5300     7.1970    24.6660     2.3430   -14.3330 
  126.6250    88.2850     8.8850     6.8470     7.4080    24.8320     2.3460   -14.6120 
  126.7500    86.9530     9.8680     7.4550     7.8650    24.9640     2.3540   -14.9280 
  126.8750    88.2520    11.7950     8.6440     8.8980    25.0070     2.3800   -15.2580 
  127.0000    88.6900    15.2000    10.8800    11.4900    24.9760     2.4370   -15.6340 
  127.1250    84.1690    20.7340    14.9750    18.2500    24.8830     2.5220   -16.0760 
  127.2500    79.2940    27.4260    20.5780    29.4950    24.7920     2.5970   -16.5950 
  127.3750    76.6180    32.7750    26.0040    38.4700    24.7800     2.6230   -17.1870 
  127.5000    72.5370    33.1430    28.0360    43.4410    24.8370     2.5840   -17.8500 
  127.6250    68.0080    27.2180    24.4900    42.2050    24.8680     2.4970   -18.5700 
  127.7500    65.6250    20.0250    19.0060    29.3700    24.8780     2.3980   -19.2880 
  127.8750    64.7030    14.3670    14.1550    16.8190    24.8780     2.3010   -19.9910 
  128.0000    66.5030    10.8380    10.7780    11.7210    24.8780     2.2160   -20.6280 
  128.1250    71.8670     9.2590     8.9160    10.6210    24.8780     2.1630   -21.1350 
  128.2500    75.4220     8.8010     8.0030    10.4980    24.8780     2.1380   -21.5380 
  128.3750    75.0490     9.0480     7.7750    10.5570    24.8780     2.1350   -21.8030 
  128.5000    74.5970     9.6030     7.9630    10.5760    24.8780     2.1440   -21.9590 
  128.6250    77.8740    10.0690     8.2810    10.5510    24.8590     2.1580   -22.0070 
  128.7500    78.2590    10.2730     8.5010    10.7310    24.7930     2.1750   -21.9780 
  128.8750    74.9640    10.2590     8.5880    10.9660    24.6860     2.1900   -21.9310 
  129.0000    74.0360    10.1450     8.5870    11.1040    24.6170     2.1970   -21.8560 
  129.1250    77.5640    10.0340     8.5520    11.0560    24.5970     2.1890   -21.7970 
  129.2500    79.2600     9.9650     8.5160    10.8290    24.5860     2.1690   -21.7590 
  129.3750    76.7790     9.9330     8.4800    10.6220    24.5530     2.1460   -21.7260 
  129.5000    73.8030     9.9170     8.4360    10.6610    24.5080     2.1290   -21.7100 
  129.6250    72.9530     9.8970     8.3780    10.6510    24.4480     2.1250   -21.6710 
  129.7500    73.2360     9.8760     8.3170    10.4650    24.4040     2.1310   -21.6040 
  129.8750    73.7340     9.8660     8.2710    10.3610    24.3670     2.1440   -21.4960 
  130.0000    72.4330     9.8700     8.2480    10.4510    24.3070     2.1610   -21.3330 
  130.1250    70.9880     9.8750     8.2380    10.3910    24.2280     2.1800   -21.1030 
  130.2500    74.1200     9.8570     8.2150    10.2980    24.1510     2.2000   -20.8080 
  130.3750    79.7550     9.7980     8.1580    10.3550    24.0840     2.2250   -20.4820 
  130.5000    82.6840     9.6960     8.0610    10.4380    24.0490     2.2520   -20.1190 
  130.6250    82.1880     9.5710     7.9320    10.4980    24.0590     2.2690   -19.7290 
  130.7500    84.2110     9.4450     7.7960    10.6320    24.1460     2.2740   -19.3440 
  130.8750    86.8170     9.3100     7.6540    10.5100    24.3260     2.2730   -18.9550 
  131.0000    86.4170     9.1400     7.4920    10.0610    24.5110     2.2750   -18.6430 
  131.1250    87.4090     8.9230     7.3000     9.2220    24.5840     2.2780   -18.4370 
  131.2500    90.0110     8.7140     7.1140     8.5910    24.5990     2.2760   -18.3230 
  131.3750    88.9480     8.5840     6.9840     8.4670    24.5990     2.2680   -18.3090 
  131.5000    82.0710     8.5770     6.9510     8.6750    24.5990     2.2590   -18.3440 
  131.6250    78.3570     8.6830     7.0300     8.9640    24.5990     2.2560   -18.4640 
