~V
VERS. 2.00: Ver 2.00
~W
STRT.M 49.0000:
STOP.M 284.0000:
STEP.M 0.1250:
NULL. -999.2500:
UWI. F11034:
~C
DEPT.M :
GR.API :
RML.OHMM :
RI. :
RXO.OHMM :
CALI.CM :
DEN.GM/CC :
SP.MV :
~A
# ...
  172.7500    60.8160   102.3670   101.8860   118.7570    25.3760     2.2620   -19.0740 
  172.8750    62.8770    89.6250    88.4700    90.7340    25.3750     2.2750   -18.9790 
  173.0000    61.9560    82.8110    80.5210    77.6890    25.3790     2.2800   -18.8400 
  173.1250    59.1770    80.9350    77.5160    76.2800    25.3750     2.2750   -18.6940 
  173.2500    56.1840    82.5380    78.1180    77.0680    25.3480     2.2670   -18.5540 
  173.3750    55.5000    86.4950    81.1910    76.1240    25.2720     2.2590   -18.3990 
  173.5000    58.6370    92.2790    86.1640    75.4810    25.1350     2.2550   -18.2050 
  173.6250    61.5940    99.6010    92.6140    77.7780    25.0140     2.2530   -18.0100 
  173.7500    60.5580   108.7760   100.7080    83.3070    25.0370     2.2540   -17.8630 
  173.8750    57.6060   120.3580   110.9000    92.3150    25.1860     2.2540   -17.7690 
  174.0000    56.7580   135.0970   123.8590   106.6010    25.3260     2.2530   -17.7040 
  174.1250    57.7270   152.5020   139.1770   125.1750    25.4030     2.2510   -17.6380 
  174.2500    58.3640   171.6020   156.0340   147.5720    25.4580     2.2470   -17.5700 
  174.3750    57.6390   190.6590   173.0310   174.6390    25.4950     2.2400   -17.5190 
  174.5000    56.2140   205.8540   187.1960   198.8430    25.5090     2.2300   -17.4950 
  174.6250    54.8750   213.2790   195.3650   216.9180    25.5030     2.2210   -17.4760 
  174.7500    54.0710   209.4860   194.4940   232.2560    25.4830     2.2170   -17.4350 
  174.8750    53.9030   193.7910   182.7900   242.3960    25.4440     2.2180   -17.3750 
  175.0000    53.4320   167.5920   160.4930   233.4360    25.3780     2.2270   -17.3250 
  175.1250    53.0070   138.9590   133.5560   203.2670    25.3420     2.2390   -17.2790 
  175.2500    54.3080   114.7700   107.8700   151.9030    25.3670     2.2520   -17.2020 
  175.3750    58.5090    94.5560    87.3030    98.2520    25.4010     2.2620   -17.0900 
  175.5000    62.4240    80.9690    74.0150    70.7030    25.4270     2.2700   -16.9910 
  175.6250    64.2990    73.3400    66.4960    64.1660    25.4340     2.2770   -16.9290 
  175.7500    65.1410    69.7480    62.9170    63.2490    25.4340     2.2790   -16.8920 
  175.8750    64.6400    68.2130    61.5810    61.6380    25.4290     2.2770   -16.8420 
  176.0000    62.1780    66.7060    60.8090    61.9800    25.4120     2.2710   -16.7520 
  176.1250    60.6270    63.9660    59.3460    66.4120    25.4030     2.2660   -16.6700 
  176.2500    62.4890    59.9650    56.9260    72.2770    25.4100     2.2640   -16.6420 
  176.3750    65.7970    55.6930    54.1970    75.0720    25.4220     2.2670   -16.6540 
  176.5000    66.9090    52.9870    52.6070    68.3680    25.4200     2.2730   -16.6700 
  176.6250    64.9420    53.0030    53.2400    61.0910    25.4110     2.2790   -16.6630 
  176.7500    61.0330    56.0860    56.6100    61.0550    25.4020     2.2820   -16.6270 
  176.8750    57.3400    61.6140    62.4090    68.1690    25.4050     2.2800   -16.6040 
  177.0000    55.4130    67.5950    68.8950    74.8340    25.4280     2.2750   -16.6180 
  177.1250    54.9550    71.1170    73.0140    77.7520    25.4470     2.2670   -16.6490 
  177.2500    55.6900    69.7110    71.8830    80.3380    25.4570     2.2550   -16.6590 
  177.3750    58.2250    62.3890    64.0720    81.9330    25.4600     2.2450   -16.6470 
  177.5000    64.0630    50.4500    50.9990    74.0660    25.4470     2.2460   -16.6540 
  177.6250    70.7660    38.0590    37.6780    52.1760    25.3930     2.2610   -16.7200 
  177.7500    75.8960    28.3820    27.5260    27.6420    25.2600     2.2900   -16.8630 
  177.8750    78.1190    22.9090    21.5490    14.3190    24.9920     2.3220   -17.0420 
  178.0000    77.5960    22.7860    20.1290    12.6080    24.5420     2.3430   -17.2390 
  178.1250    74.3500    27.8000    23.0730    18.0620    24.1200     2.3430   -17.4650 
  178.2500    68.2860    38.3800    31.3290    31.9140    24.1540     2.3210   -17.7500 
  178.3750    63.9610    55.1030    46.3880    56.0090    24.7060     2.2880   -18.0680 
  178.5000    63.4970    78.2520    69.6610    89.9410    25.3020     2.2550   -18.3670 
  178.6250    63.3120   104.8240    97.9530   127.0360    25.5960     2.2320   -18.6320 
  178.7500    61.4270   131.4170   125.7630   153.1160    25.6460     2.2210   -18.8560 
  178.8750    59.3220   152.1120   146.5450   161.1160    25.6090     2.2180   -19.0650 
  179.0000    57.7960   162.8090   154.7840   162.4280    25.5780     2.2190   -19.2650 
  179.1250    56.5570   164.9760   153.9810   162.6620    25.5570     2.2210   -19.4190 
  179.2500    55.8310   162.2550   149.3960   160.8960    25.5360     2.2230   -19.5070 
  179.3750    55.7630   158.9920   144.4610   158.1960    25.5230     2.2250   -19.5740 
  179.5000    56.9140   156.2120   140.6900   155.0740    25.5110     2.2280   -19.6590 
  179.6250    59.4130   154.0700   138.2030   151.4490    25.5070     2.2310   -19.7550 
  179.7500    61.5380   153.8910   136.8710   148.9640    25.5040     2.2330   -19.8650 
  179.8750    61.1770   155.6580   136.4950   148.3800    25.4890     2.2330   -19.9590 
  180.0000    59.1250   157.4710   136.9070   147.3170    25.4310     2.2340   -20.0320 
  180.1250    57.4930   159.0070   137.8840   144.1410    25.3330     2.2350   -20.1240 
  180.2500    57.3110   160.6320   139.4300   140.4400    25.2390     2.2370   -20.2480 
  180.3750    59.1160   162.8690   141.7170   137.8090    25.1880     2.2380   -20.3680 
  180.5000    61.2420   166.4410   145.1600   138.1800    25.1790     2.2380   -20.4510 
  180.6250    61.0930   171.5080   149.8310   142.5940    25.1950     2.2380   -20.5080 
  180.7500    58.1160   177.8450   155.5710   150.9500    25.2410     2.2360   -20.5500 
  180.8750    53.7790   184.8060   161.8760   160.2910    25.3060     2.2340   -20.6180 
  181.0000    52.1050   191.1930   167.7210   167.0690    25.3950     2.2330   -20.7190 
  181.1250    54.9260   195.9870   172.1730   170.5000    25.4720     2.2320   -20.8140 
  181.2500    59.1210   198.7450   174.7680   169.9440    25.5150     2.2330   -20.8830 
  181.3750    60.3220   199.8050   175.7450   166.6350    25.5280     2.2350   -20.9680 
  181.5000    58.6600   200.3360   176.1320   162.2890    25.5310     2.2380   -21.1080 
  181.6250    57.5070   201.8180   177.3530   160.6330    25.5330     2.2410   -21.2670 
  181.7500    58.0830   205.1320   180.3660   164.5560    25.5350     2.2430   -21.3980 
  181.8750    59.4580   210.3200   185.4010   173.0810    25.5410     2.2440   -21.4730 
  182.0000    60.6340   216.4790   191.9110   182.5280    25.5330     2.2450   -21.5080 
  182.1250    60.7390   221.7480   198.2940   188.5150    25.5050     2.2430   -21.5230 
  182.2500    58.9530   224.1800   202.8030   192.1890    25.4740     2.2380   -21.5020 
  182.3750    55.8440   222.0470   203.7860   196.8490    25.4540     2.2310   -21.4070 
  182.5000    53.8550   213.3600   199.1720   199.2420    25.4400     2.2250   -21.2380 
  182.6250    54.8980   198.6030   188.8690   194.2260    25.4280     2.2220   -21.0390 
  182.7500    57.6400   179.1340   173.5490   177.1700    25.4170     2.2240   -20.8600 
  182.8750    59.6750   157.2880   154.8780   147.8420    25.3960     2.2290   -20.7420 
  183.0000    59.6850   136.4300   135.6750   110.8540    25.3820     2.2340   -20.6620 
  183.1250    60.1610   118.9060   118.6240    79.9970    25.3780     2.2390   -20.5920 
  183.2500    62.5240   105.6400   105.1560    64.8040    25.3760     2.2440   -20.5440 
  183.3750    64.8510    96.6430    95.6730    63.3410    25.3750     2.2500   -20.5450 
  183.5000    64.9730    92.0150    90.4670    69.0500    25.3740     2.2550   -20.5880 
  183.6250    63.9060    91.0220    88.8490    75.1700    25.3740     2.2600   -20.6670 
  183.7500    64.2010    93.4460    90.5800    77.1900    25.3800     2.2630   -20.7500 
  183.8750    65.7550    99.3590    95.7130    78.7300    25.3980     2.2620   -20.7760 
