~V
VERS. 2.00: Ver 2.00
~W
STRT.M 50.0000:
STOP.M 283.0000:
STEP.M 0.1250:
NULL. -999.2500:
UWI. F11058:
~C
DEPT.M :
DEN.GM/CC :
GR.API :
RML.OHMM :
RI. :
RXO.OHMM :
CALI.CM :
SP.MV :
~A
   50.0000  -999.2500  -999.2500  -999.2500  -999.2500  -999.2500  -999.2500   257.9990 
   50.1250  -999.2500  -999.2500  -999.2500  -999.2500  -999.2500  -999.2500   257.9990 
   50.2500  -999.2500  -999.2500  -999.2500  -999.2500  -999.2500  -999.2500   257.9990 
   50.3750  -999.2500  -999.2500  -999.2500  -999.2500  -999.2500  -999.2500   257.9990 
   50.5000  -999.2500  -999.2500  -999.2500  -999.2500  -999.2500  -999.2500   257.9990 
   50.6250  -999.2500  -999.2500  -999.2500  -999.2500  -999.2500  -999.2500   257.9990 
   50.7500  -999.2500  -999.2500  -999.2500  -999.2500  -999.2500  -999.2500   257.9990 
   50.8750  -999.2500  -999.2500  -999.2500  -999.2500  -999.2500  -999.2500   257.9990 
   51.0000  -999.2500  -999.2500  -999.2500  -999.2500  -999.2500  -999.2500   257.9990 
   51.1250  -999.2500  -999.2500  -999.2500  -999.2500  -999.2500  -999.2500   257.9990 
   51.2500  -999.2500  -999.2500  -999.2500  -999.2500  -999.2500  -999.2500   257.9990 
   51.3750  -999.2500  -999.2500  -999.2500  -999.2500  -999.2500  -999.2500   257.9990 
   51.5000  -999.2500  -999.2500  -999.2500  -999.2500  -999.2500  -999.2500   257.9990 
   51.6250  -999.2500  -999.2500  -999.2500  -999.2500  -999.2500  -999.2500   257.9990 
   51.7500    -0.0030  -999.2500  -999.2500  -999.2500  -999.2500  -999.2500   257.9990 
   51.8750    -0.0030  -999.2500  -999.2500  -999.2500  -999.2500  -999.2500   257.9990 
   52.0000    -0.0030  -999.2500  -999.2500  -999.2500  -999.2500  -999.2500   257.9990 
   52.1250    -0.0030  -999.2500  -999.2500  -999.2500  -999.2500  -999.2500   257.4670 
   52.2500    -0.0030  -999.2500  -999.2500  -999.2500  -999.2500  -999.2500   255.3690 
   52.3750    -0.0030  -999.2500  -999.2500  -999.2500  -999.2500  -999.2500   252.6250 
   52.5000    -0.0030    47.0870     3.6490     0.5470     6.2100    25.7230   249.8940 
   52.6250     2.0660    47.0870     3.6490     0.5470     6.2100    25.7230   247.8310 
   52.7500     2.0200    47.5980     3.6330     0.5480     6.1030    25.7240   247.2450 
   52.8750     1.9780    47.3800     3.6200     0.5480     6.0810    25.7260   247.2450 
   53.0000     1.9500    47.2360     3.6050     0.5490     6.0690    25.7270   246.8850 
   53.1250     1.9450    47.3680     3.5820     0.5500     6.1570    25.7260   245.9040 
   53.2500     1.9610    47.6740     3.5450     0.5500     6.6160    25.7150   245.0390 
   53.3750     1.9900    48.0870     3.4850     0.5510     7.8840    25.6910   242.8460 
   53.5000     2.0190    47.6950     3.3970     0.5510     9.5170    25.6730   238.6630 
   53.6250     2.0300    46.1160     3.2860     0.5500     8.5240    25.6540   231.4320 
   53.7500     2.0190    45.0510     3.1740     0.5490     6.3670    25.6220   220.6340 
   53.8750     1.9950    45.1900     3.0780     0.5470     4.7090    25.5750   207.4550 
   54.0000     1.9710    45.8380     3.0090     0.5450     3.2690    25.5190   192.7650 
   54.1250     1.9560    46.0100     2.9720     0.5440     2.1030    25.4580   177.0650 
   54.2500     1.9490    46.5940     2.9590     0.5440     1.5170    25.4170   160.9080 
   54.3750     1.9430    46.9730     2.9660     0.5430     1.2580    25.4030   144.7600 
   54.5000     1.9350    46.6360     2.9870     0.5390     1.1180    25.3880   128.7940 
   54.6250     1.9230    46.0980     3.0050     0.5350     1.0710    25.3600   113.3540 
   54.7500     1.9140    45.9180     3.0110     0.5330     1.0150    25.3330    98.8720 
   54.8750     1.9110    45.4980     3.0120     0.5270     0.9760    25.2870    85.2640 
   55.0000     1.9170    44.6420     2.9870     0.5220     1.0480    25.2690    72.6300 
   55.1250     1.9330    44.3360     2.9390     0.5200     1.1160    25.2820    61.6150 
   55.2500     1.9510    45.4320     2.8920     0.5210     1.1020    25.3020    52.7390 
   55.3750     1.9660    46.5910     2.8620     0.5230     1.0500    25.3070    46.3940 
   55.5000     1.9760    47.4710     2.8520     0.5270     0.9090    25.2720    42.4300 
   55.6250     1.9820    48.8180     2.8520     0.5340     0.7250    25.2080    40.8770 
   55.7500     1.9870    50.6250     2.8440     0.5400     0.5860    25.1220    40.6200 
   55.8750     1.9910    50.4440     2.8290     0.5430     0.5890    25.0620    41.0460 
   56.0000     1.9970    46.9800     2.8230     0.5440     0.7150    25.0790    41.9540 
   56.1250     2.0010    43.6250     2.8630     0.5400     0.8870    25.2070    42.8400 
   56.2500     2.0020    43.3000     2.9460     0.5310     1.0780    25.3480    42.9880 
   56.3750     2.0020    45.1180     2.9870     0.5120     1.1200    25.3120    42.2020 
   56.5000     2.0070    46.2020     2.8140     0.4720     1.0020    25.1090    40.6110 
   56.6250     2.0420    45.6180     2.2350     0.3970     1.0440    25.0830    38.3370 
   56.7500     2.1250    44.6650     1.4340     0.3020     1.1520    25.2530    36.0730 
   56.8750     2.2620    44.6660     0.6880     0.2100     1.5270    25.4270    34.4540 
   57.0000     2.4230    46.3740     0.2050     0.1420     2.1670    25.4990    33.5800 
   57.1250     2.5400    49.2620     0.0590     0.1130     1.8690    25.3390    33.3520 
   57.2500     2.5690    52.6120     0.1480     0.1240     1.4580    24.8770    33.1460 
   57.3750     2.5060    57.7420     0.4750     0.2020     2.0000    24.2480    32.2720 
   57.5000     2.3920    62.9710     1.1100     0.3980     4.2550    23.8150    30.4430 
   57.6250     2.2930    66.3390     2.1760     0.8580     8.0110    23.6690    27.7130 
   57.7500     2.2440    70.3310     3.4620     1.6440     9.9450    23.6080    24.3300 
   57.8750     2.2380    76.5190     4.6160     2.7200     9.8140    23.5090    20.2470 
   58.0000     2.2500    80.5400     5.3170     3.8730     9.4320    23.3260    15.5010 
   58.1250     2.2510    77.8500     5.4900     4.8540     9.3710    23.1760    10.3160 
   58.2500     2.2340    73.5360     5.5130     5.6650     9.7370    23.0760     5.3180 
   58.3750     2.2090    71.6190     5.6170     6.3740     9.9930    22.9890     1.0370 
   58.5000     2.1830    71.0780     5.8570     7.0080     9.8780    22.8980    -2.3270 
   58.6250     2.1660    69.7370     6.1700     7.5130     9.7230    22.8490    -4.8370 
   58.7500     2.1580    69.0470     6.4600     7.8670     9.6410    22.8170    -7.0020 
   58.8750     2.1590    70.2190     6.6880     8.0820     9.5660    22.7410    -9.0390 
   59.0000     2.1670    71.0400     6.8520     8.2030     9.8480    22.6270   -10.8290 
   59.1250     2.1780    68.6760     6.9540     8.2730    10.2070    22.5360   -12.3340 
   59.2500     2.1850    66.5330     7.0100     8.3230    10.5820    22.4480   -13.6490 
   59.3750     2.1820    67.6680     7.0270     8.3520    11.0710    22.4090   -14.7130 
   59.5000     2.1710    69.9320     7.0220     8.3580    11.5030    22.4650   -15.5170 
   59.6250     2.1570    69.0440     7.0280     8.3480    11.6550    22.6360   -16.1930 
   59.7500     2.1480    66.8420     7.0690     8.3460    11.9360    22.8670   -16.7770 
   59.8750     2.1460    66.6300     7.1510     8.3650    12.5140    23.1080   -17.2650 
   60.0000     2.1480    68.8280     7.2640     8.3990    12.8450    23.2990   -17.7320 
   60.1250     2.1470    71.0360     7.3810     8.4290    12.5660    23.4340   -18.0760 
   60.2500     2.1410    72.8320     7.4630     8.4280    12.0200    23.4960   -18.3000 
   60.3750     2.1310    73.3860     7.4840     8.3780    11.5170    23.5030   -18.4600 
   60.5000     2.1220    72.7750     7.4270     8.2670    11.3520    23.4680   -18.5750 
   60.6250     2.1200    73.1010     7.2830     8.0840    11.3560    23.4240   -18.6400 
   60.7500     2.1250    74.8120     7.0870     7.8510    11.1220    23.3480   -18.6170 
   60.8750     2.1350    76.3650     6.8630     7.5890    10.7560    23.2410   -18.4530 
   61.0000     2.1440    74.7630     6.6400     7.3250    10.5720    23.1090   -18.1960 
   61.1250     2.1510    71.4040     6.4700     7.1070    10.4300    23.0470   -17.9030 
