~V
VERS. 2.00: Ver 2.00
~W
STRT.M 53.0000:
STOP.M 279.0000:
STEP.M 0.1250:
NULL. -999.2500:
UWI. F11068:
~C
DEPT.M :
GR.API :
RML.OHMM :
RI. :
RXO.OHMM :
CALI.CM :
SP.MV :
DEN.GM/CC :
~A
# ...
  120.5000    75.5980    10.0820     8.7480     9.4650    23.7820   -13.3750     2.2170 
  120.6250    73.0450    10.2150     8.9210     9.4550    23.9510   -13.5590     2.1970 
  120.7500    72.2960    10.2850     9.0580     9.5620    24.0420   -13.7040     2.1830 
  120.8750    71.6080    10.3070     9.1630     9.6980    23.9720   -13.8030     2.1770 
  121.0000    71.1130    10.3070     9.2450     9.7700    23.7790   -13.7950     2.1810 
  121.1250    73.5700    10.3210     9.3140     9.6730    23.6190   -13.6820     2.1910 
  121.2500    75.0930    10.3600     9.3810     9.3200    23.5030   -13.4620     2.2020 
  121.3750    72.8640    10.4050     9.4410     8.9180    23.4240   -13.2190     2.2110 
  121.5000    69.3000    10.4050     9.4620     8.7650    23.3780   -12.9330     2.2180 
  121.6250    71.2760    10.2650     9.3650     8.9010    23.3960   -12.6900     2.2280 
  121.7500    76.7280     9.9550     9.1120     9.1440    23.4660   -12.4200     2.2470 
  121.8750    80.0970     9.4900     8.7030     8.9230    23.5890   -12.1360     2.2720 
  122.0000    81.4680     8.9460     8.1930     8.1260    23.7790   -11.9010     2.3000 
  122.1250    85.9940     8.4660     7.7000     7.3540    23.9240   -11.8270     2.3220 
  122.2500    92.3260     8.1650     7.3360     7.1610    23.8970   -11.8910     2.3310 
  122.3750    95.8160     8.1020     7.1670     7.4470    23.7210   -12.0140     2.3250 
  122.5000    96.1970     8.2710     7.2200     7.7950    23.5590   -12.1680     2.3040 
  122.6250    93.8230     8.6240     7.4960     7.8620    23.3840   -12.1540     2.2730 
  122.7500    88.6130     9.0310     7.8850     7.8880    23.2660   -12.0450     2.2420 
  122.8750    82.8330     9.4080     8.2960     8.1640    23.3880   -11.8680     2.2170 
  123.0000    79.0910     9.7060     8.6470     8.4940    23.6500   -11.6540     2.2040 
  123.1250    76.3500     9.9060     8.8850     8.5540    23.7600   -11.3810     2.2030 
  123.2500    73.7500    10.0490     9.0440     8.5990    23.7520   -11.1170     2.2060 
  123.3750    73.0550    10.1650     9.1630     8.5950    23.7410   -10.9030     2.2100 
  123.5000    72.5520    10.2770     9.2750     8.4370    23.7380   -10.7500     2.2100 
  123.6250    69.9460    10.3900     9.4020     8.1830    23.6230   -10.7680     2.2040 
  123.7500    68.5140    10.4910     9.5340     8.3180    23.4350   -10.9290     2.1920 
  123.8750    68.9190    10.5500     9.6410     8.5470    23.3210   -11.2370     2.1760 
  124.0000    68.6780    10.5230     9.6780     8.6580    23.3590   -11.5790     2.1610 
  124.1250    67.5420    10.3440     9.5620     8.4600    23.4080   -11.8850     2.1560 
  124.2500    70.4500    10.0210     9.2730     8.1840    23.4220   -12.0970     2.1670 
  124.3750    76.9500     9.5970     8.8370     7.9700    23.4660   -12.2490     2.1940 
  124.5000    82.8530     9.1570     8.3390     7.6790    23.5770   -12.2550     2.2330 
  124.6250    86.9010     8.8350     7.9160     7.2840    23.7820   -12.1920     2.2660 
  124.7500    90.4450     8.6990     7.6510     7.1790    24.0630   -12.1300     2.2810 
  124.8750    90.5420     8.7590     7.5670     7.5230    24.4860   -12.0710     2.2740 
  125.0000    85.7850     8.9720     7.6340     8.8530    25.0190   -12.0220     2.2460 
  125.1250    79.4720     9.2900     7.8120     9.5050    25.4780   -12.0310     2.2050 
  125.2500    75.3160     9.6840     8.0810     9.4740    25.6630   -12.0860     2.1690 
  125.3750    72.4830    10.2040     8.4970     9.4460    25.7170   -12.1270     2.1580 
  125.5000    72.2360    10.9130     9.1210     9.5980    25.7230   -12.2590     2.1860 
  125.6250    75.7750    11.8390    10.0030    10.9400    25.5910   -12.5000     2.2500 
  125.7500    78.2610    12.7890    10.9900    14.7690    25.2470   -12.7740     2.3130 
  125.8750    77.0500    13.5080    11.8410    19.4030    24.9220   -13.0400     2.3410 
  126.0000    73.2170    13.7540    12.2670    16.9870    24.8110   -13.3260     2.3200 
  126.1250    69.8480    13.3840    12.0430    12.6230    24.9460   -13.6080     2.2610 
  126.2500    69.6780    12.6970    11.4320    10.8270    25.0660   -13.9210     2.2010 
  126.3750    70.6340    11.9870    10.7080    10.6900    25.1290   -14.2840     2.1600 
  126.5000    70.7850    11.4840    10.0970    10.7210    25.0190   -14.6500     2.1400 
  126.6250    70.7720    11.3210     9.7470    10.7080    24.7570   -14.9330     2.1330 
  126.7500    72.2480    11.3890     9.6110    10.7050    24.5640   -15.1280     2.1290 
  126.8750    73.7140    11.5980     9.6390    10.6650    24.5570   -15.2770     2.1270 
  127.0000    73.8270    11.8730     9.7950    10.7200    24.6510   -15.3080     2.1300 
  127.1250    74.0780    12.1410    10.0430    10.7730    24.5650   -15.2020     2.1430 
  127.2500    72.6300    12.3270    10.2890    10.9900    24.2780   -14.8830     2.1660 
  127.3750    67.5830    12.3650    10.4520    11.4290    24.0380   -14.3850     2.1910 
  127.5000    61.9500    12.2320    10.4760    12.2100    23.9640   -13.6770     2.2100 
  127.6250    59.5730    11.9620    10.3580    11.9550    24.0020   -12.7670     2.2150 
  127.7500    60.2420    11.6970    10.2150    10.8970    24.0140   -11.8150     2.2100 
  127.8750    61.7850    11.5310    10.1460    10.1690    23.9550   -10.9170     2.1990 
  128.0000    62.3280    11.4760    10.1860    10.1170    23.8530   -10.2520     2.1870 
  128.1250    60.9480    11.4050    10.2520    10.6600    23.8200    -9.8000     2.1810 
  128.2500    59.9710    11.1260    10.1530    11.0170    23.8340    -9.4910     2.1850 
  128.3750    62.6560    10.5250     9.7510    11.1690    23.8340    -9.2880     2.2020 
  128.5000    68.1730     9.6200     9.0300    10.8870    23.8410    -9.1580     2.2260 
  128.6250    72.8540     8.5610     8.0960     9.1040    24.0340    -9.1550     2.2500 
  128.7500    78.0340     7.5750     7.1610     6.9700    24.3620    -9.1790     2.2660 
  128.8750    85.9420     6.7640     6.3320     6.1630    24.6960    -9.1340     2.2780 
  129.0000    93.8510     6.1390     5.6490     6.1780    24.9140    -8.9430     2.2910 
  129.1250    97.1340     5.6690     5.1280     5.8210    24.9470    -8.6430     2.3140 
  129.2500    98.2700     5.2840     4.7300     5.0080    24.9240    -8.3600     2.3430 
  129.3750    98.6550     4.9790     4.4380     4.5270    24.8960    -8.1100     2.3710 
  129.5000    98.1440     4.7710     4.2450     4.4270    24.9090    -7.9350     2.3910 
  129.6250    97.3290     4.6910     4.1650     4.5420    24.8520    -7.7810     2.4010 
  129.7500    98.1230     4.7090     4.1780     4.7660    24.8170    -7.6140     2.4080 
  129.8750   100.5700     4.7950     4.2660     4.9530    24.8080    -7.4660     2.4150 
  130.0000   102.6170     4.9150     4.4020     4.9790    24.8310    -7.3060     2.4280 
  130.1250   103.3910     5.0240     4.5470     5.1310    24.8050    -7.1470     2.4450 
  130.2500   102.4240     5.0800     4.6560     5.2270    24.7620    -6.9660     2.4640 
  130.3750    99.3720     5.0550     4.6960     5.3230    24.7420    -6.7910     2.4780 
  130.5000    96.9330     4.9390     4.6490     5.3490    24.7450    -6.5540     2.4840 
  130.6250    97.4510     4.7550     4.5190     5.1220    24.7230    -6.2500     2.4780 
  130.7500   101.2610     4.5690     4.3610     4.8240    24.5720    -5.9220     2.4660 
  130.8750   104.7350     4.4280     4.2200     4.5140    24.3270    -5.5200     2.4560 
  131.0000   103.8690     4.3620     4.1270     4.4160    24.1630    -5.1120     2.4530 
  131.1250   100.2560     4.3830     4.1020     4.3660    24.1310    -4.6950     2.4600 
  131.2500    97.9350     4.4470     4.1230     4.3540    24.1810    -4.2850     2.4720 
  131.3750    99.7090     4.5100     4.1530     4.3520    24.2190    -3.8650     2.4810 
  131.5000   102.7750     4.5280     4.1500     4.4610    24.1780    -3.5670     2.4840 
  131.6250   102.3170     4.4570     4.0650     4.4410    24.1060    -3.4310     2.4800 
