~V
VERS. 2.00: Ver 2.00
~W
STRT.M 65.0000:
STOP.M 225.0000:
STEP.M 0.1250:
NULL. -999.2500:
UWI. F11012:
~C
DEPT.M :
SP.MV :
GR.API :
RML.OHMM :
RI. :
RXO.OHMM :
CALI.CM :
DEN.GM/CC :
~A
# ...
  188.7500   -15.0560    69.5910    48.5100    45.4650    43.2430    23.4550     2.2780 
  188.8750   -15.0380    67.5920    50.2030    47.6470    47.7140    23.4980     2.2810 
  189.0000   -15.0110    66.8670    50.5840    48.4410    51.3610    23.5320     2.2880 
  189.1250   -15.0210    67.6130    50.3220    48.4460    60.3140    23.6770     2.2990 
  189.2500   -15.0740    66.7360    50.2190    48.3920    65.4160    23.8510     2.3020 
  189.3750   -15.1540    64.8750    50.8590    48.8480    55.8450    23.8930     2.2890 
  189.5000   -15.2660    64.0290    52.5720    50.1950    47.1390    23.9420     2.2680 
  189.6250   -15.3960    62.9530    55.3590    52.5910    53.1240    24.0660     2.2510 
  189.7500   -15.5550    60.8240    58.7430    55.8520    57.1020    24.0750     2.2500 
  189.8750   -15.7330    60.1350    61.5740    58.9740    56.3620    23.9590     2.2580 
  190.0000   -15.9240    62.0130    62.8860    60.9520    55.6970    23.8490     2.2650 
  190.1250   -16.1190    64.8470    62.2560    61.1560    63.1580    23.8410     2.2690 
  190.2500   -16.3250    64.6190    59.9480    59.5660    77.8380    23.9420     2.2720 
  190.3750   -16.5040    63.1570    57.2190    57.3130    83.6680    24.0460     2.2740 
  190.5000   -16.6420    64.4560    54.8420    55.1430    76.3970    24.1060     2.2740 
  190.6250   -16.7500    67.9000    53.0970    53.4210    62.1090    24.2210     2.2700 
  190.7500   -16.8570    70.9460    51.2650    51.5600    51.7210    24.3110     2.2630 
  190.8750   -17.0110    70.5280    48.1060    48.3830    52.6330    24.1580     2.2590 
  191.0000   -17.2370    67.0590    43.2000    43.5180    66.5180    23.6320     2.2620 
  191.1250   -17.4660    63.1960    37.4090    37.8910    74.9700    23.1130     2.2710 
  191.2500   -17.6520    63.5580    32.8050    33.3710    54.3380    22.8370     2.2840 
  191.3750   -17.8340    67.3030    30.9830    31.1160    32.3350    22.6150     2.2960 
  191.5000   -18.0530    70.0200    32.9420    31.8990    24.5950    22.2620     2.3010 
  191.6250   -18.3360    69.4240    39.1420    36.3660    36.3930    21.8900     2.2980 
  191.7500   -18.6640    66.2610    50.1710    45.8280    63.4920    21.7880     2.2830 
  191.8750   -18.9990    62.8700    64.1500    59.3040    87.3070    21.9030     2.2640 
  192.0000   -19.2930    61.0670    78.3430    74.4010    99.2830    22.0760     2.2470 
  192.1250   -19.5650    62.0580    89.0430    86.6450   109.3110    22.1810     2.2390 
  192.2500   -19.8340    61.8820    93.3450    91.7210   110.4660    22.1550     2.2410 
  192.3750   -20.1460    60.0500    93.9010    92.2020   109.8940    22.1250     2.2460 
  192.5000   -20.4950    60.0410    92.8990    90.6820   111.1150    22.0970     2.2470 
  192.6250   -20.8490    61.4880    91.3390    88.3990   108.2530    22.0650     2.2420 
  192.7500   -21.1630    62.5410    89.9910    86.1340   103.7510    22.0270     2.2340 
  192.8750   -21.4180    63.7350    89.8970    84.8710    98.6420    22.1210     2.2290 
  193.0000   -21.6510    65.7460    92.1150    85.5680    94.4530    22.2260     2.2290 
  193.1250   -21.9200    66.7710    97.5810    89.1500    87.8300    22.3100     2.2340 
  193.2500   -22.2060    64.6490   107.4500    96.9390    90.8110    22.5670     2.2390 
  193.3750   -22.3910    59.6610   120.4000   107.9960   106.8940    23.1100     2.2300 
  193.5000   -22.4620    53.5370   133.9760   120.3420   129.5500    23.9530     2.2110 
  193.6250   -22.4410    51.9270   143.9070   130.3430   152.6110    24.5720     2.1940 
  193.7500   -22.4040    56.3270   144.2170   132.6120   164.3930    24.7660     2.1910 
  193.8750   -22.3840    58.8660   136.2100   127.2910   170.8710    24.7720     2.1980 
  194.0000   -22.3420    57.1460   124.1350   117.3730   164.5530    24.7350     2.2100 
  194.1250   -22.2360    55.8840   112.6760   107.0020   141.5840    24.6470     2.2250 
  194.2500   -22.1100    59.9800   105.3470    99.8110   117.1100    24.5580     2.2380 
  194.3750   -22.0700    63.5700   102.1840    96.3910   100.3440    24.5090     2.2450 
  194.5000   -22.0700    61.5550   102.6670    96.4810   102.7520    24.5070     2.2480 
  194.6250   -22.0620    54.8800   105.8560    99.3170   110.0070    24.5200     2.2470 
  194.7500   -22.0170    50.6200   110.6200   103.9320   113.5870    24.5360     2.2380 
  194.8750   -21.9710    51.9200   115.3610   108.7110   117.7680    24.5400     2.2210 
  195.0000   -21.9900    55.8360   119.2150   112.6910   124.9630    24.5460     2.2020 
  195.1250   -22.0890    60.3870   121.8450   115.3990   133.1620    24.5510     2.1890 
  195.2500   -22.2250    65.1670   123.1750   116.6370   137.0660    24.5540     2.1880 
  195.3750   -22.3460    67.5510   123.6410   116.8410   136.3830    24.5480     2.1930 
  195.5000   -22.4990    65.7870   123.5280   116.3030   133.9180    24.5180     2.2030 
  195.6250   -22.7140    61.4610   123.2530   115.4500   132.6110    24.4380     2.2150 
  195.7500   -22.9870    59.7210   123.5210   114.9830   133.8960    24.3750     2.2270 
  195.8750   -23.2760    58.7270   124.9270   115.5460   136.5960    24.3120     2.2370 
  196.0000   -23.5520    56.0500   127.9880   117.6980   141.6020    24.2630     2.2430 
  196.1250   -23.8030    54.7220   133.0730   121.8750   146.5790    24.2620     2.2450 
  196.2500   -24.0920    59.1530   140.5680   128.6170   154.6020    24.1500     2.2420 
  196.3750   -24.4290    63.9760   149.3180   136.9690   170.8310    23.9050     2.2410 
  196.5000   -24.7670    65.1670   157.2420   145.1820   183.5790    23.6290     2.2460 
  196.6250   -25.0870    63.6520   160.8590   150.2270   183.6640    23.4980     2.2520 
  196.7500   -25.3880    62.0940   154.9620   147.3440   186.9100    23.5000     2.2510 
  196.8750   -25.6830    61.3020   140.5370   136.5040   188.3060    23.4380     2.2450 
  197.0000   -25.9600    60.4950   121.1550   120.0110   159.7350    23.3290     2.2430 
  197.1250   -26.1940    59.7160   101.5770   101.9420   115.7880    23.2740     2.2480 
  197.2500   -26.2880    60.5910    85.9790    86.6170    86.1150    23.2720     2.2540 
  197.3750   -26.2410    63.5200    74.7730    75.2510    74.5090    23.2480     2.2550 
  197.5000   -26.0800    65.5890    67.3690    67.5670    67.4020    23.1990     2.2540 
  197.6250   -25.8300    63.7780    62.7640    62.6750    63.0100    23.2300     2.2540 
  197.7500   -25.5110    61.2970    60.2870    59.9180    63.8110    23.3510     2.2550 
  197.8750   -25.1240    61.1730    59.1820    58.4750    63.6760    23.3260     2.2610 
  198.0000   -24.6770    63.4900    59.5940    58.3810    58.3820    23.1550     2.2730 
  198.1250   -24.2150    65.1390    62.0370    60.0450    50.5220    23.0200     2.2870 
  198.2500   -23.7720    64.2130    67.7590    64.6430    48.9500    22.9510     2.2950 
  198.3750   -23.3010    62.4950    76.9950    72.5350    59.8850    22.8440     2.2950 
  198.5000   -22.8350    61.2720    89.9950    83.9870    85.1560    22.6450     2.2900 
  198.6250   -22.4240    60.9230   106.2910    98.3730   121.5060    22.5630     2.2890 
  198.7500   -22.0470    60.8370   124.1050   113.6340   132.3130    22.7700     2.2950 
  198.8750   -21.6770    61.0530   140.1130   126.7590   126.0360    23.1470     2.2990 
  199.0000   -21.2700    61.1820   152.2620   136.1930   127.4490    23.5630     2.2890 
  199.1250   -20.7900    61.4860   160.4870   142.1680   135.9380    24.0220     2.2680 
  199.2500   -20.3040    62.7480   165.9390   145.8420   166.2380    24.1930     2.2530 
  199.3750   -19.9160    63.4620   170.2200   148.6680   181.8230    24.2390     2.2480 
  199.5000   -19.6230    63.0190   173.6930   151.0190   185.7270    24.2190     2.2480 
  199.6250   -19.3650    61.7230   176.5730   153.0930   183.1940    23.9940     2.2480 
  199.7500   -19.1210    59.7640   178.8080   154.8630   186.6030    23.4150     2.2470 
  199.8750   -18.8780    56.8280   179.9570   155.9770   185.4160    22.9610     2.2500 
