~V
VERS. 2.00: Ver 2.00
~W
STRT.M 62.0000:
STOP.M 273.0000:
STEP.M 0.1250:
NULL. -999.2500:
UWI. F11050:
~C
DEPT.M :
SP.MV :
GR.API :
RML.OHMM :
RI. :
RXO.OHMM :
CALI.CM :
DEN.GM/CC :
~A
# ...
  264.5000    -6.1380    57.3680     8.5550     6.8370     6.8870    24.6640     2.4480 
  264.6250    -6.2760    57.3680     8.4030     6.7210     6.9590    24.8250     2.4160 
  264.7500    -6.3950    57.3680     8.2290     6.5780     6.5320    25.1760     2.3750 
  264.8750    -6.5020    57.3680     8.0590     6.4360     5.9910    25.3620     2.3440 
  265.0000    -6.6170    57.3680     7.9150     6.3200     5.8080    25.0980     2.3400 
  265.1250    -6.7360    57.3680     7.8200     6.2470     5.9630    24.5200     2.3660 
  265.2500    -6.8170    57.3680     7.7830     6.2140     5.9720    24.0730     2.4020 
  265.3750    -6.8460    57.3680     7.8030     6.2240     5.8400    23.9500     2.4290 
  265.5000    -6.8030    57.3680     7.8650     6.2720     5.7100    24.2110     2.4350 
  265.6250    -6.7150    57.3680     7.9370     6.3480     5.6670    24.6090     2.4210 
  265.7500    -6.6790    57.3680     7.9850     6.4200     5.8820    24.6820     2.4040 
  265.8750    -6.6940    57.3680     7.9970     6.4690     6.4300    24.6620     2.3940 
  266.0000    -6.6840    57.3680     7.9700     6.4870     6.9680    24.7320     2.3960 
  266.1250    -6.6010    57.3680     7.9230     6.4820     6.1760    24.8390     2.4020 
  266.2500    -6.5210    57.3680     7.8830     6.4720     5.8230    24.8500     2.4030 
  266.3750    -6.5180    57.3680     7.8660     6.4640     5.7760    24.8030     2.3990 
  266.5000    -6.5950    57.3680     7.8690     6.4530     5.8180    24.7820     2.3900 
  266.6250    -6.6810    57.3680     7.8670     6.4340     5.8750    24.8480     2.3760 
  266.7500    -6.7160    57.3680     7.8420     6.4110     5.8980    24.8780     2.3610 
  266.8750    -6.7320    57.3680     7.7970     6.3860     5.8710    24.8040     2.3570 
  267.0000    -6.8060    57.3680     7.7480     6.3600     5.8720    24.7160     2.3640 
  267.1250    -6.9260    57.3680     7.7100     6.3300     5.8990    24.6870     2.3700 
  267.2500    -6.9870    57.3680     7.6870     6.3000     5.8940    24.7110     2.3680 
  267.3750    -6.9480    57.3680     7.6770     6.2750     5.9750    24.7390     2.3700 
  267.5000    -6.8820    57.3680     7.6750     6.2600     6.3690    24.7350     2.3840 
  267.6250    -6.8490    57.3680     7.6800     6.2570     7.7480    24.7630     2.4030 
  267.7500    -6.8290    57.3680     7.6880     6.2590     9.9580    24.8100     2.4070 
  267.8750    -6.8310    57.3680     7.6990     6.2600    11.7140    24.8610     2.3920 
  268.0000    -6.8300    57.3680     7.7200     6.2590    11.7950    24.8460     2.3690 
  268.1250    -6.8020    57.3680     7.7630     6.2570    10.6980    24.7740     2.3540 
  268.2500    -6.7800    57.3680     7.8210     6.2560     8.2760    24.7590     2.3450 
  268.3750    -6.7940    57.3680     7.8710     6.2550     6.3800    24.7400     2.3380 
  268.5000    -6.8330    57.3680     7.8940     6.2540     5.7700    24.6770     2.3350 
  268.6250    -6.9190    57.3680     7.8850     6.2540     6.1150    24.6360     2.3310 
  268.7500    -7.0030    57.3680     7.8370     6.2510     6.4840    24.8140     2.3220 
  268.8750    -6.9990    57.3680     7.6430     6.6890     6.8320    25.2610     2.3090 
  269.0000    -6.9770    57.3680     7.5910     6.8350     6.9390    25.6900     2.2910 
  269.1250    -7.0020    57.3680     7.5910     6.8350     6.7810    25.8450     2.2700 
  269.2500    -7.0420    57.3680     7.5910     6.8350     6.4830    25.7080     2.2610 
  269.3750    -7.0640    57.3680     7.5910     6.8350     6.1690    25.5350     2.2820 
  269.5000    -7.1140    57.3680     7.5910     6.8350     5.9410    25.4000     2.3330 
  269.6250    -7.1410    57.3680     7.5910     6.8350     5.8660    25.1730     2.3800 
  269.7500    -7.1550    57.3680     7.5910     6.8350     5.8310    25.2200     2.3980 
  269.8750    -7.2200    57.3680     7.5910     6.8350     5.8050    25.4060     2.3930 
  270.0000    -7.2820    57.3680     7.5910     6.8350     5.6830    25.4280     2.3810 
  270.1250    -7.3040    57.3680     7.5910     6.8350     5.6040    25.2770     2.3700 
  270.2500    -7.3320    57.3680     7.5910     6.8350     5.5720    25.1400     2.3660 
  270.3750    -7.4150    57.3680     7.5910     6.8350     5.7280    25.0190     2.3760 
  270.5000    -7.4490    57.3680     7.5910     6.8350     5.9810    25.0000     2.3940 
  270.6250    -7.4520    57.3680     7.5910     6.8350     6.2400    25.1550     2.4110 
  270.7500    -7.4750    57.3680     7.5910     6.8350     6.4260    25.2680     2.4200 
  270.8750    -7.4810    57.3680     7.5910     6.8350     6.6530    25.2400     2.4150 
  271.0000    -7.4460    57.3680     7.5910     6.8350     6.7410    25.0040     2.3980 
  271.1250    -7.4290    57.3680     7.5910     6.8350     6.7560    24.6990     2.3880 
  271.2500    -7.4660    57.3680     7.5910     6.8350     6.8330    24.5370     2.3940 
  271.3750    -7.4580    57.3680     7.5910     6.8350     7.1440    24.6040     2.4070 
  271.5000    -7.4740    57.3680     7.5910     6.8350     7.3310    24.8810     2.4110 
  271.6250    -7.5080    57.3680     7.5910     6.8350     6.8000    25.1960     2.3930 
  271.7500    -7.5120    57.3680     7.5910     6.8350     6.2160    25.2860     2.3510 
  271.8750    -7.5020    57.3680     7.5910     6.8350     6.0010    24.7970     2.2910 
  272.0000    -7.5070    57.3680     7.5910     6.8350     5.9130    23.5960     2.2350 
  272.1250    -7.5200    57.3680     7.5910     6.8350     6.0320    22.4370     2.2020 
  272.2500    -7.4970    57.3680     7.5910     6.8350     6.0830    21.9720     2.1900 
  272.3750    -7.5420    57.3680     7.5910     6.8350     6.1130    21.8710     2.1900 
  272.5000    -7.5710    57.3680     7.5910     6.8350     6.0950    21.8860     2.1930 
  272.6250    -7.5580    57.3680     7.5910     6.8350     6.0770    21.9350     2.1930 
  272.7500    -7.5940    57.3680     7.5910     6.8350     6.0840    21.9310     2.1910 
  272.8750    -7.6120    57.3680     7.5910     6.8350     6.0890    21.9270     2.1830 
  273.0000    -7.6720    57.3680     7.5910     6.8350     6.1050    21.9000     2.1810 
