~V
VERS. 2.00: Ver 2.00
~W
STRT.M 51.0000:
STOP.M 252.0000:
STEP.M 0.1250:
NULL. -999.2500:
UWI. F11020:
~C
DEPT.M :
DEN.GM/CC :
GR.API :
RML.OHMM :
RI. :
RXO.OHMM :
CALI.CM :
SP.MV :
~A
# ...
  231.0000     2.3970    77.8880    20.6810    20.3720    26.0670    25.0750   -22.1780 
  231.1250     2.4140    78.3330    19.7710    19.7260    22.4560    25.0760   -21.5720 
  231.2500     2.4180    76.3360    18.6510    18.8610    20.1590    25.1020   -21.0710 
  231.3750     2.4090    74.6380    17.5800    17.9820    19.2310    25.1420   -20.6050 
  231.5000     2.3910    73.7800    16.7800    17.2800    18.5350    25.1650   -20.2040 
  231.6250     2.3730    71.9410    16.4220    16.9310    17.1070    25.1460   -19.8800 
  231.7500     2.3680    69.8810    16.6030    17.0550    15.9420    25.0940   -19.6510 
  231.8750     2.3780    71.3390    17.1960    17.5710    16.9440    25.0700   -19.4710 
  232.0000     2.3940    75.0440    18.0580    18.3700    20.2710    25.0640   -19.3260 
  232.1250     2.3960    75.5760    18.9820    19.2810    23.3860    25.0640   -19.2160 
  232.2500     2.3690    71.3870    19.7640    20.1120    23.5250    25.0560   -19.1510 
  232.3750     2.3340    68.3350    20.3640    20.7900    22.1370    25.0120   -19.1440 
  232.5000     2.3160    68.0900    20.8410    21.3480    21.9990    24.9560   -19.1590 
  232.6250     2.3160    68.8220    21.2820    21.8490    22.9420    24.9710   -19.1810 
  232.7500     2.3250    69.7650    21.7410    22.3390    24.0570    24.9710   -19.2000 
  232.8750     2.3330    70.7450    22.2020    22.8140    25.6780    24.8330   -19.2180 
  233.0000     2.3410    71.8120    22.6440    23.2540    26.0640    24.6860   -19.2240 
  233.1250     2.3500    73.7990    23.1030    23.6870    23.5600    24.6530   -19.2110 
  233.2500     2.3610    76.5220    23.6370    24.1770    21.9360    24.7630   -19.1300 
  233.3750     2.3730    78.0660    24.1550    24.6690    23.0620    24.8870   -19.0000 
  233.5000     2.3840    78.1810    24.4420    24.9750    26.1240    24.9490   -18.7960 
  233.6250     2.3900    79.0000    24.2830    24.8770    29.0020    24.9730   -18.5710 
  233.7500     2.3880    80.4190    23.6270    24.2890    28.9670    24.9840   -18.3150 
  233.8750     2.3780    80.2230    22.8110    23.4980    25.7040    25.0170   -18.0560 
  234.0000     2.3600    78.2240    22.2190    22.8570    22.2130    25.0870   -17.8210 
  234.1250     2.3420    75.0980    22.1810    22.6800    22.4340    25.1660   -17.5870 
  234.2500     2.3260    71.8360    22.8440    23.1480    26.1470    25.1980   -17.3850 
  234.3750     2.3160    68.4240    23.9730    24.0990    30.0640    25.2020   -17.1950 
  234.5000     2.3150    65.5620    25.3290    25.3520    32.6170    25.1940   -17.0460 
  234.6250     2.3200    63.3400    26.7080    26.7190    32.5880    25.1770   -16.8900 
  234.7500     2.3190    61.8370    28.0480    28.1110    31.6510    25.1610   -16.7460 
  234.8750     2.3050    61.3720    29.4470    29.5660    31.3260    25.1770   -16.6120 
  235.0000     2.2850    60.8810    30.9730    31.1320    33.4710    25.2160   -16.4650 
  235.1250     2.2640    58.5220    32.5210    32.7240    39.1070    25.2580   -16.3070 
  235.2500     2.2490    54.2150    33.7630    34.0510    44.2550    25.2730   -16.1420 
  235.3750     2.2340    50.4990    34.3730    34.7810    44.4070    25.2760   -15.9660 
  235.5000     2.2190    49.3300    34.1630    34.6930    42.4370    25.2690   -15.7830 
  235.6250     2.2190    50.7130    33.1800    33.7820    42.7760    25.2470   -15.6010 
  235.7500     2.2440    54.1250    31.6770    32.2680    43.5310    25.2070   -15.4230 
  235.8750     2.2750    57.3900    30.0350    30.5620    39.6250    25.1810   -15.2500 
  236.0000     2.2890    58.1240    28.4540    28.8940    33.7880    25.1640   -15.0680 
  236.1250     2.2900    57.1110    27.1140    27.4590    31.7930    25.1200   -14.8690 
  236.2500     2.2950    56.2480    26.2440    26.4800    33.3020    25.0150   -14.6320 
  236.3750     2.3010    56.8420    25.9590    26.0560    33.9580    24.8650   -14.4030 
  236.5000     2.2980    58.4190    26.3390    26.2740    31.7040    24.7540   -14.1540 
  236.6250     2.2820    58.8490    27.3230    27.1410    30.7680    24.7330   -13.9120 
  236.7500     2.2650    58.1120    28.6360    28.5130    33.4830    24.8000   -13.6290 
  236.8750     2.2550    57.5900    29.8370    29.9500    36.6100    24.9160   -13.2700 
  237.0000     2.2570    57.4330    30.6250    31.0560    38.7010    25.0460   -12.8630 
  237.1250     2.2690    56.3770    30.7460    31.4440    38.1300    25.1360   -12.4460 
  237.2500     2.2940    54.6950    29.9150    30.7580    34.2540    25.1510   -11.9760 
  237.3750     2.3320    54.4430    28.1060    29.0110    31.4130    25.1650   -11.4390 
  237.5000     2.3780    55.1030    25.3170    26.2560    30.9620    25.2120   -10.8820 
  237.6250     2.4250    55.6220    21.7500    22.7260    30.3630    25.2200   -10.2690 
  237.7500     2.4680    56.2980    17.8720    18.8850    30.6500    25.1760    -9.6290 
  237.8750     2.4890    56.7430    14.3310    15.3390    34.5000    25.1630    -9.0680 
  238.0000     2.4740    56.0480    11.4840    12.4350    31.8200    25.2200    -8.5400 
  238.1250     2.4290    54.8180     9.4850    10.3180    18.4230    25.2750    -8.0410 
  238.2500     2.3780    54.3780     8.3390     9.0090     9.2280    25.2550    -7.6830 
  238.3750     2.3360    54.6050     7.7490     8.2610     6.4950    25.2220    -7.4410 
  238.5000     2.3130    55.2290     7.5130     7.9140     5.8730    25.2150    -7.2500 
  238.6250     2.3150    57.0620     7.4580     7.8140     5.6170    25.2050    -7.1570 
  238.7500     2.3400    58.9480     7.4620     7.8270     5.5320    25.2030    -7.1730 
  238.8750     2.3700    59.2090     7.4630     7.8550     5.2920    25.2000    -7.1830 
  239.0000     2.3910    58.2630     7.4510     7.8670     5.0790    25.1970    -7.2380 
  239.1250     2.3980    57.2950     7.4250     7.8530     4.9380    25.1980    -7.3360 
  239.2500     2.3940    57.1250     7.3890     7.8060     4.9080    25.2170    -7.3840 
  239.3750     2.3810    57.2350     7.3670     7.7420     5.0290    25.2160    -7.3970 
  239.5000     2.3620    58.1660     7.3920     7.6850     5.3530    25.1560    -7.4080 
  239.6250     2.3410    60.1420     7.4970     7.6740     5.6230    25.0730    -7.3900 
  239.7500     2.3270    61.7600     7.7160     7.7560     5.9350    25.0270    -7.3610 
  239.8750     2.3330    61.9430     8.0420     7.9400     6.6670    25.0380    -7.3420 
  240.0000     2.3570    61.1030     8.4640     8.2220     8.1340    25.0860    -7.3030 
  240.1250     2.3890    60.6180     8.9480     8.5700    10.0350    25.1210    -7.2430 
  240.2500     2.4200    60.4100     9.4370     8.9350    10.7700    25.1310    -7.1680 
  240.3750     2.4450    58.8180     9.8750     9.2670    11.1410    25.1310    -7.0830 
  240.5000     2.4670    56.6590    10.2440     9.5490    11.7140    25.1300    -6.9920 
  240.6250     2.4840    55.9240    10.5830     9.8080    12.1130    25.1290    -6.8790 
  240.7500     2.4950    57.3070    10.9830    10.1050    12.2990    25.1290    -6.7280 
  240.8750     2.5020    58.8520    11.4930    10.4740    12.5530    25.1290    -6.5840 
  241.0000     2.5070    59.6050    12.0710    10.8880    13.5880    25.1280    -6.4640 
  241.1250     2.5130    59.2910    12.5750    11.2490    14.7370    25.1280    -6.3800 
  241.2500     2.5220    58.3000    12.7880    11.4050    15.7580    25.1280    -6.3300 
  241.3750     2.5310    57.5170    12.6300    11.2910    16.2340    25.1280    -6.2940 
  241.5000     2.5250    57.5170    12.1650    10.9480    15.3890    25.1280    -6.2930 
  241.6250     2.5050    57.5170    11.5990    10.5160    13.8420    25.1280    -6.3370 
  241.7500     2.4860    57.5170    11.1950    10.1830    12.4780    25.1280    -6.4040 
  241.8750     2.4810    57.5170    11.0860    10.0600    11.8780    25.1280    -6.4470 
  242.0000     2.4840    57.5170    11.2770    10.1680    11.7500    25.1280    -6.4870 
  242.1250     2.4860    57.5170    11.6680    10.4590    11.8450    25.1280    -6.5220 
