~V
VERS. 2.00: Ver 2.00
~W
STRT.M 50.0000:
STOP.M 220.0000:
STEP.M 0.1250:
NULL. -999.2500:
UWI. F11004:
~C
DEPT.M :
SP.MV :
GR.API :
RML.OHMM :
RI. :
RXO.OHMM :
CALI.CM :
DEN.GM/CC :
~A
   50.0000  -999.2500    48.2200     0.4080     0.3000     1.2190    25.3250  -999.2500 
   50.1250  -999.2500    45.1700     0.7370     0.3100     1.1790    25.3150  -999.2500 
   50.2500    40.2890    39.5910     1.2120     0.3370     1.1350    25.3040     0.0000 
   50.3750    40.2890    37.6120     1.7810     0.3760     1.1450    25.3020     0.0000 
   50.5000    58.2010    41.0660     2.1670     0.4100     1.1740    25.3060     1.8060 
   50.6250    58.1400    45.0510     2.1480     0.4290     1.2040    25.3040     1.8010 
   50.7500    58.1570    45.7300     1.9000     0.4300     1.2540    25.3020     1.7990 
   50.8750    58.2720    43.3570     1.7190     0.4170     1.2930    25.3070     1.8020 
   51.0000    58.5130    41.4050     1.7700     0.3970     1.2690    25.3090     1.8090 
   51.1250    58.8650    40.3520     2.0310     0.3780     1.2510    25.3000     1.8180 
   51.2500    59.3490    40.1640     2.4220     0.3660     1.3290    25.2920     1.8200 
   51.3750    60.0130    40.2560     2.7410     0.3650     1.4200    25.2950     1.8130 
   51.5000    60.8370    40.9680     2.7030     0.3730     1.3260    25.3010     1.7930 
   51.6250    61.7310    40.8830     2.4560     0.3780     1.1760    25.3070     1.7690 
   51.7500    62.6940    38.2730     2.2520     0.3780     1.0850    25.3070     1.7460 
   51.8750    63.7730    34.7800     2.2020     0.3770     1.1480    25.3020     1.7270 
   52.0000    64.9780    33.9540     2.2810     0.3860     1.7820    25.2990     1.7120 
   52.1250    66.1660    35.6950     2.3690     0.4030     2.9160    25.2950     1.6990 
   52.2500    67.2180    39.3520     2.4100     0.4200     2.8250    25.2870     1.6940 
   52.3750    68.0710    45.1500     2.4080     0.4310     1.9760    25.2840     1.7000 
   52.5000    68.6580    49.2720     2.3950     0.4300     2.1030    25.2860     1.7180 
   52.6250    69.0580    47.5020     2.3560     0.4190     3.7140    25.2690     1.7400 
   52.7500    69.2930    42.2270     2.2150     0.4030     6.9270    25.2310     1.7600 
   52.8750    69.3480    40.0370     1.9210     0.3860     6.7570    25.1950     1.7740 
   53.0000    69.2060    42.4000     1.5780     0.3740     4.8810    25.1750     1.7860 
   53.1250    69.0100    43.1110     1.3530     0.3690     4.0370    25.1650     1.8020 
   53.2500    68.8180    40.4730     1.3050     0.3710     3.0990    25.1360     1.8230 
   53.3750    68.6720    36.6550     1.4310     0.3750     2.1950    25.0560     1.8450 
   53.5000    68.6570    34.8560     1.7040     0.3790     1.7270    24.9110     1.8610 
   53.6250    68.7760    35.2340     2.0080     0.3900     1.6130    24.7170     1.8700 
   53.7500    69.0370    36.0170     2.2510     0.4100     1.6730    24.5150     1.8730 
   53.8750    69.4050    35.5480     2.4000     0.4340     1.7240    24.3600     1.8710 
   54.0000    69.8690    34.9060     2.4980     0.4490     1.6920    24.2900     1.8660 
   54.1250    70.4040    35.7850     2.5890     0.4520     1.6080    24.2710     1.8610 
   54.2500    71.0070    38.5020     2.6600     0.4480     1.5200    24.2700     1.8570 
   54.3750    71.6710    40.3240     2.7090     0.4420     1.4600    24.2860     1.8590 
   54.5000    72.4150    40.4370     2.7610     0.4310     1.4230    24.3090     1.8670 
   54.6250    73.1330    40.6990     2.8120     0.4200     1.3680    24.3180     1.8790 
   54.7500    73.6720    42.2270     2.8180     0.4100     1.2910    24.3100     1.8930 
   54.8750    73.9360    43.5080     2.7480     0.4080     1.2680    24.2870     1.9040 
   55.0000    73.8650    41.8940     2.6270     0.4180     1.4080    24.2710     1.9050 
   55.1250    73.4910    40.5660     2.5030     0.4300     1.6510    24.2780     1.8980 
   55.2500    72.8060    41.8070     2.3700     0.4370     1.8740    24.2870     1.8880 
   55.3750    71.7760    43.7860     2.1820     0.4330     1.9730    24.3030     1.8780 
   55.5000    70.3160    45.1610     1.9340     0.4190     1.9330    24.3360     1.8690 
   55.6250    68.5730    46.6530     1.7360     0.4000     1.7830    24.3660     1.8620 
   55.7500    66.5950    48.2100     1.6770     0.3810     1.5800    24.3910     1.8600 
   55.8750    64.4350    48.9250     1.7520     0.3680     1.4420    24.4400     1.8650 
   56.0000    62.0210    49.4290     1.7650     0.3690     1.4480    24.5330     1.8790 
   56.1250    59.3420    50.0590     1.4970     0.3790     1.5550    24.6110     1.9030 
   56.2500    56.3290    49.9420     1.0250     0.3860     1.7800    24.6850     1.9370 
   56.3750    52.9070    49.0000     0.5700     0.3820     2.2730    24.8460     1.9860 
   56.5000    48.9380    48.2680     0.2140     0.3550     3.3020    25.0780     2.0560 
   56.6250    44.3710    47.1940    -0.0730     0.3010     4.4130    25.2480     2.1410 
   56.7500    39.1320    45.6330    -0.2760     0.2270     5.0690    25.3390     2.2350 
   56.8750    33.1690    44.0700    -0.3920     0.1470     4.9890    25.4010     2.3270 
   57.0000    26.3130    44.1810    -0.4340     0.0890     4.3680    25.3790     2.3760 
   57.1250    18.7930    45.9500    -0.4340     0.0650     3.7710    25.1930     2.3500 
   57.2500    10.8830    48.1350    -0.3810     0.0940     3.6510    24.8320     2.2540 
   57.3750     3.0130    49.8340    -0.2300     0.2030     4.1530    24.3480     2.1260 
   57.5000    -4.2980    52.2550     0.1370     0.4600     5.1790    23.8910     2.0160 
   57.6250   -10.8750    54.5400     0.7630     0.9010     5.9220    23.6680     1.9420 
   57.7500   -16.4740    55.2300     1.5660     1.5220     5.9390    23.8250     1.8990 
   57.8750   -20.8330    56.4360     2.2360     2.1980     5.6440    24.4030     1.8880 
   58.0000   -23.4680    59.7800     2.4560     2.7140     5.4800    25.3810     1.9230 
   58.1250   -24.6380    62.5630     2.4740     3.0670     5.2120    26.8890     1.9900 
   58.2500   -24.5860    62.2370     2.5210     3.3500     4.8370    28.4830     2.0630 
   58.3750   -23.6580    60.1010     2.6680     3.6330     4.6710    28.7960     2.1220 
   58.5000   -22.2700    61.8340     2.8890     3.9380     5.2920    26.9200     2.1690 
   58.6250   -20.7400    69.5920     3.1450     4.2640     6.5400    24.6490     2.2150 
   58.7500   -19.1770    80.3660     3.4410     4.6260     7.5990    23.4080     2.2560 
   58.8750   -17.7420    86.6780     3.7800     5.0280     7.7620    23.1750     2.2900 
   59.0000   -16.5780    85.3900     4.1360     5.4470     7.4710    23.2280     2.3160 
   59.1250   -15.6880    84.6090     4.4360     5.8010     7.7400    23.3010     2.3380 
   59.2500   -14.9770    87.9940     4.5890     5.9870     8.1630    23.2770     2.3550 
   59.3750   -14.3900    96.3580     4.5270     5.9200     7.5030    23.2180     2.3600 
   59.5000   -13.8820   109.9780     4.2500     5.5840     5.8360    23.3340     2.3540 
   59.6250   -13.3920   120.8590     3.9190     5.1510     4.6200    23.5350     2.3480 
   59.7500   -12.9150   120.5450     3.6580     4.7560     4.1840    23.6380     2.3470 
   59.8750   -12.4730   111.0000     3.5360     4.4880     4.1640    23.6870     2.3450 
   60.0000   -12.0990   104.1410     3.5790     4.3950     4.1970    23.8970     2.3330 
   60.1250   -11.8310   104.1960     3.6970     4.4090     4.2530    24.1930     2.3130 
   60.2500   -11.6690   106.8940     3.8110     4.4560     4.2980    24.4040     2.2980 
   60.3750   -11.6050   109.3220     3.8560     4.4720     4.2670    24.4790     2.2990 
   60.5000   -11.6610   112.9320     3.7840     4.4020     4.2050    24.4870     2.3160 
   60.6250   -11.8030   116.2210     3.6270     4.2470     4.1950    24.4890     2.3340 
   60.7500   -12.0270   115.5770     3.4400     4.0370     4.1900    24.4880     2.3420 
   60.8750   -12.3240   112.6950     3.3180     3.8490     4.1390    24.4950     2.3410 
   61.0000   -12.7620   113.1470     3.4520     3.8490     4.1110    24.5100     2.3450 
   61.1250   -13.2330   113.7750     4.0300     4.1900     4.7370    24.5150     2.3750 
