~V
VERS. 2.00: Ver 2.00
~W
STRT.M 55.0000:
STOP.M 283.0000:
STEP.M 0.1250:
NULL. -999.2500:
UWI. F11062:
~C
DEPT.M :
SP.MV :
GR.API :
RML.OHMM :
RI. :
RXO.OHMM :
CALI.CM :
DEN.GM/CC :
~A
# ...
  122.5000    -4.3870    80.3680     5.8170     4.8380     5.6960    23.6210     2.3070 
  122.6250    -4.1590    82.6840     5.9590     4.8870     5.3900    23.6700     2.3410 
  122.7500    -3.9650    85.8840     6.4590     5.2010     5.6640    23.7100     2.3840 
  122.8750    -3.8430    87.9400     7.1480     5.6980     6.5360    23.7170     2.4260 
  123.0000    -3.8290    85.4090     7.7650     6.2140     8.0820    23.6920     2.4500 
  123.1250    -3.8880    79.0610     7.9850     6.5050    10.7050    23.6590     2.4390 
  123.2500    -3.9800    75.6030     7.7670     6.4760    12.6310    23.6190     2.3980 
  123.3750    -4.0770    76.2530     7.2400     6.1710    10.5330    23.5640     2.3450 
  123.5000    -4.1800    77.4370     6.6560     5.7540     7.0850    23.4830     2.2970 
  123.6250    -4.2420    77.1390     6.2800     5.4320     6.1780    23.3600     2.2660 
  123.7500    -4.2860    78.1620     6.1450     5.2750     6.2730    23.2150     2.2480 
  123.8750    -4.3290    79.4800     6.1880     5.2650     6.5160    23.0880     2.2410 
  124.0000    -4.3300    78.4940     6.3010     5.3350     6.4990    23.0560     2.2400 
  124.1250    -4.3110    76.1770     6.3750     5.4020     6.3220    23.2800     2.2430 
  124.2500    -4.2530    74.7860     6.3670     5.4180     6.1540    23.6200     2.2480 
  124.3750    -4.1890    74.8760     6.2880     5.3790     6.0910    23.8450     2.2550 
  124.5000    -4.1200    74.7810     6.1710     5.3070     6.1580    23.9050     2.2610 
  124.6250    -4.1030    74.7940     6.0590     5.2320     6.1470    23.9320     2.2620 
  124.7500    -4.1160    76.4870     5.9930     5.1860     5.9400    23.9730     2.2560 
  124.8750    -4.1240    77.2920     6.0030     5.1920     5.8460    23.9860     2.2470 
  125.0000    -4.1170    74.9980     6.1170     5.2730     5.9880    23.9500     2.2420 
  125.1250    -4.0690    72.2190     6.3710     5.4650     6.2050    23.8860     2.2560 
  125.2500    -4.0310    74.9950     6.7220     5.7480     6.5230    23.8800     2.2900 
  125.3750    -4.0190    81.5790     7.0960     6.0760     6.9090    23.9170     2.3360 
  125.5000    -4.0170    83.1720     7.3880     6.3680     7.2640    23.9740     2.3780 
  125.6250    -4.0040    78.9340     7.4640     6.5130     7.9290    24.0480     2.3940 
  125.7500    -3.9520    76.6520     7.3410     6.4980     8.8190    24.1080     2.3880 
  125.8750    -3.9130    77.7760     7.0970     6.3630     8.6280    24.1540     2.3750 
  126.0000    -3.9170    78.9860     6.8530     6.1940     7.1830    24.1850     2.3670 
  126.1250    -3.9920    79.1550     6.7220     6.0780     6.5720    24.1620     2.3700 
  126.2500    -4.0990    78.1430     6.6860     6.0240     6.7390    24.0920     2.3700 
  126.3750    -4.1860    74.7270     6.6700     5.9900     7.3950    24.0050     2.3590 
  126.5000    -4.2680    68.8510     6.5920     5.9160     8.0120    23.9600     2.3410 
  126.6250    -4.3120    64.4130     6.3920     5.7470     6.9130    23.9590     2.3280 
  126.7500    -4.3860    64.6070     6.1160     5.5080     6.3100    23.9620     2.3270 
  126.8750    -4.4690    67.9740     5.8280     5.2450     6.0880    23.9430     2.3350 
  127.0000    -4.5460    70.4690     5.5860     5.0090     5.8980    23.9160     2.3450 
  127.1250    -4.6170    70.6890     5.4500     4.8590     5.7970    23.8800     2.3480 
  127.2500    -4.7250    72.7570     5.4370     4.8150     5.6990    23.8360     2.3460 
  127.3750    -4.8690    76.5030     5.5880     4.9050     5.5900    23.8270     2.3430 
  127.5000    -5.0690    77.4880     5.9520     5.1670     5.6010    23.8640     2.3450 
  127.6250    -5.3580    74.9950     6.5950     5.6650     6.0540    23.8110     2.3620 
  127.7500    -5.7050    70.6890     7.4240     6.3400     6.8700    23.6130     2.3880 
  127.8750    -6.0930    67.0000     8.3180     7.1110     7.8350    23.4550     2.4110 
  128.0000    -6.5190    67.2980     9.1080     7.8470     9.1680    23.4320     2.4130 
  128.1250    -6.9940    71.6780     9.5660     8.3540    10.7170    23.5000     2.3800 
  128.2500    -7.4450    73.6180     9.6680     8.5640    10.8380    23.5690     2.3280 
  128.3750    -7.8960    69.7930     9.4910     8.5090     9.4260    23.6010     2.2750 
  128.5000    -8.3230    63.5010     9.2030     8.3080     8.6190    23.6290     2.2360 
  128.6250    -8.6850    59.2800     8.9960     8.1210     8.4070    23.7120     2.2170 
  128.7500    -8.9930    57.2720     8.9460     8.0370     8.5370    23.7960     2.2120 
  128.8750    -9.2640    57.2590     9.0420     8.0690     8.7270    23.7970     2.2130 
  129.0000    -9.3160    59.0860     9.2290     8.1840     8.9780    23.7380     2.2150 
  129.1250    -9.5280    61.8120     9.4420     8.3370     9.1240    23.6930     2.2150 
  129.2500    -9.6840    64.1130     9.6360     8.4860     9.2870    23.6740     2.2130 
  129.3750    -9.8500    64.9650     9.7970     8.6150     9.7420    23.6580     2.2110 
  129.5000    -9.9790    63.4340     9.9200     8.7180    10.3400    23.6380     2.2070 
  129.6250   -10.0990    59.6760    10.0070     8.7920    10.5950    23.6440     2.2020 
  129.7500   -10.2220    56.6520    10.0880     8.8550    10.0930    23.6850     2.1940 
  129.8750   -10.3270    55.7270    10.1900     8.9300     9.6440    23.7690     2.1860 
  130.0000   -10.3920    55.8110    10.3320     9.0360     9.5820    23.8910     2.1810 
  130.1250   -10.4400    55.7790    10.5310     9.1920     9.7160    24.0340     2.1840 
  130.2500   -10.4880    55.2900    10.7770     9.3920     9.7810    24.1400     2.1910 
  130.3750   -10.4810    54.8410    11.0610     9.6290     9.8810    24.1430     2.2000 
  130.5000   -10.4740    54.7290    11.3650     9.8850    10.0930    24.0450     2.2050 
  130.6250   -10.4720    56.1490    11.6440    10.1260    10.2470    23.9450     2.2040 
  130.7500   -10.4700    57.4030    11.8440    10.3060    10.2210    23.9880     2.2020 
  130.8750   -10.4720    57.0060    11.9120    10.3830    10.1160    24.0950     2.2010 
  131.0000   -10.4900    54.9280    11.8170    10.3270    10.0110    24.1430     2.2010 
  131.1250   -10.5370    53.1530    11.5540    10.1260     9.8930    24.1390     2.2000 
  131.2500   -10.5920    51.0630    11.2250     9.8530     9.8460    24.1330     2.1990 
  131.3750   -10.6480    48.5710    10.9150     9.5780     9.8370    24.1560     2.1980 
  131.5000   -10.6830    47.7400    10.6910     9.3590     9.8660    24.2160     2.1960 
  131.6250   -10.6790    50.5340    10.5980     9.2450     9.8810    24.2930     2.1950 
  131.7500   -10.6540    54.5840    10.5960     9.2170     9.8830    24.3060     2.1930 
  131.8750   -10.6240    57.4310    10.6410     9.2430     9.8760    24.2600     2.1870 
  132.0000   -10.5820    59.6200    10.6860     9.2880     9.8380    24.1980     2.1780 
  132.1250   -10.5050    61.1080    10.6860     9.3110     9.8100    24.1660     2.1640 
  132.2500   -10.3950    60.8900    10.6130     9.2840     9.8120    24.1390     2.1530 
  132.3750   -10.2610    58.2790    10.4450     9.1830     9.8680    24.0380     2.1480 
  132.5000   -10.1220    54.0320    10.1760     8.9960     9.9010    23.8020     2.1540 
  132.6250    -9.9960    53.7800     9.8180     8.7210     9.8170    23.4120     2.1720 
  132.7500    -9.8760    58.3400     9.4450     8.4120     9.4890    23.0780     2.1940 
  132.8750    -9.7660    63.4660     9.1190     8.1220     8.9660    22.9290     2.2120 
  133.0000    -9.6490    65.1240     8.8950     7.8970     8.5440    22.9760     2.2210 
  133.1250    -9.5010    63.9810     8.8130     7.7810     8.4940    23.1320     2.2190 
  133.2500    -9.3790    61.7220     8.8230     7.7480     8.3790    23.2720     2.2130 
  133.3750    -9.2580    58.6330     8.8690     7.7630     8.2630    23.3390     2.2050 
  133.5000    -9.1030    57.1240     8.8940     7.7820     8.1970    23.3520     2.1990 
  133.6250    -8.8800    59.0390     8.8380     7.7580     8.1130    23.3350     2.1970 
