~V
VERS. 2.00: Ver 2.00
~W
STRT.M 54.0000:
STOP.M 226.0000:
STEP.M 0.1250:
NULL. -999.2500:
UWI. F11002:
~C
DEPT.M :
GR.API :
RML.OHMM :
RI. :
RXO.OHMM :
CALI.CM :
DEN.GM/CC :
SP.MV :
~A
# ...
  121.5000    76.5610     9.2800     8.0520     8.6440    26.6050     2.2280   -13.1840 
  121.6250    81.4320     8.3200     7.1600     6.9600    25.2830     2.2750   -12.0130 
  121.7500    88.4840     7.3360     6.2890     5.6060    24.4210     2.3200   -10.8070 
  121.8750    94.7230     6.5190     5.5900     5.2090    24.3370     2.3530    -9.7500 
  122.0000    98.4710     5.9810     5.1050     5.0580    24.2660     2.3680    -8.9140 
  122.1250    99.0220     5.7850     4.8490     5.0090    24.1720     2.3640    -8.3300 
  122.2500    97.4760     5.9430     4.8350     5.0630    24.0920     2.3390    -8.0630 
  122.3750    94.0330     6.4930     5.1350     5.2640    24.1350     2.2940    -8.0680 
  122.5000    89.3900     7.3090     5.7110     5.9250    24.3760     2.2520    -8.1150 
  122.6250    85.7910     8.2240     6.4740     6.9630    24.7550     2.2360    -8.1230 
  122.7500    84.6450     8.9590     7.2020     7.9450    25.0320     2.2560    -8.0630 
  122.8750    85.7970     9.1000     7.4850     8.6850    25.1920     2.3060    -7.9110 
  123.0000    88.7700     8.6210     7.2160     7.7150    25.0690     2.3550    -7.7270 
  123.1250    91.4620     7.7230     6.5610     5.7940    24.6200     2.3820    -7.5570 
  123.2500    92.9000     6.7710     5.8410     4.7640    24.2450     2.3840    -7.4230 
  123.3750    96.3060     6.1620     5.3560     4.6680    24.0750     2.3680    -7.2950 
  123.5000   101.1660     5.9680     5.1550     4.6750    23.9430     2.3530    -7.2320 
  123.6250   102.2390     6.1160     5.2050     4.7900    23.8040     2.3440    -7.2030 
  123.7500    96.8700     6.4350     5.4160     5.1150    23.6680     2.3380    -7.1840 
  123.8750    92.6280     6.7030     5.6460     5.4950    23.6220     2.3310    -7.2290 
  124.0000    94.2070     6.7710     5.7570     5.4960    23.7400     2.3200    -7.2320 
  124.1250    96.4450     6.6050     5.6940     5.1210    24.0340     2.3080    -7.1430 
  124.2500    97.0290     6.2550     5.4730     4.9570    24.4420     2.2990    -6.9890 
  124.3750   100.6150     5.8290     5.1620     4.8910    24.6350     2.3000    -6.7990 
  124.5000   106.3720     5.4610     4.8690     4.5380    24.6940     2.3100    -6.6140 
  124.6250   109.9940     5.2220     4.6460     4.3280    24.6960     2.3260    -6.5610 
  124.7500   109.6940     5.1370     4.5040     4.2090    24.6960     2.3410    -6.6340 
  124.8750   106.6150     5.2100     4.4560     4.1900    24.6950     2.3490    -6.7030 
  125.0000   103.4860     5.3610     4.4930     4.2960    24.6920     2.3520    -6.8150 
  125.1250   100.5310     5.5170     4.5970     4.4710    24.6870     2.3530    -6.9310 
  125.2500    99.3270     5.6060     4.7260     4.6530    24.6840     2.3550    -6.9510 
  125.3750   100.8420     5.5820     4.8200     4.7290    24.6690     2.3610    -6.9470 
  125.5000   104.1610     5.4930     4.8580     4.6930    24.6510     2.3640    -6.8920 
  125.6250   109.0560     5.3960     4.8520     4.5560    24.6510     2.3620    -6.7360 
  125.7500   112.8660     5.3420     4.8290     4.4590    24.6360     2.3530    -6.5300 
  125.8750   110.8550     5.3610     4.8210     4.4220    24.6290     2.3410    -6.3360 
  126.0000   103.7890     5.4310     4.8460     4.4600    24.6380     2.3290    -6.2000 
  126.1250    97.1710     5.5240     4.9070     4.6250    24.6660     2.3190    -6.1710 
  126.2500    95.8440     5.6020     5.0000     4.7320    24.6990     2.3120    -6.3040 
  126.3750    97.7060     5.6130     5.0920     4.8050    24.6910     2.3110    -6.5060 
  126.5000    98.6990     5.5340     5.1430     4.8590    24.7120     2.3170    -6.7140 
  126.6250   100.9340     5.3710     5.1230     4.9710    24.6200     2.3310    -6.9230 
  126.7500   107.0060     5.1640     5.0250     4.9150    24.3700     2.3500    -7.1450 
  126.8750   111.8050     4.9670     4.8520     4.4530    24.0830     2.3670    -7.3870 
  127.0000   110.1810     4.8160     4.6370     4.3150    23.8430     2.3770    -7.5200 
  127.1250   104.9410     4.7360     4.4270     4.3980    23.6470     2.3790    -7.5460 
  127.2500   103.7050     4.7630     4.3070     4.3890    23.5270     2.3780    -7.4940 
  127.3750   109.0150     4.9740     4.4020     4.4670    23.5050     2.3860    -7.4460 
  127.5000   113.6230     5.3620     4.7150     4.4070    23.5280     2.4040    -7.5010 
  127.6250   114.0080     5.8780     5.1910     5.0040    23.5450     2.4260    -7.6570 
  127.7500   110.3950     6.3980     5.7130     6.8220    23.5690     2.4390    -7.8760 
  127.8750   103.7800     6.7190     6.0580     8.6780    23.6170     2.4270    -8.1410 
  128.0000    96.6730     6.7650     6.1170     7.3770    23.6400     2.3960    -8.4420 
  128.1250    92.9960     6.5880     5.9490     5.7770    23.6490     2.3600    -8.7480 
  128.2500    93.7230     6.3560     5.7260     5.2440    23.6600     2.3360    -9.0140 
  128.3750    94.6940     6.3320     5.6650     5.5240    23.6730     2.3390    -9.1920 
  128.5000    93.0180     6.6660     5.8780     6.2770    23.6560     2.3630    -9.2090 
  128.6250    90.1660     7.5000     6.4280     7.7470    23.6020     2.4020    -9.0650 
  128.7500    87.6050     8.9170     7.3300     9.3840    23.5440     2.4490    -8.8460 
  128.8750    85.6240    10.9080     8.6070    10.6540    23.5300     2.4920    -8.5860 
  129.0000    82.7250    13.1600    10.1680    12.7840    23.5380     2.5250    -8.3970 
  129.1250    78.9630    15.4770    11.9520    16.9230    23.5420     2.5400    -8.3190 
  129.2500    73.7980    17.6840    13.8140    19.4920    23.5510     2.5350    -8.2700 
  129.3750    69.7050    19.4790    15.4860    18.2600    23.5810     2.5140    -8.2740 
  129.5000    68.3850    20.7520    16.7910    16.9210    23.6150     2.4890    -8.4520 
  129.6250    69.9750    21.5500    17.6860    16.5500    23.6500     2.4690    -8.7700 
  129.7500    70.4930    22.0600    18.2820    16.6340    23.6720     2.4600    -9.1120 
  129.8750    66.7760    22.5200    18.7690    17.1920    23.6800     2.4640    -9.4270 
  130.0000    63.2760    23.0700    19.2960    17.3210    23.6250     2.4740    -9.6780 
  130.1250    63.6750    23.6810    19.8650    18.1330    23.5440     2.4830    -9.8510 
  130.2500    67.4790    24.2390    20.4230    18.8600    23.6090     2.4860   -10.0300 
  130.3750    70.0960    24.5900    20.8850    18.6240    23.6480     2.4810   -10.2100 
  130.5000    69.8720    24.6950    21.1840    17.8310    23.6650     2.4720   -10.3020 
  130.6250    69.2770    24.5450    21.2520    18.4110    23.6500     2.4640   -10.3260 
  130.7500    69.0480    24.1550    21.0450    20.3160    23.6730     2.4590   -10.3340 
  130.8750    68.1700    23.5480    20.5520    20.0390    23.7710     2.4590   -10.3130 
  131.0000    65.6140    22.8630    19.9330    18.2180    23.8630     2.4650   -10.2150 
  131.1250    64.0450    22.2400    19.3170    15.9790    23.8830     2.4760   -10.0430 
  131.2500    64.3270    21.8200    18.8140    14.7140    23.9150     2.4890    -9.7840 
  131.3750    63.5830    21.7270    18.5370    15.0170    23.9100     2.4990    -9.4300 
  131.5000    61.2380    21.8480    18.4620    15.2770    23.8780     2.5050    -8.9920 
  131.6250    60.9160    22.0310    18.5280    15.0490    23.8640     2.5080    -8.5390 
  131.7500    63.5340    22.1330    18.6360    14.9560    23.9200     2.5120    -8.1600 
  131.8750    64.8980    22.0790    18.7100    15.6430    24.0920     2.5180    -7.9030 
  132.0000    63.0970    21.9490    18.7650    16.1040    24.2770     2.5200    -7.7980 
  132.1250    61.1670    21.8320    18.8590    15.7060    24.3250     2.5120    -7.8240 
  132.2500    62.7200    21.8060    19.0430    15.4490    24.1320     2.4940    -7.9410 
  132.3750    65.8510    21.9630    19.3580    15.6660    23.9780     2.4710    -8.0830 
  132.5000    67.5210    22.3260    19.7880    16.4330    24.0520     2.4530    -8.2580 
  132.6250    68.0720    22.8940    20.3310    17.0450    24.4950     2.4430    -8.4030 
