~V
VERS. 2.00: Ver 2.00
~W
STRT.M 57.0000:
STOP.M 280.0000:
STEP.M 0.1250:
NULL. -999.2500:
UWI. F11041:
~C
DEPT.M :
SP.MV :
GR.API :
RML.OHMM :
RI. :
RXO.OHMM :
CALI.CM :
DEN.GM/CC :
~A
# ...
  180.7500    -5.7280    72.9410    66.8050    54.0390    53.6790    24.6000     2.2630 
  180.8750    -5.8500    72.2080    67.0730    55.4010    56.2520    24.5920     2.2660 
  181.0000    -5.9460    70.9640    61.5170    52.1920    48.0780    24.5740     2.2720 
  181.1250    -6.1990    71.6140    50.6640    44.0790    55.6250    24.5400     2.2850 
  181.2500    -6.2420    76.1290    39.0200    34.6120    57.7910    24.4420     2.3140 
  181.3750    -6.2590    83.3190    29.4270    26.3900    48.8220    24.3340     2.3570 
  181.5000    -6.2750    89.9350    23.0700    20.6500    30.4380    24.2910     2.3990 
  181.6250    -6.3300    92.3350    20.3820    17.7830    16.5800    24.2680     2.4180 
  181.7500    -6.4360    91.6020    20.5090    17.0140    10.8350    24.2590     2.4140 
  181.8750    -6.4770    89.8340    23.4320    18.2850    11.3600    24.2720     2.3920 
  182.0000    -6.6060    87.5990    29.3120    21.8400    17.4990    24.3930     2.3560 
  182.1250    -6.6340    83.5020    38.8960    28.5950    28.8340    24.5570     2.3150 
  182.2500    -6.6480    78.3250    51.7570    38.4530    39.8260    24.6710     2.2800 
  182.3750    -6.6560    74.6980    67.6690    51.2920    57.4730    24.6490     2.2550 
  182.5000    -6.6480    73.5610    85.6890    66.1170    86.3920    24.5370     2.2400 
  182.6250    -6.6380    73.3960   103.0090    80.2690   111.3810    24.4570     2.2350 
  182.7500    -6.6840    71.2240   115.5870    90.5050   151.5870    24.4970     2.2380 
  182.8750    -6.5590    68.6870   120.3730    94.6350   169.2500    24.5520     2.2410 
  183.0000    -6.3980    68.0340   117.1810    92.4990   163.9210    24.5800     2.2410 
  183.1250    -6.5110    68.5860   108.9140    86.0050   127.2400    24.4900     2.2420 
  183.2500    -6.4550    69.0980   100.7660    79.1430    90.3410    24.3010     2.2460 
  183.3750    -6.3790    69.4170    95.0250    73.8440    84.9110    24.1620     2.2490 
  183.5000    -6.2550    69.6060    92.3180    70.7890    83.0020    24.2090     2.2480 
  183.6250    -6.2610    71.1160    92.6300    70.1680    78.5380    24.3620     2.2430 
  183.7500    -6.2440    72.4390    94.5820    71.0560    75.0710    24.4160     2.2410 
  183.8750    -6.1070    72.8830    97.2590    72.8290    73.0060    24.4900     2.2440 
  184.0000    -5.9890    73.1220    99.7490    74.8300    71.0940    24.5770     2.2450 
  184.1250    -5.9140    74.2750   100.6080    76.0370    72.4910    24.6200     2.2410 
  184.2500    -5.9010    73.6370    98.9820    75.6480    77.7860    24.6710     2.2390 
  184.3750    -5.9110    69.5930    94.7630    73.3900    82.6080    24.7690     2.2420 
  184.5000    -5.8990    66.3440    88.9200    69.7360    83.2740    24.8030     2.2490 
  184.6250    -5.8460    70.7430    83.2580    65.7490    79.3920    24.6930     2.2550 
  184.7500    -5.7560    76.5320    79.2640    62.6070    73.8930    24.6250     2.2540 
  184.8750    -5.6300    77.0350    77.6080    60.9910    70.0670    24.6040     2.2470 
  185.0000    -5.4790    70.4000    78.2460    61.1350    69.6850    24.5890     2.2350 
  185.1250    -5.2770    63.9100    80.8740    63.0940    71.8520    24.6200     2.2270 
  185.2500    -5.0280    65.0620    84.4830    66.1000    74.6780    24.6650     2.2250 
  185.3750    -4.8070    71.0250    88.3740    69.5060    77.7450    24.6230     2.2270 
  185.5000    -4.6570    74.2450    91.7950    72.5710    79.0880    24.5260     2.2310 
  185.6250    -4.5790    71.6340    94.0070    74.6250    88.3720    24.4680     2.2390 
  185.7500    -4.5410    70.2680    95.2470    75.9000    96.4130    24.5490     2.2500 
  185.8750    -4.5360    71.8190    96.0630    76.8600    97.4040    24.7040     2.2600 
  186.0000    -4.5660    71.5220    97.2850    78.0900    92.6000    24.8870     2.2660 
  186.1250    -4.6480    68.5330   100.1390    80.4000    91.2090    24.9470     2.2630 
  186.2500    -4.7530    67.8410   104.7330    83.8990    97.1140    24.8670     2.2560 
  186.3750    -4.8590    70.3990   110.4290    88.2520   110.4080    24.6980     2.2520 
  186.5000    -4.9830    71.8210   115.9930    92.7060   118.6030    24.6030     2.2520 
  186.6250    -5.1790    68.9480   120.0030    96.3360   109.3010    24.6540     2.2560 
  186.7500    -5.4410    65.3230   122.5380    99.0610   104.5910    24.7480     2.2590 
  186.8750    -5.7410    64.3460   124.4350   101.3230   106.4270    24.7590     2.2590 
  187.0000    -6.0710    66.1980   126.7810   103.8010   116.7180    24.7710     2.2530 
  187.1250    -6.4120    67.2570   130.4470   107.1270   136.8740    24.8430     2.2420 
  187.2500    -6.7860    67.8270   134.8290   110.9880   160.0380    24.9090     2.2320 
  187.3750    -7.1640    68.9100   138.4100   114.4440   176.8270    24.9850     2.2300 
  187.5000    -7.5010    69.9870   138.9650   115.9910   199.7600    25.0750     2.2330 
  187.6250    -7.7250    69.6730   133.7160   113.5150   192.5560    25.1560     2.2370 
  187.7500    -7.8550    69.2070   123.9320   107.4230   156.2670    25.1890     2.2410 
  187.8750    -7.9260    68.3220   112.1780    99.1480   129.2150    25.1620     2.2520 
  188.0000    -7.9480    64.9060   101.6070    90.9640   100.5330    25.0790     2.2700 
  188.1250    -7.9250    62.5170    95.3570    85.5770    87.7040    25.0460     2.2820 
  188.2500    -7.8840    65.1900    93.5800    83.7360    88.4360    25.0550     2.2780 
  188.3750    -7.8940    68.4640    95.9170    85.4840    88.0730    25.0420     2.2610 
  188.5000    -7.9920    65.9110   101.9500    90.6130    80.3210    24.9050     2.2420 
  188.6250    -8.1750    60.9260   112.4120    99.7450    78.0820    24.6730     2.2300 
  188.7500    -8.4040    60.7230   127.3000   112.6640    85.1470    24.5160     2.2220 
  188.8750    -8.6570    64.2820   146.7110   129.3860   103.1040    24.4240     2.2150 
  189.0000    -8.9210    66.6490   168.7820   148.6140   211.8180    24.3400     2.2070 
  189.1250    -9.1900    65.0130   185.8610   165.2980   276.0140    24.2850     2.2000 
  189.2500    -9.4130    61.6740   188.7520   172.6820   245.4190    24.3830     2.1950 
  189.3750    -9.5260    59.6880   174.3530   166.7970   180.0220    24.6480     2.1960 
  189.5000    -9.5080    60.4670   149.1140   149.6900   142.6330    24.9810     2.2060 
  189.6250    -9.4110    63.2770   123.8070   128.2560   113.4570    25.1180     2.2230 
  189.7500    -9.2990    65.7650   104.2920   109.6670    97.3680    25.1080     2.2390 
  189.8750    -9.2000    68.1860    91.3390    96.3390    74.0810    24.9760     2.2500 
  190.0000    -9.1380    69.3400    84.1630    88.4410    65.6980    24.8120     2.2550 
  190.1250    -9.1530    69.2820    82.6600    86.0860    74.5910    24.8320     2.2560 
  190.2500    -9.2790    69.2830    86.1250    88.4960    93.5410    24.9400     2.2530 
  190.3750    -9.5230    69.9630    95.7820    96.8110   110.5610    25.0280     2.2440 
  190.5000    -9.8470    68.4350   113.5790   112.7990   131.7950    25.1260     2.2290 
  190.6250   -10.2040    62.8910   143.7890   139.7120   135.9590    25.2030     2.2120 
  190.7500   -10.5620    58.1430   186.0060   175.6430   121.2040    25.2370     2.1980 
  190.8750   -10.9190    55.9050   237.6130   216.5230   122.5180    25.2430     2.1930 
  191.0000   -11.2520    54.8560   289.3010   254.2420   155.9230    25.2610     2.1940 
  191.1250   -11.5090    54.1960   322.4950   276.6100   156.2810    25.2350     2.1980 
  191.2500   -11.6620    55.0270   332.6380   282.5250   207.6650    25.1760     2.2030 
  191.3750   -11.7280    56.6250   327.8010   277.1500   275.3690    25.1460     2.2060 
  191.5000   -11.7600    57.7100   321.8720   269.3720   283.6940    25.1360     2.2080 
  191.6250   -11.7850    58.1570   330.7130   270.3200   261.9310    25.1240     2.2070 
  191.7500   -11.8220    56.5250   363.0210   286.4320   251.0690    25.1140     2.2020 
  191.8750   -11.8500    52.4470   428.9450   322.7820   246.4330    25.0660     2.1900 
