~V
VERS. 2.00: Ver 2.00
~W
STRT.M 54.0000:
STOP.M 226.0000:
STEP.M 0.1250:
NULL. -999.2500:
UWI. F11002:
~C
DEPT.M :
GR.API :
RML.OHMM :
RI. :
RXO.OHMM :
CALI.CM :
DEN.GM/CC :
SP.MV :
~A
# ...
   76.5000    77.0930     6.5550     5.4030     7.3830    24.1050     2.2860    -8.6810 
   76.6250    81.3300     5.7480     4.7470     5.3470    24.7450     2.2890    -8.5860 
   76.7500    87.0930     5.6460     4.5050     4.4420    25.3810     2.2960    -8.8920 
   76.8750    87.9030     6.6040     4.9160     5.6130    25.5830     2.2950    -9.7250 
   77.0000    81.8740     8.4210     5.9890    10.7970    25.2180     2.2730   -10.8970 
   77.1250    72.6220    10.7270     7.6950    23.2000    24.9240     2.2300   -12.3750 
   77.2500    66.0940    12.8490     9.7050    38.0560    24.8430     2.1820   -14.0160 
   77.3750    65.5340    13.8140    11.0980    41.7490    24.6260     2.1530   -15.6250 
   77.5000    67.3450    13.4970    11.3200    35.1150    24.1780     2.1490   -17.0080 
   77.6250    69.3230    12.2920    10.5970    23.6820    23.7580     2.1610   -18.0660 
   77.7500    70.8520    10.8790     9.5550    14.4290    23.5220     2.1760   -18.7260 
   77.8750    70.6660     9.9010     8.7230    11.5340    23.4320     2.1830   -18.9970 
   78.0000    71.4590     9.4550     8.2210    10.8650    23.4010     2.1820   -19.0040 
   78.1250    74.5550     9.4230     8.0100    10.8360    23.4040     2.1750   -18.7770 
   78.2500    75.6950     9.6150     7.9960    10.6300    23.4280     2.1650   -18.4210 
   78.3750    71.5470     9.8500     8.0630    10.3690    23.4510     2.1570   -17.9670 
   78.5000    67.0330    10.0230     8.1040    10.2420    23.4500     2.1570   -17.4770 
   78.6250    66.7400    10.1240     8.0950    10.2230    23.4240     2.1650   -17.0010 
   78.7500    69.5170    10.1820     8.0530    10.2550    23.3510     2.1800   -16.5650 
   78.8750    70.3340    10.2150     8.0170    10.4700    23.0970     2.1970   -16.1490 
   79.0000    69.5020    10.2030     8.0050    10.3540    22.6690     2.2100   -15.7910 
   79.1250    67.3820    10.1110     8.0030    10.0220    22.3140     2.2150   -15.5070 
   79.2500    66.9090     9.9300     7.9750     9.7610    22.1470     2.2110   -15.2640 
   79.3750    69.7780     9.7200     7.8980     9.5320    22.0650     2.2010   -15.0960 
   79.5000    71.5300     9.6050     7.8210     9.2130    21.9090     2.1930   -14.8790 
   79.6250    70.0910     9.6680     7.8010     9.0510    21.6020     2.1910   -14.6430 
   79.7500    67.0620     9.9140     7.8740     9.0120    21.1240     2.1990   -14.4100 
   79.8750    66.6670    10.2320     8.0360     9.0830    20.7320     2.2190   -14.2370 
   80.0000    66.9300    10.4220     8.1880     9.1810    20.6540     2.2420   -14.1580 
   80.1250    66.8930    10.3520     8.2050     9.3310    20.8230     2.2600   -14.1320 
   80.2500    68.7030     9.9900     8.0090     9.6070    21.1890     2.2660   -14.2420 
   80.3750    72.3310     9.4200     7.6190     9.4610    21.8170     2.2560   -14.5570 
   80.5000    75.7380     8.8840     7.1980     8.3230    22.6050     2.2410   -15.0770 
   80.6250    79.3060     8.5810     6.8730     7.1690    23.2930     2.2290   -15.8190 
   80.7500    81.6470     8.6440     6.7340     7.3010    23.6340     2.2260   -16.7460 
   80.8750    80.6240     9.1290     6.8440     9.1630    23.6480     2.2320   -17.7630 
   81.0000    78.1840     9.8150     7.1310    10.6730    23.7810     2.2380   -18.8130 
   81.1250    75.1350    10.5000     7.5270    11.0150    24.0370     2.2400   -19.8530 
   81.2500    70.2300    11.0230     7.9430    10.7090    24.2770     2.2360   -20.8020 
   81.3750    64.6160    11.3030     8.2620    10.5070    24.3560     2.2280   -21.5610 
   81.5000    63.0890    11.4330     8.4490    10.4170    24.3380     2.2180   -22.1540 
   81.6250    65.3550    11.4600     8.5290    10.3030    24.1530     2.2090   -22.5200 
   81.7500    67.4460    11.3730     8.5460    10.2080    23.8620     2.2010   -22.6660 
   81.8750    68.2560    11.1120     8.5210    10.2850    23.6810     2.1930   -22.6460 
   82.0000    69.1540    10.7320     8.4640    10.3440    23.6160     2.1890   -22.5040 
   82.1250    69.5220    10.3240     8.3730    10.3940    23.6270     2.1890   -22.3320 
   82.2500    68.8390     9.9840     8.2490    10.4700    23.6680     2.1950   -22.1090 
   82.3750    68.8810     9.7890     8.1040    10.4920    23.7030     2.2030   -21.8520 
   82.5000    69.4710     9.7110     7.9640    10.4670    23.7190     2.2080   -21.5590 
   82.6250    69.6270     9.7140     7.8510    10.4180    23.7380     2.2070   -21.2910 
   82.7500    70.1920     9.7530     7.7720    10.4440    23.7770     2.2000   -21.0800 
   82.8750    71.1400     9.7650     7.7200    10.2920    23.8020     2.1910   -20.8770 
   83.0000    69.6340     9.7050     7.6650    10.2430    23.7940     2.1860   -20.6830 
   83.1250    66.4010     9.5720     7.5920    10.2930    23.7450     2.1910   -20.4500 
   83.2500    64.4720     9.4300     7.5210    10.4210    23.6750     2.2060   -20.2390 
   83.3750    64.8040     9.4180     7.5280    10.5010    23.5650     2.2260   -20.0520 
   83.5000    64.1510     9.6080     7.6580    10.4030    23.4810     2.2390   -19.9220 
   83.6250    62.8000     9.9780     7.9040    10.5030    23.4960     2.2400   -19.8710 
   83.7500    64.3050    10.4040     8.1940    12.0740    23.6110     2.2260   -19.8450 
   83.8750    68.0550    10.6500     8.3670    14.8510    23.7090     2.2030   -19.8580 
   84.0000    69.8390    10.5690     8.3220    14.7350    23.7520     2.1810   -19.8800 
   84.1250    68.4670    10.1430     8.0610    11.4950    23.7620     2.1660   -19.8450 
   84.2500    68.3870     9.5010     7.6960     9.5410    23.7480     2.1610   -19.6890 
   84.3750    70.9940     8.9070     7.3920     9.1950    23.6610     2.1710   -19.3530 
   84.5000    71.7280     8.5720     7.2540     9.2700    23.5050     2.1940   -18.8260 
   84.6250    70.6250     8.5520     7.3130     9.5650    23.3260     2.2220   -18.0320 
   84.7500    68.2250     8.7530     7.5150     9.7940    23.1840     2.2480   -16.9660 
   84.8750    65.4810     8.9190     7.6900     9.9540    23.0910     2.2560   -15.5890 
   85.0000    65.0240     8.8140     7.6520     9.9680    23.0890     2.2420   -13.9510 
   85.1250    68.4900     8.3850     7.3500     9.2390    23.2190     2.2120   -12.1520 
   85.2500    74.6260     7.7480     6.8710     7.7400    23.4660     2.1760   -10.2830 
   85.3750    79.3690     7.1350     6.3730     6.6500    23.6840     2.1540    -8.4690 
   85.5000    83.6880     6.7000     5.9750     5.3840    23.7680     2.1570    -6.7500 
   85.6250    88.1410     6.4480     5.6840     5.0200    23.8360     2.1850    -5.1810 
   85.7500    90.9470     6.2920     5.4390     5.2840    24.0320     2.2300    -3.7930 
   85.8750    90.9310     6.1200     5.1700     5.3410    24.4310     2.2740    -2.6630 
   86.0000    92.0180     5.8920     4.8780     4.8960    24.6710     2.3030    -1.8400 
   86.1250    95.4850     5.6320     4.6090     4.4720    24.6430     2.3160    -1.3900 
   86.2500    97.4380     5.3980     4.4260     4.2790    24.6090     2.3180    -1.3610 
   86.3750    94.5580     5.2750     4.4060     4.4110    24.6710     2.3170    -1.8040 
   86.5000    93.4910     5.2910     4.5320     4.7180    24.6960     2.3150    -2.6610 
   86.6250    95.2700     5.4430     4.7570     4.9620    24.6820     2.3080    -3.8730 
   86.7500    92.5250     5.7130     5.0370     5.3810    24.5680     2.2920    -5.3270 
   86.8750    83.8900     6.1110     5.3750     6.5500    24.4760     2.2650    -6.9360 
   87.0000    79.3680     6.6390     5.7810     7.1860    24.4030     2.2360    -8.6070 
   87.1250    80.2840     7.3170     6.2730     7.1050    24.3660     2.2170   -10.2000 
   87.2500    79.6660     8.1410     6.8640     7.5960    24.3500     2.2150   -11.5960 
   87.3750    73.5390     9.0660     7.5320    11.3930    24.3410     2.2320   -12.7120 
   87.5000    67.4960     9.9850     8.1750    16.2530    24.2490     2.2520   -13.5370 
   87.6250    65.6220    10.8330     8.7040    16.6650    24.0580     2.2610   -14.0660 
