~V
VERS. 2.00: Ver 2.00
~W
STRT.M 57.0000:
STOP.M 276.0000:
STEP.M 0.1250:
NULL. -999.2500:
UWI. F11063:
~C
DEPT.M :
DEN.GM/CC :
GR.API :
RML.OHMM :
RI. :
RXO.OHMM :
CALI.CM :
SP.MV :
~A
# ...
  147.0000     2.1820    76.6090     9.2840     7.8990    10.6920    25.1170   -12.5670 
  147.1250     2.1890    77.3770     9.1930     7.8950    10.4070    25.0950   -12.4070 
  147.2500     2.2000    77.4080     8.8250     7.6590     9.9510    25.0880   -12.1820 
  147.3750     2.2130    76.9000     8.1740     7.1720     9.7240    25.0900   -11.8800 
  147.5000     2.2240    77.6960     7.3500     6.5010     9.8050    24.9990   -11.5350 
  147.6250     2.2400    83.9670     6.5630     5.7940     9.4080    24.7060   -11.1690 
  147.7500     2.2640    90.9670     5.9820     5.2110     8.3190    24.3610   -10.8060 
  147.8750     2.2890    93.6000     5.6770     4.8390     7.6450    24.1810   -10.4700 
  148.0000     2.2990    93.8600     5.6530     4.7150     7.4810    24.1350   -10.1740 
  148.1250     2.2780    93.7480     5.9030     4.8640     7.6510    24.2070    -9.9520 
  148.2500     2.2410    91.7830     6.3250     5.1970     7.8990    24.4750    -9.8110 
  148.3750     2.2040    87.7170     6.8790     5.6660     7.9820    24.8590    -9.7580 
  148.5000     2.1810    83.5840     7.5540     6.2440     8.1260    25.2430    -9.7290 
  148.6250     2.1720    81.4460     8.3700     6.9620     8.7650    25.4600    -9.6720 
  148.7500     2.1670    80.8550     9.2950     7.8190    10.0200    25.5480    -9.5880 
  148.8750     2.1610    79.3280    10.2430     8.7650    11.8360    25.6600    -9.4950 
  149.0000     2.1540    73.8900    11.0090     9.6410    14.4440    25.7930    -9.4180 
  149.1250     2.1540    66.7290    11.1980    10.0890    14.4340    25.8790    -9.3210 
  149.2500     2.1660    63.7040    10.7390     9.9620    13.1310    25.8620    -9.1730 
  149.3750     2.1850    66.0620     9.7700     9.3240    11.1810    25.6620    -8.9340 
  149.5000     2.2080    71.8710     8.6060     8.4190     9.4470    25.2360    -8.6430 
  149.6250     2.2350    79.2200     7.6220     7.5400     8.3000    24.8410    -8.4230 
  149.7500     2.2580    84.9430     6.9540     6.8410     7.7560    24.6160    -8.2760 
  149.8750     2.2710    87.1500     6.5760     6.3420     7.3820    24.5310    -8.1440 
  150.0000     2.2680    85.6100     6.3900     6.0050     7.0800    24.5060    -7.9770 
  150.1250     2.2560    83.7840     6.2820     5.7750     7.0910    24.5220    -7.7800 
  150.2500     2.2470    85.9170     6.1550     5.5760     7.2560    24.4900    -7.6020 
  150.3750     2.2480    90.7610     6.0140     5.4040     7.2290    24.4660    -7.5060 
  150.5000     2.2600    93.3610     5.9430     5.3160     7.0510    24.4630    -7.5070 
  150.6250     2.2810    89.3490     6.1470     5.4570     6.9050    24.4710    -7.4910 
  150.7500     2.3120    82.2270     6.7810     5.9330     7.3810    24.4720    -7.3760 
  150.8750     2.3600    74.2520     7.9900     6.8720     9.1760    24.4520    -7.2200 
  151.0000     2.4240    65.9040     9.8330     8.3780    12.8410    24.4090    -7.0860 
  151.1250     2.4900    59.6660    12.2550    10.5430    18.1410    24.3360    -6.9930 
  151.2500     2.5390    56.8780    14.7740    13.0140    21.9930    24.2990    -6.9210 
  151.3750     2.5680    56.8340    16.8840    15.3040    25.3390    24.2820    -6.8450 
  151.5000     2.5820    56.7320    18.1830    16.8980    26.9750    24.2680    -6.7380 
  151.6250     2.5890    55.3040    18.5140    17.4650    25.5220    24.2660    -6.6410 
  151.7500     2.5890    54.1110    18.3930    17.4440    22.7860    24.2720    -6.6440 
  151.8750     2.5860    53.4910    18.1870    17.2000    21.1570    24.2740    -6.7340 
  152.0000     2.5840    53.9550    18.1160    16.9880    20.1530    24.2430    -6.8540 
  152.1250     2.5900    54.0180    18.2700    16.9590    20.4290    24.2190    -6.9990 
  152.2500     2.5960    52.1240    18.5430    17.0810    20.6370    24.1560    -7.1350 
  152.3750     2.5980    49.2720    18.8240    17.2840    20.1760    24.1090    -7.2660 
  152.5000     2.5930    48.2560    19.0370    17.4910    19.7350    24.0990    -7.3980 
  152.6250     2.5850    50.8790    19.1350    17.6450    19.1950    24.1210    -7.4940 
  152.7500     2.5730    54.2990    19.1720    17.7610    19.1140    24.1360    -7.5200 
  152.8750     2.5600    56.0590    19.2070    17.8730    19.6980    24.1550    -7.5040 
  153.0000     2.5490    55.6460    19.2910    18.0130    19.3060    24.2020    -7.4830 
  153.1250     2.5460    53.7650    19.4780    18.2250    18.1260    24.2600    -7.4630 
  153.2500     2.5520    53.4180    19.7910    18.5350    17.2720    24.2740    -7.4500 
  153.3750     2.5610    54.0120    20.2670    18.9730    16.4080    24.2570    -7.4310 
  153.5000     2.5700    52.9300    20.9310    19.5660    15.3290    24.2250    -7.4220 
  153.6250     2.5750    50.3230    21.7860    20.3450    15.5950    24.1620    -7.4980 
  153.7500     2.5780    51.0250    22.7230    21.2190    15.8150    24.1340    -7.6360 
  153.8750     2.5780    54.1940    23.6400    22.1030    16.1280    24.1260    -7.7640 
  154.0000     2.5770    55.7590    24.4490    22.9340    16.1790    24.1170    -7.8490 
  154.1250     2.5760    55.2560    25.0440    23.6330    16.2350    24.0990    -7.9120 
  154.2500     2.5750    56.3170    25.4260    24.1510    16.2210    24.1090    -7.9650 
  154.3750     2.5720    58.4390    25.6110    24.4570    16.5960    24.1310    -7.9960 
  154.5000     2.5640    58.3050    25.6110    24.5370    17.3340    24.1470    -7.9960 
  154.6250     2.5540    57.6960    25.3220    24.3120    17.0650    24.0930    -7.9330 
  154.7500     2.5370    59.2440    24.7070    23.7900    15.8320    23.8620    -7.8650 
  154.8750     2.5130    62.9100    23.7860    23.0060    15.0730    23.4180    -7.8330 
  155.0000     2.4860    66.1600    22.6990    22.0670    15.0830    22.8180    -7.8620 
  155.1250     2.4670    65.9900    21.6960    21.1400    15.2830    22.1260    -7.9180 
  155.2500     2.4560    64.9590    20.9280    20.3780    15.1530    21.4110    -7.9930 
  155.3750     2.4540    65.2490    20.3960    19.8420    14.7850    20.7120    -8.1000 
  155.5000     2.4600    64.7420    20.0570    19.5470    14.6580    19.9840    -8.2340 
  155.6250     2.4710    60.0860    19.9640    19.5510    14.8870    19.4450    -8.3850 
  155.7500     2.4810    54.7780    20.1340    19.8150    14.9370    19.1110    -8.5120 
  155.8750     2.4920    52.8970    20.5700    20.2920    14.1700    18.9120    -8.5930 
  156.0000     2.5050    53.8100    21.1760    20.8730    13.9520    18.7750    -8.6120 
  156.1250     2.5190    52.9870    21.7210    21.3730    15.1100    18.8110    -8.5940 
  156.2500     2.5270    50.6030    21.9960    21.6420    15.8460    18.9510    -8.5450 
  156.3750     2.5220    49.7340    21.9110    21.6120    15.6420    19.1410    -8.4740 
  156.5000     2.5070    52.5210    21.4780    21.2880    15.5310    19.3540    -8.3990 
  156.6250     2.4890    58.2310    20.7640    20.7150    15.8670    19.5430    -8.3270 
  156.7500     2.4770    62.2930    19.9800    20.0590    16.2690    19.7750    -8.2770 
  156.8750     2.4740    64.6580    19.2870    19.4460    16.9420    20.0850    -8.2630 
  157.0000     2.4780    66.5650    18.7980    18.9660    16.5430    20.4690    -8.3010 
  157.1250     2.4800    66.6740    18.5820    18.6630    16.4900    21.0400    -8.3710 
  157.2500     2.4790    64.5600    18.5600    18.4810    16.9910    21.7000    -8.4940 
  157.3750     2.4800    60.5010    18.6500    18.3820    17.1080    22.3350    -8.6520 
  157.5000     2.4860    58.4210    18.7660    18.3260    17.2330    22.9610    -8.8080 
  157.6250     2.4930    60.8480    18.8380    18.2730    18.0320    23.4470    -8.9680 
  157.7500     2.4980    63.0950    18.8370    18.1760    18.4290    23.7060    -9.1130 
  157.8750     2.5010    61.1670    18.7400    17.9870    18.3100    23.8030    -9.2350 
  158.0000     2.5000    57.4250    18.5110    17.6610    18.1850    23.8430    -9.3210 
  158.1250     2.4920    57.6360    18.0580    17.1470    17.7200    23.8990    -9.3600 
