~V
VERS. 2.00: Ver 2.00
~W
STRT.M 58.0000:
STOP.M 271.0000:
STEP.M 0.1250:
NULL. -999.2500:
UWI. F11072:
~C
DEPT.M :
DEN.GM/CC :
GR.API :
RML.OHMM :
RI. :
RXO.OHMM :
CALI.CM :
SP.MV :
~A
# ...
  148.0000     2.1670    67.5330    11.3440    10.0220    15.9190    25.0740    -7.5090 
  148.1250     2.1720    66.5400    11.1420     9.8670    14.1640    25.0460    -7.5470 
  148.2500     2.1740    64.6550    10.9620     9.7060    12.4410    25.0230    -7.5880 
  148.3750     2.1750    62.9120    10.8550     9.5920    11.6250    25.0100    -7.6320 
  148.5000     2.1760    61.1690    10.8430     9.5530    11.1740    24.9780    -7.6740 
  148.6250     2.1780    60.1990    10.9290     9.6070    10.9500    24.9510    -7.7010 
  148.7500     2.1830    60.9310    11.0440     9.7050    10.8980    24.9250    -7.7120 
  148.8750     2.1870    62.7510    11.1200     9.8010    11.0870    24.8870    -7.7110 
  149.0000     2.1920    64.8670    11.1020     9.8420    11.2340    24.8680    -7.7010 
  149.1250     2.1960    64.7520    10.9430     9.7780    11.2470    24.8690    -7.6770 
  149.2500     2.2000    63.2030    10.6790     9.6170    11.1340    24.8540    -7.6420 
  149.3750     2.1990    61.2470    10.3510     9.3890    10.9140    24.8620    -7.5880 
  149.5000     2.1930    59.7750    10.0140     9.1360    10.5590    24.8730    -7.5180 
  149.6250     2.1810    62.2150     9.7260     8.9200    10.0880    24.8860    -7.4410 
  149.7500     2.1680    66.5750     9.5170     8.7730     9.6460    24.9260    -7.3530 
  149.8750     2.1580    67.9320     9.3900     8.7040     9.3290    24.9620    -7.2440 
  150.0000     2.1570    64.2800     9.3180     8.6910     9.1450    24.9780    -7.0950 
  150.1250     2.1680    61.0520     9.2180     8.6650     9.1300    24.9970    -6.8880 
  150.2500     2.1890    61.3130     8.9920     8.5320     9.0600    24.9960    -6.6330 
  150.3750     2.2170    62.2930     8.5940     8.2200     8.9490    24.9850    -6.3490 
  150.5000     2.2460    63.7320     8.0060     7.7050     8.7880    24.9850    -6.0470 
  150.6250     2.2660    70.9250     7.3120     7.0300     8.4920    24.9560    -5.7320 
  150.7500     2.2750    80.4100     6.6660     6.3430     7.7310    24.9000    -5.4190 
  150.8750     2.2730    87.4400     6.1110     5.7540     6.5250    24.8770    -5.1230 
  151.0000     2.2670    90.0850     5.7000     5.3330     5.6260    24.8740    -4.8600 
  151.1250     2.2600    89.3310     5.5370     5.1330     5.5410    24.8570    -4.6450 
  151.2500     2.2600    86.8280     5.5660     5.1130     5.7200    24.8380    -4.4760 
  151.3750     2.2670    83.1280     5.7760     5.2650     5.8690    24.7720    -4.3440 
  151.5000     2.2860    81.7710     6.1650     5.5860     5.9270    24.6820    -4.2430 
  151.6250     2.3150    83.6840     6.7220     6.0750     6.0740    24.6120    -4.1700 
  151.7500     2.3420    82.2700     7.3210     6.6300     6.6030    24.5600    -4.1210 
  151.8750     2.3590    77.6710     7.8240     7.1350     7.6550    24.5700    -4.0960 
  152.0000     2.3570    75.0670     8.0880     7.4590     9.2650    24.6310    -4.0970 
  152.1250     2.3400    76.4240     7.9920     7.4590    10.4480    24.6500    -4.1330 
  152.2500     2.3220    77.6490     7.6640     7.2110     8.7770    24.6230    -4.1850 
  152.3750     2.3110    79.2750     7.2840     6.8540     7.0050    24.6140    -4.2500 
  152.5000     2.3140    81.6660     7.0340     6.5570     6.4650    24.5930    -4.3170 
  152.6250     2.3290    79.4100     7.0880     6.4920     6.8820    24.5790    -4.3800 
  152.7500     2.3500    74.4620     7.4580     6.6960     7.4890    24.5710    -4.4420 
  152.8750     2.3720    73.5310     8.1780     7.2010     8.0330    24.5300    -4.4960 
  153.0000     2.3970    75.8600     9.3020     8.0470     8.5730    24.4710    -4.5380 
  153.1250     2.4230    73.2150    10.9840     9.3680     9.6400    24.4420    -4.5560 
  153.2500     2.4530    67.5000    13.1470    11.1300    11.2540    24.4100    -4.5560 
  153.3750     2.4830    63.9040    15.6490    13.2730    13.7570    24.3940    -4.5420 
  153.5000     2.5100    62.7700    18.1980    15.6000    16.9660    24.4000    -4.5270 
  153.6250     2.5260    60.1910    20.2970    17.7180    20.7610    24.3900    -4.5180 
  153.7500     2.5290    55.4400    21.6700    19.2890    22.3520    24.3970    -4.5090 
  153.8750     2.5250    51.3370    22.2690    20.1600    22.4610    24.4230    -4.5020 
  154.0000     2.5190    51.3990    22.3000    20.4300    22.1320    24.4370    -4.4980 
  154.1250     2.5220    56.0550    22.0980    20.3530    21.6350    24.5060    -4.5040 
  154.2500     2.5350    58.7210    21.9590    20.2430    21.5690    24.6230    -4.5200 
  154.3750     2.5540    55.6030    21.9320    20.1920    21.5400    24.7320    -4.5460 
  154.5000     2.5710    49.8920    21.9500    20.1830    21.9030    24.8450    -4.5820 
  154.6250     2.5810    46.1940    21.9150    20.1530    22.0790    24.9190    -4.6270 
  154.7500     2.5850    42.5080    21.8080    20.0810    21.4280    24.9220    -4.6820 
  154.8750     2.5860    39.7260    21.6690    19.9980    21.2900    24.8940    -4.7380 
  155.0000     2.5880    41.0790    21.5650    19.9580    21.6790    24.8590    -4.7980 
  155.1250     2.5910    47.0130    21.5550    20.0130    21.1200    24.8290    -4.8660 
  155.2500     2.5940    50.4990    21.5910    20.1270    20.7000    24.8240    -4.9280 
  155.3750     2.5950    49.4500    21.5720    20.2130    20.2980    24.8220    -4.9840 
  155.5000     2.5910    47.4280    21.3760    20.1600    20.4410    24.7660    -5.0390 
  155.6250     2.5780    47.3410    20.8850    19.8440    20.4040    24.6990    -5.0950 
  155.7500     2.5590    47.0780    20.1750    19.3090    19.7660    24.6100    -5.1490 
  155.8750     2.5360    46.7090    19.3680    18.6450    18.3190    24.4830    -5.2060 
  156.0000     2.5140    47.2170    18.6280    17.9920    16.8890    24.3750    -5.2660 
  156.1250     2.4980    48.9270    18.1320    17.5140    16.4320    24.2960    -5.3290 
  156.2500     2.4890    50.6330    17.8700    17.2320    16.4850    24.2460    -5.4010 
  156.3750     2.4850    51.7730    17.7570    17.0900    16.2840    24.2370    -5.4800 
  156.5000     2.4820    52.2080    17.6600    16.9840    16.2160    24.2340    -5.5640 
  156.6250     2.4770    52.1720    17.4360    16.7850    17.4280    24.2460    -5.6420 
  156.7500     2.4690    51.5090    17.0740    16.4630    17.6330    24.2980    -5.7170 
  156.8750     2.4610    50.4910    16.6640    16.0790    16.2830    24.3620    -5.7790 
  157.0000     2.4550    49.9730    16.3520    15.7540    14.6500    24.4190    -5.8180 
  157.1250     2.4530    51.2960    16.3300    15.6550    14.1430    24.5010    -5.8290 
  157.2500     2.4570    53.5360    16.6180    15.8250    14.5490    24.5680    -5.8240 
  157.3750     2.4670    55.1650    17.1740    16.2510    15.2710    24.6050    -5.8030 
  157.5000     2.4840    54.7920    17.8870    16.8560    15.9120    24.6150    -5.7660 
  157.6250     2.5060    51.9440    18.6000    17.5150    17.2560    24.5640    -5.7150 
  157.7500     2.5280    49.1400    19.1770    18.0890    17.7030    24.5040    -5.6490 
  157.8750     2.5440    48.0850    19.5510    18.4970    17.9410    24.5050    -5.5740 
  158.0000     2.5530    48.5400    19.7060    18.7110    17.5690    24.5520    -5.4990 
  158.1250     2.5530    48.5080    19.6610    18.7340    17.2180    24.5820    -5.4310 
  158.2500     2.5490    49.9170    19.5420    18.6780    17.2790    24.6000    -5.3740 
  158.3750     2.5440    53.0690    19.4480    18.6340    17.8150    24.5870    -5.3260 
  158.5000     2.5410    56.1640    19.4580    18.6800    18.3790    24.5660    -5.2940 
  158.6250     2.5380    56.8320    19.6150    18.8710    19.0030    24.5540    -5.2860 
  158.7500     2.5320    55.0810    19.8430    19.1460    19.5180    24.4880    -5.3060 
  158.8750     2.5240    51.5030    20.0390    19.4180    19.6940    24.4040    -5.3510 
  159.0000     2.5140    49.0350    20.0910    19.5760    19.3250    24.3590    -5.4190 
  159.1250     2.5060    51.4690    19.8710    19.4840    19.3430    24.2990    -5.5020 
