~V
VERS. 2.00: Ver 2.00
~W
STRT.M 51.0000:
STOP.M 277.0000:
STEP.M 0.1250:
NULL. -999.2500:
UWI. F11053:
~C
DEPT.M :
GR.API :
RML.OHMM :
RI. :
RXO.OHMM :
CALI.CM :
DEN.GM/CC :
SP.MV :
~A
# ...
  253.5000    64.2260    10.9880     9.8880    16.6630    23.2600     2.5020    -0.1540 
  253.6250    65.5070    10.8120     9.7990    13.4120    23.1120     2.5210     0.1640 
  253.7500    65.0310    10.6470     9.7120    11.9950    23.0970     2.5150     0.4600 
  253.8750    63.4690    10.6090     9.7180    11.6650    23.1660     2.4950     0.7340 
  254.0000    63.6920    10.7650     9.8830    11.6900    23.3320     2.4690     0.9900 
  254.1250    65.1610    11.0540    10.1730    11.9980    23.7190     2.4420     1.2440 
  254.2500    65.9640    11.3870    10.5150    12.6580    24.1960     2.4130     1.5070 
  254.3750    65.9570    11.6840    10.8160    13.0950    24.5380     2.3850     1.7750 
  254.5000    65.9360    11.8710    10.9890    12.6940    24.7210     2.3570     2.0310 
  254.6250    65.6210    11.9670    11.0540    12.1730    24.7910     2.3370     2.2640 
  254.7500    64.6770    12.0500    11.0970    12.0620    24.8060     2.3300     2.4820 
  254.8750    64.1770    12.2250    11.2300    12.2590    24.8470     2.3430     2.6990 
  255.0000    65.1150    12.6200    11.5900    13.2880    24.9020     2.3830     2.8920 
  255.1250    65.8330    13.2420    12.1920    15.9810    24.9460     2.4370     3.0530 
  255.2500    65.2320    14.0170    12.9680    19.8650    24.9540     2.4890     3.1800 
  255.3750    64.0660    14.8050    13.7680    21.7370    24.9120     2.5210     3.2740 
  255.5000    64.5380    15.3880    14.3580    20.7460    24.8600     2.5210     3.3420 
  255.6250    67.8630    15.6500    14.6080    18.6110    24.8470     2.5010     3.4170 
  255.7500    71.8560    15.5810    14.5130    17.3060    24.8320     2.4740     3.5080 
  255.8750    72.7580    15.2630    14.1650    16.6790    24.8080     2.4500     3.5920 
  256.0000    70.6600    14.8420    13.7280    18.9490    24.8680     2.4320     3.6860 
  256.1250    69.6770    14.4730    13.3580    20.4080    24.9370     2.4140     3.7750 
  256.2500    70.1310    14.2440    13.1370    19.5220    24.8870     2.3960     3.8750 
  256.3750    69.2170    14.1920    13.0900    17.7370    24.7620     2.3870     3.9820 
  256.5000    68.1950    14.3260    13.2290    16.3900    24.5910     2.3940     4.0820 
  256.6250    69.2550    14.5870    13.4910    15.1500    24.6190     2.4110     4.1560 
  256.7500    70.7250    14.9180    13.8180    14.3100    24.7370     2.4350     4.1860 
  256.8750    71.0150    15.2640    14.1550    14.2690    24.7930     2.4630     4.1860 
  257.0000    70.4720    15.5710    14.4530    15.6400    24.7960     2.4960     4.1630 
  257.1250    69.6060    15.8050    14.6790    18.7630    24.7770     2.5280     4.1510 
  257.2500    68.7490    15.9470    14.8150    20.6420    24.7640     2.5470     4.1380 
  257.3750    68.8610    15.9900    14.8540    18.5260    24.7310     2.5450     4.1270 
  257.5000    70.2290    15.9230    14.7870    15.6330    24.5800     2.5200     4.1390 
  257.6250    70.7110    15.7790    14.6400    13.9810    24.2870     2.4870     4.1770 
  257.7500    68.8660    15.6030    14.4580    13.2370    23.9890     2.4600     4.2510 
  257.8750    66.1340    15.4420    14.2920    12.8270    23.8120     2.4490     4.3580 
  258.0000    65.4760    15.3540    14.2030    12.2020    23.8950     2.4550     4.4860 
  258.1250    66.6740    15.3620    14.2100    12.4150    24.2150     2.4750     4.6060 
  258.2500    67.7190    15.4670    14.3140    13.8830    24.5540     2.5000     4.6970 
  258.3750    68.1060    15.6470    14.4970    15.8390    24.7440     2.5240     4.7690 
  258.5000    69.0090    15.8590    14.7120    17.2440    24.7780     2.5400     4.8060 
  258.6250    69.9980    16.0480    14.9010    17.9540    24.7750     2.5440     4.8100 
  258.7500    70.6830    16.1850    15.0280    17.7120    24.7650     2.5340     4.7920 
  258.8750    71.6900    16.2720    15.0970    17.2530    24.7690     2.5150     4.7520 
  259.0000    72.4570    16.3440    15.1490    16.9420    24.8220     2.4930     4.6810 
  259.1250    73.2990    16.4410    15.2370    17.3790    24.9050     2.4780     4.6030 
  259.2500    74.4870    16.5700    15.3710    18.9680    24.9400     2.4760     4.5420 
  259.3750    75.1180    16.7030    15.5140    20.1200    24.8950     2.4860     4.5010 
  259.5000    74.7060    16.7960    15.6040    20.8350    24.8830     2.5040     4.4640 
  259.6250    74.1460    16.8410    15.6350    19.7920    24.8850     2.5180     4.4410 
  259.7500    74.2040    16.8660    15.6420    18.6170    24.9070     2.5190     4.4170 
  259.8750    74.0560    16.9120    15.6740    17.7620    24.9670     2.5070     4.3980 
  260.0000    72.6480    17.0280    15.7800    17.7760    25.0250     2.4910     4.3900 
  260.1250    70.9600    17.2210    15.9660    18.5010    25.0130     2.4830     4.4010 
  260.2500    70.6740    17.4800    16.2170    18.9860    24.9450     2.4900     4.4200 
  260.3750    71.6150    17.7780    16.5070    19.5960    24.8810     2.5100     4.4210 
  260.5000    71.2970    18.0870    16.8030    19.1900    24.8070     2.5330     4.4460 
  260.6250    69.9010    18.3800    17.0830    18.9670    24.7130     2.5490     4.4810 
  260.7500    70.3400    18.6390    17.3310    18.8100    24.6580     2.5520     4.5320 
  260.8750    72.9600    18.8440    17.5310    18.1220    24.6620     2.5440     4.5950 
  261.0000    74.9880    18.9600    17.6470    18.1130    24.7500     2.5300     4.6670 
  261.1250    74.6410    18.9740    17.6610    18.8820    24.8120     2.5130     4.7280 
  261.2500    72.6800    18.8920    17.5740    20.1620    24.7940     2.4960     4.7810 
  261.3750    71.6390    18.7410    17.4170    21.3500    24.7260     2.4780     4.8330 
  261.5000    72.5610    18.5700    17.2420    19.8260    24.6970     2.4650     4.8540 
  261.6250    72.6710    18.4310    17.1010    18.8950    24.7250     2.4600     4.8510 
  261.7500    70.0750    18.3620    17.0300    18.7230    24.7950     2.4590     4.8360 
  261.8750    66.9740    18.3800    17.0490    18.2330    24.8060     2.4590     4.8200 
  262.0000    66.8770    18.4870    17.1600    18.5690    24.6320     2.4590     4.8130 
  262.1250    69.3340    18.6420    17.3200    20.0080    24.4390     2.4620     4.8260 
  262.2500    72.3240    18.8040    17.4810    20.9490    24.4070     2.4680     4.8440 
  262.3750    74.4400    18.9380    17.6130    21.5350    24.5810     2.4710     4.8660 
  262.5000    74.8030    19.0180    17.6880    20.6290    24.7710     2.4600     4.8940 
  262.6250    74.4190    19.0460    17.7110    18.9610    24.8610     2.4360     4.9350 
  262.7500    74.1160    19.0310    17.6930    17.8910    24.8600     2.4120     4.9550 
  262.8750    74.3150    18.9970    17.6520    17.7100    24.8040     2.3970     4.9360 
  263.0000    74.4970    18.9910    17.6260    17.3920    24.7330     2.4010     4.8770 
  263.1250    73.9480    19.0810    17.6860    18.3240    24.6510     2.4170     4.7750 
  263.2500    73.4820    19.3280    17.9080    20.8730    24.5730     2.4350     4.6480 
  263.3750    73.6210    19.7580    18.3250    24.0230    24.5180     2.4570     4.4980 
  263.5000    73.6220    20.3380    18.9040    24.8880    24.4500     2.4840     4.3420 
  263.6250    72.7250    20.9330    19.5090    28.8900    24.3680     2.5190     4.1760 
  263.7500    71.4780    21.3940    19.9860    37.7700    24.2970     2.5550     4.0260 
  263.8750    70.5480    21.6030    20.1970    39.6810    24.2830     2.5810     3.9010 
  264.0000    71.1490    21.4720    20.0520    28.4930    24.3100     2.5840     3.7940 
  264.1250    73.8730    21.0900    19.6540    21.8950    24.3400     2.5650     3.7000 
  264.2500    76.3960    20.5760    19.1360    19.7230    24.3440     2.5320     3.6050 
  264.3750    76.3170    20.0370    18.6090    17.6890    24.3290     2.5020     3.5180 
  264.5000    75.7020    19.5510    18.1540    14.8220    24.3530     2.4920     3.4520 
  264.6250    77.0900    19.1220    17.7650    13.7920    24.3220     2.5020     3.4100 
