~V
VERS. 2.00: Ver 2.00
~W
STRT.M 52.0000:
STOP.M 287.0000:
STEP.M 0.1250:
NULL. -999.2500:
UWI. F11078:
~C
DEPT.M :
GR.API :
RML.OHMM :
RI. :
RXO.OHMM :
CALI.CM :
DEN.GM/CC :
SP.MV :
~A
# ...
   85.7500    76.8190    10.1880     7.5600     7.3790    23.6180     2.2020   -14.7560 
   85.8750    76.4010    10.4870     7.7230     7.3440    23.7200     2.2050   -14.8650 
   86.0000    75.5450    10.8000     7.9270     7.3530    23.7970     2.2080   -15.1020 
   86.1250    74.3730    11.0250     8.1210     7.3240    23.8190     2.2130   -15.4530 
   86.2500    74.1000    11.1190     8.2590     7.2350    23.8170     2.2200   -15.9310 
   86.3750    74.1490    11.0830     8.3120     7.1790    23.7930     2.2260   -16.5210 
   86.5000    70.9370    10.9370     8.2570     7.2430    23.7550     2.2280   -17.2140 
   86.6250    65.1200    10.7370     8.1340     7.2900    23.7730     2.2240   -17.9220 
   86.7500    61.9110    10.5100     7.9770     7.2910    23.8640     2.2140   -18.5790 
   86.8750    64.6100    10.2820     7.8160     7.2080    23.9790     2.2020   -19.1670 
   87.0000    71.5600    10.0960     7.6790     7.1280    24.0520     2.1890   -19.6200 
   87.1250    75.8340     9.9790     7.5780     6.9540    24.0280     2.1780   -19.9330 
   87.2500    73.9990     9.9350     7.5230     6.6560    23.9170     2.1710   -20.1010 
   87.3750    68.7360     9.9420     7.5110     6.6250    23.7420     2.1680   -20.1750 
   87.5000    65.9490     9.9650     7.5220     7.0090    23.5680     2.1690   -20.1490 
   87.6250    65.7420     9.9950     7.5250     7.3090    23.4070     2.1720   -20.0700 
   87.7500    66.9320    10.0570     7.5240     7.3010    23.2940     2.1780   -19.9390 
   87.8750    69.5460    10.1880     7.5580     7.2400    23.2950     2.1880   -19.7400 
   88.0000    73.1740    10.4240     7.6850     7.3100    23.4110     2.2000   -19.5340 
   88.1250    75.9000    10.7250     7.8940     7.4390    23.5440     2.2090   -19.3470 
   88.2500    74.9310    11.0130     8.1320     7.8560    23.6880     2.2080   -19.1330 
   88.3750    70.4990    11.1790     8.3150     8.5970    23.7930     2.1910   -18.8490 
   88.5000    66.3850    11.0970     8.3310     9.0600    23.7580     2.1600   -18.4260 
   88.6250    66.1780    10.8290     8.1960     8.0780    23.6730     2.1280   -17.8630 
   88.7500    68.4850    10.4970     7.9700     7.4790    23.5800     2.1080   -17.2620 
   88.8750    69.1950    10.2420     7.7310     7.2640    23.4900     2.1090   -16.7270 
   89.0000    67.8860    10.1700     7.5570     7.2510    23.3800     2.1270   -16.2830 
   89.1250    67.6180    10.2090     7.4660     7.2660    23.2800     2.1490   -15.9360 
   89.2500    68.2560    10.2700     7.4500     7.1490    23.1980     2.1620   -15.6870 
   89.3750    69.2460    10.2960     7.4790     6.9770    23.0820     2.1600   -15.5250 
   89.5000    69.2690    10.2940     7.5330     6.8770    22.9720     2.1450   -15.5140 
   89.6250    68.7310    10.3100     7.5990     7.0360    22.9840     2.1260   -15.6590 
   89.7500    67.7230    10.3490     7.6750     7.1100    23.0890     2.1130   -15.8970 
   89.8750    66.9800    10.3780     7.7550     7.1490    23.1960     2.1090   -16.1660 
   90.0000    67.5900    10.3570     7.8320     7.2680    23.2750     2.1140   -16.4120 
   90.1250    68.9730    10.3140     7.8960     7.4570    23.3120     2.1220   -16.5990 
   90.2500    70.3570    10.3090     7.9360     7.7110    23.3300     2.1300   -16.7480 
   90.3750    71.2200    10.3860     7.9450     7.8780    23.3660     2.1350   -16.8630 
   90.5000    70.7350    10.5350     7.9210     7.7780    23.4460     2.1360   -16.9290 
   90.6250    69.9140    10.6720     7.8850     7.6290    23.5330     2.1330   -16.9790 
   90.7500    70.5280    10.7350     7.8580     7.4950    23.5690     2.1290   -17.0330 
   90.8750    71.9990    10.7000     7.8510     7.4690    23.5210     2.1280   -17.0750 
   91.0000    72.3930    10.5590     7.8520     7.4850    23.4390     2.1340   -17.0740 
   91.1250    72.4170    10.3280     7.8150     7.4680    23.3680     2.1460   -17.0160 
   91.2500    74.2380    10.0060     7.6920     7.3630    23.3320     2.1630   -16.9120 
   91.3750    77.3250     9.6020     7.4570     7.2470    23.3270     2.1820   -16.7700 
   91.5000    79.2400     9.1490     7.1170     7.1740    23.3360     2.2020   -16.5490 
   91.6250    81.6220     8.7390     6.7580     7.0550    23.3600     2.2250   -16.2040 
   91.7500    85.4010     8.4910     6.4640     6.8650    23.4480     2.2460   -15.7180 
   91.8750    87.0370     8.5500     6.3440     6.5770    23.6650     2.2550   -15.1330 
   92.0000    83.4600     9.1030     6.5780     6.6960    23.8640     2.2330   -14.5120 
   92.1250    78.9760    10.0310     7.1770     7.0680    23.9630     2.1880   -13.9000 
   92.2500    77.0400    11.0560     8.0400     7.6060    24.0050     2.1450   -13.2880 
   92.3750    78.1910    11.7380     8.8640     9.1640    24.0580     2.1400   -12.6550 
   92.5000    82.6120    11.5040     9.0520    11.6040    24.1420     2.1980   -12.0230 
   92.6250    89.4310    10.4360     8.4300    11.2200    24.3090     2.2870   -11.4350 
   92.7500    96.3320     8.9030     7.2610     7.2970    24.4730     2.3650   -10.9070 
   92.8750   102.8880     7.4190     6.0250     5.2950    24.5590     2.4030   -10.4450 
   93.0000   109.4700     6.4730     5.1410     5.1090    24.5220     2.3930   -10.0980 
   93.1250   112.8690     6.1020     4.6750     5.2020    24.4320     2.3660    -9.8690 
   93.2500   110.3690     6.2210     4.6040     5.4420    24.2840     2.3370    -9.7710 
   93.3750   103.9660     6.6690     4.8500     5.8010    24.0900     2.3120    -9.8040 
   93.5000    98.9460     7.2410     5.3010     6.2100    23.8700     2.2820    -9.9620 
   93.6250    97.0490     7.7140     5.7710     6.3320    23.6220     2.2400   -10.1900 
   93.7500    95.9140     7.9800     6.1500     6.4220    23.2610     2.1910   -10.4820 
   93.8750    95.4310     8.0280     6.3810     6.4530    22.7890     2.1430   -10.8180 
   94.0000    95.1540     7.9250     6.4570     6.6070    22.3910     2.1120   -11.1900 
   94.1250    92.7430     7.8200     6.4750     6.6700    22.1700     2.1030   -11.6000 
   94.2500    87.9470     7.8000     6.5070     6.6460    22.1230     2.1110   -12.0510 
   94.3750    83.8500     7.9070     6.6110     6.5820    22.2250     2.1240   -12.5370 
   94.5000    82.1370     8.1450     6.8290     6.9180    22.4800     2.1250   -13.0350 
   94.6250    79.9930     8.4210     7.1150     7.1050    22.8440     2.1120   -13.5020 
   94.7500    76.6950     8.6230     7.3810     7.0930    23.2120     2.0880   -13.8380 
   94.8750    73.2370     8.6180     7.5070     7.0680    23.4910     2.0630   -13.9810 
   95.0000    73.8850     8.2610     7.3200     7.0350    23.6730     2.0510   -13.7900 
   95.1250    79.7340     7.6360     6.8390     6.7120    23.8420     2.0580   -13.2500 
   95.2500    89.4290     6.8820     6.1600     6.0820    24.0240     2.0850   -12.4060 
   95.3750    98.7990     6.1660     5.4360     5.5230    24.2080     2.1290   -11.3540 
   95.5000   106.2130     5.6340     4.8250     5.0080    24.4420     2.1800   -10.1910 
   95.6250   112.3520     5.2770     4.3750     4.6850    24.5960     2.2250    -9.0470 
   95.7500   116.5830     5.0480     4.0850     4.5290    24.5590     2.2570    -8.0340 
   95.8750   117.3790     4.8940     3.9210     4.4770    24.5090     2.2780    -7.1890 
   96.0000   113.2230     4.7980     3.8360     4.4630    24.6290     2.2940    -6.5960 
   96.1250   107.0270     4.7570     3.7670     4.4630    24.8080     2.3080    -6.2740 
   96.2500   102.1770     4.7860     3.6960     4.4650    24.8980     2.3200    -6.1900 
   96.3750   100.9740     4.9300     3.6480     4.6520    24.8540     2.3220    -6.2550 
   96.5000   103.5250     5.3710     3.7600     4.9580    24.7100     2.3110    -6.3870 
   96.6250   104.7410     6.3240     4.1990     5.2780    24.6310     2.2940    -6.5170 
   96.7500   100.6620     8.0690     5.1980     6.1660    24.6350     2.2870    -6.6550 
   96.8750    91.1830    10.7890     7.0090     9.0100    24.6130     2.3070    -6.8400 
