~V
VERS. 2.00: Ver 2.00
~W
STRT.M 53.0000:
STOP.M 279.0000:
STEP.M 0.1250:
NULL. -999.2500:
UWI. F11057:
~C
DEPT.M :
GR.API :
RML.OHMM :
RI. :
RXO.OHMM :
CALI.CM :
DEN.GM/CC :
SP.MV :
~A
# ...
   86.7500    85.7380    14.4550    12.4120    16.6500    24.8240     2.3820   -21.7050 
   86.8750    85.0160    11.2760     9.6690    12.0630    24.8240     2.3010   -22.3670 
   87.0000    82.9570     9.8230     8.0760    11.1420    24.8240     2.2470   -23.0420 
   87.1250    82.2640     9.7190     7.4780    11.2160    24.8240     2.2180   -23.6570 
   87.2500    81.1930    10.1990     7.4280    11.4390    24.8240     2.2000   -24.1900 
   87.3750    78.8770    10.8140     7.6590    11.7280    24.8240     2.1900   -24.6360 
   87.5000    76.4900    11.2360     7.9330    11.9370    24.8240     2.1830   -25.0020 
   87.6250    75.6990    11.2890     8.0810    11.8350    24.8240     2.1760   -25.2680 
   87.7500    76.3260    11.1080     8.0940    11.3730    24.8200     2.1650   -25.4600 
   87.8750    76.9260    10.8130     8.0090    10.9780    24.8060     2.1540   -25.5840 
   88.0000    76.2990    10.5090     7.8780    10.8150    24.7660     2.1480   -25.6560 
   88.1250    76.7140    10.2830     7.7580    10.7090    24.7290     2.1510   -25.6770 
   88.2500    79.7380    10.1400     7.6750    10.5220    24.6940     2.1570   -25.6680 
   88.3750    81.0540    10.0620     7.6310    10.3480    24.6820     2.1610   -25.6090 
   88.5000    77.5360    10.0210     7.6150    10.3350    24.6800     2.1620   -25.4800 
   88.6250    73.8800    10.0040     7.6160    10.4550    24.6700     2.1590   -25.2480 
   88.7500    73.8540     9.9950     7.6150    10.5240    24.6470     2.1550   -24.9400 
   88.8750    75.8460     9.9730     7.5940    10.4140    24.6230     2.1540   -24.5630 
   89.0000    78.0230     9.9140     7.5310    10.2390    24.6140     2.1570   -24.1070 
   89.1250    80.7140     9.8010     7.4100     9.9880    24.6140     2.1610   -23.5750 
   89.2500    81.6840     9.6500     7.2490     9.6860    24.6140     2.1680   -22.9910 
   89.3750    80.5520     9.4800     7.0650     9.3770    24.6160     2.1780   -22.3790 
   89.5000    81.6530     9.3320     6.8840     8.9770    24.6170     2.1910   -21.7820 
   89.6250    86.2730     9.2970     6.7650     8.6470    24.6170     2.2020   -21.2610 
   89.7500    87.3730     9.4490     6.7640     8.7440    24.6170     2.2130   -20.8400 
   89.8750    83.9070     9.8470     6.9410     9.4120    24.6170     2.2290   -20.5010 
   90.0000    80.2770    10.4820     7.3180    10.7350    24.6170     2.2570   -20.2390 
   90.1250    78.8250    11.2670     7.8760    11.5250    24.6210     2.3030   -20.0820 
   90.2500    78.9510    12.0900     8.5130    11.3580    24.6580     2.3710   -20.0260 
   90.3750    80.5470    12.9840     9.2040    11.8500    24.7490     2.4530   -20.0930 
   90.5000    82.0620    14.0130     9.9800    13.0270    24.8270     2.5220   -20.2890 
   90.6250    79.9010    14.9660    10.7520    18.9670    24.7560     2.5380   -20.6020 
   90.7500    77.0880    15.2760    11.1560    23.8060    24.5650     2.4940   -20.9820 
   90.8750    77.4410    14.5080    10.8340    18.5940    24.4000     2.4060   -21.4120 
   91.0000    77.8050    12.8670     9.8150    12.4830    24.3330     2.3060   -21.8820 
   91.1250    75.3810    11.2620     8.6290    10.6870    24.3230     2.2340   -22.3740 
   91.2500    73.4480    10.3940     7.8140    10.2740    24.2930     2.1980   -22.8530 
   91.3750    74.7010    10.3290     7.4980    10.3070    24.2260     2.1850   -23.2780 
   91.5000    76.1510    10.7810     7.5840    10.5300    24.1580     2.1800   -23.6100 
   91.6250    74.1300    11.3110     7.8550    10.9130    24.1330     2.1730   -23.8270 
   91.7500    73.3820    11.6030     8.0720    11.2280    24.1580     2.1610   -23.9590 
   91.8750    76.2160    11.6200     8.1640    11.2390    24.2380     2.1470   -24.0260 
   92.0000    79.4550    11.4540     8.1420    10.9570    24.3720     2.1370   -24.0380 
   92.1250    77.6240    11.2320     8.0520    10.6390    24.4460     2.1380   -23.9960 
   92.2500    73.8880    11.0710     7.9630    10.5130    24.4700     2.1450   -23.9110 
   92.3750    72.5860    11.0160     7.9130    10.5250    24.4660     2.1520   -23.7980 
   92.5000    74.2180    11.0510     7.9080    10.5960    24.4470     2.1540   -23.6730 
   92.6250    75.7290    11.1130     7.9280    10.5490    24.4170     2.1530   -23.5590 
   92.7500    75.3050    11.1370     7.9360    10.5790    24.4040     2.1540   -23.4690 
   92.8750    74.3610    11.1020     7.9140    10.5390    24.4000     2.1570   -23.3970 
   93.0000    73.3240    11.0120     7.8560    10.3520    24.4000     2.1620   -23.3500 
   93.1250    71.8170    10.8860     7.7680    10.1010    24.4000     2.1670   -23.3280 
   93.2500    71.8390    10.7540     7.6660     9.8650    24.4000     2.1720   -23.3290 
   93.3750    76.9340    10.6270     7.5610     9.6010    24.4000     2.1750   -23.3490 
   93.5000    83.2460    10.5110     7.4580     9.3090    24.4000     2.1710   -23.3690 
   93.6250    84.7020    10.4050     7.3590     9.1330    24.4000     2.1560   -23.3640 
   93.7500    83.4770    10.3190     7.2740     9.0240    24.4000     2.1360   -23.3420 
   93.8750    82.6150    10.2680     7.2160     9.0390    24.4000     2.1220   -23.3030 
   94.0000    82.8610    10.2640     7.1950     9.1970    24.4000     2.1220   -23.2600 
   94.1250    84.9780    10.3030     7.2160     9.4640    24.4150     2.1360   -23.2000 
   94.2500    86.8700    10.3370     7.2520     9.6830    24.4680     2.1490   -23.1200 
   94.3750    86.3500    10.3250     7.2790     9.7930    24.5650     2.1570   -23.0230 
   94.5000    84.3940    10.2370     7.2780     9.8410    24.6710     2.1580   -22.9010 
   94.6250    82.5890    10.0550     7.2340     9.8580    24.7300     2.1530   -22.7170 
   94.7500    80.6180     9.8100     7.1540     9.7460    24.7490     2.1450   -22.4500 
   94.8750    78.6480     9.5310     7.0410     9.5840    24.7520     2.1370   -22.0680 
   95.0000    77.9710     9.2440     6.9000     9.5270    24.7520     2.1320   -21.5470 
   95.1250    77.5680     8.9630     6.7330     9.5090    24.7540     2.1410   -20.8450 
   95.2500    78.4660     8.6750     6.5420     9.6380    24.7750     2.1630   -19.9910 
   95.3750    82.4790     8.3440     6.3140     9.6940    24.8390     2.1960   -18.9990 
   95.5000    89.0600     7.9360     6.0280     9.2410    24.9480     2.2340   -17.8980 
   95.6250    96.7500     7.4640     5.6820     8.0010    25.0510     2.2730   -16.8040 
   95.7500   103.0980     7.0330     5.3370     7.1020    25.1260     2.3020   -15.7590 
   95.8750   105.8990     6.7250     5.0520     6.9230    25.1590     2.3110   -14.7820 
   96.0000   106.3270     6.5620     4.8580     6.7230    25.1670     2.3030   -13.9250 
   96.1250   108.7570     6.4950     4.7440     6.4840    25.1670     2.2970   -13.2450 
   96.2500   110.8720     6.4110     4.6440     6.2650    25.1680     2.3060   -12.7200 
   96.3750   110.3350     6.2620     4.5210     5.9780    25.1820     2.3270   -12.3460 
   96.5000   109.5590     6.0790     4.3780     5.6350    25.2210     2.3530   -12.1070 
   96.6250   111.8560     5.9850     4.2800     5.3950    25.2800     2.3720   -11.9810 
   96.7500   114.2910     6.0650     4.2860     5.4170    25.3050     2.3810   -11.9060 
   96.8750   113.0670     6.3390     4.4220     5.8390    25.3110     2.3820   -11.9050 
   97.0000   107.7260     6.7580     4.6760     6.4680    25.3110     2.3790   -11.9740 
   97.1250   100.6480     7.2070     4.9920     6.8440    25.3100     2.3680   -12.0960 
   97.2500    94.4900     7.5520     5.2780     6.8350    25.3080     2.3520   -12.2490 
   97.3750    90.4490     7.7420     5.4830     6.8070    25.3090     2.3330   -12.4330 
   97.5000    88.2850     7.7990     5.6010     6.8570    25.3100     2.3180   -12.6460 
   97.6250    89.9470     7.7770     5.6500     7.0450    25.3110     2.3090   -12.8870 
   97.7500    94.5180     7.7360     5.6630     7.1000    25.3110     2.3020   -13.1440 
   97.8750    99.5590     7.7120     5.6590     6.9600    25.3100     2.2940   -13.4320 
