~V
VERS. 2.00: Ver 2.00
~W
STRT.M 62.0000:
STOP.M 272.0000:
STEP.M 0.1250:
NULL. -999.2500:
UWI. F11076:
~C
DEPT.M :
GR.API :
RML.OHMM :
RI. :
RXO.OHMM :
CALI.CM :
DEN.GM/CC :
SP.MV :
~A
# ...
  174.5000    90.8390     6.2570     4.8000     5.1050    25.4660     2.3180   -14.7560 
  174.6250    96.0230     6.2100     4.7590     5.0460    25.4790     2.3270   -14.6860 
  174.7500    99.3890     6.1660     4.7210     5.0300    25.4330     2.3270   -14.6450 
  174.8750    99.0240     6.1280     4.6910     4.9760    25.4180     2.3240   -14.5750 
  175.0000    95.3080     6.0820     4.6620     4.9800    25.4600     2.3300   -14.4780 
  175.1250    92.5960     6.0040     4.6130     5.0460    25.4870     2.3500   -14.3320 
  175.2500    93.6440     5.8890     4.5310     5.0950    25.5860     2.3680   -14.1640 
  175.3750    94.6280     5.7500     4.4200     4.8310    25.8280     2.3620   -14.0240 
  175.5000    91.7330     5.6230     4.3050     4.4340    26.3770     2.3150   -13.9110 
  175.6250    87.9170     5.5660     4.2290     4.0090    27.2460     2.2340   -13.8560 
  175.7500    87.2180     5.6060     4.2210     3.8030    27.5450     2.1650   -13.7630 
  175.8750    87.7280     5.7420     4.2900     4.0930    26.9180     2.1400   -13.6990 
  176.0000    88.5960     5.9400     4.4250     4.6540    26.1620     2.1680   -13.6650 
  176.1250    91.1070     6.1440     4.5920     5.1960    25.8280     2.2260   -13.7230 
  176.2500    92.3070     6.3000     4.7430     5.4890    25.7570     2.2740   -13.8280 
  176.3750    90.6810     6.3890     4.8520     5.4350    25.7490     2.2960   -13.9700 
  176.5000    90.3790     6.4150     4.9100     5.3590    25.7220     2.2970   -14.1330 
  176.6250    94.7650     6.3990     4.9250     5.3620    25.7030     2.2920   -14.3120 
  176.7500    97.8240     6.3800     4.9230     5.3810    25.6780     2.2910   -14.4750 
  176.8750    96.6360     6.3780     4.9250     5.3440    25.6740     2.2960   -14.6200 
  177.0000    94.1140     6.4000     4.9430     5.2920    25.6890     2.3010   -14.7130 
  177.1250    92.6740     6.4440     4.9770     5.3610    25.7070     2.3040   -14.7140 
  177.2500    91.5300     6.4950     5.0170     5.5080    25.7110     2.3050   -14.6690 
  177.3750    90.9560     6.5370     5.0500     5.5930    25.6810     2.3070   -14.5650 
  177.5000    92.5890     6.5560     5.0640     5.4770    25.6380     2.3130   -14.4410 
  177.6250    95.0400     6.5360     5.0420     5.1600    25.6190     2.3180   -14.2810 
  177.7500    95.4870     6.4770     4.9930     5.0660    25.6330     2.3190   -14.1270 
  177.8750    94.7110     6.3860     4.9210     5.0580    25.6590     2.3150   -13.9680 
  178.0000    93.5810     6.2850     4.8360     4.9940    25.6760     2.3080   -13.8250 
  178.1250    91.3340     6.2250     4.7640     4.8680    25.7030     2.3030   -13.7450 
  178.2500    88.8570     6.2580     4.7410     4.8580    25.7500     2.3020   -13.7360 
  178.3750    87.4340     6.4240     4.8080     4.9340    25.8190     2.3070   -13.7860 
  178.5000    88.5280     6.7350     4.9970     5.1510    25.8670     2.3130   -13.8870 
  178.6250    90.3360     7.1690     5.3290     5.9060    25.7970     2.3180   -14.0620 
  178.7500    90.0980     7.6120     5.7280     7.0940    25.6700     2.3170   -14.3060 
  178.8750    89.0260     7.9690     6.1030     7.7330    25.5400     2.3110   -14.6280 
  179.0000    88.8060     8.1870     6.3690     7.7390    25.4120     2.3010   -15.0270 
  179.1250    90.1890     8.3000     6.4960     7.2610    25.2830     2.2930   -15.5060 
  179.2500    92.9550     8.4660     6.6100     6.5900    25.0920     2.2870   -16.0320 
  179.3750    97.0050     8.8090     6.8410     6.1950    24.8340     2.2870   -16.6040 
  179.5000    99.5490     9.3550     7.2630     6.4970    24.5920     2.2980   -17.1410 
  179.6250    96.4560     9.9720     7.8350     7.4620    24.4610     2.3260   -17.6390 
  179.7500    91.9530    10.3960     8.3350     8.9790    24.4150     2.3680   -18.0290 
  179.8750    90.3920    10.4400     8.5460    10.3270    24.4690     2.4100   -18.3030 
  180.0000    91.0250    10.0840     8.3690     9.3310    24.7330     2.4400   -18.4790 
  180.1250    89.1520     9.5020     7.9030     7.1240    25.2470     2.4450   -18.5470 
  180.2500    84.7560     9.0260     7.4580     6.4630    25.6090     2.4370   -18.5410 
  180.3750    81.7280     8.8440     7.2160     6.9120    25.7400     2.4270   -18.4980 
  180.5000    82.1600     9.0090     7.2600     7.5340    25.7890     2.4210   -18.5160 
  180.6250    84.4910     9.4840     7.6180     7.9500    25.9400     2.4170   -18.6550 
  180.7500    86.0470    10.0650     8.1430     8.9090    26.1120     2.4080   -18.9940 
  180.8750    87.8490    10.6080     8.7010    10.3940    26.0430     2.3920   -19.5270 
  181.0000    89.8860    11.0150     9.1770    11.5750    25.7230     2.3740   -20.2050 
  181.1250    89.7770    11.2370     9.4870    11.2210    25.4770     2.3610   -20.9360 
  181.2500    87.4310    11.3530     9.6770    10.7260    25.3540     2.3560   -21.6540 
  181.3750    84.5080    11.4280     9.7980    10.2990    25.3250     2.3530   -22.3400 
  181.5000    81.9460    11.5020     9.8880     9.8700    25.3220     2.3490   -22.9550 
  181.6250    81.2510    11.5610     9.9470    10.0100    25.2120     2.3420   -23.4350 
  181.7500    83.4900    11.5610     9.9420    10.5340    24.9570     2.3380   -23.7250 
  181.8750    88.6070    11.4680     9.8460    10.3610    24.6730     2.3400   -23.8110 
  182.0000    93.2230    11.2910     9.6620     9.1900    24.4530     2.3470   -23.7440 
  182.1250    93.8860    11.0820     9.4360     8.3970    24.2480     2.3530   -23.6340 
  182.2500    93.9370    10.9240     9.2420     8.1760    24.0140     2.3540   -23.4940 
  182.3750    94.8230    10.8720     9.1400     8.3590    23.9240     2.3520   -23.3490 
  182.5000    93.9410    10.9580     9.1720     8.6360    24.0640     2.3510   -23.1950 
  182.6250    89.9860    11.2070     9.3690     8.6520    24.2680     2.3560   -23.0390 
  182.7500    86.6660    11.5970     9.6960     8.7510    24.2800     2.3620   -22.8960 
  182.8750    86.5570    12.1510    10.1600     9.2990    24.1020     2.3640   -22.8080 
  183.0000    88.3090    12.9150    10.8020    10.3900    23.9270     2.3630   -22.7510 
  183.1250    87.9730    13.9760    11.7120    11.3810    23.8950     2.3570   -22.6930 
  183.2500    85.5690    15.2860    12.8730    12.8300    24.1830     2.3490   -22.6770 
  183.3750    84.1620    16.7550    14.2470    15.7380    24.6880     2.3390   -22.6990 
  183.5000    84.4350    18.2050    15.7160    19.1660    25.2150     2.3260   -22.7330 
  183.6250    85.1490    19.3170    17.0040    19.7130    25.6000     2.3100   -22.7200 
  183.7500    85.0300    19.9250    17.8460    19.7090    25.7180     2.2990   -22.7080 
  183.8750    83.7880    20.0270    18.1200    19.9570    25.7470     2.2950   -22.6630 
  184.0000    80.5330    19.8460    17.9570    20.2470    25.7850     2.3030   -22.6160 
  184.1250    77.9940    19.8800    17.7760    19.4400    25.7980     2.3210   -22.5720 
  184.2500    78.9670    20.5950    18.0780    17.0850    25.7870     2.3370   -22.5510 
  184.3750    80.3460    22.3410    19.2560    17.4050    25.7650     2.3400   -22.5060 
  184.5000    79.2290    25.6210    21.6270    21.5110    25.7610     2.3270   -22.4980 
  184.6250    77.8540    30.7660    25.5190    29.0590    25.7750     2.2990   -22.5590 
  184.7500    77.9140    36.3210    30.2630    36.4080    25.7740     2.2690   -22.6830 
  184.8750    76.8040    40.5810    34.7800    41.5180    25.7680     2.2470   -22.8450 
  185.0000    73.7380    42.4000    37.7050    43.4550    25.7910     2.2360   -23.0290 
  185.1250    71.1920    41.4170    37.8360    41.2320    25.8070     2.2380   -23.2300 
  185.2500    71.6990    38.8860    36.0830    34.1180    25.7940     2.2460   -23.4170 
  185.3750    74.5090    35.8020    33.4830    29.1430    25.7490     2.2580   -23.6130 
  185.5000    77.7250    33.0070    30.9030    28.3030    25.7300     2.2710   -23.7560 
  185.6250    81.0570    30.9910    28.9250    25.3260    25.7280     2.2860   -23.8550 
