~V
VERS. 2.00: Ver 2.00
~W
STRT.M 50.0000:
STOP.M 229.0000:
STEP.M 0.1250:
NULL. -999.2500:
UWI. F11009:
~C
DEPT.M :
DEN.GM/CC :
GR.API :
RML.OHMM :
RI. :
RXO.OHMM :
CALI.CM :
SP.MV :
~A
# ...
   95.0000     2.3010    67.9770     8.8590     8.1300    20.9310    26.0850   -13.5750 
   95.1250     2.2560    71.1090     8.0650     7.3780    12.8380    26.2020   -13.5660 
   95.2500     2.2410    73.7840     7.7250     6.9360    10.4980    26.4210   -13.6410 
   95.3750     2.2440    73.4610     7.7540     6.8030    10.3180    26.6600   -13.7730 
   95.5000     2.2470    73.2410     7.9900     6.8990    10.8820    26.8510   -13.8830 
   95.6250     2.2410    75.2680     8.2430     7.0980    11.8440    27.0950   -13.9320 
   95.7500     2.2330    76.2260     8.3660     7.2540    12.8590    27.3320   -13.9180 
   95.8750     2.2310    74.6430     8.3050     7.2900    14.0030    27.5090   -13.8940 
   96.0000     2.2420    74.3480     8.0670     7.1780    13.8380    27.6260   -13.8640 
   96.1250     2.2600    77.3110     7.7150     6.9350    12.3600    27.5620   -13.8530 
   96.2500     2.2710    79.3200     7.3790     6.6580    10.9540    27.2910   -13.8860 
   96.3750     2.2710    79.7420     7.1530     6.4260     9.5300    26.9760   -13.9900 
   96.5000     2.2650    81.2190     7.0930     6.2970     8.9500    26.8230   -14.1980 
   96.6250     2.2630    81.9310     7.2230     6.3170     8.8440    26.8720   -14.5980 
   96.7500     2.2640    78.0900     7.4510     6.4400     8.9340    26.9680   -15.1530 
   96.8750     2.2630    71.7530     7.6880     6.6120     9.8430    27.0300   -15.7650 
   97.0000     2.2530    68.2760     7.8570     6.7700    11.2440    27.0290   -16.3790 
   97.1250     2.2370    68.9120     7.9030     6.8580    11.6810    26.9630   -16.9320 
   97.2500     2.2250    71.7440     7.8730     6.8830    11.3440    26.8900   -17.3940 
   97.3750     2.2230    77.2240     7.8170     6.8670    11.0910    26.8310   -17.7530 
   97.5000     2.2290    81.2240     7.7790     6.8390    11.2550    26.7980   -18.0390 
   97.6250     2.2350    78.9190     7.7680     6.8150    11.5360    26.7810   -18.2430 
   97.7500     2.2320    75.4450     7.7450     6.7830    11.4640    26.7420   -18.4070 
   97.8750     2.2240    75.4940     7.6720     6.7230    10.8890    26.6390   -18.5700 
   98.0000     2.2140    77.0010     7.5330     6.6240    10.3800    26.5200   -18.7740 
   98.1250     2.2090    76.0960     7.3530     6.4960    10.0220    26.5270   -19.0050 
   98.2500     2.2090    74.8240     7.1930     6.3760     9.6230    26.6200   -19.2610 
   98.3750     2.2130    74.6230     7.0920     6.2910     8.9860    26.7060   -19.5600 
   98.5000     2.2150    75.2130     7.0650     6.2530     8.4430    26.7560   -19.8560 
   98.6250     2.2120    75.6940     7.0970     6.2660     8.5390    26.7060   -20.0540 
   98.7500     2.2020    75.3360     7.1390     6.3000     9.3720    26.5620   -20.1260 
   98.8750     2.1880    74.0960     7.1560     6.3320     9.9600    26.3920   -20.0660 
   99.0000     2.1750    74.2860     7.1240     6.3380    10.2470    26.2570   -19.8810 
   99.1250     2.1710    77.9270     7.0160     6.2850    10.1340    26.1030   -19.5930 
   99.2500     2.1770    82.3460     6.8440     6.1700     9.9500    25.9440   -19.2330 
   99.3750     2.1930    84.8420     6.6330     6.0030     9.7160    25.8410   -18.8070 
   99.5000     2.2150    85.6810     6.4280     5.8180     9.4470    25.8050   -18.3780 
   99.6250     2.2330    85.1470     6.3050     5.6700     9.1570    25.8040   -18.0320 
   99.7500     2.2390    82.3030     6.2920     5.5990     8.6640    25.7860   -17.8880 
   99.8750     2.2320    77.3750     6.3870     5.6190     8.2560    25.7470   -17.9650 
  100.0000     2.2150    73.2030     6.5520     5.7170     8.7390    25.6910   -18.2270 
  100.1250     2.1980    73.8210     6.7120     5.8560     9.7090    25.6580   -18.6690 
  100.2500     2.1890    77.1630     6.7980     5.9740    10.1280    25.6510   -19.2080 
  100.3750     2.1910    79.3030     6.7840     6.0300    10.1230    25.6650   -19.8270 
  100.5000     2.2050    77.5390     6.6920     6.0160    10.1200    25.6690   -20.4970 
  100.6250     2.2310    73.8410     6.6280     5.9810    10.2110    25.6480   -21.1620 
  100.7500     2.2650    71.1790     6.7180     6.0210    10.3530    25.6070   -21.7010 
  100.8750     2.3020    69.6210     7.0360     6.2180    10.3720    25.5770   -22.0980 
  101.0000     2.3260    69.2210     7.5670     6.5980    10.1820    25.6270   -22.4020 
  101.1250     2.3150    69.2300     8.1750     7.1120    10.2390    25.8270   -22.6310 
  101.2500     2.2640    68.0560     8.6230     7.5730    10.5150    26.0900   -22.8390 
  101.3750     2.1900    67.3860     8.7460     7.8220    11.4990    26.2770   -23.0460 
  101.5000     2.1200    69.2550     8.5050     7.7730    12.7800    26.3390   -23.2250 
  101.6250     2.0960    71.2720     7.9980     7.4450    12.2540    26.3010   -23.3780 
  101.7500     2.1240    70.6450     7.4880     7.0390    10.1970    26.2090   -23.5020 
  101.8750     2.1900    69.4870     7.1260     6.6940     9.0770    26.0470   -23.6020 
  102.0000     2.2630    70.5700     6.9620     6.4800     8.8010    25.8710   -23.6900 
  102.1250     2.3060    72.4630     6.9720     6.4130     9.0760    25.7880   -23.7600 
  102.2500     2.3100    72.8290     7.0400     6.4150     9.4730    25.7870   -23.8130 
  102.3750     2.2830    71.1510     7.1160     6.4410     9.6580    25.8130   -23.8240 
  102.5000     2.2470    68.9640     7.2010     6.4830     9.7460    25.8320   -23.7970 
  102.6250     2.2290    70.0770     7.3530     6.5810     9.9090    25.8660   -23.7280 
  102.7500     2.2330    73.1820     7.5960     6.7610    10.2040    25.9320   -23.6310 
  102.8750     2.2480    74.9190     7.9090     7.0210    10.4110    26.0020   -23.5290 
  103.0000     2.2610    74.4040     8.2210     7.3130    10.5640    26.0870   -23.4080 
  103.1250     2.2570    73.3940     8.4010     7.5370    10.6040    26.3060   -23.2520 
  103.2500     2.2360    72.5550     8.3960     7.6230    10.4350    26.6700   -23.0520 
  103.3750     2.2030    70.7690     8.2420     7.5670    10.0890    26.9840   -22.8100 
  103.5000     2.1690    68.5980     8.0750     7.4480     9.8220    27.1360   -22.5400 
  103.6250     2.1470    68.7790     8.1350     7.4440    10.1120    27.1430   -22.2240 
  103.7500     2.1480    70.6630     8.5240     7.6850    11.7390    27.0520   -21.8330 
  103.8750     2.1760    72.8490     9.2070     8.2010    15.3740    26.8940   -21.3280 
  104.0000     2.2270    74.2120     9.9870     8.8910    21.4390    26.7880   -20.7290 
  104.1250     2.2850    74.6380    10.4910     9.4780    32.4150    26.7830   -20.0830 
  104.2500     2.3280    75.4460    10.5020     9.7060    44.3880    26.8080   -19.4440 
  104.3750     2.3450    78.4180    10.0140     9.4850    34.7460    26.8850   -18.8800 
  104.5000     2.3350    84.2920     9.2200     8.9140    16.6810    27.0730   -18.4540 
  104.6250     2.3060    88.6520     8.4220     8.2210    12.1150    27.3530   -18.2320 
  104.7500     2.2770    87.4130     7.8210     7.6290    10.7800    27.6590   -18.1930 
  104.8750     2.2500    84.2330     7.4440     7.2090    10.0870    27.9390   -18.3180 
  105.0000     2.2240    84.3720     7.2320     6.9470    10.0120    28.1870   -18.5790 
  105.1250     2.1920    88.8700     7.1070     6.7930    10.0350    28.4290   -18.9720 
  105.2500     2.1540    90.3960     7.0050     6.6790     9.8280    28.6730   -19.4380 
  105.3750     2.1200    86.0560     6.9210     6.5880     9.4620    28.8440   -19.8890 
  105.5000     2.1000    79.6580     6.8640     6.5210     9.1500    28.8430   -20.2450 
  105.6250     2.1050    78.6010     6.8400     6.4860     9.3650    28.6630   -20.4090 
  105.7500     2.1240    81.7760     6.8340     6.4720     9.7650    28.5450   -20.4280 
  105.8750     2.1490    84.6880     6.8360     6.4680    10.0190    28.5270   -20.3520 
  106.0000     2.1690    85.2140     6.8460     6.4650    10.0580    28.5960   -20.2080 
  106.1250     2.1810    87.0630     6.8760     6.4620     9.7980    28.6930   -19.9810 
