~V
VERS. 2.00: Ver 2.00
~W
STRT.M 55.0000:
STOP.M 286.0000:
STEP.M 0.1250:
NULL. -999.2500:
UWI. F11067:
~C
DEPT.M :
GR.API :
RML.OHMM :
RI. :
RXO.OHMM :
CALI.CM :
DEN.GM/CC :
SP.MV :
~A
   55.0000    44.4270     0.3920     0.3360     0.5890    25.1090  -999.2500    -7.7280 
   55.1250    47.4600     0.3920     0.3250     0.5860    25.1330  -999.2500    -6.3510 
   55.2500    48.2910     0.3900     0.3180     0.5860    25.1810  -999.2500    -4.8600 
   55.3750    46.3070     0.3860     0.3140     0.5860    25.2510  -999.2500    -3.3200 
   55.5000    44.1020     0.3800     0.3120     0.5860    25.3300  -999.2500    -1.9090 
   55.6250    46.1010     0.3740     0.3120     0.5870    25.3190  -999.2500    -0.8800 
   55.7500    49.8280     0.3660     0.3120     0.5890    25.2010  -999.2500    -0.2490 
   55.8750    51.2680     0.3580     0.3120     0.5920    25.0250  -999.2500    -0.0510 
   56.0000    50.6240     0.3520     0.3120     0.5950    24.9050  -999.2500    -0.2280 
   56.1250    50.7140     0.3490     0.3120     0.5980    24.8690  -999.2500    -0.7900 
   56.2500    51.1550     0.3480     0.3120     0.6010    24.8600  -999.2500    -1.6300 
   56.3750    50.2810     0.3490     0.3120     0.6020    24.8570  -999.2500    -2.6430 
   56.5000    48.7430     0.3520     0.3110     0.5970    24.8570  -999.2500    -3.7470 
   56.6250    48.6490     0.3550     0.3080     0.5980    24.8550  -999.2500    -4.8140 
   56.7500    50.1110     0.3580     0.3050     0.6020    24.8550  -999.2500    -5.7900 
   56.8750    52.2950     0.3610     0.3030     0.5980    24.8550  -999.2500    -6.6360 
   57.0000    54.9000     0.3610     0.3030     0.5950    24.8820  -999.2500    -7.3390 
   57.1250    57.1670     0.3590     0.3030     0.5950    24.9900  -999.2500    -7.9030 
   57.2500    57.2600     0.3560     0.3030     0.5950    25.1760  -999.2500    -8.4030 
   57.3750    54.5910     0.3520     0.3030     0.5950    25.3040  -999.2500    -8.8750 
   57.5000    51.0990     0.3500     0.3030     0.5900    25.3040  -999.2500    -9.2740 
   57.6250    50.3810     0.3510     0.3030     0.5620    25.2250  -999.2500    -9.5290 
   57.7500    51.5740     0.3530     0.3030     0.5060    25.1700  -999.2500    -9.6290 
   57.8750    53.0550     0.3560     0.3030     0.4980    25.1260     2.0420    -9.5840 
   58.0000    54.8280     0.3560     0.3030     0.5080    25.1210     2.0420    -9.4980 
   58.1250    55.4310     0.3540     0.3030     0.5100    25.2010     2.0410    -9.5310 
   58.2500    53.7550     0.3490     0.3030     0.5100    25.3160     2.0340    -9.7370 
   58.3750    50.8280     0.3450     0.3060     0.5100    25.4280     2.0220   -10.1020 
   58.5000    48.4400     0.3440     0.3070     0.5100    25.4870     2.0130   -10.5630 
   58.6250    47.0880     0.3450     0.3070     0.5110    25.4990     2.0100   -11.1130 
   58.7500    46.0180     0.3470     0.3070     0.5140    25.4990     2.0080   -11.7870 
   58.8750    45.3220     0.3490     0.3070     0.5170    25.5000     2.0020   -12.5910 
   59.0000    44.7510     0.3510     0.3030     0.5180    25.4980     1.9870   -13.3950 
   59.1250    44.1250     0.3530     0.3010     0.5180    25.4930     1.9690   -13.9160 
   59.2500    44.6940     0.3540     0.2960     0.5170    25.4910     1.9570   -14.0790 
   59.3750    45.2990     0.3570     0.2810     0.5130    25.4930     1.9580   -13.8650 
   59.5000    44.9910     0.3620     0.2740     0.5110    25.4980     1.9700   -13.2800 
   59.6250    45.7430     0.3620     0.2760     0.5140    25.4960     1.9850   -12.2670 
   59.7500    48.1690     0.3540     0.2760     0.5170    25.4950     1.9970   -10.9330 
   59.8750    50.0980     0.3430     0.2760     0.5200    25.4950     2.0050    -9.4350 
   60.0000    51.3990     0.3360     0.2760     0.5250    25.4960     2.0100    -8.0560 
   60.1250    52.9920     0.3330     0.2730     0.5280    25.4990     2.0120    -7.0930 
   60.2500    53.0230     0.3280     0.2680     0.5320    25.5010     2.0110    -6.4690 
   60.3750    50.5070     0.3200     0.2620     0.5290    25.5010     2.0070    -6.0990 
   60.5000    47.9170     0.3110     0.2590     0.5270    25.4990     1.9990    -5.9720 
   60.6250    47.2740     0.3030     0.2540     0.5350    25.4610     1.9960    -6.1080 
   60.7500    46.4110     0.2980     0.2480     0.5620    25.3540     2.0090    -6.3850 
   60.8750    45.2100     0.2960     0.2450     0.5990    25.1860     2.0420    -6.6970 
   61.0000    45.0580     0.2940     0.2410     0.6130    25.0670     2.0950    -6.8910 
   61.1250    46.7850     0.2840     0.2240     0.6220    25.0000     2.1630    -6.8300 
   61.2500    48.3360     0.2620     0.1960     0.6230    24.9190     2.2340    -6.6130 
   61.3750    48.2200     0.2290     0.1770     0.6240    24.8440     2.3050    -6.3690 
   61.5000    46.4730     0.1950     0.1690     0.6260    24.8270     2.3680    -6.2170 
   61.6250    43.7180     0.1660     0.1600     0.6400    24.8530     2.4200    -6.2330 
   61.7500    41.7020     0.1460     0.1550     0.6470    24.8610     2.4710    -6.3780 
   61.8750    41.2440     0.1350     0.1520     0.6520    24.8610     2.5290    -6.5850 
   62.0000    42.1490     0.1310     0.1490     0.6550    24.8360     2.5950    -6.7600 
   62.1250    44.5690     0.1320     0.1470     0.6700    24.7580     2.6460    -6.8430 
   62.2500    47.3920     0.1390     0.1440     0.6720    24.6460     2.6500    -6.8670 
   62.3750    49.8370     0.2580     0.1450     0.8520    24.5440     2.5930    -6.9050 
   62.5000    53.0580     0.4010     0.1510     5.4720    24.3850     2.4860    -6.9740 
   62.6250    59.1620     0.8020     0.4690     6.8120    24.2140     2.3700    -7.1100 
   62.7500    65.4970     2.2730     1.4730    10.0560    24.0940     2.2790    -7.3420 
   62.8750    68.1820     4.8800     2.3560    12.1930    24.0520     2.2260    -7.6840 
   63.0000    67.4240     7.5440     3.5940    12.7780    24.0450     2.2010    -8.1220 
   63.1250    65.5200     8.8670     4.9120    13.1320    24.0470     2.1910    -8.6380 
   63.2500    64.6290     9.3340     5.9870    13.2330    24.0540     2.1800    -9.1760 
   63.3750    65.0690     9.8800     6.7600    13.0300    24.0780     2.1680    -9.6740 
   63.5000    66.0560    10.6340     7.3010    12.7260    24.1160     2.1560   -10.0660 
   63.6250    65.9380    11.3160     7.6480    12.3260    24.1470     2.1480   -10.3100 
   63.7500    66.1560    11.6710     7.8630    12.0120    24.1920     2.1440   -10.4020 
   63.8750    67.3070    11.8180     7.9770    11.8310    24.2590     2.1440   -10.3570 
   64.0000    68.0400    11.8920     8.0380    11.8230    24.3320     2.1460   -10.2070 
   64.1250    67.0480    11.8870     8.1000    12.1750    24.3920     2.1480    -9.9490 
   64.2500    66.5300    11.8780     8.2170    12.4120    24.4170     2.1490    -9.6230 
   64.3750    68.3640    11.9590     8.4140    11.8590    24.4120     2.1470    -9.2140 
   64.5000    70.5540    12.1840     8.6740    10.6810    24.3880     2.1440    -8.7270 
   64.6250    69.0040    12.5100     8.8770    10.0760    24.3320     2.1430    -8.1190 
   64.7500    64.5050    12.7290     8.8640    10.9140    24.2520     2.1520    -7.4150 
   64.8750    65.2690    12.6190     8.5240    11.5080    24.1850     2.1780    -6.6220 
   65.0000    76.1910    12.0380     7.8630    10.8040    24.2400     2.2210    -5.7280 
   65.1250    90.6010    10.9970     7.0200     8.6600    24.4840     2.2750    -4.7970 
   65.2500    98.7900     9.8420     6.2360     6.4120    24.7320     2.3240    -3.8890 
   65.3750   102.2890     8.8380     5.6270     5.6460    24.8680     2.3600    -3.0500 
   65.5000   105.8750     8.1430     5.2340     5.7230    24.9010     2.3790    -2.3070 
   65.6250   109.5420     7.8270     5.0760     5.9750    24.8840     2.3800    -1.7240 
   65.7500   110.4080     7.7630     5.0950     6.3520    24.8500     2.3770    -1.3110 
   65.8750   107.7450     7.8830     5.2650     6.4310    24.8260     2.3770    -1.0550 
   66.0000   103.3000     8.1570     5.5920     6.3820    24.8200     2.3860    -0.9650 
   66.1250    99.4710     8.6390     6.1220     7.0430    24.8170     2.4080    -1.0300 
