~V
VERS. 2.00: Ver 2.00
~W
STRT.M 62.0000:
STOP.M 273.0000:
STEP.M 0.1250:
NULL. -999.2500:
UWI. F11050:
~C
DEPT.M :
SP.MV :
GR.API :
RML.OHMM :
RI. :
RXO.OHMM :
CALI.CM :
DEN.GM/CC :
~A
# ...
  140.7500   -17.2500    73.1010    10.8380    10.6070    13.6280    24.2340     2.2330 
  140.8750   -17.2650    75.2080    10.1940    10.1590    11.3800    24.3910     2.2280 
  141.0000   -17.2070    75.9920     9.3870     9.4370     9.1360    24.4850     2.2300 
  141.1250   -17.0730    74.6830     8.9220     8.8930     9.5550    24.5050     2.2350 
  141.2500   -16.8780    72.9980     8.9790     8.7480    10.3730    24.4740     2.2460 
  141.3750   -16.6690    73.4080     9.5820     9.0820    10.8890    24.4610     2.2710 
  141.5000   -16.4210    74.9870    10.6640     9.8810    11.0710    24.4730     2.3170 
  141.6250   -16.1580    73.3250    12.1180    11.0850    12.2030    24.5050     2.3850 
  141.7500   -15.9080    68.0360    13.6840    12.4460    14.6170    24.5300     2.4650 
  141.8750   -15.6490    61.4610    15.1670    13.7830    16.7080    24.5530     2.5390 
  142.0000   -15.3840    56.0540    16.4190    14.9600    16.9550    24.5870     2.5880 
  142.1250   -15.1380    53.8490    17.3170    15.8660    16.5750    24.6250     2.6120 
  142.2500   -14.9050    54.5420    17.9520    16.5530    17.6460    24.6760     2.6330 
  142.3750   -14.7080    54.8800    18.4430    17.0890    19.1850    24.7040     2.6550 
  142.5000   -14.5180    52.1620    18.9270    17.5730    19.7490    24.6980     2.6730 
  142.6250   -14.3590    50.4860    19.5120    18.1070    19.5580    24.6900     2.6760 
  142.7500   -14.2310    53.5660    20.1880    18.7200    20.0000    24.6890     2.6690 
  142.8750   -14.1350    57.3270    20.9140    19.4000    20.4850    24.6540     2.6540 
  143.0000   -14.0610    56.5300    21.6250    20.1090    21.0440    24.6220     2.6340 
  143.1250   -13.9980    54.2980    22.2300    20.7900    22.3850    24.6190     2.6140 
  143.2500   -13.9540    55.0900    22.6950    21.3880    22.6660    24.6620     2.5990 
  143.3750   -13.9190    56.9060    22.9970    21.8430    22.4500    24.7440     2.5930 
  143.5000   -13.8720    56.7680    23.1000    22.0880    21.7430    24.7890     2.5940 
  143.6250   -13.8460    56.1340    22.8750    21.9890    21.6690    24.8130     2.6050 
  143.7500   -13.7900    57.3050    22.3050    21.5560    22.3570    24.7310     2.6210 
  143.8750   -13.7290    58.9950    21.4180    20.8370    22.6720    24.6330     2.6330 
  144.0000   -13.6650    59.9160    20.3920    19.9820    19.5890    24.6090     2.6380 
  144.1250   -13.6140    60.4750    19.5590    19.2460    17.7040    24.6650     2.6310 
  144.2500   -13.5590    60.1130    19.1100    18.7920    16.9790    24.6840     2.6120 
  144.3750   -13.5090    58.3060    19.0610    18.6660    17.3980    24.6440     2.5850 
  144.5000   -13.4710    55.4630    19.2660    18.7960    18.7500    24.6010     2.5640 
  144.6250   -13.4590    52.4940    19.4390    18.9750    20.6300    24.6030     2.5530 
  144.7500   -13.4560    51.1010    19.3420    18.9460    20.4860    24.6560     2.5430 
  144.8750   -13.4760    52.2350    18.9290    18.6120    18.6620    24.7110     2.5310 
  145.0000   -13.5140    53.9410    18.3210    18.0430    17.6240    24.7080     2.5210 
  145.1250   -13.5450    52.4480    17.7720    17.4490    16.7620    24.6480     2.5200 
  145.2500   -13.5970    49.0830    17.4890    17.0400    16.6800    24.6560     2.5250 
  145.3750   -13.6310    48.4610    17.5480    16.9100    16.3230    24.6930     2.5260 
  145.5000   -13.6860    50.8030    17.9010    17.0540    15.8760    24.7320     2.5200 
  145.6250   -13.7200    51.7420    18.3840    17.3810    16.4810    24.7600     2.5150 
  145.7500   -13.7500    49.7050    18.7360    17.6770    17.9780    24.7610     2.5180 
  145.8750   -13.7670    46.9820    18.7920    17.7780    19.3670    24.7430     2.5230 
  146.0000   -13.7720    46.6770    18.5000    17.5860    19.5400    24.7400     2.5260 
  146.1250   -13.7630    48.5850    17.9050    17.0740    18.3260    24.7570     2.5270 
  146.2500   -13.7510    50.2850    17.2210    16.4230    16.8710    24.7660     2.5260 
  146.3750   -13.7250    50.2280    16.6200    15.7950    16.2290    24.7560     2.5230 
  146.5000   -13.7120    50.5760    16.2440    15.3340    16.1320    24.7260     2.5240 
  146.6250   -13.6980    55.3080    16.2360    15.1770    15.5020    24.6880     2.5340 
  146.7500   -13.7030    60.6900    16.5230    15.2800    15.3890    24.6640     2.5430 
  146.8750   -13.7170    62.0340    16.9580    15.5420    15.4730    24.6690     2.5420 
  147.0000   -13.7490    61.0700    17.2820    15.7620    15.6970    24.6520     2.5280 
  147.1250   -13.7810    61.6200    17.1140    15.6100    16.6240    24.6020     2.5100 
  147.2500   -13.8170    61.5400    16.3940    14.9890    16.6070    24.6000     2.4960 
  147.3750   -13.8610    59.2550    15.2600    13.9870    14.9060    24.6500     2.4860 
  147.5000   -13.9270    58.2470    14.0200    12.8460    12.4330    24.7150     2.4780 
  147.6250   -13.9700    62.8000    13.0700    11.8790    11.2460    24.7910     2.4720 
  147.7500   -14.0250    67.6200    12.5480    11.2310    10.6800    24.8450     2.4660 
  147.8750   -14.0620    68.5150    12.4260    10.9130    10.8030    24.8740     2.4650 
  148.0000   -14.0860    66.6880    12.5470    10.8430    10.6750    24.8740     2.4690 
  148.1250   -14.1090    65.8380    12.6740    10.8830    10.4240    24.8530     2.4800 
  148.2500   -14.1380    66.2960    12.6520    10.8920    10.2780    24.8280     2.4920 
  148.3750   -14.1720    65.8400    12.5040    10.8500     9.8550    24.7680     2.5050 
  148.5000   -14.2210    64.9220    12.3660    10.8050     9.4900    24.6990     2.5180 
  148.6250   -14.2730    66.1360    12.4280    10.8600     9.5600    24.6130     2.5310 
  148.7500   -14.3340    68.8970    12.7070    11.0420    10.5900    24.5710     2.5390 
  148.8750   -14.3870    72.6580    13.0750    11.2920    11.9010    24.5500     2.5410 
  149.0000   -14.4230    76.0340    13.2580    11.4250    12.3410    24.5190     2.5360 
  149.1250   -14.4530    77.0140    12.8140    11.0740    11.7430    24.4380     2.5220 
  149.2500   -14.4540    76.5860    11.6820    10.1450    11.1990    24.2750     2.5020 
  149.3750   -14.4420    77.5940    10.0430     8.7580    10.2610    24.1270     2.4780 
  149.5000   -14.3570    81.7550     8.2690     7.2190     8.3820    24.0810     2.4480 
  149.6250   -14.2530    84.7400     6.7920     5.8840     6.4960    24.2340     2.4150 
  149.7500   -14.1100    84.4160     5.7560     4.8810     5.0410    24.4320     2.3860 
  149.8750   -13.9760    85.7040     5.1560     4.2250     4.4790    24.5790     2.3680 
  150.0000   -13.8390    90.3060     4.9070     3.8720     4.3130    24.6810     2.3620 
  150.1250   -13.7250    93.4300     4.9090     3.7800     4.2460    24.7130     2.3610 
  150.2500   -13.6160    95.3160     4.9950     3.8120     4.2090    24.7450     2.3620 
  150.3750   -13.5450    99.2410     5.0830     3.8850     4.2560    24.7500     2.3630 
  150.5000   -13.4730   102.2010     5.1330     3.9410     4.2890    24.7540     2.3660 
  150.6250   -13.4630    98.7430     5.1360     3.9550     4.3280    24.7740     2.3660 
  150.7500   -13.4710    95.9270     5.1110     3.9380     4.3690    24.7890     2.3660 
  150.8750   -13.5110    98.4580     5.0700     3.9010     4.4830    24.7630     2.3720 
  151.0000   -13.5720   101.3980     5.0280     3.8500     4.5020    24.7420     2.3840 
  151.1250   -13.6540    99.9070     5.0100     3.7960     4.3770    24.7160     2.3940 
  151.2500   -13.7490    96.2210     5.0260     3.7540     4.3110    24.6790     2.3960 
  151.3750   -13.8260    94.0020     5.0750     3.7370     4.3760    24.6600     2.3910 
  151.5000   -13.9260    93.0460     5.1490     3.7490     4.5420    24.6620     2.3830 
  151.6250   -14.0120    92.7620     5.2200     3.7810     4.6720    24.6670     2.3790 
  151.7500   -14.0920    93.0920     5.2580     3.8110     4.7200    24.6630     2.3810 
  151.8750   -14.1570    94.9490     5.2550     3.8280     4.6950    24.6900     2.3870 
