~V
VERS. 2.00: Ver 2.00
~W
STRT.M 50.0000:
STOP.M 283.0000:
STEP.M 0.1250:
NULL. -999.2500:
UWI. F11058:
~C
DEPT.M :
DEN.GM/CC :
GR.API :
RML.OHMM :
RI. :
RXO.OHMM :
CALI.CM :
SP.MV :
~A
# ...
   61.2500     2.1540    70.3830     6.4290     6.9960    10.4060    23.0610   -17.5710 
   61.3750     2.1600    72.0600     6.6390     7.1020    10.4800    23.1150   -17.1330 
   61.5000     2.1770    73.3420     7.2700     7.6060    10.7450    23.1600   -16.6030 
   61.6250     2.2230    70.3900     8.6850     8.9510    12.5610    23.1840   -15.9840 
   61.7500     2.3010    65.8290    10.9810    11.3910    17.5500    23.1820   -15.1870 
   61.8750     2.4030    62.7230    13.9340    15.0260    27.1580    23.2270   -14.1020 
   62.0000     2.5020    61.3740    16.5160    19.1220    41.5180    23.4400   -12.7090 
   62.1250     2.5590    62.4080    16.7580    20.8230    55.9330    23.9270   -11.0580 
   62.2500     2.5610    67.5700    14.4980    18.6560    53.3930    24.3390    -9.1420 
   62.3750     2.5200    76.2680    10.8900    14.2020    28.8990    24.5600    -7.1240 
   62.5000     2.4630    86.5460     7.5180     9.9010    10.2900    24.6250    -5.1530 
   62.6250     2.4220    97.2360     5.4390     7.0640     6.4000    24.6300    -3.2400 
   62.7500     2.4040   106.1350     4.3690     5.3760     5.4370    24.6290    -1.5520 
   62.8750     2.4000   111.3670     3.9900     4.5210     5.3730    24.6190    -0.2810 
   63.0000     2.3960   113.4870     4.0450     4.2410     5.3110    24.5870     0.6090 
   63.1250     2.3850   114.0030     4.3630     4.3690     5.5620    24.5630     1.0180 
   63.2500     2.3700   110.1230     4.7570     4.6660     6.1580    24.5260     0.9470 
   63.3750     2.3540   101.3550     5.1490     5.0320     6.9230    24.4620     0.5430 
   63.5000     2.3360    94.2570     5.5050     5.4230     7.3620    24.3810    -0.1420 
   63.6250     2.3140    94.3840     5.8310     5.8180     7.5340    24.2660    -1.1000 
   63.7500     2.2900    96.4340     6.1800     6.2190     7.9730    24.1730    -2.2080 
   63.8750     2.2730    93.7230     6.6030     6.6750     8.1830    24.0960    -3.4170 
   64.0000     2.2760    85.7930     7.1170     7.2310     8.8190    24.0040    -4.6040 
   64.1250     2.3070    77.1210     7.6460     7.8300     9.6690    23.9720    -5.4810 
   64.2500     2.3460    73.8850     8.0400     8.2860    11.1700    24.0210    -6.0560 
   64.3750     2.3720    77.5570     8.1860     8.4380    13.6610    24.1800    -6.3840 
   64.5000     2.3670    85.7130     8.0680     8.2300    18.8080    24.2970    -6.5450 
   64.6250     2.3280    93.8570     7.7770     7.7540    13.8440    24.3050    -6.6650 
   64.7500     2.2820    96.9520     7.5090     7.2850     8.7950    24.1260    -6.7700 
   64.8750     2.2480    94.0270     7.3400     6.9480     7.7930    23.8450    -6.8890 
   65.0000     2.2350    90.7010     7.2500     6.7410     8.4960    23.6510    -7.1430 
   65.1250     2.2390    90.6430     7.1370     6.5840     8.8760    23.5980    -7.5730 
   65.2500     2.2470    91.4420     6.9450     6.3930     8.7070    23.6340    -8.0800 
   65.3750     2.2510    92.0630     6.7140     6.1580     8.2080    23.7590    -8.7100 
   65.5000     2.2460    92.9710     6.5560     5.9490     6.8980    23.9360    -9.4380 
   65.6250     2.2300    92.3430     6.6380     5.9240     6.6420    23.8840   -10.2040 
   65.7500     2.2110    87.2010     6.9730     6.1410     7.3020    23.6530   -11.0950 
   65.8750     2.1910    81.9520     7.5030     6.5890     8.5510    23.3940   -12.0550 
   66.0000     2.1740    80.6110     8.1180     7.1950     9.4050    23.2430   -12.9350 
   66.1250     2.1610    80.1140     8.6670     7.8340     9.6870    23.2060   -13.8110 
   66.2500     2.1500    78.9840     9.0470     8.3640     9.6550    23.2010   -14.7660 
   66.3750     2.1430    78.1950     9.1920     8.6800     9.4370    23.2040   -15.5890 
   66.5000     2.1440    80.5420     9.0590     8.7050     9.2220    23.2230   -16.1390 
   66.6250     2.1590    85.4400     8.5940     8.3610     9.2140    23.2810   -16.2140 
   66.7500     2.1850    89.7930     7.9060     7.7540     9.1450    23.4100   -15.5930 
   66.8750     2.2210    94.0510     7.1100     6.9990     8.3730    23.6280   -14.3130 
   67.0000     2.2590    97.5940     6.3480     6.2370     6.7480    23.9550   -12.6850 
   67.1250     2.2910   102.1510     5.7870     5.6210     5.8710    24.2260   -10.8250 
   67.2500     2.3110   107.5110     5.4680     5.2020     5.7160    24.4130    -8.9160 
   67.3750     2.3150   109.9990     5.4010     4.9960     5.9030    24.4650    -7.1810 
   67.5000     2.3040   107.8770     5.5780     5.0010     6.0210    24.4540    -5.6780 
   67.6250     2.2880   104.3990     6.0210     5.2490     6.1680    24.3370    -4.5840 
   67.7500     2.2820   103.9100     6.6370     5.6900     6.8130    24.1290    -4.0670 
   67.8750     2.2930   103.6500     7.3070     6.2720     7.6380    23.9100    -4.1310 
   68.0000     2.3140    99.2840     7.8320     6.8620     8.0720    23.8210    -4.5300 
   68.1250     2.3310    93.8540     7.9290     7.1580     9.1750    23.8630    -5.0950 
   68.2500     2.3340    93.0490     7.6310     7.0320    10.1890    23.8390    -5.6230 
   68.3750     2.3330    96.5180     7.1610     6.6170     9.4590    23.7330    -6.0090 
   68.5000     2.3460   101.7930     6.8670     6.2270     7.2930    23.7540    -6.1780 
   68.6250     2.3860   104.6200     7.1440     6.2170     6.3260    24.0220    -6.2090 
   68.7500     2.4310   102.4230     7.9650     6.6710     7.2800    24.3290    -6.3430 
   68.8750     2.4500    93.5700     9.1110     7.5510    11.3240    24.3970    -6.5970 
   69.0000     2.4230    81.8750    10.1750     8.6160    19.6430    24.2440    -6.9900 
   69.1250     2.3500    75.9550    10.6000     9.2840    17.8920    24.0040    -7.6550 
   69.2500     2.2670    76.0700    10.3380     9.2680    12.4290    23.7940    -8.4640 
   69.3750     2.2020    78.4540     9.6500     8.7530     9.7520    23.6460    -9.3870 
   69.5000     2.1650    78.6000     8.9560     8.1470     9.0880    23.5490   -10.5610 
   69.6250     2.1540    74.5050     8.6440     7.8140     9.0500    23.4580   -11.7510 
   69.7500     2.1520    69.8390     8.6990     7.7930     9.1080    23.3670   -12.6760 
   69.8750     2.1530    67.2560     8.9640     7.9920     9.2090    23.2800   -13.4170 
   70.0000     2.1540    67.4100     9.2380     8.2410     9.4440    23.2000   -14.0340 
   70.1250     2.1540    68.8940     9.3600     8.3550     9.7090    23.1550   -14.5110 
   70.2500     2.1560    70.0990     9.3650     8.3260     9.8450    23.1450   -15.0350 
   70.3750     2.1680    71.7110     9.3580     8.2450     9.8870    23.1710   -15.5400 
   70.5000     2.1920    73.0360     9.4550     8.2320     9.8810    23.2460   -15.9260 
   70.6250     2.2240    72.0290     9.7290     8.3940    10.2560    23.3860   -16.3850 
   70.7500     2.2480    69.3010    10.0850     8.6930    12.7240    23.5810   -16.8990 
   70.8750     2.2530    67.5470    10.3900     9.0250    20.1640    23.7670   -17.3720 
   71.0000     2.2400    69.2880    10.5180     9.2440    29.2390    23.8610   -17.8300 
   71.1250     2.2220    72.4580    10.3790     9.2110    21.1540    23.8610   -18.2480 
   71.2500     2.2110    75.3520    10.0760     8.9900    13.7550    23.8460   -18.5650 
   71.3750     2.2060    78.4550     9.7270     8.6830    11.1280    23.8070   -18.7960 
   71.5000     2.2010    81.3550     9.4450     8.4070    10.4710    23.7040   -18.8800 
   71.6250     2.1920    83.5250     9.3180     8.2630    10.3090    23.5170   -18.7230 
   71.7500     2.1820    84.3210     9.3250     8.2420    10.0550    23.3590   -18.4530 
   71.8750     2.1750    83.7710     9.4240     8.3110     9.8550    23.2910   -18.0270 
   72.0000     2.1730    82.1990     9.5610     8.4270     9.9480    23.2890   -17.4700 
   72.1250     2.1730    81.8060     9.6570     8.5370    10.1870    23.3140   -16.9270 
   72.2500     2.1720    81.2920     9.6480     8.5750    10.2810    23.3320   -16.3440 
   72.3750     2.1680    79.9100     9.4910     8.4890    10.1880    23.3610   -15.8480 
