~V
VERS. 2.00: Ver 2.00
~W
STRT.M 59.0000:
STOP.M 217.0000:
STEP.M 0.1250:
NULL. -999.2500:
UWI. F11019:
~C
DEPT.M :
DEN.GM/CC :
GR.API :
RML.OHMM :
RI. :
RXO.OHMM :
CALI.CM :
SP.MV :
~A
# ...
  115.2500     2.1590    86.0120     7.3020     6.6560     6.3890    18.0100   -18.8090 
  115.3750     2.1570    84.5720     7.2060     6.6900     6.5880    18.4360   -18.4670 
  115.5000     2.1620    84.5520     6.9210     6.5670     6.5660    19.2200   -18.1410 
  115.6250     2.1720    84.8510     6.4820     6.2840     6.2020    20.4400   -17.9300 
  115.7500     2.1840    85.1590     6.0340     5.9440     5.7090    21.7270   -17.8050 
  115.8750     2.1930    86.3940     5.6920     5.6380     5.4150    22.8650   -17.6850 
  116.0000     2.1970    88.3760     5.5270     5.4420     5.4540    23.6320   -17.5550 
  116.1250     2.1970    89.3450     5.5720     5.4090     5.6770    23.5630   -17.4960 
  116.2500     2.1940    89.0500     5.7360     5.4890     5.9230    23.2210   -17.5370 
  116.3750     2.1920    88.4020     5.9280     5.6160     6.1210    22.8380   -17.6610 
  116.5000     2.1910    88.0940     6.0600     5.7080     6.2130    22.5580   -17.7810 
  116.6250     2.1940    88.9550     6.0380     5.6740     6.1100    22.6000   -17.7810 
  116.7500     2.2000    90.8270     5.8670     5.5080     5.8950    22.9110   -17.6990 
  116.8750     2.2110    93.5200     5.5870     5.2400     5.6360    23.3220   -17.5710 
  117.0000     2.2270    96.8660     5.2870     4.9370     5.3410    23.6210   -17.4330 
  117.1250     2.2490    99.8970     5.1480     4.7300     5.0020    23.6690   -17.3100 
  117.2500     2.2730   100.6160     5.3350     4.7500     4.8720    23.6560   -17.2200 
  117.3750     2.2980    97.5560     6.0020     5.1430     5.5170    23.6310   -17.1570 
  117.5000     2.3210    91.0850     7.2290     6.0310     7.6750    23.6150   -17.1280 
  117.6250     2.3410    82.7480     8.9850     7.5010    12.0180    23.6290   -17.1640 
  117.7500     2.3540    75.7460    10.8150     9.2430    17.4820    23.6390   -17.2720 
  117.8750     2.3520    72.5740    12.2340    10.8450    22.0460    23.5200   -17.4630 
  118.0000     2.3280    73.5890    12.8160    11.8270    23.2230    23.0640   -17.7140 
  118.1250     2.2820    76.7080    12.2620    11.7090    19.5180    22.0560   -17.9460 
  118.2500     2.2290    78.9410    11.1500    10.8010    13.6520    20.6480   -18.1420 
  118.3750     2.1790    79.5970    10.0200     9.5670     9.2390    19.2350   -18.2820 
  118.5000     2.1410    79.0390     9.2480     8.4510     7.3140    18.4240   -18.4100 
  118.6250     2.1180    77.5770     8.9990     7.7460     6.8500    18.4270   -18.5140 
  118.7500     2.1060    75.8380     8.8350     7.4040     6.8500    18.5640   -18.5660 
  118.8750     2.1040    74.8240     8.9250     7.3400     7.0870    18.7140   -18.5810 
  119.0000     2.1070    75.1260     9.1320     7.4440     7.4380    18.9340   -18.5450 
  119.1250     2.1150    76.2300     9.3470     7.6120     7.8020    19.3140   -18.5340 
  119.2500     2.1230    77.3980     9.5140     7.7620     8.0910    19.7760   -18.5970 
  119.3750     2.1300    78.2250     9.6220     7.8740     8.2370    20.2080   -18.7370 
  119.5000     2.1360    78.0780     9.6750     7.9550     8.2130    20.4640   -18.9540 
  119.6250     2.1390    76.5180     9.6830     8.0270     8.0400    20.3780   -19.2390 
  119.7500     2.1400    74.1120     9.6790     8.1080     7.8140    20.0650   -19.5740 
  119.8750     2.1410    71.5550     9.6850     8.2060     7.6020    19.7110   -19.8940 
  120.0000     2.1400    69.9350     9.7220     8.3170     7.4800    19.4440   -20.1870 
  120.1250     2.1400    70.5320     9.8010     8.4310     7.4400    19.2550   -20.4170 
  120.2500     2.1390    72.1130     9.8970     8.5390     7.4380    19.0930   -20.6050 
  120.3750     2.1370    73.2040     9.9900     8.6400     7.4750    18.9100   -20.8250 
  120.5000     2.1330    73.6970    10.0640     8.7310     7.6250    18.7010   -21.0230 
  120.6250     2.1250    73.7790    10.1110     8.8090     8.0580    18.4520   -21.1880 
  120.7500     2.1130    72.7690    10.1340     8.8630     8.8500    18.1620   -21.2860 
  120.8750     2.0980    70.3390    10.1220     8.8790     9.9940    17.8790   -21.3470 
  121.0000     2.0830    67.6190    10.0580     8.8430    11.3040    17.7220   -21.4140 
  121.1250     2.0700    66.4620     9.9260     8.7420    12.2600    17.9010   -21.4490 
  121.2500     2.0620    66.8480     9.7510     8.6070    12.5280    18.2500   -21.4020 
  121.3750     2.0600    67.9720     9.5750     8.4750    12.1860    18.6010   -21.2270 
  121.5000     2.0620    68.6940     9.4410     8.3900    11.7800    18.9560   -20.9320 
  121.6250     2.0660    68.1000     9.3900     8.3960    11.7320    19.3680   -20.5260 
  121.7500     2.0690    66.9570     9.4110     8.4830    11.6290    19.7990   -20.0900 
  121.8750     2.0690    66.3530     9.4880     8.6320    11.2780    20.1410   -19.6720 
  122.0000     2.0690    66.5950     9.6070     8.8200    10.4970    20.2510   -19.2480 
  122.1250     2.0690    66.5610     9.7840     9.0480     9.3430    20.0520   -18.8560 
  122.2500     2.0720    65.1800    10.0330     9.3250     8.4380    19.7700   -18.4600 
  122.3750     2.0780    62.9470    10.3540     9.6630     8.0220    19.5900   -18.0100 
  122.5000     2.0860    60.9810    10.6960    10.0330     7.9230    19.6230   -17.5510 
  122.6250     2.0970    60.5940    10.8930    10.3150     7.8880    19.8760   -17.1270 
  122.7500     2.1090    61.8050    10.7790    10.3490     7.8340    20.0390   -16.7390 
  122.8750     2.1250    64.3370    10.2420    10.0010     7.7050    20.1910   -16.3200 
  123.0000     2.1440    67.7020     9.2970     9.2360     7.3830    20.5140   -15.9030 
  123.1250     2.1660    71.5970     8.1160     8.1560     6.7670    21.2020   -15.5160 
  123.2500     2.1880    75.4070     7.0360     7.0800     5.9350    22.1680   -15.1950 
  123.3750     2.2110    77.8210     6.3050     6.2490     5.2070    23.2130   -14.9480 
  123.5000     2.2360    77.8200     6.1160     5.8630     5.0620    24.1230   -14.7320 
  123.6250     2.2680    75.6800     6.7800     6.2170     5.9970    24.6450   -14.5450 
  123.7500     2.3120    72.5660     8.2920     7.3470     8.0880    24.6630   -14.4020 
  123.8750     2.3650    68.0020    10.5550     9.2350    11.3410    24.4980   -14.3460 
  124.0000     2.4210    61.9810    13.1580    11.6070    15.2240    24.2380   -14.3410 
  124.1250     2.4660    56.4940    15.1840    13.7490    18.1120    23.8930   -14.3430 
  124.2500     2.4910    53.5010    15.8610    14.8580    19.1560    23.5380   -14.3660 
  124.3750     2.4960    53.2580    14.9270    14.5000    18.0700    23.2670   -14.4570 
  124.5000     2.4830    54.8790    12.8190    12.8850    14.9170    23.0990   -14.6220 
  124.6250     2.4620    57.4250    10.5400    10.8710    11.0270    23.2080   -14.7990 
  124.7500     2.4440    59.9870     9.1440     9.3910     8.3480    23.5270   -14.9400 
  124.8750     2.4370    61.4670     8.9350     8.8290     8.0470    23.8740   -15.0430 
  125.0000     2.4460    60.4060    10.3000     9.3310     9.7010    24.0850   -15.1290 
  125.1250     2.4740    55.5510    12.9330    11.0700    12.8920    24.0720   -15.2570 
  125.2500     2.5100    49.5510    16.6220    13.6350    16.2310    23.9340   -15.4100 
  125.3750     2.5450    45.5240    20.3870    16.5380    18.9230    23.7580   -15.5580 
  125.5000     2.5670    44.5870    22.4520    19.0930    20.4280    23.6900   -15.6970 
  125.6250     2.5650    45.2820    23.3530    20.4260    21.0130    23.7350   -15.8460 
  125.7500     2.5420    45.7270    22.9170    20.5150    21.0510    23.8150   -16.0260 
  125.8750     2.5070    45.8960    21.6970    19.7220    19.9820    23.9470   -16.2480 
  126.0000     2.4710    46.1750    20.3350    18.5950    17.9460    24.1100   -16.4660 
  126.1250     2.4440    46.3190    19.3450    17.6100    16.2090    24.1550   -16.6050 
  126.2500     2.4290    46.3810    18.8050    16.9290    15.5920    24.1070   -16.7130 
  126.3750     2.4240    46.7730    18.6770    16.5740    15.7620    24.1200   -16.7940 
