~V
VERS. 2.00: Ver 2.00
~W
STRT.M 60.0000:
STOP.M 276.0000:
STEP.M 0.1250:
NULL. -999.2500:
UWI. F11026:
~C
DEPT.M :
DEN.GM/CC :
GR.API :
RML.OHMM :
RI. :
RXO.OHMM :
CALI.CM :
SP.MV :
~A
# ...
  206.2500     1.8570    75.7380     5.9530     5.0660     4.3450    26.9060   -13.9710 
  206.3750     2.0190    76.0430     5.9840     5.1510     4.2240    25.4690   -14.7990 
  206.5000     2.1720    78.5320     5.9690     5.1740     4.2430    24.8670   -15.6720 
  206.6250     2.2930    84.1550     5.9560     5.1740     4.4300    24.2950   -16.2670 
  206.7500     2.3820    90.0520     5.9820     5.1980     4.8400    23.9600   -16.6020 
  206.8750     2.4410    91.0100     6.0610     5.2680     5.2040    23.8490   -16.6740 
  207.0000     2.4760    87.4080     6.1820     5.3840     5.5630    23.8400   -16.6340 
  207.1250     2.4900    86.2980     6.3270     5.5350     5.8220    23.8440   -16.2700 
  207.2500     2.4900    88.5750     6.4730     5.6910     6.0120    23.8890   -15.4710 
  207.3750     2.4760    89.6940     6.6190     5.8310     6.1240    24.0370   -14.3110 
  207.5000     2.4480    86.3410     6.7860     5.9490     6.3250    24.2860   -12.9960 
  207.6250     2.4150    81.8930     7.0250     6.0720     6.8930    24.4810   -11.7860 
  207.7500     2.3840    79.0230     7.3680     6.2590     7.3140    24.5580   -10.6560 
  207.8750     2.3610    77.4470     7.8290     6.5580     7.8470    24.5760    -9.7130 
  208.0000     2.3460    77.4180     8.3920     6.9900     8.2080    24.5480    -9.0280 
  208.1250     2.3390    77.8880     9.0180     7.5350     9.2990    24.4620    -8.6420 
  208.2500     2.3380    79.5520     9.6500     8.1040    10.8280    24.3100    -8.4340 
  208.3750     2.3460    81.7880    10.2950     8.6450    11.4420    24.1200    -8.3500 
  208.5000     2.3590    82.7940    11.0490     9.1740    11.3820    23.9420    -8.4150 
  208.6250     2.3680    80.9820    12.2070     9.8920    11.6300    23.9450    -8.7140 
  208.7500     2.3640    77.5480    13.9910    11.0590    12.2670    24.0350    -9.0340 
  208.8750     2.3470    74.3820    16.5960    12.9240    14.7750    24.1510    -9.1070 
  209.0000     2.3260    73.3530    20.1210    15.6760    19.9930    24.2470    -9.0010 
  209.1250     2.3170    74.3370    24.7220    19.5900    23.9810    24.2400    -9.0650 
  209.2500     2.3200    74.6180    30.2400    24.4780    25.2030    24.0920    -9.2090 
  209.3750     2.3270    72.1460    36.5850    30.2790    28.4670    23.9000    -9.3620 
  209.5000     2.3240    68.4220    43.9460    37.0430    35.3360    23.8020    -9.6140 
  209.6250     2.3040    66.2250    54.1950    45.0890    44.6080    24.0580    -9.8270 
  209.7500     2.2760    66.4960    67.3450    54.1140    61.3330    24.2870   -10.0530 
  209.8750     2.2490    68.3200    81.6230    63.7380    76.4280    24.4320   -10.4860 
  210.0000     2.2340    69.4090    95.0060    73.6450    79.8870    24.4890   -11.0380 
  210.1250     2.2370    67.1210   107.0580    83.6640    76.8860    24.4890   -11.3580 
  210.2500     2.2530    63.6620   118.6540    93.4970    79.5790    24.4210   -11.5690 
  210.3750     2.2740    62.4850   129.0700   102.5780    92.3400    24.3110   -11.7010 
  210.5000     2.2900    63.6770   137.0460   110.0040   110.0360    24.1700   -11.6580 
  210.6250     2.2890    64.8510   140.9920   114.2570   120.4890    24.1110   -11.5930 
  210.7500     2.2720    66.7580   141.4300   115.5440   125.4890    24.1310   -11.6740 
  210.8750     2.2430    68.0260   139.2360   114.5830   125.8300    24.2130   -11.7750 
  211.0000     2.2130    67.3330   135.6470   112.4400   122.5190    24.3520   -11.8030 
  211.1250     2.1910    65.0780   131.8010   110.1790   114.9740    24.3870   -12.0170 
  211.2500     2.1770    64.6010   128.2620   108.4030   102.9960    24.2950   -12.4090 
  211.3750     2.1740    66.2210   124.8040   106.9700    95.5660    24.2110   -12.7570 
  211.5000     2.1770    66.6480   120.7220   105.2180    91.1320    24.1970   -13.0550 
  211.6250     2.1830    66.4400   114.9530   101.8870    81.0810    24.1030   -13.3630 
  211.7500     2.1900    67.9030   107.6280    96.6530    75.3330    23.8770   -13.5360 
  211.8750     2.1970    70.1090    99.5920    90.0190    81.4990    23.6580   -13.6250 
  212.0000     2.2070    71.6100    92.2560    83.3180    84.6640    23.6170   -13.6950 
  212.1250     2.2190    72.6520    87.5550    78.5820    73.9160    23.6620   -13.5510 
  212.2500     2.2270    74.4490    86.0840    76.7230    63.2690    23.6980   -13.2760 
  212.3750     2.2280    75.6780    88.0750    78.1420    58.6810    23.8570   -13.1490 
  212.5000     2.2210    72.9190    93.2000    82.7430    63.6320    24.1830   -13.0880 
  212.6250     2.2080    67.1980   100.4880    89.9280    80.9030    24.3910   -12.7850 
  212.7500     2.1980    63.1120   107.4840    97.3340    96.7020    24.3740   -12.5110 
  212.8750     2.1930    62.2540   112.2400   102.8470    95.6200    24.1980   -12.4110 
  213.0000     2.1980    63.9550   113.7840   105.1660    74.5500    23.9320   -12.5150 
  213.1250     2.2140    66.3030   112.5310   104.3510    69.8910    23.6690   -12.8210 
  213.2500     2.2320    69.0820   110.9020   102.8010    60.0280    23.4560   -13.0290 
  213.3750     2.2420    71.4650   110.3850   102.2330    51.1620    23.3690   -13.0490 
  213.5000     2.2340    71.2600   111.2600   103.3280    45.2100    23.5470   -13.0420 
  213.6250     2.2080    67.7110   112.1610   105.2060    41.4750    23.7150   -13.1240 
  213.7500     2.1760    64.1210   110.8960   105.5970    38.9390    23.7840   -13.1410 
  213.8750     2.1530    63.3720   106.1390   102.7150    26.6970    23.3130   -13.0580 
  214.0000     2.1460    63.4370    98.0550    96.0190    11.6380    21.7420   -12.8770 
  214.1250     2.1500    63.2470    88.4510    86.7070     6.7520    19.5060   -12.6990 
  214.2500     2.1430    64.0240    80.1440    77.9290     5.6270    17.4840   -12.6230 
  214.3750     2.1070    65.6930    74.7580    71.6800     5.6970    15.7670   -12.5030 
  214.5000     2.0380    66.4790    72.9880    68.9410     6.0190    14.5660   -12.5480 
  214.6250     1.9520    68.8290    75.3610    70.4960     6.2930    14.1120   -12.8260 
  214.7500     1.8880    72.1190    80.7020    75.3680     6.5210    14.0700   -13.2630 
  214.8750     1.8720    72.8360    88.1240    82.8070     6.7140    14.2490   -13.7490 
  215.0000     1.9120    72.0210    96.4210    91.6100     6.4820    14.5130   -14.2020 
  215.1250     1.9930    72.1330   103.9280    99.9870     5.8100    14.9770   -14.5020 
  215.2500     2.0730    71.5030   109.4750   106.4510     5.6470    15.7420   -14.6440 
  215.3750     2.1240    68.1020   112.5350   110.2460     6.4170    16.7250   -14.6920 
  215.5000     2.1290    64.2490   113.1970   111.3290     9.1780    18.1370   -14.7160 
  215.6250     2.0850    64.4070   111.7900   110.0060    19.2290    20.4400   -14.7380 
  215.7500     2.0210    66.4830   109.3990   107.5070    38.5130    22.1390   -14.8580 
  215.8750     1.9620    67.4920   106.6940   104.5230    51.8440    22.8080   -15.0030 
  216.0000     1.9270    66.7980   104.3110   101.6950    49.8080    22.9220   -15.0390 
  216.1250     1.9290    65.8010   103.0940    99.9810    53.4020    23.2170   -15.1370 
  216.2500     1.9560    64.7600   103.3960    99.8630    66.5800    23.8590   -15.3660 
  216.3750     1.9980    63.0550   105.4580   101.5600    83.7090    24.4660   -15.6540 
  216.5000     2.0420    61.0680   109.3230   105.0890    97.7040    24.9220   -15.8370 
  216.6250     2.0760    60.5470   115.0380   110.6430   119.9350    25.1160   -15.7280 
  216.7500     2.0950    60.9520   121.7610   117.5390   133.3080    25.1960   -15.3920 
  216.8750     2.0990    61.2090   128.6270   124.9810   127.7710    25.2340   -14.9620 
  217.0000     2.0930    59.9170   134.5340   131.8380   123.6260    25.2500   -14.5980 
  217.1250     2.0890    57.4740   137.8460   136.3130   162.9460    25.2340   -14.2380 
  217.2500     2.0950    57.1570   138.0790   137.5390   204.2400    25.2010   -13.7440 
  217.3750     2.1130    59.8740   135.1830   135.2340   213.7320    25.0990   -13.1660 
