~V
VERS. 2.00: Ver 2.00
~W
STRT.M 55.0000:
STOP.M 276.0000:
STEP.M 0.1250:
NULL. -999.2500:
UWI. F11046:
~C
DEPT.M :
GR.API :
RML.OHMM :
RI. :
RXO.OHMM :
CALI.CM :
DEN.GM/CC :
SP.MV :
~A
# ...
  167.5000    68.3640    88.1570    83.0470    71.7670    24.2560     2.3040   -28.2660 
  167.6250    66.1440    92.9440    89.4400    80.4470    24.2600     2.2990   -28.6170 
  167.7500    65.1820    94.3920    93.3270    89.5550    24.2740     2.2940   -28.9560 
  167.8750    69.1270    90.9110    91.9900    85.3750    24.3270     2.2930   -29.1850 
  168.0000    75.7610    82.8070    84.7240    72.4210    24.4710     2.2960   -29.3590 
  168.1250    79.3770    72.6580    73.8860    55.8920    24.7310     2.3010   -29.5370 
  168.2500    78.8300    64.2430    64.0880    44.7200    24.9480     2.3000   -29.6520 
  168.3750    76.4060    59.5190    57.6870    38.5820    24.9910     2.2920   -29.7710 
  168.5000    73.5330    59.1490    55.6670    37.9050    25.0480     2.2800   -29.8530 
  168.6250    70.6910    63.4620    58.8240    45.2500    25.2220     2.2740   -30.0090 
  168.7500    70.6920    70.7190    65.6940    62.0240    25.1710     2.2790   -30.1150 
  168.8750    73.8090    79.4400    74.9020    82.7320    24.8180     2.2930   -30.2910 
  169.0000    76.1930    87.9310    84.4900    81.4740    24.5230     2.3070   -30.4510 
  169.1250    74.8290    94.5860    92.0980    67.1970    24.4080     2.3140   -30.5500 
  169.2500    72.7170    99.6110    97.5220    62.8720    24.3970     2.3140   -30.6980 
  169.3750    70.3990   103.8270   101.9080    65.0880    24.4080     2.3090   -30.8100 
  169.5000    68.2620   107.8300   106.4570    65.8540    24.4390     2.3000   -30.9270 
  169.6250    68.2800   110.8730   110.7740    64.2580    24.4560     2.2930   -31.0450 
  169.7500    68.8210   111.5220   112.9010    60.6810    24.4580     2.2890   -31.1900 
  169.8750    68.0120   108.7990   111.1880    55.3310    24.4560     2.2890   -31.3570 
  170.0000    66.4200   103.0150   105.5250    47.1820    24.4610     2.2930   -31.5190 
  170.1250    66.1470    95.7910    97.5850    39.5530    24.4880     2.2950   -31.6890 
  170.2500    67.0000    89.4410    90.2900    36.1220    24.5430     2.2920   -31.8670 
  170.3750    68.2100    85.1120    85.0520    35.1830    24.6120     2.2810   -32.1100 
  170.5000    69.8530    83.0990    82.3140    36.1130    24.6600     2.2640   -32.3920 
  170.6250    69.3480    83.2000    82.1320    39.5170    24.8120     2.2390   -32.5520 
  170.7500    67.0570    84.1400    83.2160    42.8100    25.2230     2.2110   -32.7250 
  170.8750    66.2560    85.0420    84.4360    49.7430    25.8310     2.1850   -32.7960 
  171.0000    67.9250    85.4180    84.9350    60.6300    26.3410     2.1700   -32.8920 
  171.1250    70.3050    85.4720    84.6100    72.4020    26.4970     2.1750   -32.9960 
  171.2500    73.1330    86.1860    84.5130    75.0660    26.4350     2.1950   -33.0080 
  171.3750    75.0640    88.5870    85.8000    71.7270    26.1130     2.2200   -33.0160 
  171.5000    72.7310    93.5040    89.5340    74.7260    25.4990     2.2390   -32.9900 
  171.6250    67.7190   101.7250    96.8150    86.1540    24.8580     2.2430   -33.0400 
  171.7500    66.7290   112.1510   106.7860    94.5800    24.4220     2.2370   -33.0110 
  171.8750    69.7680   123.2170   118.0760    98.2120    24.1800     2.2270   -33.0050 
  172.0000    71.4850   132.6200   128.2970    96.8280    24.0980     2.2210   -32.8920 
  172.1250    71.2920   137.2080   133.7110    89.8140    24.1110     2.2210   -32.7440 
  172.2500    72.9910   136.8040   133.5900    86.2700    24.1200     2.2250   -32.6910 
  172.3750    75.9560   132.5530   129.0690    84.6750    24.1080     2.2290   -32.6150 
  172.5000    77.9750   126.6150   122.5230    79.0090    24.0710     2.2320   -32.5690 
  172.6250    77.2380   121.4500   116.5040    71.0600    24.0360     2.2300   -32.4640 
  172.7500    74.1430   118.3500   112.5140    73.5380    24.0170     2.2250   -32.3800 
  172.8750    69.8110   117.5830   111.1010    86.6180    24.0710     2.2200   -32.3190 
  173.0000    66.5850   118.6400   112.0190    98.6480    24.2780     2.2170   -32.2940 
  173.1250    66.9190   120.3020   114.1950    97.2220    24.6750     2.2220   -32.3710 
  173.2500    68.4790   121.0490   115.7640   100.9440    25.0310     2.2320   -32.4260 
  173.3750    68.6640   120.1810   115.7200   106.5560    25.2060     2.2440   -32.4800 
  173.5000    67.6320   117.8330   114.0260   102.0360    25.2400     2.2560   -32.5320 
  173.6250    66.8340   114.8680   111.5280    88.9830    25.2170     2.2650   -32.4970 
  173.7500    67.3480   112.4480   109.5150    87.3840    25.1910     2.2710   -32.5450 
  173.8750    68.0540   111.1240   108.6290    99.3990    25.1780     2.2760   -32.5510 
  174.0000    67.4780   110.9650   109.0200   114.2690    25.1760     2.2800   -32.5630 
  174.1250    65.3540   111.7320   110.5360   112.2870    25.1780     2.2810   -32.5140 
  174.2500    63.5610   112.6940   112.4250   104.4950    25.1780     2.2780   -32.4260 
  174.3750    62.9240   113.2710   114.1010   106.3920    25.1770     2.2710   -32.3050 
  174.5000    63.0460   112.9110   114.9230   110.6880    25.1680     2.2640   -32.0620 
  174.6250    64.2120   110.9670   113.9310   105.1430    25.1460     2.2610   -31.9420 
  174.7500    66.1860   107.7110   111.1040    95.2370    25.1150     2.2660   -31.7180 
  174.8750    65.8790   103.7300   106.8710    90.8880    25.0910     2.2790   -31.5300 
  175.0000    61.6240    99.9970   102.2330    80.7430    25.0630     2.2940   -31.3540 
  175.1250    59.1820    97.9660    98.8280    72.1790    25.0580     2.3030   -31.2700 
  175.2500    60.7220    98.2740    97.6940    74.1260    25.0750     2.3000   -31.1900 
  175.3750    61.2760   101.1990    99.3210    86.8130    25.1010     2.2870   -31.1870 
  175.5000    59.6330   106.6030   103.6650    85.3070    25.1250     2.2710   -31.3480 
  175.6250    61.2440   114.4160   110.6970    86.5500    25.1450     2.2610   -31.4730 
  175.7500    65.5050   124.0290   119.5680    92.2030    25.1350     2.2600   -31.7240 
  175.8750    66.9780   135.7380   130.3070   114.2920    25.1150     2.2620   -31.9600 
  176.0000    66.0890   150.5310   143.8090   145.3780    25.1120     2.2640   -32.1780 
  176.1250    66.5530   170.8620   162.9920   159.2840    25.1340     2.2600   -32.4040 
  176.2500    66.6330   196.5700   189.0180   178.5040    25.1630     2.2520   -32.6670 
  176.3750    64.4880   224.5290   220.9300   207.8380    25.1770     2.2440   -32.9520 
  176.5000    60.3310   246.2100   251.9740   326.0880    25.1710     2.2390   -33.1850 
  176.6250    56.5840   246.0960   263.4510   396.5490    25.1490     2.2380   -33.3290 
  176.7500    54.8880   222.8760   245.8500   325.6120    25.1310     2.2420   -33.4140 
  176.8750    57.0590   184.8610   205.7850   192.0970    25.1330     2.2510   -33.4540 
  177.0000    63.5440   145.9280   160.9350   104.3470    25.1120     2.2620   -33.5270 
  177.1250    69.9730   119.1410   127.9290    73.8300    25.0700     2.2710   -33.5180 
  177.2500    72.6910   105.9160   109.4490    68.6410    25.0510     2.2680   -33.4660 
  177.3750    72.5400   105.2970   104.8080    81.5760    25.0700     2.2510   -33.3870 
  177.5000    71.8530   116.2000   113.2470   123.3210    25.1390     2.2190   -33.2340 
  177.6250    69.9570   139.5130   136.6840   186.1670    25.3150     2.1830   -33.2680 
  177.7500    64.7820   170.9530   171.0780   259.2980    25.5420     2.1580   -33.2500 
  177.8750    59.0380   204.6990   210.0500   252.5100    25.7270     2.1520   -33.2310 
  178.0000    57.5060   232.1290   242.2410   208.9350    25.6910     2.1630   -33.1790 
  178.1250    60.8790   243.1720   253.5510   228.7610    25.4220     2.1760   -33.0970 
  178.2500    64.5430   239.7420   247.3280   227.0620    25.2000     2.1780   -33.0210 
  178.3750    66.2300   226.8430   231.3500   222.8050    24.9190     2.1710   -32.8620 
  178.5000    65.9160   209.7630   211.9480   207.6900    24.5300     2.1630   -32.7700 
  178.6250    64.2530   191.6060   191.6220   201.1520    24.1170     2.1700   -32.4670 
