~V
VERS. 2.00: Ver 2.00
~W
STRT.M 59.0000:
STOP.M 230.0000:
STEP.M 0.1250:
NULL. -999.2500:
UWI. F11001:
~C
DEPT.M :
GR.API :
RML.OHMM :
RI. :
RXO.OHMM :
CALI.CM :
SP.MV :
DEN.GM/CC :
~A
# ...
  194.0000    65.1750   176.8610   172.5360   174.3150    25.1640   -24.7550     2.1910 
  194.1250    63.6110   181.4520   176.7160   169.0520    25.0970   -25.4090     2.1960 
  194.2500    64.7360   189.7430   185.0350   179.3180    25.0670   -26.0020     2.2020 
  194.3750    64.8500   199.7900   195.8100   229.8720    25.1050   -26.4620     2.2060 
  194.5000    62.8260   208.3270   206.2110   279.6120    25.1390   -26.7340     2.2070 
  194.6250    62.0090   210.9040   211.4720   274.9640    25.1510   -26.6640     2.2040 
  194.7500    63.8750   202.6040   204.9290   250.8540    25.1580   -26.3350     2.1990 
  194.8750    64.2610   186.4120   188.6270   226.3180    25.1700   -25.7420     2.1960 
  195.0000    62.1850   167.3520   168.0910   198.1900    25.1830   -24.8580     2.1960 
  195.1250    60.6150   150.8830   149.6390   164.3530    25.2030   -23.7060     2.2010 
  195.2500    62.3660   141.8120   138.7550   120.8260    25.2190   -22.4150     2.2050 
  195.3750    64.8130   140.0380   135.7130    97.0560    25.2210   -21.1500     2.2070 
  195.5000    66.4250   144.8190   139.8170   122.7940    25.2050   -19.9240     2.2050 
  195.6250    66.5180   154.4960   149.2640   160.3590    25.1890   -18.7250     2.2010 
  195.7500    65.2140   166.4860   161.2160   169.0190    25.2230   -17.6230     2.1980 
  195.8750    62.6310   177.1270   171.5550   167.9280    25.2490   -16.6270     2.1970 
  196.0000    60.7160   184.3010   177.9280   194.6890    25.2720   -15.7290     2.1980 
  196.1250    61.1580   187.5350   180.0270   222.0030    25.2470   -14.8910     2.2000 
  196.2500    62.1990   187.7770   179.3210   208.8580    25.2220   -14.0100     2.2020 
  196.3750    62.3820   187.2560   178.5430   179.7660    25.2110   -13.2270     2.2030 
  196.5000    62.5750   186.4180   178.6250   182.7410    25.2550   -12.4950     2.2020 
  196.6250    64.6250   184.0100   178.7940   222.9830    25.3170   -11.8610     2.2030 
  196.7500    65.9750   176.6080   175.7210   201.5680    25.3150   -11.3170     2.2180 
  196.8750    64.7760   163.3510   166.8580   190.7840    24.9960   -10.7770     2.2590 
  197.0000    62.9850   145.6220   152.0330   228.2000    24.7370   -10.2370     2.3280 
  197.1250    63.2990   126.7800   134.1730   228.2100    24.7070    -9.7530     2.4150 
  197.2500    66.4920   110.3460   117.8120   161.8160    24.7140    -9.4130     2.4950 
  197.3750    71.0700    95.9710   103.8980   117.6080    24.5770    -9.0230     2.5460 
  197.5000    73.5750    81.3780    89.4730   100.6470    24.4840    -8.6180     2.5630 
  197.6250    72.6990    64.7550    70.9920    86.0040    24.4900    -8.2920     2.5560 
  197.7500    71.6240    46.8340    49.4630    83.2930    24.3160    -7.9190     2.5400 
  197.8750    73.7580    30.8480    31.0200    66.2560    24.0340    -7.5190     2.5240 
  198.0000    76.0690    18.8000    18.3390    35.1810    23.6860    -7.0400     2.5040 
  198.1250    76.1980    10.9530    10.8630    14.4910    23.4370    -6.4820     2.4730 
  198.2500    75.0670     6.8520     7.2150     6.5250    23.5520    -5.8150     2.4330 
  198.3750    73.4530     4.8390     5.3150     4.7170    23.8840    -5.1380     2.3920 
  198.5000    71.1100     4.1110     4.4350     4.4570    24.2170    -4.5010     2.3600 
  198.6250    68.2780     4.0550     4.2020     4.6110    24.3030    -3.9000     2.3440 
  198.7500    67.8860     4.3410     4.4320     4.7940    24.2560    -3.3800     2.3450 
  198.8750    71.6540     4.7580     4.8630     4.9120    24.3970    -2.9580     2.3590 
  199.0000    79.6910     5.1950     5.3620     5.2840    24.6740    -2.6210     2.3770 
  199.1250    89.6770     5.5880     5.8450     6.1740    24.8660    -2.3860     2.3900 
  199.2500    99.1790     5.8870     6.2440     6.6210    24.9250    -2.2180     2.3900 
  199.3750   108.7130     6.0900     6.5440     6.2750    24.9640    -2.0640     2.3800 
  199.5000   116.8240     6.2010     6.7340     6.1110    24.9550    -1.9240     2.3680 
  199.6250   119.7830     6.2320     6.8080     6.2850    24.9430    -1.7420     2.3630 
  199.7500   117.0830     6.1940     6.7540     6.5730    24.9440    -1.5530     2.3660 
  199.8750   115.1380     6.1160     6.6090     6.6700    24.9260    -1.3340     2.3710 
  200.0000   115.4180     6.0080     6.3940     6.4590    24.8850    -1.1110     2.3740 
  200.1250   114.2900     5.8830     6.1380     6.0620    24.8570    -0.8610     2.3740 
  200.2500   110.1800     5.7610     5.8790     5.7480    24.9050    -0.6240     2.3720 
  200.3750   106.9310     5.6620     5.6520     5.5500    24.9070    -0.3940     2.3710 
  200.5000   106.5250     5.6010     5.4750     5.2370    24.8790    -0.1690     2.3680 
  200.6250   107.1660     5.5860     5.3560     5.0440    24.8320     0.0200     2.3650 
  200.7500   107.2440     5.6210     5.2930     5.0130    24.7680     0.2010     2.3620 
  200.8750   107.2410     5.6880     5.2610     5.0630    24.7550     0.3420     2.3620 
  201.0000   104.8940     5.7660     5.2380     5.1270    24.7980     0.3900     2.3620 
  201.1250    98.6000     5.8310     5.2080     5.2220    24.8100     0.3740     2.3600 
  201.2500    93.1920     5.8580     5.1520     5.2290    24.7970     0.3230     2.3550 
  201.3750    92.1490     5.8500     5.0710     5.2200    24.7990     0.2480     2.3520 
  201.5000    93.1230     5.8320     4.9840     5.2300    24.7780     0.1730     2.3540 
  201.6250    92.9140     5.8530     4.9260     5.3430    24.7110     0.1350     2.3630 
  201.7500    91.7740     6.0070     4.9700     5.4950    24.6720     0.0930     2.3750 
  201.8750    93.0110     6.3430     5.1600     5.8790    24.6650     0.0610     2.3880 
  202.0000    97.0330     6.8890     5.5260     7.5690    24.6430     0.0490     2.4010 
  202.1250   102.0640     7.6200     6.0680    11.6930    24.6910     0.0070     2.4130 
  202.2500   102.8400     8.4590     6.7500    15.5900    24.7460    -0.0510     2.4190 
  202.3750    97.8550     9.2550     7.4460    13.7350    24.7600    -0.1650     2.4130 
  202.5000    91.6180     9.9080     8.0460    10.4310    24.7270    -0.3140     2.3890 
  202.6250    89.6920    10.3730     8.4800     9.3570    24.6650    -0.5150     2.3530 
  202.7500    92.6670    10.6590     8.7320     9.5310    24.5680    -0.7780     2.3210 
  202.8750    94.7240    10.8730     8.9020    10.5130    24.5260    -1.0970     2.3090 
  203.0000    95.3560    11.0800     9.0540    12.9320    24.4610    -1.4250     2.3250 
  203.1250    96.1810    11.3180     9.2300    18.0780    24.4180    -1.7110     2.3620 
  203.2500    96.5990    11.5990     9.4480    26.1850    24.5170    -1.9880     2.4020 
  203.3750    96.9860    11.8900     9.6740    21.5140    24.5800    -2.2060     2.4280 
  203.5000    99.6360    12.1540     9.8700    12.6900    24.4860    -2.3850     2.4360 
  203.6250   103.7640    12.3570    10.0040     9.2220    24.3780    -2.5500     2.4310 
  203.7500   105.3800    12.4530    10.0430     9.3650    24.4430    -2.6280     2.4230 
  203.8750   103.7950    12.4520    10.0010    10.2550    24.6380    -2.6430     2.4230 
  204.0000   100.2940    12.3850     9.9070    11.1410    24.7270    -2.6090     2.4340 
  204.1250    95.7080    12.3050     9.8080    11.2210    24.6810    -2.5450     2.4510 
  204.2500    92.7330    12.2890     9.7590    11.1230    24.5830    -2.4490     2.4690 
  204.3750    94.0970    12.3660     9.7880    11.2650    24.4890    -2.3690     2.4860 
  204.5000    97.5770    12.5320     9.8970    11.6910    24.4250    -2.2730     2.5030 
  204.6250    99.6030    12.7560    10.0700    11.8760    24.2780    -2.1390     2.5190 
  204.7500    96.8790    13.0030    10.2730    11.6320    24.1030    -1.9630     2.5300 
  204.8750    92.3510    13.2450    10.4740    11.2010    24.0460    -1.7410     2.5320 
  205.0000    89.9150    13.4710    10.6620    10.9980    24.1480    -1.5440     2.5210 
  205.1250    90.3960    13.6610    10.8250    10.8480    24.3240    -1.3900     2.4940 
