~V
VERS. 2.00: Ver 2.00
~W
STRT.M 52.0000:
STOP.M 269.0000:
STEP.M 0.1250:
NULL. -999.2500:
UWI. F11071:
~C
DEPT.M :
GR.API :
RML.OHMM :
RI. :
RXO.OHMM :
CALI.CM :
DEN.GM/CC :
SP.MV :
~A
# ...
   97.0000    67.7940     9.6040     7.6520     8.2780    25.1770     2.1360   -17.2170 
   97.1250    69.4130     9.5890     7.5980     8.2720    25.1860     2.1500   -16.9590 
   97.2500    71.8100     9.5730     7.5610     8.1510    25.1390     2.1590   -16.7040 
   97.3750    73.3970     9.5730     7.5480     7.9360    25.0320     2.1590   -16.5730 
   97.5000    72.9790     9.5960     7.5550     8.1160    24.9220     2.1530   -16.6000 
   97.6250    70.6630     9.6210     7.5780     8.2880    24.7550     2.1440   -16.7820 
   97.7500    69.3500     9.6200     7.6060     8.3210    24.5750     2.1380   -17.0920 
   97.8750    69.6280     9.5930     7.6350     8.1480    24.5270     2.1370   -17.5390 
   98.0000    71.4170     9.5660     7.6630     8.0800    24.6520     2.1400   -18.1020 
   98.1250    73.8370     9.5840     7.6910     8.4050    24.8110     2.1500   -18.6880 
   98.2500    73.9010     9.6510     7.7200     8.8410    24.8490     2.1650   -19.1760 
   98.3750    72.6820     9.7470     7.7500     9.0640    24.7610     2.1780   -19.4630 
   98.5000    74.1230     9.8350     7.7750     8.9000    24.5710     2.1810   -19.5730 
   98.6250    79.1400     9.8730     7.7920     8.3380    24.3850     2.1660   -19.5670 
   98.7500    80.4280     9.8550     7.8030     8.0290    24.4020     2.1420   -19.5270 
   98.8750    74.6210     9.7890     7.8110     8.3610    24.5720     2.1170   -19.4320 
   99.0000    66.7980     9.7030     7.8150     8.8380    24.8150     2.0970   -19.2920 
   99.1250    63.5850     9.6350     7.8150     9.1140    24.9160     2.0810   -19.1960 
   99.2500    62.7710     9.6110     7.8150     9.0860    24.8310     2.0690   -19.2490 
   99.3750    62.3370     9.6260     7.8260     8.9470    24.5420     2.0650   -19.5130 
   99.5000    63.7130     9.6550     7.8550     9.0260    24.1940     2.0730   -19.9080 
   99.6250    67.8410     9.6580     7.9090     9.1660    24.1180     2.0950   -20.3600 
   99.7500    70.1890     9.6260     7.9680     9.1180    24.2200     2.1210   -20.8210 
   99.8750    69.8220     9.5700     8.0120     9.0530    24.2410     2.1410   -21.2860 
  100.0000    68.1760     9.5010     8.0220     9.1670    24.1860     2.1500   -21.7090 
  100.1250    66.0690     9.4210     7.9800     9.2870    24.1790     2.1480   -22.0570 
  100.2500    65.4630     9.3310     7.9000     9.2550    24.1750     2.1430   -22.3100 
  100.3750    67.7530     9.2370     7.8000     9.1280    24.1550     2.1400   -22.4170 
  100.5000    70.3830     9.1590     7.7070     9.0350    24.1000     2.1380   -22.4410 
  100.6250    70.2130     9.1200     7.6500     8.9940    23.9880     2.1370   -22.4050 
  100.7500    69.4620     9.1150     7.6360     8.9540    23.9670     2.1340   -22.2770 
  100.8750    70.4320     9.1200     7.6590     8.9970    24.1150     2.1290   -22.0610 
  101.0000    71.6900     9.1160     7.7010     8.9980    24.3040     2.1230   -21.8430 
  101.1250    71.3260     9.1110     7.7420     9.2030    24.4080     2.1160   -21.7210 
  101.2500    70.9100     9.1410     7.7660     9.3500    24.4170     2.1110   -21.7000 
  101.3750    70.4900     9.2290     7.7770     9.2940    24.4000     2.1110   -21.8070 
  101.5000    69.4680     9.3730     7.7870     9.2330    24.4670     2.1190   -22.0260 
  101.6250    68.3900     9.5420     7.8080     9.3060    24.6320     2.1310   -22.3120 
  101.7500    68.0200     9.6900     7.8440     9.3660    24.7680     2.1440   -22.6180 
  101.8750    67.0360     9.7860     7.8920     9.7160    24.8610     2.1500   -22.9660 
  102.0000    63.4860     9.8070     7.9440     9.8610    24.8760     2.1510   -23.3630 
  102.1250    60.4450     9.7210     7.9880     9.6990    24.8350     2.1450   -23.7640 
  102.2500    60.8860     9.5620     8.0210     9.6570    24.8450     2.1380   -24.1410 
  102.3750    62.9540     9.3780     8.0410     9.6350    24.9160     2.1310   -24.4590 
  102.5000    63.4660     9.2290     8.0460     9.6390    25.0420     2.1270   -24.6810 
  102.6250    62.1740     9.1720     8.0380     9.6700    25.0940     2.1280   -24.8280 
  102.7500    61.0630     9.1820     8.0260     9.7070    25.0310     2.1370   -24.9290 
  102.8750    62.4390     9.2200     8.0270     9.7220    24.8200     2.1540   -24.9420 
  103.0000    65.9930     9.2590     8.0600     9.6760    24.5920     2.1750   -24.8160 
  103.1250    68.4310     9.2880     8.1500     9.5730    24.4690     2.1900   -24.5240 
  103.2500    68.7710     9.3060     8.2790     9.5480    24.3910     2.1910   -24.1560 
  103.3750    68.8100     9.2920     8.4080     9.7570    24.3700     2.1750   -23.8020 
  103.5000    69.2410     9.2200     8.4900     9.9740    24.4650     2.1490   -23.4970 
  103.6250    67.4170     9.0800     8.4650     9.9340    24.6760     2.1260   -23.1890 
  103.7500    63.3080     8.9170     8.3400     9.6560    24.8420     2.1160   -22.8690 
  103.8750    60.1330     8.7540     8.1400     9.4500    24.8160     2.1170   -22.5620 
  104.0000    61.7240     8.5860     7.9050     9.4270    24.6040     2.1230   -22.3250 
  104.1250    66.9920     8.3940     7.6590     9.6030    24.5260     2.1280   -22.1790 
  104.2500    70.3120     8.2130     7.4140     9.8860    24.6500     2.1280   -22.0390 
  104.3750    70.2570     8.1510     7.2020     9.9900    24.9070     2.1260   -21.7930 
  104.5000    69.6650     8.3900     7.1220     9.8420    25.0760     2.1300   -21.3920 
  104.6250    68.2560     9.3000     7.4280     9.9080    25.1060     2.1640   -20.8480 
  104.7500    66.2870    11.1150     8.3470    11.4290    25.1040     2.2370   -20.2110 
  104.8750    67.0070    14.1620    10.2380    16.5010    25.1200     2.3460   -19.4860 
  105.0000    71.0240    18.6650    13.5700    26.3560    25.1170     2.4730   -18.6570 
  105.1250    74.5400    24.3520    18.9400    42.4390    25.0630     2.5790   -17.7810 
  105.2500    77.4640    29.3080    25.1000    57.3230    24.9800     2.6380   -16.9240 
  105.3750    83.1780    31.3460    29.2850    60.3520    24.9230     2.6390   -16.1390 
  105.5000    89.4160    29.2590    28.6820    51.7460    24.8630     2.5900   -15.5020 
  105.6250    90.3160    23.7520    23.5150    39.3820    24.7990     2.5140   -15.0550 
  105.7500    87.8800    17.9410    17.8270    25.5200    24.7380     2.4420   -14.7630 
  105.8750    85.6460    13.4310    13.3500    13.7980    24.7080     2.3910   -14.6140 
  106.0000    84.1950    10.5600    10.3730     9.4320    24.7050     2.3590   -14.5680 
  106.1250    82.2740     9.1130     8.7320     8.6340    24.7350     2.3340   -14.5750 
  106.2500    80.4320     8.4260     7.8500     8.6720    24.7800     2.3060   -14.5860 
  106.3750    79.4180     8.2160     7.4760     8.8350    24.8240     2.2770   -14.6240 
  106.5000    79.9580     8.2630     7.4010     8.9620    24.7990     2.2600   -14.6900 
  106.6250    82.2610     8.4130     7.4560     8.7020    24.6800     2.2600   -14.7400 
  106.7500    84.8750     8.5550     7.5160     8.6210    24.5680     2.2680   -14.7750 
  106.8750    87.3160     8.6590     7.5610     7.9140    24.5170     2.2720   -14.8380 
  107.0000    88.8290     8.7370     7.6120     6.9220    24.5520     2.2640   -15.0070 
  107.1250    88.2540     8.8250     7.6920     7.4380    24.5600     2.2390   -15.3280 
  107.2500    85.5880     8.9460     7.8010     8.1210    24.5600     2.2070   -15.7820 
  107.3750    81.8870     9.0880     7.9270     8.5980    24.5560     2.1740   -16.3240 
  107.5000    77.9480     9.2200     8.0550     9.0510    24.5480     2.1460   -16.8810 
  107.6250    74.2800     9.3080     8.1540     9.4800    24.5280     2.1290   -17.4760 
  107.7500    72.9920     9.3680     8.2160     9.5460    24.5060     2.1210   -18.1080 
  107.8750    74.9040     9.4340     8.2540     9.4470    24.5130     2.1210   -18.7260 
  108.0000    77.3640     9.5280     8.2900     9.6870    24.5690     2.1270   -19.2550 
  108.1250    77.5680     9.6440     8.3430     9.8950    24.7040     2.1340   -19.6460 
