~V
VERS. 2.00: Ver 2.00
~W
STRT.M 52.0000:
STOP.M 282.0000:
STEP.M 0.1250:
NULL. -999.2500:
UWI. F11052:
~C
DEPT.M :
SP.MV :
GR.API :
RML.OHMM :
RI. :
RXO.OHMM :
CALI.CM :
DEN.GM/CC :
~A
# ...
  175.7500   -22.8660    72.8790    71.3820    71.8370    61.6860    25.8030     2.2430 
  175.8750   -22.8430    70.9170    71.7070    70.7990    60.2150    25.7550     2.2510 
  176.0000   -22.8850    68.9380    75.1040    72.7220    60.7040    25.8000     2.2590 
  176.1250   -22.9220    68.0630    82.2990    78.7410    61.5350    25.9260     2.2610 
  176.2500   -22.9370    66.2870    92.0960    88.0260    71.3760    26.0130     2.2580 
  176.3750   -22.9250    62.9890   103.0560    99.3120    97.6420    26.0380     2.2490 
  176.5000   -22.9220    60.0030   113.1240   110.2960   118.8400    26.0330     2.2380 
  176.6250   -22.9130    62.4610   119.5930   117.5040   117.5420    26.0140     2.2320 
  176.7500   -22.9430    65.3580   122.1750   120.0340   130.9330    25.9840     2.2370 
  176.8750   -23.0110    64.2630   121.8860   118.8430   134.4990    25.9120     2.2500 
  177.0000   -23.0820    60.0310   120.7560   116.2560   107.8590    25.8360     2.2660 
  177.1250   -23.1390    58.0420   121.3140   115.1290    89.3300    25.8220     2.2760 
  177.2500   -23.2120    60.1940   124.6310   116.7700    90.3720    25.8660     2.2750 
  177.3750   -23.2750    63.1390   130.7880   121.4300   109.7300    26.0210     2.2670 
  177.5000   -23.3530    63.1330   139.0030   128.5560   122.6910    26.2010     2.2540 
  177.6250   -23.3950    61.1660   147.5140   136.6780   131.0700    26.2510     2.2430 
  177.7500   -23.3350    60.0480   154.0290   143.3740   132.4330    26.2230     2.2350 
  177.8750   -23.2980    59.9910   156.9250   146.8330   130.4950    26.2000     2.2320 
  178.0000   -23.1440    60.4520   155.5350   146.1970   115.8210    26.2100     2.2340 
  178.1250   -23.0080    61.4520   149.9850   141.3350    98.9000    26.2210     2.2430 
  178.2500   -22.8760    63.9010   142.6560   134.3490    91.8530    26.2530     2.2560 
  178.3750   -22.7250    66.6360   135.4060   126.9690    90.9100    26.2720     2.2670 
  178.5000   -22.6260    68.0590   129.8020   120.8360    90.5310    26.2750     2.2700 
  178.6250   -22.5010    68.0940   127.3320   117.5610    92.5770    26.2480     2.2580 
  178.7500   -22.5090    67.6350   127.7940   117.1170    88.8770    26.2170     2.2350 
  178.8750   -22.4750    68.3710   130.8650   119.2940    88.9660    26.1930     2.2030 
  179.0000   -22.4840    67.4040   135.8470   123.6070    97.2860    26.1740     2.1680 
  179.1250   -22.5500    63.2930   141.4160   129.2640   111.3940    26.2000     2.1350 
  179.2500   -22.5610    58.9330   145.3320   134.3220   116.0140    26.2840     2.1090 
  179.3750   -22.6180    55.9390   145.3580   136.5250   123.5350    26.3710     2.0960 
  179.5000   -22.6510    55.1070   139.8480   133.6870   124.9280    26.3930     2.1020 
  179.6250   -22.6260    57.5190   128.0990   124.1440   133.5520    26.3320     2.1320 
  179.7500   -22.5700    61.8370   113.4610   110.8000   118.6270    26.2110     2.1740 
  179.8750   -22.5340    65.9580    98.9820    96.7640    83.7150    26.1010     2.2160 
  180.0000   -22.4600    67.8150    87.1650    84.8190    59.9810    26.0300     2.2490 
  180.1250   -22.3730    67.8360    79.9860    77.2170    56.6250    26.0160     2.2670 
  180.2500   -22.2990    67.1680    76.6920    73.5010    59.5820    25.9920     2.2770 
  180.3750   -22.2020    66.1130    76.4400    73.0090    61.2470    25.9490     2.2820 
  180.5000   -22.1510    65.8990    78.0610    74.6900    59.4730    25.8850     2.2830 
  180.6250   -22.1900    65.7370    80.2260    77.2170    61.4050    25.8590     2.2820 
  180.7500   -22.1980    65.6070    81.7140    79.1600    66.1600    25.8610     2.2820 
  180.8750   -22.1590    66.8540    81.9860    79.8050    81.7510    25.8230     2.2830 
  181.0000   -22.1510    69.5080    80.9740    78.9460   103.4900    25.7640     2.2860 
  181.1250   -22.0620    71.6440    78.9000    76.7190    97.3270    25.6930     2.2920 
  181.2500   -22.0220    72.8620    76.4890    73.9240    71.9070    25.6280     2.2960 
  181.3750   -21.9730    74.9500    74.2600    71.1050    62.8210    25.5770     2.3000 
  181.5000   -21.8620    76.1690    72.6900    68.7620    56.7350    25.5360     2.3020 
  181.6250   -21.7690    73.2580    72.4280    67.5600    54.8420    25.4940     2.3030 
  181.7500   -21.6430    69.9760    73.6360    67.7160    57.7400    25.4050     2.3030 
  181.8750   -21.6090    68.5260    76.4770    69.4400    60.6190    25.2720     2.3030 
  182.0000   -21.5350    68.3760    80.9330    72.8460    64.1030    25.1700     2.3030 
  182.1250   -21.4870    68.4630    86.8130    78.0600    75.2370    25.1140     2.3020 
  182.2500   -21.4790    69.4520    92.9920    84.2020    82.9550    25.0210     2.2980 
  182.3750   -21.4620    70.6880    98.1710    90.1240    90.3960    24.9100     2.2910 
  182.5000   -21.4860    70.3650   100.8820    94.2100    95.1110    24.9890     2.2800 
  182.6250   -21.5120    69.3050    99.4250    94.2130   103.4090    25.3170     2.2700 
  182.7500   -21.4890    68.5740    94.6120    90.4240    96.4800    25.6340     2.2670 
  182.8750   -21.4240    68.1280    87.8140    84.1450    77.2090    25.8270     2.2730 
  183.0000   -21.3990    67.2210    80.8100    77.3080    56.2690    25.9400     2.2890 
  183.1250   -21.3500    67.1580    75.3730    71.8640    53.1340    26.0450     2.3080 
  183.2500   -21.3350    69.1550    71.8590    68.3570    57.7960    26.1900     2.3240 
  183.3750   -21.3380    70.8190    70.0130    66.6390    62.0120    26.3190     2.3330 
  183.5000   -21.3440    70.3200    69.2090    66.1210    63.3860    26.3930     2.3330 
  183.6250   -21.3360    69.1390    68.7590    66.0140    63.1000    26.4580     2.3270 
  183.7500   -21.3560    68.7100    68.2240    65.6600    67.9290    26.5200     2.3210 
  183.8750   -21.4220    67.8790    67.6870    65.0360    69.8990    26.5590     2.3170 
  184.0000   -21.4790    66.1230    67.4670    64.5390    69.3890    26.5520     2.3150 
  184.1250   -21.5870    64.7890    67.9540    64.7510    67.9880    26.5230     2.3140 
  184.2500   -21.5870    64.6220    69.0030    65.6320    69.2310    26.5000     2.3100 
  184.3750   -21.5500    64.7620    70.3030    66.8610    72.0990    26.4850     2.3010 
  184.5000   -21.4920    64.6920    71.5050    68.0230    75.1530    26.4660     2.2920 
  184.6250   -21.4010    64.8630    72.3990    68.7890    75.3840    26.4420     2.2870 
  184.7500   -21.3930    65.8150    73.2530    69.3550    64.1150    26.4240     2.2880 
  184.8750   -21.3210    66.8430    74.5400    70.2060    58.6040    26.4030     2.2900 
  185.0000   -21.2820    68.3390    76.7610    71.9360    66.7890    26.4010     2.2870 
  185.1250   -21.2360    69.8040    80.3880    75.2420    76.7050    26.3660     2.2780 
  185.2500   -21.2790    70.5090    84.8880    79.9080    77.7210    26.2520     2.2680 
  185.3750   -21.3820    71.3400    89.3140    85.2600    72.7130    26.0460     2.2620 
  185.5000   -21.4300    73.3160    92.3000    89.8720    71.0990    25.8180     2.2620 
  185.6250   -21.5260    74.9960    92.0340    91.3490    82.0960    25.6950     2.2650 
  185.7500   -21.6520    73.6320    88.7030    89.1960    90.7350    25.7050     2.2690 
  185.8750   -21.8430    70.1400    83.2390    84.1710    85.4510    25.8230     2.2760 
  186.0000   -22.0960    68.4610    77.1700    77.9240    70.5730    25.9900     2.2880 
  186.1250   -22.3790    70.0680    72.2350    72.4360    56.5440    26.2020     2.3060 
  186.2500   -22.5580    71.2150    69.0580    68.7260    55.3190    26.3790     2.3240 
  186.3750   -22.7050    69.2570    67.5730    66.8900    64.9660    26.4870     2.3360 
  186.5000   -22.8790    65.2190    67.3080    66.4050    77.9040    26.5070     2.3340 
  186.6250   -23.0500    62.6790    67.8770    66.6110    86.7820    26.5020     2.3150 
  186.7500   -23.2090    62.7630    69.1430    67.1410    87.5990    26.5510     2.2890 
  186.8750   -23.2890    63.5250    71.6860    68.4250    84.5310    26.5350     2.2670 
