~V
VERS. 2.00: Ver 2.00
~W
STRT.M 50.0000:
STOP.M 281.0000:
STEP.M 0.1250:
NULL. -999.2500:
UWI. F11064:
~C
DEPT.M :
SP.MV :
GR.API :
RML.OHMM :
RI. :
RXO.OHMM :
CALI.CM :
DEN.GM/CC :
~A
# ...
  140.0000    -7.4110    66.5050    10.9050     9.6320     7.8130    23.3020     2.2040 
  140.1250    -7.5110    64.4040    10.9580     9.7240     8.4090    23.6880     2.2060 
  140.2500    -7.6420    61.8590    10.9710     9.8230     8.7360    23.8740     2.2120 
  140.3750    -7.8320    61.0490    11.0720     9.9790     8.9300    24.0410     2.2230 
  140.5000    -8.0860    62.5340    11.4830    10.3200     9.1190    24.2870     2.2410 
  140.6250    -8.4350    64.1260    12.4610    11.0550     9.0520    24.4190     2.2650 
  140.7500    -8.8720    62.7900    13.8030    12.1240     8.9620    24.4580     2.2930 
  140.8750    -9.3830    60.3100    15.0350    13.2390    10.2030    24.5990     2.3190 
  141.0000    -9.9270    60.6410    15.4190    13.8050    13.5360    24.7770     2.3340 
  141.1250   -10.4360    65.2960    14.1110    12.9810    16.1560    25.0960     2.3230 
  141.2500   -10.8900    70.8630    11.6590    11.0630    13.2320    25.6500     2.2960 
  141.3750   -11.2750    75.4730     8.9510     8.7580     8.5950    26.3600     2.2750 
  141.5000   -11.6030    79.9060     6.7150     6.7200     6.3950    26.8930     2.2730 
  141.6250   -11.8590    83.8990     5.3460     5.3430     4.5490    26.8920     2.2820 
  141.7500   -12.0470    86.3260     4.6500     4.5340     4.4570    26.6350     2.2900 
  141.8750   -12.1580    87.3520     4.5100     4.2170     4.6420    26.3530     2.2980 
  142.0000   -12.2290    88.0880     4.8700     4.3450     4.7560    26.0380     2.3150 
  142.1250   -12.2670    89.8930     5.7810     4.9730     4.9100    25.6270     2.3450 
  142.2500   -12.2740    89.3470     7.0510     5.9700     5.4090    25.3620     2.3790 
  142.3750   -12.2810    83.9930     8.4010     7.1570     6.7750    25.3770     2.4060 
  142.5000   -12.2940    76.2020     9.3740     8.1800     9.2750    25.5180     2.4170 
  142.6250   -12.2640    72.3760     9.3590     8.4610    10.2550    25.3910     2.3980 
  142.7500   -12.2220    73.1970     8.5160     7.9750     7.5740    24.7820     2.3630 
  142.8750   -12.1850    74.5640     7.3470     7.0540     5.1500    23.8880     2.3320 
  143.0000   -12.1390    75.3160     6.4140     6.1660     4.3230    23.2120     2.3260 
  143.1250   -12.1120    73.3570     6.1850     5.7400     4.6080    23.1270     2.3470 
  143.2500   -12.1220    70.3040     6.6950     5.8900     5.1860    23.4960     2.3790 
  143.3750   -12.1510    69.7940     7.9580     6.6760     6.4410    24.1710     2.4120 
  143.5000   -12.1850    72.7370     9.8760     8.0710     9.4430    24.8890     2.4460 
  143.6250   -12.2530    73.0870    12.0960     9.8990    13.6200    25.4480     2.4660 
  143.7500   -12.3330    67.9610    13.8530    11.5540    15.9320    25.6760     2.4620 
  143.8750   -12.4410    62.9090    14.4830    12.4160    15.4490    25.5650     2.4290 
  144.0000   -12.5730    62.2710    13.7650    12.1360    12.5840    25.1560     2.3770 
  144.1250   -12.7240    64.9970    12.0460    10.8410     9.0520    24.2760     2.3220 
  144.2500   -12.8740    67.6500    10.2320     9.2960     6.4010    23.0670     2.2740 
  144.3750   -13.0200    68.0900     8.7600     7.9200     5.6190    22.0880     2.2380 
  144.5000   -13.1390    66.9650     7.7610     6.8910     5.3860    21.6690     2.2110 
  144.6250   -13.2280    65.1630     7.2260     6.2780     5.3510    21.7590     2.1870 
  144.7500   -13.3170    64.5870     6.9570     5.9480     5.3420    21.9600     2.1650 
  144.8750   -13.4020    65.9670     6.8510     5.8200     5.3420    22.0840     2.1490 
  145.0000   -13.4780    69.4370     6.8310     5.8110     5.3340    22.1380     2.1430 
  145.1250   -13.5440    72.9500     6.8390     5.8520     5.2670    22.2010     2.1530 
  145.2500   -13.6080    73.1370     6.8410     5.8860     5.0480    22.2760     2.1770 
  145.3750   -13.6580    70.8400     6.8160     5.8880     4.7550    22.3170     2.2090 
  145.5000   -13.6830    68.0310     6.7350     5.8290     4.5820    22.2980     2.2420 
  145.6250   -13.6660    66.4560     6.5380     5.6570     4.4110    22.2810     2.2640 
  145.7500   -13.6050    67.4780     6.2160     5.3690     4.1820    22.3010     2.2750 
  145.8750   -13.5090    69.2190     5.7930     4.9900     3.9390    22.3830     2.2760 
  146.0000   -13.3820    71.5050     5.3420     4.5860     3.7720    22.5070     2.2700 
  146.1250   -13.2280    75.3120     4.9950     4.2640     3.6570    22.6700     2.2530 
  146.2500   -13.0390    79.5460     4.8400     4.0910     3.6120    22.7820     2.2260 
  146.3750   -12.8170    81.5580     4.9250     4.1020     3.7380    22.8560     2.1890 
  146.5000   -12.5860    80.6830     5.2490     4.3010     3.9360    22.8920     2.1490 
  146.6250   -12.3810    78.0050     5.7730     4.6730     4.1340    22.8150     2.1210 
  146.7500   -12.1850    74.1690     6.3470     5.1260     4.2680    22.5450     2.1110 
  146.8750   -11.9800    68.9560     6.8460     5.5840     4.7200    22.1260     2.1160 
  147.0000   -11.7650    64.7000     7.1680     5.9720     5.0430    21.7560     2.1180 
  147.1250   -11.5760    64.1390     7.2520     6.2070     5.0900    21.6620     2.1100 
  147.2500   -11.4590    65.7960     7.1970     6.3080     4.8870    21.7680     2.1090 
  147.3750   -11.4290    66.9470     7.1120     6.3250     4.7660    21.9750     2.1250 
  147.5000   -11.4760    66.5790     7.0870     6.3310     4.7770    22.3690     2.1590 
  147.6250   -11.6040    64.8290     7.1380     6.3740     5.2500    23.0120     2.2020 
  147.7500   -11.7830    63.7260     7.1500     6.4010     5.4140    23.6790     2.2430 
  147.8750   -12.0270    65.5220     6.9990     6.3140     5.7920    24.4760     2.2690 
  148.0000   -12.3160    69.7420     6.5980     6.0280     7.2760    25.4570     2.2650 
  148.1250   -12.5960    72.4610     5.9200     5.4870     8.0440    26.4490     2.2250 
  148.2500   -12.8240    74.1450     5.1420     4.8250     6.0250    27.1590     2.1770 
  148.3750   -12.9980    79.0290     4.4380     4.1820     4.5480    27.4990     2.1460 
  148.5000   -13.1370    85.0980     3.9410     3.6750     4.0610    27.5440     2.1380 
  148.6250   -13.2220    85.0510     3.7490     3.4050     3.8550    27.2350     2.1400 
  148.7500   -13.2740    81.0740     3.8000     3.3440     3.8050    26.5630     2.1430 
  148.8750   -13.2740    78.1290     4.0330     3.4580     4.1120    25.8100     2.1480 
  149.0000   -13.2330    77.4850     4.3660     3.6940     4.5460    25.2730     2.1570 
  149.1250   -13.1220    76.6260     4.7360     4.0160     4.3290    24.7280     2.1720 
  149.2500   -12.9630    73.4200     5.1100     4.3840     4.0360    23.9080     2.1970 
  149.3750   -12.7670    71.1330     5.4760     4.7680     3.9530    23.1310     2.2270 
  149.5000   -12.5340    72.1790     5.8030     5.1260     4.0260    22.6420     2.2530 
  149.6250   -12.3000    73.4850     6.0540     5.4090     4.0600    22.5100     2.2580 
  149.7500   -12.0880    71.6860     6.2530     5.6280     4.1070    22.5490     2.2580 
  149.8750   -11.8930    68.7450     6.4740     5.8370     4.3380    22.6900     2.2770 
  150.0000   -11.7320    65.9650     6.8530     6.1360     4.7950    23.0790     2.3270 
  150.1250   -11.6270    64.2660     7.6400     6.7150     5.6710    22.9410     2.4090 
  150.2500   -11.5850    63.3370     8.9070     7.6630     7.5020    22.7520     2.4990 
  150.3750   -11.6020    63.0760    10.6230     9.0020    11.1890    22.5890     2.5740 
  150.5000   -11.6690    60.8120    12.5510    10.6110    16.5420    22.5400     2.6130 
  150.6250   -11.7660    55.3630    14.1220    12.1030    21.0480    22.7670     2.6180 
  150.7500   -11.8690    50.4470    14.8670    13.0290    22.3010    23.3090     2.6110 
  150.8750   -11.9860    48.7170    14.6790    13.1940    20.4710    23.2200     2.6030 
  151.0000   -12.1060    52.6540    13.8630    12.7430    17.6280    23.2110     2.5930 
  151.1250   -12.2400    58.6550    12.9530    12.0370    15.2680    23.3370     2.5900 
