~V
VERS. 2.00: Ver 2.00
~W
STRT.M 55.0000:
STOP.M 274.0000:
STEP.M 0.1250:
NULL. -999.2500:
UWI. F11049:
~C
DEPT.M :
SP.MV :
GR.API :
RML.OHMM :
RI. :
RXO.OHMM :
CALI.CM :
DEN.GM/CC :
~A
# ...
  212.5000    -8.3090    63.9100   148.3150   122.7010   161.8840    24.3750     2.1620 
  212.6250    -8.3490    63.7300   136.0200   115.0300   146.2030    24.3590     2.1650 
  212.7500    -8.3660    63.4810   122.6750   104.6990   127.8320    24.3670     2.1670 
  212.8750    -8.4530    63.3520   112.3010    95.3480   117.9870    24.3810     2.1660 
  213.0000    -8.4420    62.5110   106.7590    89.2980   101.3340    24.3750     2.1620 
  213.1250    -8.3820    59.6870   106.9930    87.9960    97.7430    24.3810     2.1530 
  213.2500    -8.4560    57.8510   111.1990    90.2730    98.5530    24.3670     2.1460 
  213.3750    -8.5580    59.5170   118.0740    95.1950   102.3770    24.3590     2.1440 
  213.5000    -8.5680    62.5990   126.2610   101.7410   105.4140    24.3750     2.1480 
  213.6250    -8.6830    62.1960   134.8970   109.1810   110.6550    24.3710     2.1590 
  213.7500    -8.8570    59.2390   144.3830   117.5000   113.2590    24.3590     2.1710 
  213.8750    -8.9660    56.7490   156.1510   127.7720   150.0040    24.3710     2.1770 
  214.0000    -9.2070    56.6490   171.6310   141.2450   150.0680    24.3830     2.1750 
  214.1250    -9.5680    59.6490   192.7170   159.5660   176.1750    24.3770     2.1650 
  214.2500    -9.8310    61.2500   219.6400   182.8820   216.4790    24.3790     2.1580 
  214.3750   -10.0540    60.1290   253.2230   212.0120   361.2630    24.3570     2.1590 
  214.5000   -10.4130    59.3820   292.1420   246.3130   640.2340    24.3430     2.1680 
  214.6250   -10.7380    59.8920   324.7690   277.9870   528.1350    24.3570     2.1780 
  214.7500   -10.9860    58.5620   330.2820   291.4310   322.3270    24.3750     2.1830 
  214.8750   -11.3210    55.9360   297.8340   274.7510   300.7130    24.3630     2.1850 
  215.0000   -11.5650    55.2480   242.1980   232.4070   270.3490    24.3590     2.1870 
  215.1250   -11.6710    56.0830   194.1910   184.9380   238.5170    24.3750     2.1890 
  215.2500   -11.8450    57.1140   167.2170   149.2690   208.6410    24.3670     2.1900 
  215.3750   -12.0590    59.2570   147.8910   128.5230   139.9520    24.3590     2.1910 
  215.5000   -12.1120    61.3540   140.8840   120.1430   127.9320    24.3750     2.1940 
  215.6250   -12.1600    60.4810   141.4990   120.1430   131.4460    24.3690     2.1970 
  215.7500   -12.2150    58.2110   142.5750   121.8900   134.6550    24.3470     2.2010 
  215.8750   -12.1140    57.3520   139.8660   121.4100   129.5710    24.3490     2.2060 
  216.0000   -12.0370    58.2970   132.4210   117.0420   122.7370    24.3750     2.2140 
  216.1250   -12.0260    57.9500   123.6320   110.6350   120.2920    24.3710     2.2240 
  216.2500   -11.8710    56.5280   118.2840   106.3400   114.5300    24.3590     2.2310 
  216.3750   -11.6290    56.4630   118.3930   106.3500   108.2690    24.3710     2.2340 
  216.5000   -11.5040    58.8750   123.7590   110.8920   124.9340    24.3750     2.2310 
  216.6250   -11.3260    62.0750   132.2170   118.4330   141.4610    24.3680     2.2260 
  216.7500   -11.0820    63.9090   139.0320   124.9750   146.4080    24.3920     2.2190 
  216.8750   -10.9560    64.3970   140.6260   127.3590   141.8090    24.4180     2.2080 
  217.0000   -10.8120    63.4360   135.8720   124.3010   133.2100    24.4350     2.1980 
  217.1250   -10.5580    62.2710   126.6610   116.9100   124.2170    24.4490     2.1930 
  217.2500   -10.4110    63.3580   117.3790   108.9290   116.1180    24.4340     2.1940 
  217.3750   -10.3600    65.1680   109.9610   102.3350   111.8590    24.3970     2.1960 
  217.5000   -10.2120    64.6370   104.6780    97.6900    97.6790    24.3590     2.1980 
  217.6250   -10.0770    62.1330   100.7920    94.4870    85.8430    24.3650     2.1960 
  217.7500   -10.0520    63.0090    96.8750    91.3710    80.4300    24.3870     2.1920 
  217.8750    -9.9400    67.2220    92.3570    87.7710    79.2320    24.3910     2.1890 
  218.0000    -9.8620    70.4250    87.4330    83.8100    80.1190    24.3750     2.1890 
  218.1250    -9.9090    69.8930    83.0740    80.2380    80.9230    24.3810     2.1920 
  218.2500    -9.8730    70.1180    80.1550    77.7630    81.0010    24.3670     2.1940 
  218.3750    -9.7600    71.8240    79.0040    76.6730    79.4240    24.3590     2.1960 
  218.5000    -9.7620    72.2420    79.0000    76.5210    76.4710    24.3830     2.2010 
  218.6250    -9.7890    67.8670    77.9750    75.5360    72.8070    24.4110     2.2130 
  218.7500    -9.7340    63.2460    73.9020    71.8710    68.4250    24.4380     2.2320 
  218.8750    -9.7970    64.7810    66.6160    65.2090    61.3740    24.4490     2.2510 
  219.0000    -9.8580    71.6670    58.1160    57.1930    54.5950    24.4350     2.2630 
  219.1250    -9.8280    75.9760    52.1170    50.9750    48.8900    24.4380     2.2670 
  219.2500    -9.8750    75.7570    50.8560    48.5430    48.3920    24.4490     2.2650 
  219.3750   -10.0040    74.3410    55.6040    51.1470    52.1910    24.4330     2.2490 
  219.5000   -10.0570    73.7770    67.0010    59.7230    55.8690    24.4210     2.2200 
  219.6250   -10.0920    70.3440    85.7000    75.4190    73.4460    24.4350     2.1890 
  219.7500   -10.2210    66.0470   104.4540    94.9610   119.8400    24.4590     2.1720 
  219.8750   -10.2410    63.3860   120.2580   113.3270   124.9960    24.4510     2.1720 
  220.0000   -10.1840    62.7520   130.8240   124.7830   120.6230    24.4040     2.1790 
  220.1250   -10.2560    63.1650   130.9320   126.2110   110.5590    24.3640     2.1850 
  220.2500   -10.3230    64.5770   127.0950   122.9350   110.5960    24.3670     2.1860 
  220.3750   -10.2570    67.5230   123.7190   119.0410   111.7350    24.3750     2.1820 
  220.5000   -10.2240    69.8510   122.5070   116.5260   115.0500    24.3510     2.1790 
  220.6250   -10.2420    69.5690   123.2370   115.6410   119.3900    24.3450     2.1790 
  220.7500   -10.1230    68.0780   124.3560   115.3220   117.9710    24.3630     2.1850 
  220.8750   -10.0630    65.7420   124.8350   114.7640   115.9850    24.3750     2.1920 
  221.0000   -10.1060    63.8710   124.2170   113.5430   114.3970    24.3590     2.1990 
  221.1250    -9.9880    64.0680   123.0200   112.0050   112.6570    24.3630     2.2060 
  221.2500    -9.8310    65.6150   122.8710   111.4060   112.3570    24.3760     2.2190 
  221.3750    -9.7970    66.7760   125.4910   113.1990   122.3280    24.3650     2.2350 
  221.5000    -9.7380    66.3940   132.6470   118.9930   130.4350    24.3630     2.2440 
  221.6250    -9.5710    64.9530   146.9250   131.4260   143.5410    24.3870     2.2440 
  221.7500    -9.5230    61.5790   166.6930   149.5220   166.0300    24.3870     2.2420 
  221.8750    -9.4120    56.6340   186.1530   168.7280   189.1700    24.3650     2.2450 
  222.0000    -9.1440    53.2560   193.1870   178.9830   189.4240    24.3590     2.2530 
  222.1250    -8.9590    52.9820   173.6760   166.7780   179.4300    24.3760     2.2650 
  222.2500    -8.7800    54.3500   139.7690   139.0190   167.1490    24.3700     2.2820 
  222.3750    -8.4270    55.6520   107.1870   108.6090   137.7340    24.3640     2.3010 
  222.5000    -7.9820    57.0770    84.6720    85.3190    95.4590    24.3780     2.3120 
  222.6250    -7.6370    60.2080    74.8580    73.6840    79.5410    24.3710     2.3010 
  222.7500    -7.2060    63.1280    73.3700    70.4190    77.6070    24.3520     2.2730 
  222.8750    -6.7750    65.2950    77.5680    73.1030    78.3520    24.3550     2.2410 
  223.0000    -6.5030    67.4110    84.7530    79.2730    79.3200    24.3790     2.2170 
  223.1250    -6.2340    68.0060    91.3020    85.7240    82.8140    24.3760     2.2060 
  223.2500    -5.9500    66.3770    94.1280    89.2360    86.2270    24.3650     2.2050 
  223.3750    -5.8440    65.0320    92.4990    88.6500    88.1230    24.3750     2.2090 
  223.5000    -5.9400    65.5580    87.8030    84.8150    85.3840    24.3780     2.2170 
  223.6250    -6.0080    66.3050    82.0420    79.3890    80.2380    24.3550     2.2290 
