~V
VERS. 2.00: Ver 2.00
~W
STRT.M 50.0000:
STOP.M 283.0000:
STEP.M 0.1250:
NULL. -999.2500:
UWI. F11058:
~C
DEPT.M :
DEN.GM/CC :
GR.API :
RML.OHMM :
RI. :
RXO.OHMM :
CALI.CM :
SP.MV :
~A
# ...
  263.7500     2.4520    66.4910    11.8340    10.6240    12.1750    24.3190    -5.2900 
  263.8750     2.4470    67.3060    11.7860    10.5640    11.7810    24.3230    -5.0400 
  264.0000     2.4540    66.7290    11.7220    10.4970    11.2650    24.3230    -4.7930 
  264.1250     2.4720    67.1540    11.6480    10.4450    10.5590    24.3140    -4.5900 
  264.2500     2.4930    68.0340    11.5750    10.4130     9.9690    24.3170    -4.4180 
  264.3750     2.5090    67.6940    11.5080    10.3930     9.9590    24.2960    -4.2730 
  264.5000     2.5150    66.8510    11.4430    10.3690    10.6110    24.2370    -4.1280 
  264.6250     2.5060    66.8560    11.3580    10.3160    11.1240    24.1850    -4.0860 
  264.7500     2.4840    65.7240    11.2430    10.2260    11.3650    24.3160    -4.1030 
  264.8750     2.4560    63.0080    11.1000    10.1020    10.9900    24.4440    -4.1340 
  265.0000     2.4270    61.9540    10.9470     9.9510    10.4820    24.4580    -4.1520 
  265.1250     2.4100    64.4490    10.8090     9.7950     9.9690    24.4190    -4.1990 
  265.2500     2.4050    65.7230    10.6990     9.6580     9.7200    24.4200    -4.2310 
  265.3750     2.4120    64.2030    10.6240     9.5570     9.6670    24.4720    -4.2270 
  265.5000     2.4290    62.6680    10.5880     9.5030     9.7670    24.5630    -4.2130 
  265.6250     2.4530    63.3410    10.5980     9.5060     9.8500    24.6730    -4.0850 
  265.7500     2.4820    65.1710    10.6370     9.5500     9.8570    24.6980    -3.9110 
  265.8750     2.5150    66.9400    10.6840     9.6170     9.9130    24.6730    -3.7780 
  266.0000     2.5460    67.3350    10.7120     9.6820    10.2150    24.6350    -3.6820 
  266.1250     2.5630    65.5710    10.7050     9.7180    10.3660    24.6240    -3.5460 
  266.2500     2.5550    64.1770    10.6750     9.7190    10.5680    24.6230    -3.3950 
  266.3750     2.5200    65.6450    10.6400     9.6870    10.7770    24.6200    -3.2900 
  266.5000     2.4690    69.0140    10.6100     9.6340    10.6260    24.6140    -3.2550 
  266.6250     2.4280    69.3100    10.5830     9.5670     9.8380    24.6120    -3.3010 
  266.7500     2.4150    66.1190    10.5500     9.4940    10.0420    24.6040    -3.3770 
  266.8750     2.4340    62.6710    10.5140     9.4210    12.2710    24.5840    -3.4850 
  267.0000     2.4760    61.4280    10.4950     9.3650    16.5620    24.5580    -3.6090 
  267.1250     2.5230    61.5130    10.5300     9.3660    15.2510    24.5300    -3.6910 
  267.2500     2.5540    61.5390    10.6220     9.4370    12.4300    24.5120    -3.8010 
  267.3750     2.5570    61.1880    10.7560     9.5700    10.7800    24.5130    -3.8970 
  267.5000     2.5280    60.1110    10.8990     9.7330    10.5240    24.5040    -3.9630 
  267.6250     2.4830    58.0200    11.0230     9.8860    10.8620    24.5020    -4.0180 
  267.7500     2.4530    57.0180    11.1320    10.0190    11.7520    24.5140    -4.0540 
  267.8750     2.4530    57.3260    11.2490    10.1500    14.1670    24.5380    -3.9720 
  268.0000     2.4780    58.2210    11.3980    10.3050    17.3660    24.5560    -3.8410 
  268.1250     2.5000    59.9650    11.5840    10.4980    17.3790    24.5690    -3.7810 
  268.2500     2.4970    60.9400    11.7670    10.6940    14.7340    24.5680    -3.7400 
  268.3750     2.4700    61.6860    11.8930    10.8460    12.5310    24.5550    -3.7130 
  268.5000     2.4370    62.9110    11.9220    10.9130    11.6050    24.5570    -3.6390 
  268.6250     2.4240    63.0840    11.8250    10.8570    11.2520    24.5850    -3.5720 
  268.7500     2.4370    61.8100    11.6550    10.7190    10.9500    24.6140    -3.5230 
  268.8750     2.4650    60.7400    11.4560    10.5380    10.5230    24.6200    -3.5710 
  269.0000     2.4950    60.6360    11.2660    10.3530    10.4160    24.6220    -3.7000 
  269.1250     2.5110    60.0720    11.1080    10.1870    10.6040    24.6400    -3.7890 
  269.2500     2.5170    59.3100    10.9930    10.0420    10.8900    24.6670    -3.8530 
  269.3750     2.5200    60.0400    10.9380     9.9320    10.8010    24.6790    -3.8940 
  269.5000     2.5260    61.2130    10.9700     9.8880    10.3940    24.6810    -3.9750 
  269.6250     2.5380    60.8920    11.1220     9.9640     9.7210    24.6810    -4.0210 
  269.7500     2.5510    60.7330    11.3640    10.1540     9.2260    24.6810    -4.0030 
  269.8750     2.5610    60.8880    11.6550    10.4320     8.9660    24.6810    -3.9660 
  270.0000     2.5650    60.7340    11.9450    10.7400     9.1250    24.6740    -3.8960 
  270.1250     2.5610    60.9960    12.1650    10.9870     9.7800    24.6460    -3.8000 
  270.2500     2.5540    61.5840    12.2840    11.1200    10.8780    24.6080    -3.6420 
  270.3750     2.5490    61.4300    12.2890    11.1230    12.3140    24.6010    -3.4900 
  270.5000     2.5470    59.6860    12.1960    11.0220    13.9310    24.6350    -3.3340 
  270.6250     2.5500    57.5940    12.0530    10.8780    14.3360    24.6640    -3.1790 
  270.7500     2.5600    56.6870    11.9460    10.7750    14.0940    24.6660    -3.0930 
  270.8750     2.5750    57.2120    11.9410    10.7660    13.4910    24.6550    -3.0720 
  271.0000     2.5900    58.8040    12.0750    10.8730    13.2360    24.6750    -3.0780 
  271.1250     2.5930    59.7030    12.3510    11.0980    13.0690    24.7140    -3.1530 
  271.2500     2.5780    59.5690    12.6660    11.3730    12.8410    24.7530    -3.3190 
  271.3750     2.5490    58.8750    12.9180    11.6240    13.3380    24.7420    -3.4940 
  271.5000     2.5170    58.5420    13.0160    11.7710    15.0400    24.6900    -3.7370 
  271.6250     2.5010    58.7370    12.8990    11.7280    16.3690    24.5890    -4.0410 
  271.7500     2.5070    58.7860    12.6510    11.5330    16.7730    24.3910    -4.3380 
  271.8750     2.5290    57.9890    12.3670    11.2530    17.8710    24.1090    -4.6080 
  272.0000     2.5550    56.3120    12.1350    10.9850    19.5300    23.8690    -4.8480 
  272.1250     2.5740    55.6120    12.0390    10.8410    21.2820    23.7600    -5.0390 
  272.2500     2.5820    55.9810    12.0720    10.8430    21.4270    23.7190    -5.1740 
  272.3750     2.5820    56.4190    12.2010    10.9670    20.9440    23.7140    -5.3290 
  272.5000     2.5760    56.0630    12.3600    11.1430    20.9110    23.7250    -5.4460 
  272.6250     2.5670    55.0090    12.4560    11.2650    21.1460    23.7070    -5.5590 
  272.7500     2.5570    54.0460    12.4430    11.2710    19.7010    23.6950    -5.6810 
  272.8750     2.5470    53.8690    12.3310    11.1550    17.0700    23.6850    -5.7620 
  273.0000     2.5410    53.8690    12.1770    10.9680    15.5630    23.6710    -5.8670 
  273.1250     2.5390    53.8690    12.0560    10.7880    15.3220    23.6760    -5.9850 
  273.2500     2.5400    53.8690    11.9970    10.6670    15.4010    23.6920    -6.0590 
  273.3750     2.5420    53.8690    11.9840    10.6140    15.4960    23.7060    -6.0380 
  273.5000     2.5410    53.8690    11.9810    10.6020    15.7400    23.7310    -5.9770 
  273.6250     2.5330    53.8690    11.9360    10.5850    15.9230    23.8060    -5.8930 
  273.7500     2.5210    53.8690    11.8330    10.5290    15.4470    23.8990    -5.8000 
  273.8750     2.5050    53.8690    11.6800    10.4320    14.4210    23.9730    -5.7710 
  274.0000     2.4910    53.8690    11.5140    10.3160    13.4710    23.9890    -5.7390 
  274.1250     2.4830    53.8690    11.3870    10.2200    12.8940    23.9750    -5.7240 
  274.2500     2.4820    53.8690    11.3280    10.1680    12.7420    23.9060    -5.7760 
  274.3750     2.4910    53.8690    11.3400    10.1720    13.5230    23.8090    -5.9370 
  274.5000     2.5060    53.8690    11.4130    10.2330    14.6350    23.7230    -6.1170 
  274.6250     2.5250    53.8690    11.5420    10.3450    15.2600    23.6630    -6.3080 
  274.7500     2.5430    53.8690    11.7170    10.4850    15.5490    23.6110    -6.4590 
  274.8750     2.5550    53.8690    11.9310    10.6310    15.3600    23.5780    -6.5190 
