~V
VERS. 2.00: Ver 2.00
~W
STRT.M 52.0000:
STOP.M 287.0000:
STEP.M 0.1250:
NULL. -999.2500:
UWI. F11078:
~C
DEPT.M :
GR.API :
RML.OHMM :
RI. :
RXO.OHMM :
CALI.CM :
DEN.GM/CC :
SP.MV :
~A
# ...
  142.0000    72.4420     9.4680     8.4470     8.5630    23.9660     2.1670   -13.3930 
  142.1250    69.7200     9.6320     8.6030     8.7480    24.2540     2.1650   -13.6200 
  142.2500    66.8210     9.7580     8.7310     8.9930    24.3880     2.1560   -13.8140 
  142.3750    63.7710     9.8160     8.7990     9.2090    24.4080     2.1430   -13.9440 
  142.5000    60.1550     9.7860     8.7540     9.2580    24.2890     2.1310   -13.9370 
  142.6250    59.3310     9.7620     8.6790     9.3420    24.1140     2.1250   -13.7880 
  142.7500    62.6640     9.8940     8.7420     9.5980    24.0170     2.1370   -13.4610 
  142.8750    67.9630    10.3330     9.1230     9.9240    24.0350     2.1850   -12.9660 
  143.0000    71.1880    11.1520     9.9440    10.1690    24.1430     2.2830   -12.3440 
  143.1250    70.5590    12.0260    10.9170    13.2910    24.2430     2.4040   -11.6930 
  143.2500    68.1040    12.4950    11.5360    23.6630    24.3230     2.5090   -11.0610 
  143.3750    67.1350    12.1660    11.2460    34.3480    24.4660     2.5580   -10.4570 
  143.5000    72.0340    10.8530     9.8420    23.1480    24.7350     2.5290    -9.9130 
  143.6250    81.2770     9.0790     8.1060    10.8700    24.9700     2.4640    -9.4210 
  143.7500    88.7370     7.3790     6.5920     6.7190    25.0540     2.4000    -9.0360 
  143.8750    89.6350     6.2070     5.5570     5.7760    25.0390     2.3580    -8.8330 
  144.0000    85.4290     5.8470     5.1250     6.0400    24.9770     2.3320    -8.8420 
  144.1250    83.2630     6.0240     5.1420     6.4090    24.9160     2.3050    -8.9820 
  144.2500    81.6310     6.5190     5.5040     6.7050    24.8390     2.2750    -9.2150 
  144.3750    78.4730     7.1780     6.0870     7.0610    24.6890     2.2490    -9.5360 
  144.5000    76.8710     7.8490     6.7530     7.4740    24.4180     2.2350    -9.9660 
  144.6250    77.2390     8.4220     7.3610     7.9320    24.1340     2.2270   -10.4950 
  144.7500    75.2020     8.8540     7.8420     8.2430    23.8610     2.2170   -11.0750 
  144.8750    71.4320     9.1280     8.1740     8.3380    23.5710     2.2020   -11.5840 
  145.0000    71.2140     9.2020     8.3400     8.2370    23.2510     2.1850   -11.9250 
  145.1250    72.9050     9.0790     8.3600     8.1860    23.0630     2.1770   -12.1160 
  145.2500    73.5730     8.7470     8.2030     8.1050    23.0130     2.1840   -12.1440 
  145.3750    73.9060     8.2260     7.8470     7.8260    23.0640     2.2060   -11.9950 
  145.5000    77.1390     7.5760     7.3000     7.4080    23.2250     2.2380   -11.6510 
  145.6250    82.8620     6.9260     6.6940     6.8440    23.5350     2.2660   -11.1640 
  145.7500    89.1580     6.3680     6.1390     6.1510    23.8950     2.2860   -10.5830 
  145.8750    92.0030     5.9620     5.7130     5.8320    24.1480     2.2960   -10.0280 
  146.0000    88.2360     5.7510     5.4690     5.9730    24.1980     2.3030    -9.6010 
  146.1250    83.0300     5.6710     5.3580     6.2410    24.1860     2.3120    -9.2750 
  146.2500    81.0470     5.6730     5.3340     6.1390    24.2040     2.3250    -9.0460 
  146.3750    81.9200     5.7160     5.3470     5.8310    24.2770     2.3350    -8.9450 
  146.5000    84.4490     5.7680     5.3570     5.7600    24.3350     2.3380    -9.0240 
  146.6250    87.7180     5.8010     5.3380     5.7630    24.3630     2.3330    -9.2590 
  146.7500    91.1540     5.7790     5.2660     5.8830    24.4100     2.3260    -9.6200 
  146.8750    93.1080     5.6520     5.1060     5.6310    24.5310     2.3210    -9.9900 
  147.0000    92.3030     5.3670     4.8170     5.7040    24.7030     2.3210   -10.2940 
  147.1250    91.0210     4.9900     4.4560     5.4160    24.7850     2.3260   -10.5600 
  147.2500    92.1410     4.6460     4.1140     4.9690    24.7890     2.3320   -10.8080 
  147.3750    96.1240     4.5000     3.9030     4.6100    24.7130     2.3330   -11.0240 
  147.5000    99.1300     4.7830     3.9680     4.6790    24.5400     2.3260   -11.2140 
  147.6250    96.8850     5.5290     4.3470     5.4100    24.3230     2.3170   -11.4130 
  147.7500    90.7490     6.7380     5.0880     7.0160    24.1840     2.3120   -11.5980 
  147.8750    84.2000     8.3480     6.2350     9.4360    24.1210     2.3170   -11.7960 
  148.0000    79.7830    10.2610     7.8590    13.4480    24.0740     2.3300   -12.0150 
  148.1250    76.4160    12.2130     9.7640    17.9530    23.9690     2.3450   -12.2470 
  148.2500    72.8940    13.9260    11.6560    22.0090    23.9150     2.3650   -12.5210 
  148.3750    70.7200    15.0800    13.1110    26.0270    24.0190     2.3930   -12.8730 
  148.5000    73.5020    15.2600    13.5860    27.3660    24.2280     2.4240   -13.2480 
  148.6250    77.4860    14.5880    13.1550    24.7020    24.3460     2.4370   -13.5950 
  148.7500    78.0530    13.3460    12.1090    19.4250    24.3020     2.4110   -13.9560 
  148.8750    74.7730    11.9870    10.8760    14.4940    24.1400     2.3430   -14.3550 
  149.0000    72.9150    11.0440     9.8720    11.2760    23.8660     2.2470   -14.7920 
  149.1250    72.3160    10.6810     9.2460    10.1310    23.4970     2.1620   -15.2260 
  149.2500    71.5040    10.8240     9.0150    10.1350    23.2060     2.1180   -15.6000 
  149.3750    71.4160    11.2280     9.1050    10.0610    23.1650     2.1260   -15.8670 
  149.5000    70.4400    11.5540     9.3750     9.7490    23.4410     2.1820   -16.0350 
  149.6250    68.1520    11.6130     9.6080    10.0770    23.7870     2.2440   -16.1410 
  149.7500    67.2110    11.4150     9.6850    10.4570    24.0450     2.2830   -16.1960 
  149.8750    68.5260    11.0900     9.5760     9.7120    24.1510     2.2810   -16.2160 
  150.0000    69.2800    10.8110     9.3330     8.9910    24.1460     2.2440   -16.1990 
  150.1250    68.0510    10.6670     9.0880     8.7130    24.0860     2.1970   -16.1850 
  150.2500    67.1600    10.6660     8.9290     8.7590    23.9840     2.1530   -16.1900 
  150.3750    68.4180    10.7630     8.9110     8.9200    23.8730     2.1160   -16.1910 
  150.5000    72.1390    10.8720     9.0580     9.2120    23.8160     2.0890   -16.1680 
  150.6250    74.0480    10.8870     9.2620     9.3680    23.7860     2.0710   -16.0790 
  150.7500    71.4490    10.7130     9.3800     9.3890    23.7750     2.0670   -15.8690 
  150.8750    66.9700    10.2770     9.2590     9.3150    23.7750     2.0790   -15.5190 
  151.0000    66.4270     9.5410     8.7550     9.0770    23.8570     2.1080   -15.0470 
  151.1250    69.2130     8.6570     7.9880     8.1420    24.0540     2.1480   -14.5010 
  151.2500    74.4900     7.7830     7.1250     6.7700    24.2460     2.1890   -13.9030 
  151.3750    81.4950     7.0670     6.3360     5.9260    24.2960     2.2230   -13.3020 
  151.5000    86.0950     6.6410     5.7670     5.7040    24.1860     2.2390   -12.7590 
  151.6250    86.9840     6.4580     5.4180     5.7240    24.0400     2.2430   -12.3340 
  151.7500    87.1580     6.4430     5.2660     5.7710    23.9170     2.2460   -12.0540 
  151.8750    87.5280     6.4930     5.2610     5.8170    23.8810     2.2560   -11.9020 
  152.0000    85.9670     6.5060     5.3350     5.8760    23.9670     2.2720   -11.8570 
  152.1250    83.2910     6.4560     5.4150     6.0630    24.1210     2.2810   -11.8770 
  152.2500    82.3530     6.3890     5.4940     6.2420    24.2420     2.2760   -12.0000 
  152.3750    84.1800     6.3920     5.6090     6.3140    24.2960     2.2560   -12.2070 
  152.5000    86.5350     6.5810     5.8230     6.3120    24.3260     2.2320   -12.4430 
  152.6250    85.8000     6.9470     6.1450     6.6800    24.3510     2.2170   -12.6950 
  152.7500    81.7600     7.4110     6.5240     8.0890    24.3730     2.2160   -12.9570 
  152.8750    76.8430     7.8320     6.8480    10.7200    24.3290     2.2280   -13.2280 
  153.0000    74.6660     8.0130     6.9580     9.7440    24.0380     2.2510   -13.5170 
  153.1250    75.3020     7.9330     6.8640     8.2490    23.6010     2.2750   -13.8000 
