~V
VERS. 2.00: Ver 2.00
~W
STRT.M 52.0000:
STOP.M 235.0000:
STEP.M 0.1250:
NULL. -999.2500:
UWI. F11014:
~C
DEPT.M :
DEN.GM/CC :
GR.API :
RML.OHMM :
RI. :
RXO.OHMM :
CALI.CM :
SP.MV :
~A
# ...
  153.2500     2.5430    53.5640    13.6520    12.7160    11.2580    23.6940    -2.1070 
  153.3750     2.5370    53.7800    13.5300    12.5020    11.4840    23.8690    -2.1970 
  153.5000     2.5320    55.0010    13.3660    12.2780    11.8960    24.0320    -2.2740 
  153.6250     2.5250    56.2500    13.2690    12.1020    12.1240    24.1410    -2.3810 
  153.7500     2.5090    56.5350    13.5510    12.1740    11.7600    24.2090    -2.5980 
  153.8750     2.4780    57.0740    14.9190    12.9620    11.1470    24.2970    -2.8630 
  154.0000     2.4310    58.8650    18.1380    15.0560    11.7100    24.4080    -3.1280 
  154.1250     2.3780    61.9480    23.9400    19.2080    15.7250    24.5240    -3.4710 
  154.2500     2.3290    65.4920    34.5610    26.3520    29.7030    24.6160    -3.8610 
  154.3750     2.2940    67.0230    48.8930    37.5520    58.2310    24.6920    -4.2070 
  154.5000     2.2740    65.3670    64.8290    51.9560    98.0180    24.7630    -4.5830 
  154.6250     2.2640    61.9750    80.0110    66.6620   117.9960    24.8040    -4.9980 
  154.7500     2.2600    59.6220    91.7840    78.6260   106.6690    24.8120    -5.3340 
  154.8750     2.2540    59.2190    99.8690    86.7610    93.4610    24.7950    -5.5980 
  155.0000     2.2450    59.4970   106.8650    93.0990   102.9660    24.7560    -5.8800 
  155.1250     2.2310    59.6280   115.2460   100.0600   120.3840    24.7200    -6.1220 
  155.2500     2.2150    59.4410   125.7390   108.6030   120.1100    24.7370    -6.3120 
  155.3750     2.2020    59.0590   137.6370   118.3510   112.8930    24.7480    -6.5590 
  155.5000     2.1930    58.3630   149.2510   127.9840   121.5050    24.6720    -6.8180 
  155.6250     2.1860    57.6410   159.3790   136.5410   142.3950    24.5250    -7.0170 
  155.7500     2.1800    57.8800   168.1790   144.1450   169.1170    24.3920    -7.2090 
  155.8750     2.1760    59.4850   177.1430   151.9580   190.6820    24.3090    -7.4550 
  156.0000     2.1720    60.9520   188.5450   161.7670   182.6200    24.2340    -7.7160 
  156.1250     2.1700    60.7890   205.0010   175.8400   169.2160    24.1470    -7.9630 
  156.2500     2.1660    59.8320   229.0740   196.6680   193.6150    24.0600    -8.2170 
  156.3750     2.1590    59.0020   263.1350   226.6510   260.8950    23.9950    -8.4570 
  156.5000     2.1500    58.0200   304.5510   263.7200   367.7670    23.9920    -8.6470 
  156.6250     2.1440    56.9240   344.6750   301.0870   474.7370    24.1370    -8.8460 
  156.7500     2.1380    55.8660   372.0080   329.9880   509.2440    24.4520    -9.1000 
  156.8750     2.1310    55.6470   376.9100   342.2730   555.8400    24.7840    -9.2980 
  157.0000     2.1260    57.1220   360.9240   337.7800   662.2720    24.9770    -9.3940 
  157.1250     2.1260    60.0300   328.4430   319.1370   621.8320    25.0430    -9.5030 
  157.2500     2.1330    62.0870   280.3590   286.0240   440.6900    25.0890    -9.5970 
  157.3750     2.1410    62.0090   220.3080   237.7480   360.2330    25.1410    -9.5920 
  157.5000     2.1460    62.2640   159.9200   181.7220   346.7370    25.1080    -9.5960 
  157.6250     2.1590    64.2810   110.0760   129.3980   257.8200    25.0140    -9.6060 
  157.7500     2.1890    67.1650    74.3200    79.3930   130.6040    24.9670    -9.5220 
  157.8750     2.2360    68.9050    51.8000    48.8480    59.5920    24.9910    -9.4090 
  158.0000     2.2830    69.1900    38.3670    35.7350    34.9110    25.0240    -9.3730 
  158.1250     2.3190    69.5570    30.2750    27.9140    25.5930    25.0320    -9.3460 
  158.2500     2.3420    71.0990    25.5470    23.3670    23.2080    25.0390    -9.3070 
  158.3750     2.3570    73.4750    23.0790    20.9370    22.0430    25.0730    -9.3560 
  158.5000     2.3640    75.8840    22.1970    19.9130    21.0710    25.0840    -9.4470 
  158.6250     2.3640    78.3840    22.7010    20.0320    21.0750    25.0380    -9.5230 
  158.7500     2.3550    80.0820    24.8410    21.4350    22.0330    24.9540    -9.6410 
  158.8750     2.3390    79.1650    29.3770    24.7390    25.0520    24.8700    -9.8460 
  159.0000     2.3190    76.3900    36.8840    30.5220    33.1480    24.8090   -10.0480 
  159.1250     2.2950    73.9780    47.6370    39.1560    51.1400    24.7570   -10.2040 
  159.2500     2.2710    71.9370    61.4910    50.5370    77.5630    24.7250   -10.3850 
  159.3750     2.2540    68.9690    79.7790    66.2260    98.8060    24.7330   -10.5240 
  159.5000     2.2430    66.4210    97.1330    89.0750   109.4530    24.7650   -10.5910 
  159.6250     2.2360    66.8620   110.1830   105.0390   115.6750    24.7770   -10.6910 
  159.7500     2.2310    69.6550   119.4850   111.5750   121.4180    24.7180   -10.8190 
  159.8750     2.2280    70.5160   125.7860   114.6980   126.4140    24.5990   -10.8490 
  160.0000     2.2260    68.8170   130.7090   116.3680   130.2500    24.5310   -10.8280 
  160.1250     2.2260    67.9520   135.2090   117.8190   133.0460    24.5640   -10.8650 
  160.2500     2.2250    69.6610   139.3330   119.2840   133.2590    24.6180   -10.8990 
  160.3750     2.2250    71.9040   142.6510   120.5510   132.7310    24.6320   -10.9490 
  160.5000     2.2280    72.6260   144.7120   121.3230   134.5570    24.6290   -11.0500 
  160.6250     2.2340    71.8730   145.3120   121.4260   138.8370    24.6330   -11.1010 
  160.7500     2.2400    70.3280   144.6290   120.8700   140.5760    24.6380   -11.1060 
  160.8750     2.2460    67.7790   143.3300   119.9200   135.8750    24.6480   -11.1920 
  161.0000     2.2490    64.7860   142.3500   119.0760   129.9790    24.6910   -11.3080 
  161.1250     2.2490    62.7210   142.4220   118.8230   127.9870    24.7850   -11.3370 
  161.2500     2.2500    62.5370   143.9210   119.5120   128.3480    24.8820   -11.3520 
  161.3750     2.2490    64.4840   147.0020   121.4320   131.2530    24.9320   -11.3610 
  161.5000     2.2460    67.0400   151.2440   124.4380   136.5630    24.9490   -11.2990 
  161.6250     2.2400    67.7700   155.9420   128.1190   140.8190    24.9630   -11.2460 
  161.7500     2.2320    66.6140   160.4980   132.1240   142.4910    24.9470   -11.2520 
  161.8750     2.2240    66.4310   164.4210   136.1980   146.2710    24.8530   -11.2170 
  162.0000     2.2170    67.3850   167.4940   140.1290   153.7860    24.7030   -11.1130 
  162.1250     2.2120    66.8550   169.5840   143.6760   159.6930    24.6220   -11.0520 
  162.2500     2.2100    64.7080   170.5450   146.5730   162.0270    24.6600   -11.0050 
  162.3750     2.2140    63.9760   170.3220   148.5450   163.6740    24.7090   -10.9410 
  162.5000     2.2210    65.2490   169.3270   149.6860   163.1870    24.7320   -10.9440 
  162.6250     2.2300    66.2050   167.8290   150.1840   157.2530    24.7190   -10.9500 
  162.7500     2.2390    66.1610   164.4680   149.2190   148.4170    24.6880   -10.8750 
  162.8750     2.2470    66.0100   154.0390   142.6790   141.1690    24.6990   -10.8130 
  163.0000     2.2520    66.0430   132.6660   126.4370   134.4390    24.7520   -10.8290 
  163.1250     2.2550    65.6590   102.9590   101.2140   125.5360    24.7970   -10.8160 
  163.2500     2.2580    65.3100    72.5730    73.2190   103.2380    24.8120   -10.7850 
  163.3750     2.2690    67.9010    49.3130    50.4510    64.2400    24.8130   -10.7590 
  163.5000     2.2900    73.7480    34.9020    35.7420    32.3940    24.8110   -10.6830 
  163.6250     2.3160    79.7090    27.3280    27.7090    19.1000    24.7990   -10.6470 
  163.7500     2.3340    82.6540    24.5750    24.4000    17.3950    24.7590   -10.7040 
  163.8750     2.3360    81.7130    25.4220    24.5740    21.3020    24.7140   -10.7500 
  164.0000     2.3240    79.3610    28.8740    27.3850    27.0140    24.7150   -10.7350 
  164.1250     2.3110    77.9690    34.1120    32.2610    32.2390    24.7440   -10.7630 
  164.2500     2.3040    77.7280    40.3460    38.5570    36.6350    24.7480   -10.8250 
  164.3750     2.3010    77.4170    46.3480    44.9650    42.3180    24.7430   -10.8730 
