~V
VERS. 2.00: Ver 2.00
~W
STRT.M 50.0000:
STOP.M 276.0000:
STEP.M 0.1250:
NULL. -999.2500:
UWI. F11044:
~C
DEPT.M :
SP.MV :
GR.API :
RML.OHMM :
RI. :
RXO.OHMM :
CALI.CM :
DEN.GM/CC :
~A
# ...
   61.2500    -4.5600   110.5660     7.3060     6.3150     7.0220    24.7160     2.2710 
   61.3750    -4.7220   109.7490     7.0030     6.0950     6.7670    24.6600     2.2700 
   61.5000    -4.7240   110.7380     6.7400     5.8930     6.4340    24.7140     2.2750 
   61.6250    -4.7510   111.8440     6.5530     5.7430     6.3470    24.8860     2.2770 
   61.7500    -4.8170   111.0060     6.4400     5.6420     6.6530    24.9890     2.2750 
   61.8750    -4.8730   110.3160     6.4380     5.6110     7.0870    25.0010     2.2700 
   62.0000    -5.0120   110.7100     6.6040     5.7020     6.8680    24.9880     2.2660 
   62.1250    -5.3010   107.3230     7.0220     5.9990     6.8150    24.9870     2.2700 
   62.2500    -5.6440   101.7720     7.6210     6.4740     7.0550    24.9680     2.2830 
   62.3750    -6.0780    97.8460     8.2880     7.0670     8.0620    24.8490     2.3000 
   62.5000    -6.5900    96.1420     8.8620     7.6660     9.7980    24.5650     2.3090 
   62.6250    -7.1330    91.2410     9.1570     8.0940    10.8970    24.0930     2.3000 
   62.7500    -7.7090    85.4170     9.2030     8.2970     9.3070    23.7630     2.2790 
   62.8750    -8.2650    84.7200     9.1160     8.3180     7.9650    23.6230     2.2540 
   63.0000    -8.7700    88.3950     9.0410     8.2630     7.4530    23.5610     2.2340 
   63.1250    -9.3480    89.9950     9.0930     8.2500     7.7710    23.4110     2.2190 
   63.2500    -9.9270    86.0270     9.2310     8.3070     8.1550    23.1910     2.2030 
   63.3750   -10.4290    80.6640     9.3690     8.3930     8.2730    23.0170     2.1840 
   63.5000   -10.9560    77.6580     9.4130     8.4340     8.0530    22.8890     2.1650 
   63.6250   -11.4050    78.7560     9.2890     8.3460     7.7440    22.6750     2.1510 
   63.7500   -11.7390    80.9030     9.0620     8.1450     7.5630    22.4080     2.1390 
   63.8750   -12.0340    80.0820     8.8700     7.9010     7.7070    22.2500     2.1250 
   64.0000   -12.2520    77.4230     8.9440     7.7600     7.8690    22.1940     2.1090 
   64.1250   -12.2360    75.0870     9.7350     8.0490     7.8850    22.1790     2.1040 
   64.2500   -12.1490    75.0910    11.5070     9.0430     8.3030    22.2630     2.1300 
   64.3750   -12.1300    76.5130    14.4690    11.0370    10.1350    22.5710     2.2050 
   64.5000   -12.0980    76.5050    18.3990    14.1820    16.5070    23.1630     2.3240 
   64.6250   -12.1430    73.6690    21.9270    18.0010    35.1810    23.8800     2.4510 
   64.7500   -12.3320    71.1790    23.2040    20.5270    54.6120    24.4140     2.5340 
   64.8750   -12.5400    71.3990    21.4680    20.0630    42.6650    24.3970     2.5370 
   65.0000   -12.6810    73.0240    17.5940    16.9960    20.7820    23.9890     2.4620 
   65.1250   -12.8620    72.5700    13.5860    13.4130    11.7180    23.5010     2.3410 
   65.2500   -13.0020    70.3660    10.7820    10.7120     9.1430    23.2980     2.2320 
   65.3750   -12.9970    68.0950     9.2820     9.0380     8.3260    23.2720     2.1590 
   65.5000   -12.9510    68.6780     8.7340     8.2010     8.0040    23.2790     2.1240 
   65.6250   -12.7230    70.6820     8.7690     7.9960     7.8940    23.2190     2.1130 
   65.7500   -12.3900    69.4800     8.9680     8.0500     7.8450    23.0650     2.1060 
   65.8750   -12.0750    66.6010     9.1670     8.1770     7.7720    22.7880     2.0970 
   66.0000   -11.7840    66.5500     9.3000     8.2830     7.8440    22.4620     2.0880 
   66.1250   -11.5530    69.9360     9.3630     8.3420     8.1840    22.1920     2.0830 
   66.2500   -11.4310    72.2260     9.3910     8.3790     8.5600    22.0360     2.0870 
   66.3750   -11.3520    71.8810     9.4040     8.4120     8.7940    22.0180     2.0970 
   66.5000   -11.2510    71.1430     9.4200     8.4520     8.8110    22.1680     2.1100 
   66.6250   -11.3140    70.8220     9.4720     8.5060     8.9790    22.5150     2.1180 
   66.7500   -11.4570    69.4240     9.5820     8.5750     9.0410    22.9330     2.1200 
   66.8750   -11.6040    68.5240     9.7590     8.6590     9.0870    23.2760     2.1170 
   67.0000   -11.8540    70.3750     9.9820     8.7500     8.9340    23.4310     2.1140 
   67.1250   -12.1910    73.5970    10.1940     8.8290     8.8510    23.4460     2.1180 
   67.2500   -12.5240    73.3630    10.3270     8.8690     8.8180    23.4060     2.1280 
   67.3750   -12.8960    69.3750    10.3480     8.8440     8.8040    23.3560     2.1400 
   67.5000   -13.3670    66.4940    10.2590     8.7370     8.6700    23.2910     2.1510 
   67.6250   -13.7890    67.9920    10.0890     8.5420     8.8060    23.2290     2.1560 
   67.7500   -14.1430    71.7620     9.8940     8.3070     8.8900    23.1900     2.1550 
   67.8750   -14.5410    75.4520     9.7060     8.0750     8.7130    23.1780     2.1500 
   68.0000   -14.8810    77.4910     9.5540     7.8960     8.5260    23.1870     2.1450 
   68.1250   -15.0030    77.9230     9.4930     7.8260     8.4690    23.2570     2.1440 
   68.2500   -15.0700    78.0030     9.5400     7.8670     8.5310    23.3990     2.1490 
   68.3750   -15.0840    79.4650     9.6950     8.0090     8.5920    23.5720     2.1530 
   68.5000   -14.9700    82.2970     9.9170     8.2200     8.6180    23.7580     2.1490 
   68.6250   -14.8520    82.3290    10.1200     8.4430     8.6620    23.9800     2.1370 
   68.7500   -14.6500    80.1960    10.2210     8.6030     8.6970    24.1640     2.1380 
   68.8750   -14.3230    79.4720    10.1810     8.6560     8.7610    24.1650     2.1650 
   69.0000   -14.0090    81.5650    10.0120     8.5930     8.7360    23.8730     2.2190 
   69.1250   -13.6960    81.7340     9.7610     8.4300     8.8320    23.4290     2.2720 
   69.2500   -13.3160    80.3270     9.5140     8.2300     9.0370    23.0610     2.2970 
   69.3750   -12.9410    81.7090     9.3170     8.0370     9.3230    22.8830     2.2860 
   69.5000   -12.5270    87.3940     9.1870     7.8820     9.5310    22.7710     2.2490 
   69.6250   -12.1110    89.8090     9.1190     7.7800     9.0520    22.6750     2.2110 
   69.7500   -11.8440    86.1310     9.0760     7.7120     8.5820    22.6690     2.1870 
   69.8750   -11.6700    82.4640     9.0340     7.6590     8.1900    22.6850     2.1770 
   70.0000   -11.4690    83.6710     8.9750     7.5970     8.0260    22.6360     2.1770 
   70.1250   -11.3510    86.5810     8.8930     7.5090     7.7990    22.5410     2.1800 
   70.2500   -11.3380    86.7620     8.8120     7.4200     7.8700    22.5240     2.1800 
   70.3750   -11.3300    85.0050     8.7710     7.3650     8.1440    22.5810     2.1760 
   70.5000   -11.4120    84.0050     8.8120     7.3740     8.5330    22.6660     2.1740 
   70.6250   -11.5530    83.5340     8.9740     7.4760     8.6880    22.7420     2.1770 
   70.7500   -11.6300    81.4330     9.2170     7.6450     8.7020    22.7380     2.1800 
   70.8750   -11.6830    77.6320     9.4790     7.8460     8.5960    22.7050     2.1770 
   71.0000   -11.8220    74.8450     9.6880     8.0300     8.4940    22.7800     2.1650 
   71.1250   -12.0610    74.9440     9.7730     8.1460     8.6130    23.0350     2.1470 
   71.2500   -12.2680    75.4900     9.7570     8.1900     8.6980    23.2990     2.1330 
   71.3750   -12.5370    74.4020     9.6800     8.1780     8.5850    23.4490     2.1290 
   71.5000   -12.7650    73.7190     9.5870     8.1350     8.6000    23.4900     2.1330 
   71.6250   -12.8670    74.0370     9.5130     8.0850     8.6910    23.4980     2.1410 
   71.7500   -12.9860    72.5020     9.4530     8.0330     8.7980    23.5390     2.1470 
   71.8750   -13.0180    69.3400     9.3950     7.9670     8.9540    23.6400     2.1490 
   72.0000   -12.8990    67.2620     9.3270     7.8770     9.1580    23.8030     2.1490 
   72.1250   -12.6960    69.8000     9.2520     7.7600     9.3160    23.9820     2.1490 
   72.2500   -12.4500    73.8820     9.1840     7.6350     9.3550    24.0540     2.1470 
   72.3750   -12.1470    75.7690     9.1340     7.5210     9.3020    24.0670     2.1460 
