~V
VERS. 2.00: Ver 2.00
~W
STRT.M 58.0000:
STOP.M 272.0000:
STEP.M 0.1250:
NULL. -999.2500:
UWI. F11073:
~C
DEPT.M :
GR.API :
RML.OHMM :
RI. :
RXO.OHMM :
CALI.CM :
DEN.GM/CC :
SP.MV :
~A
# ...
  148.0000    96.9430     5.4290     4.6040     5.7500    23.4580     2.3310   -11.5380 
  148.1250    95.9390     5.6610     4.7580     6.1030    23.4850     2.3600   -11.5830 
  148.2500    92.3900     5.9520     4.9730     7.3440    23.4600     2.3900   -11.7370 
  148.3750    88.7100     6.2800     5.2350     8.7390    23.3720     2.4180   -11.9780 
  148.5000    87.5810     6.6810     5.5690     8.1440    23.3030     2.4310   -12.2410 
  148.6250    90.1000     7.2820     6.0670     7.3890    23.3100     2.4160   -12.4520 
  148.7500    90.2970     8.1200     6.7540     7.7160    23.3780     2.3900   -12.5890 
  148.8750    87.3420     9.1280     7.6000     9.1720    23.4320     2.3740   -12.7540 
  149.0000    85.1130    10.0930     8.4660    11.4050    23.3880     2.3760   -13.0480 
  149.1250    84.0650    10.5990     9.0370    11.1020    23.2380     2.3790   -13.3010 
  149.2500    80.5500    10.5190     9.1550     9.4770    23.0840     2.3550   -13.4230 
  149.3750    77.3090    10.0050     8.8800     8.6150    22.9840     2.2990   -13.4910 
  149.5000    77.9040     9.3960     8.4490     8.6800    22.9820     2.2330   -13.5850 
  149.6250    79.2590     9.0460     8.1420     9.1770    23.1070     2.1940   -13.7090 
  149.7500    78.0070     9.0200     8.0720     9.6480    23.3120     2.1810   -13.7900 
  149.8750    76.6060     9.2540     8.2370     9.9220    23.4760     2.1780   -13.7160 
  150.0000    77.1270     9.6060     8.5600     9.8320    23.5720     2.1760   -13.5010 
  150.1250    76.0650     9.8750     8.8800     9.5250    23.6050     2.1730   -13.2200 
  150.2500    73.6630     9.8990     9.0110     9.8720    23.6310     2.1720   -12.8300 
  150.3750    73.2240     9.5720     8.8220    11.0230    23.7090     2.1760   -12.3070 
  150.5000    74.9700     8.8840     8.2820    11.9850    23.8200     2.1910   -11.6640 
  150.6250    81.0080     7.9430     7.4770     9.9640    24.0070     2.2230   -10.9870 
  150.7500    91.1860     7.0050     6.6480     8.0300    24.1480     2.2590   -10.3740 
  150.8750   100.9320     6.2190     5.9300     7.0330    24.2160     2.2870    -9.8610 
  151.0000   103.2770     5.6580     5.3910     6.6930    24.2380     2.3020    -9.3460 
  151.1250    99.2910     5.4170     5.1050     6.6570    24.2650     2.3140    -8.8730 
  151.2500    97.3260     5.5230     5.0920     6.5950    24.2990     2.3310    -8.6230 
  151.3750    97.9080     6.0170     5.4020     6.6540    24.3010     2.3490    -8.5740 
  151.5000    97.5410     6.8620     6.0440     6.9320    24.3100     2.3650    -8.5960 
  151.6250    91.7170     7.8610     6.9330     8.2310    24.2510     2.3800    -8.5930 
  151.7500    82.3310     8.5790     7.7150    11.8140    24.1990     2.4000    -8.6150 
  151.8750    75.5050     8.6260     7.9940    15.6230    24.1250     2.4260    -8.7050 
  152.0000    77.3080     7.9000     7.5700    13.7000    24.0430     2.4470    -8.8290 
  152.1250    90.1230     6.8080     6.6930     8.0820    23.9700     2.4350    -8.9130 
  152.2500   103.2620     6.0650     5.9720     6.5190    23.9820     2.3990    -8.9820 
  152.3750   108.3590     6.0790     5.7500     6.6150    24.0320     2.3680    -9.0370 
  152.5000   102.7830     7.0480     6.2280     7.5560    24.0110     2.3600    -9.0860 
  152.6250    88.9640     9.0390     7.6150    10.1690    23.8680     2.3800    -9.1160 
  152.7500    74.2400    11.3330     9.5390    16.1420    23.7250     2.4210    -9.0890 
  152.8750    62.7310    12.9360    11.2650    22.9530    23.7030     2.4770    -9.0480 
  153.0000    59.1150    12.9720    11.8690    23.5200    23.7660     2.5280    -9.0500 
  153.1250    66.1760    11.5270    11.0790    16.5980    23.9570     2.5390    -9.0420 
  153.2500    76.7670    10.1150    10.0430    11.1010    24.2670     2.5120    -8.9800 
  153.3750    82.1350     9.6910     9.5390     9.5100    24.5610     2.4730    -8.9310 
  153.5000    78.7540    10.6980     9.9960    11.0620    24.4250     2.4550    -8.9650 
  153.6250    69.2240    13.7860    11.9100    17.4960    24.2770     2.4790    -9.0430 
  153.7500    62.2350    18.8930    15.2010    26.7980    24.1980     2.5270    -9.0970 
  153.8750    61.1910    23.7880    19.5320    32.1060    24.1890     2.5740    -9.1180 
  154.0000    62.6940    27.9540    23.8680    31.1020    24.1680     2.5990    -9.1800 
  154.1250    62.7990    30.0120    26.6580    29.2610    24.1180     2.6040    -9.2680 
  154.2500    60.6000    30.5590    27.9190    29.3350    24.1250     2.6080    -9.3260 
  154.3750    57.9020    30.5920    28.3840    31.0350    24.1460     2.6100    -9.3710 
  154.5000    57.4480    30.8420    28.7610    33.0270    24.1300     2.6050    -9.4250 
  154.6250    58.5320    31.4900    29.3530    35.2750    24.0910     2.5940    -9.5210 
  154.7500    59.1100    32.1630    29.9590    34.0860    24.0770     2.5880    -9.6170 
  154.8750    58.3980    32.5020    30.2750    33.2910    24.0900     2.5920    -9.6810 
  155.0000    57.3260    32.2420    30.0450    33.2320    24.1190     2.6000    -9.7300 
  155.1250    56.9190    31.2100    29.0940    33.1640    24.1210     2.6040    -9.8530 
  155.2500    57.3950    29.7250    27.7200    30.8930    24.0910     2.6030    -9.9810 
  155.3750    58.4690    28.1360    26.2400    29.0480    24.0810     2.5950   -10.0730 
  155.5000    58.7520    26.7840    24.9620    28.0690    24.0900     2.5850   -10.1520 
  155.6250    55.8540    26.0330    24.1920    25.1840    24.0870     2.5790   -10.2590 
  155.7500    53.0200    25.9160    23.9730    24.6430    24.0740     2.5780   -10.3850 
  155.8750    52.6210    26.3740    24.2930    25.9650    24.0630     2.5820   -10.5100 
  156.0000    54.0120    27.2070    25.0340    27.9090    24.0480     2.5850   -10.6410 
  156.1250    53.9050    28.0970    25.9800    28.8710    24.0170     2.5870   -10.7380 
  156.2500    51.4440    28.7440    26.8210    29.3670    24.0160     2.5860   -10.8100 
  156.3750    48.0300    29.0530    27.3930    30.1540    24.0560     2.5830   -10.9000 
  156.5000    46.6100    29.1160    27.6910    30.2180    24.0710     2.5790   -11.0020 
  156.6250    48.1460    29.1280    27.8280    28.6160    24.0710     2.5760   -11.1020 
  156.7500    49.9620    29.1700    27.9200    27.9230    24.0730     2.5750   -11.2320 
  156.8750    50.3890    29.1030    27.8950    28.2420    24.0770     2.5730   -11.3710 
  157.0000    51.4550    28.6580    27.5460    28.3630    24.0440     2.5680   -11.4850 
  157.1250    56.1250    27.4660    26.5340    28.6510    23.9510     2.5640   -11.6950 
  157.2500    60.6110    25.6460    24.9310    26.4710    23.8990     2.5640   -11.9560 
  157.3750    62.6070    23.5060    22.9920    23.9460    23.8580     2.5620   -12.1620 
  157.5000    64.5310    21.4690    21.0910    21.1770    23.8050     2.5450   -12.3220 
  157.6250    68.5590    19.9710    19.6230    18.9940    23.7580     2.5120   -12.4920 
  157.7500    71.2250    19.0760    18.6790    17.7060    23.7450     2.4860   -12.6340 
  157.8750    70.6460    18.7210    18.2450    17.8340    23.7570     2.4750   -12.7170 
  158.0000    69.8910    18.7580    18.2190    18.6630    23.7900     2.4770   -12.7690 
  158.1250    70.7240    19.0640    18.5000    19.3470    23.7990     2.4870   -12.6850 
  158.2500    70.4440    19.5000    18.9280    19.1890    23.8060     2.5030   -12.4790 
  158.3750    67.5950    20.0050    19.4250    19.5180    23.8450     2.5230   -12.2550 
  158.5000    61.4560    20.4620    19.8900    20.4930    23.8820     2.5360   -12.0310 
  158.6250    56.6640    20.6260    20.1150    21.5780    23.9180     2.5370   -11.7440 
  158.7500    57.1830    20.3490    19.9660    22.3680    23.9650     2.5340   -11.4270 
  158.8750    62.7740    19.6130    19.3860    22.7380    24.0170     2.5320   -11.1190 
  159.0000    69.8090    18.6010    18.4910    20.5590    24.0470     2.5300   -10.8230 
  159.1250    73.9540    17.7120    17.5990    17.8280    24.0550     2.5240   -10.6140 
