~V
VERS. 2.00: Ver 2.00
~W
STRT.M 59.0000:
STOP.M 225.0000:
STEP.M 0.1250:
NULL. -999.2500:
UWI. F11010:
~C
DEPT.M :
GR.API :
RML.OHMM :
RI. :
RXO.OHMM :
CALI.CM :
SP.MV :
DEN.GM/CC :
~A
# ...
   81.5000    80.6080     7.9350     7.0720     8.9100    24.9230   -12.3840     2.2530 
   81.6250    80.0690     7.4650     6.5870     7.8320    24.9880   -10.2290     2.2690 
   81.7500    80.7130     7.1200     6.1900     6.9450    25.0180    -8.0800     2.2730 
   81.8750    82.1290     6.9380     5.9200     6.9510    25.0240    -6.0840     2.2650 
   82.0000    84.1170     6.9080     5.7760     6.8980    25.0290    -4.2800     2.2480 
   82.1250    86.6900     6.9810     5.7450     6.5540    25.0280    -2.8180     2.2310 
   82.2500    88.6390     7.0670     5.7720     6.3860    24.9910    -1.8470     2.2190 
   82.3750    88.1740     7.1320     5.8300     6.5260    24.8740    -1.4970     2.2170 
   82.5000    85.2330     7.2150     5.9240     6.7070    24.6600    -1.7720     2.2260 
   82.6250    80.8300     7.5110     6.1560     7.3810    24.4070    -2.5640     2.2500 
   82.7500    75.7290     8.2260     6.6550     8.5460    24.2090    -3.5350     2.2840 
   82.8750    71.7010     9.5420     7.5630    10.2940    24.0930    -4.5110     2.3260 
   83.0000    69.5710    11.5000     8.9950    13.1020    24.1260    -5.4490     2.3690 
   83.1250    69.2470    13.8600    10.9840    19.9430    24.4180    -6.3010     2.3970 
   83.2500    69.6690    15.8720    13.0030    35.6590    24.8070    -7.0220     2.3980 
   83.3750    69.2300    16.8260    14.2720    55.8620    25.0790    -7.6170     2.3660 
   83.5000    68.7530    16.3430    14.1600    54.3620    25.1550    -8.1070     2.3130 
   83.6250    69.5350    14.5530    12.7070    30.2060    25.1530    -8.5290     2.2580 
   83.7500    72.5020    12.4500    10.9430    16.6350    25.0990    -8.9460     2.2200 
   83.8750    75.4810    10.6700     9.4290    11.0980    24.9410    -9.3670     2.2020 
   84.0000    76.3150     9.5050     8.3800     9.6070    24.8150    -9.8180     2.1980 
   84.1250    75.3230     8.9940     7.8420     9.5030    24.7780   -10.2880     2.2010 
   84.2500    73.9320     8.8260     7.6070     9.3690    24.7680   -10.7290     2.2040 
   84.3750    73.2260     8.8170     7.5450     9.0130    24.7250   -11.1210     2.2050 
   84.5000    72.5850     8.8560     7.5650     8.6870    24.6190   -11.4830     2.2030 
   84.6250    72.0900     8.9030     7.6270     8.7100    24.5270   -11.8110     2.1970 
   84.7500    71.8670     8.9680     7.7140     8.8410    24.5130   -12.1260     2.1890 
   84.8750    72.6230     9.0660     7.8250     9.0390    24.5140   -12.5050     2.1840 
   85.0000    73.9030     9.1960     7.9560     9.5040    24.4970   -12.9330     2.1860 
   85.1250    73.0510     9.3350     8.0930    10.2700    24.4800   -13.3250     2.1950 
   85.2500    72.0960     9.4380     8.2070    10.5430    24.5160   -13.6770     2.2050 
   85.3750    73.0250     9.4760     8.2670    10.4180    24.6000   -13.9860     2.2120 
   85.5000    74.8760     9.4370     8.2500    10.2140    24.6930   -14.2130     2.2120 
   85.6250    73.0440     9.3320     8.1400     9.9590    24.7510   -14.4040     2.2060 
   85.7500    70.1360     9.2040     7.9780     9.6980    24.7560   -14.6180     2.1990 
   85.8750    70.1470     9.0830     7.8020     9.7150    24.7260   -14.8370     2.1930 
   86.0000    71.4660     8.9870     7.6490    10.1460    24.7250   -15.0490     2.1930 
   86.1250    71.3700     8.9310     7.5450    10.2690    24.8440   -15.3150     2.1950 
   86.2500    71.4470     8.9070     7.4850    10.0660    25.0350   -15.5910     2.1950 
   86.3750    72.6990     8.8960     7.4550     9.9430    25.1990   -15.8420     2.1900 
   86.5000    74.4080     8.8660     7.4260     9.7520    25.2750   -16.0610     2.1810 
   86.6250    75.3230     8.7690     7.3590     9.5130    25.1890   -16.2360     2.1680 
   86.7500    75.0500     8.6390     7.2610     9.5710    25.0170   -16.3650     2.1560 
   86.8750    73.7860     8.5820     7.2050     9.9350    24.8460   -16.3960     2.1540 
   87.0000    72.6360     8.7610     7.3160    10.3890    24.6670   -16.3090     2.1720 
   87.1250    72.3020     9.4000     7.7740    10.7490    24.5080   -16.1260     2.2220 
   87.2500    70.7800    10.4320     8.5760    11.7550    24.4410   -15.9300     2.2890 
   87.3750    66.9960    11.6370     9.6330    15.8670    24.5010   -15.7390     2.3540 
   87.5000    65.4020    12.6200    10.6730    26.9230    24.6180   -15.5970     2.3980 
   87.6250    67.6710    12.8390    11.1420    30.3540    24.5260   -15.5270     2.4020 
   87.7500    69.1760    12.2890    10.8650    19.9070    24.4740   -15.4800     2.3770 
   87.8750    66.6910    11.2360    10.0500    12.8160    24.4710   -15.5160     2.3350 
   88.0000    62.9990    10.0970     9.0810    10.7090    24.4970   -15.6820     2.2860 
   88.1250    62.8900     9.2550     8.2900    10.6080    24.5090   -15.8110     2.2430 
   88.2500    64.0300     8.7190     7.7340    10.6370    24.5120   -15.7740     2.2140 
   88.3750    65.0300     8.3510     7.3400    10.6690    24.5120   -15.5160     2.2040 
   88.5000    67.2040     7.9990     6.9990    10.5200    24.5120   -14.9640     2.2100 
   88.6250    71.7790     7.6080     6.6520     9.7140    24.5130   -14.1050     2.2240 
   88.7500    77.8090     7.2620     6.3390     8.2940    24.5160   -13.2010     2.2320 
   88.8750    83.5120     7.0670     6.1230     6.8380    24.5090   -12.3840     2.2270 
   89.0000    86.3160     7.0930     6.0630     6.6350    24.4800   -11.7120     2.2120 
   89.1250    84.2150     7.3790     6.2220     7.5000    24.4040   -11.3640     2.1940 
   89.2500    80.7190     7.8140     6.5470     8.5130    24.3350   -11.3950     2.1820 
   89.3750    76.6950     8.3000     6.9730     9.4080    24.3100   -11.8370     2.1800 
   89.5000    71.9100     8.7450     7.4080    10.2090    24.3450   -12.6580     2.1830 
   89.6250    69.8630     9.0750     7.7560    10.6930    24.3770   -13.7200     2.1890 
   89.7500    72.2690     9.3100     8.0000    10.6650    24.3940   -14.7250     2.1950 
   89.8750    75.6800     9.4810     8.1560    10.3010    24.4090   -15.5060     2.2000 
   90.0000    75.9490     9.6170     8.2530     9.9340    24.4460   -15.9370     2.2050 
   90.1250    74.9410     9.7220     8.3050    10.7600    24.5680   -15.9970     2.2090 
   90.2500    74.3320     9.7890     8.3280    12.3490    24.7440   -15.7900     2.2130 
   90.3750    73.4460     9.8090     8.3200    12.0430    24.8420   -15.3770     2.2150 
   90.5000    73.4860     9.7850     8.2850    10.4540    24.7960   -14.8460     2.2170 
   90.6250    76.9800     9.7330     8.2290     9.7300    24.7280   -14.3290     2.2150 
   90.7500    81.3270     9.6800     8.1690     9.6170    24.7090   -13.8630     2.2120 
   90.8750    83.2210     9.6430     8.1140     9.5390    24.7080   -13.4320     2.2090 
   91.0000    81.3340     9.6280     8.0740     9.6250    24.7080   -13.1740     2.2060 
   91.1250    80.4030     9.6370     8.0560     9.4200    24.7080   -13.1680     2.2040 
   91.2500    82.0760     9.6580     8.0570     9.1600    24.6870   -13.3640     2.2040 
   91.3750    81.3260     9.6770     8.0690     8.9570    24.6000   -13.7260     2.2020 
   91.5000    75.0440     9.6760     8.0800     9.2310    24.4340   -14.2000     2.1970 
   91.6250    69.1970     9.6280     8.0630     9.6700    24.4040   -14.6650     2.1890 
   91.7500    68.6990     9.5420     8.0090     9.6930    24.5000   -15.1300     2.1800 
   91.8750    69.3080     9.4370     7.9270     9.5540    24.5720   -15.6940     2.1740 
   92.0000    67.4950     9.3400     7.8360     9.2690    24.5230   -16.3090     2.1720 
   92.1250    66.6920     9.2720     7.7590     8.9480    24.4300   -16.9410     2.1750 
   92.2500    67.5620     9.2270     7.7040     9.1620    24.3890   -17.5300     2.1810 
   92.3750    68.6980     9.1960     7.6730     9.6430    24.4640   -18.0410     2.1850 
   92.5000    69.3440     9.1770     7.6630    10.0620    24.5840   -18.4640     2.1870 
   92.6250    68.0560     9.1850     7.6750     9.9810    24.5950   -18.8250     2.1840 
