~V
VERS. 2.00: Ver 2.00
~W
STRT.M 59.0000:
STOP.M 217.0000:
STEP.M 0.1250:
NULL. -999.2500:
UWI. F11019:
~C
DEPT.M :
DEN.GM/CC :
GR.API :
RML.OHMM :
RI. :
RXO.OHMM :
CALI.CM :
SP.MV :
~A
# ...
  171.5000     2.1450    56.3810   124.8660   122.5380   193.5200    24.7020   -39.6180 
  171.6250     2.1480    56.8640   115.3580   114.5440   167.0480    24.5910   -39.8760 
  171.7500     2.1580    58.4260   103.8250   103.6400   126.2190    24.3090   -39.9120 
  171.8750     2.1750    60.3510    93.5690    93.0400    92.4340    23.8540   -39.7910 
  172.0000     2.1940    62.0740    86.4830    84.9970    74.4780    23.3480   -39.6000 
  172.1250     2.2060    63.6230    83.4450    80.8510    71.2680    23.0070   -39.3960 
  172.2500     2.2050    65.4890    83.3210    79.7720    75.6030    22.9940   -39.1520 
  172.3750     2.1930    67.2280    85.5490    81.2940    85.9600    23.2750   -38.9030 
  172.5000     2.1770    67.5870    89.7120    85.0180    97.8950    23.8160   -38.7280 
  172.6250     2.1660    65.9210    95.7520    90.8970   111.0100    24.2510   -38.6270 
  172.7500     2.1630    64.3850   103.0330    98.2290   126.8070    24.4620   -38.6120 
  172.8750     2.1700    64.1660   111.0060   106.4500   142.4130    24.5550   -38.6420 
  173.0000     2.1830    64.4170   118.8270   114.6890   155.4390    24.5010   -38.6060 
  173.1250     2.1970    63.3750   125.0420   121.4720   167.3710    24.2550   -38.4070 
  173.2500     2.2080    61.4040   128.6100   125.7070   174.6790    24.0250   -38.0140 
  173.3750     2.2130    60.1370   128.5910   126.4290   165.0520    23.8950   -37.4460 
  173.5000     2.2140    60.6840   124.4630   123.0440   145.8160    23.8140   -36.8240 
  173.6250     2.2130    63.5820   116.0140   115.0750   133.2090    23.6920   -36.1540 
  173.7500     2.2120    67.2810   105.6670   104.6080   117.8880    23.5260   -35.4020 
  173.8750     2.2120    69.9670    96.1040    94.0380    86.4670    23.2360   -34.5850 
  174.0000     2.2100    70.4330    90.3610    86.3580    54.7510    22.8550   -33.7840 
  174.1250     2.2050    67.7530    93.0580    86.2600    52.0220    22.5060   -33.1360 
  174.2500     2.1970    62.9580   106.6320    96.3750    94.7070    22.4580   -32.6710 
  174.3750     2.1860    58.1820   134.5180   119.7930   182.6570    22.8520   -32.3700 
  174.5000     2.1740    55.3610   179.3150   158.4150   309.1310    23.5260   -32.1980 
  174.6250     2.1650    54.8720   242.5330   212.7560   436.6240    24.0880   -32.1690 
  174.7500     2.1570    54.4660   312.0430   272.8640   503.7770    24.4150   -32.2370 
  174.8750     2.1520    53.3560   372.8630   326.8730   543.6460    24.4990   -32.3840 
  175.0000     2.1490    52.0030   408.5930   361.5100   574.6270    24.5170   -32.5400 
  175.1250     2.1470    51.0690   400.9280   361.6630   590.3270    24.5300   -32.5200 
  175.2500     2.1480    51.0360   360.7050   331.5120   579.7930    24.5500   -32.3110 
  175.3750     2.1530    51.9040   300.6920   278.8460   530.7520    24.5540   -31.9410 
  175.5000     2.1610    53.7840   236.1840   216.7450   452.8250    24.5220   -31.3860 
  175.6250     2.1730    57.4890   183.1040   161.2510   349.5490    24.4300   -30.6520 
  175.7500     2.1870    62.4210   133.9650   119.6110   247.3050    24.2660   -29.7660 
  175.8750     2.2000    66.7850   102.9070    91.8810   157.8920    24.0520   -28.7650 
  176.0000     2.2110    69.0280    83.9350    74.9420   104.3440    23.8630   -27.7670 
  176.1250     2.2170    69.5660    73.9200    66.0000    79.4170    23.8080   -26.8350 
  176.2500     2.2200    69.8880    68.3680    61.0430    72.8060    23.8640   -25.9300 
  176.3750     2.2240    69.5590    65.5350    58.5140    65.1430    23.8840   -25.0520 
  176.5000     2.2270    68.0760    64.2240    57.3430    54.9940    23.7960   -24.2760 
  176.6250     2.2310    67.0860    63.3720    56.5820    47.8240    23.6180   -23.6780 
  176.7500     2.2350    67.8150    61.7540    55.1380    44.4730    23.4130   -23.2350 
  176.8750     2.2380    69.1560    58.3580    52.1050    42.6570    23.1920   -22.8520 
  177.0000     2.2410    69.7750    52.5550    46.9240    39.8610    22.9690   -22.4210 
  177.1250     2.2450    70.1410    44.5280    39.7610    34.7240    22.7910   -22.0700 
  177.2500     2.2510    71.6560    36.3530    32.4840    27.6200    22.6510   -21.9140 
  177.3750     2.2570    74.1360    29.8980    26.6850    19.5970    22.5240   -21.9690 
  177.5000     2.2630    76.3380    26.3660    23.4260    14.2310    22.4200   -22.1890 
  177.6250     2.2660    76.3300    26.8070    23.7250    15.7290    22.3130   -22.4770 
  177.7500     2.2650    74.0870    30.5210    27.1790    23.8630    22.2320   -22.7750 
  177.8750     2.2580    71.2510    36.9120    33.5050    36.8100    22.2190   -23.1550 
  178.0000     2.2500    69.8220    44.6030    41.8630    50.9120    22.2540   -23.6540 
  178.1250     2.2410    70.5590    51.8280    50.5290    60.1210    22.3400   -24.2280 
  178.2500     2.2330    71.4070    57.0690    57.3650    63.2310    22.5300   -24.7190 
  178.3750     2.2280    71.3290    60.2540    61.1690    62.4430    22.8680   -25.0320 
  178.5000     2.2240    71.1030    60.8090    61.9600    57.6160    23.3440   -25.1800 
  178.6250     2.2220    72.2480    59.6280    60.6380    52.8740    23.9010   -25.2520 
  178.7500     2.2240    74.8780    58.1190    58.7950    53.0360    24.3230   -25.3450 
  178.8750     2.2270    77.7460    56.9460    57.1650    56.6840    24.5270   -25.4880 
  179.0000     2.2320    79.1090    56.5110    56.1830    58.6570    24.5590   -25.6680 
  179.1250     2.2350    77.0870    57.1030    56.1910    58.2790    24.5560   -25.8380 
  179.2500     2.2360    72.8430    58.3170    56.8900    59.5960    24.5420   -26.1290 
  179.3750     2.2340    68.8880    59.5820    57.8110    63.2010    24.5500   -26.5120 
  179.5000     2.2320    67.8570    60.1690    58.3070    67.4600    24.6090   -26.8770 
  179.6250     2.2320    70.7000    59.1580    57.4860    68.9610    24.7190   -27.1990 
  179.7500     2.2350    74.0430    56.6240    55.2300    65.5430    24.8760   -27.4900 
  179.8750     2.2420    75.2540    53.1640    51.9160    56.7080    25.0250   -27.7360 
  180.0000     2.2500    74.2420    49.9560    48.5210    47.6060    25.1030   -27.9270 
  180.1250     2.2530    72.5210    48.8960    46.7510    44.3070    25.1280   -28.1190 
  180.2500     2.2480    71.0280    50.9810    47.7010    49.2250    25.2230   -28.3180 
  180.3750     2.2310    69.6140    56.7700    52.0920    61.9680    25.4750   -28.5570 
  180.5000     2.2070    68.0270    66.0010    59.9560    80.3530    25.8390   -28.9160 
  180.6250     2.1810    65.8160    77.3980    70.4670    94.1530    26.1340   -29.3780 
  180.7500     2.1640    63.4930    88.0310    80.8740    93.0960    26.0380   -29.8500 
  180.8750     2.1610    62.0650    95.5190    88.7630    85.9190    25.4600   -30.3210 
  181.0000     2.1700    62.2030    98.4760    92.4860    89.1450    24.8190   -30.8260 
  181.1250     2.1860    64.3520    96.8570    91.5410   100.7090    24.5770   -31.3010 
  181.2500     2.2010    67.4360    93.5740    88.5360   101.4210    24.4990   -31.6960 
  181.3750     2.2100    70.0060    90.6060    85.4280    93.8570    24.4590   -32.0320 
  181.5000     2.2150    71.0770    89.0170    83.4160    86.8210    24.4330   -32.3280 
  181.6250     2.2150    71.5210    89.2300    83.0820    85.3390    24.4280   -32.5740 
  181.7500     2.2150    71.7180    90.6010    83.9470    85.4210    24.4270   -32.7770 
  181.8750     2.2140    70.3110    92.5660    85.5710    85.0670    24.4220   -32.9160 
  182.0000     2.2120    67.2460    94.4740    87.4050    86.1930    24.4070   -33.0420 
  182.1250     2.2100    64.9540    95.5280    88.7540    90.0650    24.3840   -33.2390 
  182.2500     2.2080    64.2950    95.4750    89.2380    93.9570    24.3540   -33.5490 
  182.3750     2.2080    64.1770    94.4250    88.8130    94.6850    24.3110   -34.0370 
  182.5000     2.2110    64.4530    92.8790    87.8110    91.5460    24.2740   -34.6540 
  182.6250     2.2140    66.2470    91.6930    86.9470    85.5070    24.2750   -35.3660 
