~V
VERS. 2.00: Ver 2.00
~W
STRT.M 52.0000:
STOP.M 269.0000:
STEP.M 0.1250:
NULL. -999.2500:
UWI. F11071:
~C
DEPT.M :
GR.API :
RML.OHMM :
RI. :
RXO.OHMM :
CALI.CM :
DEN.GM/CC :
SP.MV :
~A
# ...
  108.2500    76.0220     9.7500     8.4100    10.0800    24.8460     2.1410   -19.9110 
  108.3750    75.6870     9.8290     8.4780    10.1140    24.9220     2.1500   -20.0850 
  108.5000    76.0300     9.8750     8.5270    10.0620    24.9410     2.1580   -20.2010 
  108.6250    72.8790     9.8790     8.5290    10.1320    24.9390     2.1640   -20.2560 
  108.7500    69.3230     9.8420     8.4850    10.3920    24.9390     2.1670   -20.2900 
  108.8750    68.3370     9.7630     8.4030    10.6660    24.9390     2.1660   -20.3420 
  109.0000    68.8430     9.6550     8.3010    10.8060    24.9390     2.1660   -20.3840 
  109.1250    70.6470     9.5470     8.1990    10.6870    24.9390     2.1720   -20.3890 
  109.2500    72.7000     9.4680     8.1180    10.4370    24.9370     2.1850   -20.4450 
  109.3750    73.6640     9.4300     8.0740    10.1270    24.9170     2.2000   -20.5940 
  109.5000    73.2200     9.4360     8.0800    10.0540    24.8630     2.2140   -20.8060 
  109.6250    74.0210     9.4930     8.1520    10.0090    24.7780     2.2200   -21.0630 
  109.7500    75.6060     9.5980     8.2660     9.8930    24.7060     2.2200   -21.3370 
  109.8750    74.1420     9.7430     8.4010     9.6120    24.6330     2.2150   -21.5320 
  110.0000    70.8990     9.9000     8.5360     9.4840    24.5780     2.2050   -21.5930 
  110.1250    67.8550     9.9900     8.6430     9.7840    24.5690     2.1900   -21.4130 
  110.2500    66.4960     9.9400     8.6880     9.9710    24.5870     2.1740   -20.9250 
  110.3750    68.2480     9.6970     8.6130     9.9080    24.6140     2.1640   -20.1200 
  110.5000    70.9710     9.2590     8.3670     9.5740    24.6480     2.1680   -19.0360 
  110.6250    70.9650     8.6910     7.9410     9.2410    24.6940     2.1900   -17.7260 
  110.7500    72.1090     8.1510     7.4650     8.6400    24.6920     2.2140   -16.3410 
  110.8750    75.9100     7.7710     7.0670     7.5890    24.6190     2.2270   -15.0560 
  111.0000    77.7970     7.6390     6.8520     7.1980    24.5510     2.2210   -14.0310 
  111.1250    75.9420     7.8090     6.9150     7.3300    24.5850     2.2010   -13.3530 
  111.2500    75.0300     8.1450     7.1880     8.1110    24.6090     2.1830   -12.9260 
  111.3750    74.0960     8.4920     7.5630     8.5970    24.6180     2.1760   -12.6360 
  111.5000    72.0340     8.6800     7.8730     8.6630    24.6040     2.1820   -12.4010 
  111.6250    71.2130     8.5420     7.8870     8.6170    24.5520     2.2000   -12.0970 
  111.7500    73.4730     8.1490     7.5880     8.3620    24.5250     2.2240   -11.6660 
  111.8750    77.3360     7.6350     7.0690     7.3320    24.6190     2.2470   -11.0920 
  112.0000    82.1060     7.1680     6.4870     6.4310    24.7350     2.2600   -10.3750 
  112.1250    86.1810     6.9160     6.0290     6.1740    24.7510     2.2570    -9.6500 
  112.2500    86.9160     6.8960     5.7870     6.0160    24.7110     2.2440    -9.0900 
  112.3750    84.5980     7.0790     5.7940     6.1450    24.6610     2.2310    -8.7680 
  112.5000    80.7150     7.3900     6.0210     6.8170    24.6460     2.2240    -8.7270 
  112.6250    76.5890     7.7320     6.3800     7.9430    24.6600     2.2220    -9.0430 
  112.7500    74.7520     8.0510     6.7320     8.8060    24.6480     2.2220    -9.5510 
  112.8750    75.7840     8.4340     7.0570     8.9240    24.6270     2.2290   -10.0910 
  113.0000    77.9600     9.1220     7.4800     8.7850    24.6160     2.2560   -10.6130 
  113.1250    77.9950    10.6640     8.3810     9.3220    24.6330     2.3230   -11.0780 
  113.2500    74.9340    13.3660    10.1430    12.0090    24.6720     2.4240   -11.4550 
  113.3750    70.5800    17.3540    13.1890    19.2490    24.7000     2.5410   -11.7540 
  113.5000    67.1340    22.1470    17.6760    32.0790    24.6750     2.6400   -12.0040 
  113.6250    66.6250    25.9340    22.5920    48.9900    24.6030     2.6720   -12.2970 
  113.7500    66.8350    26.8530    25.0950    62.8590    24.4850     2.6260   -12.7310 
  113.8750    67.1450    24.3640    23.4460    54.0360    24.3250     2.5170   -13.3930 
  114.0000    68.3220    19.6500    18.9510    28.1350    24.2020     2.3820   -14.2870 
  114.1250    69.0420    14.9460    14.4420    13.8710    24.1740     2.2700   -15.3280 
  114.2500    67.8320    11.6150    11.2050    10.0800    24.2600     2.2020   -16.3650 
  114.3750    64.7700     9.7410     9.2050     9.4390    24.5220     2.1750   -17.3530 
  114.5000    64.4200     8.9430     8.1340     9.3570    24.8820     2.1730   -18.2600 
  114.6250    69.0720     8.8320     7.7620     9.4760    25.2220     2.1780   -18.9870 
  114.7500    73.1760     8.9360     7.7140     9.4820    25.4000     2.1790   -19.4750 
  114.8750    73.3740     9.0640     7.8010     9.4990    25.4550     2.1730   -19.6890 
  115.0000    70.2250     9.1370     7.9070     9.4530    25.4820     2.1640   -19.6520 
  115.1250    68.8500     9.1620     7.9940     9.4210    25.5770     2.1570   -19.4430 
  115.2500    69.9730     9.1810     8.0690     9.2500    25.5770     2.1560   -19.1760 
  115.3750    71.3400     9.2060     8.1370     9.2400    25.2990     2.1600   -18.8680 
  115.5000    71.4150     9.2240     8.1920     9.2610    24.7730     2.1650   -18.5470 
  115.6250    69.3840     9.2090     8.2140     9.2610    24.4590     2.1670   -18.2570 
  115.7500    66.4890     9.1600     8.1970     9.1980    24.5010     2.1670   -18.0350 
  115.8750    64.0400     9.0900     8.1410     9.1810    24.7070     2.1640   -17.9220 
  116.0000    63.7290     9.0170     8.0540     9.1290    24.8540     2.1610   -17.8880 
  116.1250    66.6610     8.9540     7.9510     9.1650    24.8950     2.1580   -17.8700 
  116.2500    70.9780     8.9030     7.8500     9.1200    24.8850     2.1570   -17.7750 
  116.3750    74.4810     8.8660     7.7570     9.0540    24.8910     2.1570   -17.6070 
  116.5000    74.9590     8.8420     7.6760     8.9220    24.9360     2.1580   -17.4240 
  116.6250    72.9660     8.8420     7.6150     8.9370    24.9980     2.1580   -17.2520 
  116.7500    72.5930     8.8560     7.5720     8.9340    25.0230     2.1580   -17.0890 
  116.8750    74.8600     8.8710     7.5430     8.9990    25.0110     2.1600   -16.8980 
  117.0000    77.3220     8.8690     7.5230     9.0770    24.9640     2.1660   -16.6310 
  117.1250    77.5100     8.8360     7.5030     9.1890    24.8290     2.1750   -16.2550 
  117.2500    76.6490     8.7920     7.4820     9.0590    24.6300     2.1820   -15.9040 
  117.3750    76.9580     8.7640     7.4640     8.7900    24.4740     2.1830   -15.6500 
  117.5000    79.6890     8.7740     7.4570     8.7120    24.3960     2.1770   -15.4710 
  117.6250    82.4950     8.8350     7.4730     8.9000    24.3820     2.1680   -15.3690 
  117.7500    80.8430     8.9200     7.5100     9.1040    24.3710     2.1620   -15.3370 
  117.8750    75.8430     9.0050     7.5590     9.1490    24.3560     2.1610   -15.3870 
  118.0000    72.5880     9.0660     7.6090     9.2270    24.3290     2.1640   -15.5810 
  118.1250    73.3280     9.0840     7.6440     9.4580    24.3160     2.1720   -15.9520 
  118.2500    74.2250     9.0680     7.6560     9.5020    24.3290     2.1810   -16.3680 
  118.3750    75.1150     9.0300     7.6400     9.4150    24.3530     2.1890   -16.7530 
  118.5000    76.9520     8.9800     7.5970     9.3920    24.3670     2.1930   -17.0820 
  118.6250    76.8940     8.9280     7.5320     9.2480    24.3680     2.1900   -17.3880 
  118.7500    74.2870     8.8720     7.4610     8.9850    24.3680     2.1780   -17.7480 
  118.8750    71.7010     8.8120     7.4000     8.8670    24.3880     2.1600   -18.1630 
  119.0000    69.0880     8.7530     7.3580     8.8600    24.4850     2.1390   -18.5900 
  119.1250    63.7400     8.7110     7.3440     8.9870    24.7300     2.1230   -18.9810 
  119.2500    59.5550     8.6950     7.3490     9.1560    25.0030     2.1150   -19.3410 
  119.3750    61.0160     8.7050     7.3640     9.1770    25.1470     2.1160   -19.7010 
