~V
VERS. 2.00: Ver 2.00
~W
STRT.M 52.0000:
STOP.M 235.0000:
STEP.M 0.1250:
NULL. -999.2500:
UWI. F11014:
~C
DEPT.M :
DEN.GM/CC :
GR.API :
RML.OHMM :
RI. :
RXO.OHMM :
CALI.CM :
SP.MV :
~A
# ...
  187.0000     2.4020    81.3290     9.0750     6.5170     9.0090    24.8090   -14.7120 
  187.1250     2.3930    77.7960     8.9400     6.5230     9.7570    24.9410   -14.2070 
  187.2500     2.3760    75.2800     8.6440     6.4240     9.5740    24.9760   -13.7620 
  187.3750     2.3620    71.4550     8.2960     6.2570     8.2290    24.9100   -13.3080 
  187.5000     2.3570    66.3060     7.9920     6.0820     6.7460    24.7420   -12.8700 
  187.6250     2.3600    63.0620     7.7670     5.9400     6.0550    24.5660   -12.4990 
  187.7500     2.3700    63.1460     7.6050     5.8380     6.0840    24.4510   -12.1440 
  187.8750     2.3860    65.8920     7.4910     5.7700     6.1500    24.4280   -11.7700 
  188.0000     2.4040    71.4350     7.4280     5.7290     6.0540    24.4550   -11.4090 
  188.1250     2.4230    79.3980     7.4250     5.7150     6.1020    24.4750   -11.1270 
  188.2500     2.4410    87.2620     7.4720     5.7200     6.4250    24.5170   -10.9110 
  188.3750     2.4520    91.7090     7.5010     5.7150     6.8990    24.5690   -10.7550 
  188.5000     2.4570    91.4220     7.4140     5.6500     7.3020    24.5680   -10.7030 
  188.6250     2.4600    87.3600     7.1540     5.4880     7.4580    24.5260   -10.6950 
  188.7500     2.4600    83.2930     6.7530     5.2390     7.2980    24.4950   -10.6630 
  188.8750     2.4540    84.5830     6.3790     4.9960     6.7910    24.4770   -10.6550 
  189.0000     2.4440    89.7630     6.2570     4.9050     6.1730    24.4530   -10.7210 
  189.1250     2.4310    92.3210     6.5660     5.0990     5.8970    24.4370   -10.7780 
  189.2500     2.4150    88.9050     7.3920     5.6630     6.5410    24.4430   -10.7460 
  189.3750     2.3950    81.7860     8.6730     6.6270     8.4410    24.4170   -10.6880 
  189.5000     2.3770    76.4950    10.0580     7.7960    10.9610    24.3480   -10.5720 
  189.6250     2.3690    75.7410    11.0540     8.8030    12.6500    24.3100   -10.3560 
  189.7500     2.3710    78.2440    11.2920     9.2890    12.4920    24.3110   -10.1060 
  189.8750     2.3790    81.9850    10.7100     9.0750    10.9120    24.2970    -9.8650 
  190.0000     2.3880    86.0180     9.7150     8.4090     9.0940    24.2660    -9.6440 
  190.1250     2.3980    89.2130     8.7640     7.6570     8.1380    24.2610    -9.4600 
  190.2500     2.4080    90.4390     8.0810     7.0390     7.9550    24.2940    -9.3320 
  190.3750     2.4170    90.8580     7.7620     6.6750     8.0610    24.3880    -9.2620 
  190.5000     2.4240    92.7430     7.7940     6.5830     8.2360    24.5120    -9.2470 
  190.6250     2.4300    94.7210     8.1700     6.7570     8.4490    24.5720    -9.2720 
  190.7500     2.4330    92.7250     8.9090     7.2150     8.7450    24.5580    -9.3350 
  190.8750     2.4330    86.1460    10.0130     7.9810     9.5930    24.5050    -9.4590 
  191.0000     2.4330    80.0870    11.3110     8.9750    11.2280    24.3970    -9.6030 
  191.1250     2.4320    77.8280    12.5300    10.0310    13.8040    24.1730    -9.7230 
  191.2500     2.4260    76.5450    13.4500    10.9680    15.7750    23.8390    -9.8720 
  191.3750     2.4130    74.1670    14.1060    11.7090    14.8530    23.5420   -10.0360 
  191.5000     2.3980    73.6770    14.9820    12.4900    13.3290    23.3740   -10.1620 
  191.6250     2.3840    75.9430    16.8350    13.8230    13.3510    23.3270   -10.3100 
  191.7500     2.3710    76.7450    20.4880    16.4060    16.4650    23.4130   -10.5240 
  191.8750     2.3610    72.6700    27.5330    21.4580    25.7480    23.6640   -10.7570 
  192.0000     2.3470    67.1390    39.4790    29.8840    51.9460    24.0090   -10.9500 
  192.1250     2.3210    64.2180    54.3800    41.7740    92.7510    24.3340   -11.1370 
  192.2500     2.2790    63.5780    70.2270    55.8920   114.9810    24.5450   -11.3470 
  192.3750     2.2310    63.6940    84.4050    69.2450   107.5380    24.6200   -11.5480 
  192.5000     2.1950    63.6900    95.0090    79.6350    92.2350    24.6390   -11.7410 
  192.6250     2.1760    63.2390   102.3800    86.9460    91.0150    24.6580   -11.9410 
  192.7500     2.1730    62.2930   106.3660    91.2600   113.3250    24.6780   -12.1340 
  192.8750     2.1770    61.8740   103.5290    90.3710   137.3860    24.7030   -12.3060 
  193.0000     2.1840    62.3710    92.3130    82.7990   139.0860    24.7350   -12.4610 
  193.1250     2.1940    62.7320    76.3580    70.4230   115.9290    24.7520   -12.6140 
  193.2500     2.2060    63.8340    61.4230    57.4050    79.1630    24.7200   -12.7640 
  193.3750     2.2210    67.3880    52.0740    48.0600    52.6450    24.6700   -12.9000 
  193.5000     2.2360    71.9530    48.9770    43.8940    46.9630    24.6480   -13.0370 
  193.6250     2.2470    74.9250    50.8940    44.4160    64.6640    24.6490   -13.1910 
  193.7500     2.2520    74.7360    56.5020    48.6650    94.2770    24.6570   -13.3650 
  193.8750     2.2490    71.5330    64.1830    55.3630   101.3520    24.6690   -13.5250 
  194.0000     2.2460    68.0100    71.8720    62.5930    88.3360    24.6940   -13.6750 
  194.1250     2.2460    67.2950    78.0350    68.6810    77.4480    24.7250   -13.8500 
  194.2500     2.2470    68.0940    82.4960    73.1460    73.7200    24.7940   -14.0230 
  194.3750     2.2410    66.4430    86.1530    76.6380    77.6950    24.8830   -14.1640 
  194.5000     2.2290    62.9730    89.7670    79.9600    76.8110    24.9300   -14.3170 
  194.6250     2.2190    60.5180    93.1290    83.0650    68.4870    24.9010   -14.4930 
  194.7500     2.2150    60.0450    95.5330    85.3050    63.3440    24.8000   -14.6360 
  194.8750     2.2140    62.1880    96.4370    86.0680    63.8410    24.6950   -14.7030 
  195.0000     2.2090    66.5670    96.1330    85.5550    65.8510    24.6270   -14.7630 
  195.1250     2.1980    70.1910    95.3350    84.4820    70.0900    24.6080   -14.8530 
  195.2500     2.1850    69.5730    94.6440    83.5230    78.0410    24.6350   -14.9120 
  195.3750     2.1710    65.8040    94.6100    83.2680    84.4330    24.6940   -14.9380 
  195.5000     2.1580    63.6380    95.6470    84.0670    86.3220    24.7860   -14.9590 
  195.6250     2.1520    64.4780    98.0110    86.0700    91.3510    24.8920   -14.9800 
  195.7500     2.1510    65.2660   101.6400    89.1850   105.8180    24.9710   -15.0040 
  195.8750     2.1570    63.7780   105.8810    92.9240   121.1670    25.0330   -15.0560 
  196.0000     2.1670    61.8710   109.5800    96.4670   126.1260    25.0920   -15.0980 
  196.1250     2.1780    60.8720   111.6800    99.0390   122.2560    25.1040   -15.1090 
  196.2500     2.1880    59.7830   111.7170   100.1760   115.8410    25.0410   -15.1460 
  196.3750     2.1970    59.3940   109.9530    99.7790   113.4030    24.9620   -15.2100 
  196.5000     2.2040    61.2450   107.3400    98.3620   110.0330    24.9280   -15.2770 
  196.6250     2.2080    63.6830   104.6330    96.5080   100.6280    24.8990   -15.3530 
  196.7500     2.2100    63.8220   102.0650    94.5250    91.0330    24.8110   -15.4130 
  196.8750     2.2110    62.2810    99.5520    92.5260    89.3130    24.5630   -15.4380 
  197.0000     2.2090    61.7490    96.8400    90.4260    92.8280    24.2850   -15.4990 
  197.1250     2.2040    62.8150    93.7380    88.0590    92.8790    24.2120   -15.5990 
  197.2500     2.1990    65.8240    90.3060    85.3840    91.0220    24.3640   -15.6670 
  197.3750     2.1950    70.7100    86.9390    82.6440    86.9670    24.5410   -15.7570 
  197.5000     2.1950    73.7240    84.2710    80.3600    79.2550    24.6230   -15.9050 
  197.6250     2.2000    70.9800    82.9930    79.2000    71.9210    24.6590   -16.0320 
  197.7500     2.2060    64.1610    83.5540    79.7090    70.4530    24.6760   -16.1250 
  197.8750     2.2080    58.8130    85.8940    82.0320    75.0850    24.6620   -16.2610 
  198.0000     2.2060    57.6190    88.9280    85.2780    81.5470    24.6400   -16.4620 
  198.1250     2.2050    59.8980    91.0660    87.9850    90.1060    24.6410   -16.6850 
