~V
VERS. 2.00: Ver 2.00
~W
STRT.M 53.0000:
STOP.M 276.0000:
STEP.M 0.1250:
NULL. -999.2500:
UWI. F11074:
~C
DEPT.M :
DEN.GM/CC :
SP.MV :
GR.API :
RML.OHMM :
RI. :
RXO.OHMM :
CALI.CM :
~A
# ...
   98.0000     2.3420   -12.0710    95.3210     8.6420     6.8490     7.7740    24.1500 
   98.1250     2.3090   -11.2680    97.6980     7.6800     6.0070     6.8460    24.1480 
   98.2500     2.2830   -10.6210    96.9690     7.1970     5.4600     6.7430    24.1350 
   98.3750     2.2720   -10.1930    97.8240     7.1350     5.2260     6.7620    24.1070 
   98.5000     2.2680   -10.0130    99.9410     7.3320     5.2440     6.8620    24.0850 
   98.6250     2.2660   -10.0370    98.2920     7.6030     5.4290     7.2700    24.0780 
   98.7500     2.2620   -10.1670    93.4200     7.8190     5.6530     7.6100    24.0780 
   98.8750     2.2570   -10.3940    90.8920     7.9650     5.8620     7.6600    24.0780 
   99.0000     2.2570   -10.6700    92.7030     8.0630     6.0350     7.4390    24.0780 
   99.1250     2.2630   -10.9080    97.6770     8.1420     6.1700     7.8090    24.0780 
   99.2500     2.2710   -11.0630   100.0930     8.2210     6.2850     8.5430    24.0920 
   99.3750     2.2800   -11.1090    97.8610     8.2780     6.3700     8.8240    24.1770 
   99.5000     2.2920   -11.0290    95.5540     8.2620     6.3870     8.4450    24.3890 
   99.6250     2.3040   -10.8590   100.1190     8.0770     6.2560     7.9930    24.6430 
   99.7500     2.3130   -10.6340   107.5390     7.7250     5.9730     7.5770    24.7500 
   99.8750     2.3180   -10.3460   110.3150     7.2430     5.5690     7.0480    24.7720 
  100.0000     2.3200   -10.0200   110.4930     6.6910     5.0970     6.4270    24.7720 
  100.1250     2.3220    -9.7360   116.8500     6.1620     4.6230     5.6800    24.7720 
  100.2500     2.3270    -9.5440   123.8490     5.7850     4.2290     5.1430    24.7720 
  100.3750     2.3340    -9.4380   122.8470     5.7230     4.0120     4.9950    24.7720 
  100.5000     2.3430    -9.4090   116.2030     6.1480     4.0830     5.3390    24.7720 
  100.6250     2.3560    -9.4280   114.1120     7.3020     4.6230     6.5330    24.7740 
  100.7500     2.3730    -9.4960   112.7390     9.0090     5.6090     9.0570    24.7880 
  100.8750     2.3860    -9.6240   105.7150    10.8380     6.8840    12.9070    24.8210 
  101.0000     2.3730    -9.7980    97.2660    11.9930     7.9880    14.4670    24.8460 
  101.1250     2.3120    -9.9990    95.8590    11.5100     8.1300    11.5960    24.8530 
  101.2500     2.2410   -10.1810    99.4060     9.9910     7.4330     8.3790    24.8470 
  101.3750     2.1940   -10.3280   104.5070     8.4280     6.4790     6.8500    24.8440 
  101.5000     2.1830   -10.4250   110.1250     7.4970     5.7690     6.4970    24.8440 
  101.6250     2.1970   -10.5020   110.8170     7.3900     5.5330     6.7040    24.8440 
  101.7500     2.2150   -10.5550   104.8400     7.6880     5.5980     6.9950    24.8440 
  101.8750     2.2290   -10.5950    97.2100     8.0800     5.7900     7.1750    24.8440 
  102.0000     2.2370   -10.6060    93.2370     8.3600     5.9660     7.2790    24.8440 
  102.1250     2.2370   -10.5920    93.2620     8.4310     6.0380     7.3510    24.8440 
  102.2500     2.2360   -10.6030    95.3000     8.3710     6.0240     7.3540    24.8440 
  102.3750     2.2400   -10.6590    98.7520     8.2690     5.9670     7.3880    24.8440 
  102.5000     2.2480   -10.7700   100.6140     8.2360     5.9360     7.5050    24.8440 
  102.6250     2.2600   -10.9450    99.7950     8.4480     6.0450     7.7760    24.8440 
  102.7500     2.2760   -11.1690    97.8940     9.0130     6.3760     8.2380    24.8440 
  102.8750     2.2950   -11.4520    93.0530    10.0670     7.0230     9.1650    24.8410 
  103.0000     2.3180   -11.8610    85.2980    11.6720     8.0680    11.6200    24.8280 
  103.1250     2.3510   -12.4280    81.6100    13.6050     9.5050    17.5910    24.7780 
  103.2500     2.3840   -13.0530    84.7480    15.0300    10.8290    23.4640    24.6650 
  103.3750     2.3830   -13.6920    88.3460    15.0480    11.3190    20.3530    24.4370 
  103.5000     2.3290   -14.2950    87.3000    13.4050    10.5600    13.1470    24.0990 
  103.6250     2.2560   -14.8250    85.6310    11.0490     9.0020    11.0060    23.7940 
  103.7500     2.2140   -15.2890    87.5700     9.3390     7.6580    10.5970    23.6090 
  103.8750     2.2070   -15.6100    90.6080     8.6900     6.9190    10.7620    23.5350 
  104.0000     2.2240   -15.6540    90.1560     8.9820     6.8270    10.9560    23.5310 
  104.1250     2.2540   -15.2980    86.1840     9.8760     7.2830    11.4130    23.6290 
  104.2500     2.2910   -14.6680    82.2050    10.7530     7.9050    13.4810    23.8790 
  104.3750     2.3410   -13.8590    83.1830    11.1080     8.3320    17.0340    24.2210 
  104.5000     2.4000   -13.0100    93.6370    10.5520     8.1970    18.4650    24.4950 
  104.6250     2.4310   -12.1810   109.3940     9.0650     7.3010    12.1220    24.6060 
  104.7500     2.4220   -11.3860   119.8290     7.4790     6.1460     7.4570    24.6330 
  104.8750     2.3930   -10.6680   122.4720     6.3720     5.1740     6.2210    24.6370 
  105.0000     2.3710   -10.1280   120.5000     5.9280     4.6100     6.3240    24.6370 
  105.1250     2.3610    -9.8400   116.1270     6.0490     4.4940     6.2450    24.6370 
  105.2500     2.3590    -9.7610   111.7420     6.3270     4.5880     5.9760    24.6370 
  105.3750     2.3610    -9.8270   109.4520     6.5430     4.7280     5.8150    24.6370 
  105.5000     2.3650    -9.9430   107.8290     6.6570     4.8410     6.0940    24.6370 
  105.6250     2.3680   -10.0690   105.0910     6.7890     4.9660     6.3680    24.6370 
  105.7500     2.3670   -10.1860   102.1080     7.0100     5.1390     6.2740    24.6370 
  105.8750     2.3560   -10.2810    98.5260     7.2880     5.3380     6.1570    24.6370 
  106.0000     2.3380   -10.3380    93.9540     7.5680     5.5220     6.2410    24.6370 
  106.1250     2.3240   -10.4020    93.2790     7.8090     5.6600     6.7050    24.6370 
  106.2500     2.3210   -10.4810    96.0080     7.9970     5.7570     7.0730    24.6370 
  106.3750     2.3270   -10.5550    97.4120     8.1120     5.8110     7.3940    24.6370 
  106.5000     2.3380   -10.6360    98.4060     8.1690     5.8290     7.5550    24.6370 
  106.6250     2.3540   -10.7380   103.9820     8.4100     5.9250     7.3510    24.6370 
  106.7500     2.3710   -10.8730   108.5370     9.3310     6.3610     8.3640    24.6370 
  106.8750     2.3840   -11.0590   105.4800    11.5620     7.5390    12.1660    24.6430 
  107.0000     2.3930   -11.3000    95.3460    15.7120     9.9900    22.6770    24.6740 
  107.1250     2.4040   -11.6060    84.1910    22.4070    14.6060    42.8210    24.7480 
  107.2500     2.4170   -11.9920    75.7340    30.0470    20.7770    63.7790    24.8150 
  107.3750     2.4210   -12.4780    71.6130    34.9270    25.9690    65.7360    24.8410 
  107.5000     2.4070   -13.0320    71.3000    32.8970    26.3210    52.8040    24.8440 
  107.6250     2.3670   -13.5740    73.6310    24.8180    21.2170    35.4280    24.8440 
  107.7500     2.3040   -14.0380    77.6130    17.1900    15.5400    21.8770    24.8440 
  107.8750     2.2310   -14.4460    80.3790    12.2030    11.3190    14.1690    24.8440 
  108.0000     2.1750   -14.8370    79.4880     9.6800     8.7520    11.0890    24.8370 
  108.1250     2.1550   -15.1550    78.6370     9.0030     7.5720    10.2350    24.7990 
  108.2500     2.1580   -15.3820    81.3620     9.1830     7.1380     9.8500    24.7290 
  108.3750     2.1700   -15.5450    84.0600     9.7680     7.1750     9.5840    24.6620 
  108.5000     2.1810   -15.6840    84.1380    10.4330     7.4600     9.6110    24.6190 
  108.6250     2.1870   -15.8660    82.0350    10.9730     7.8380    10.1750    24.5740 
  108.7500     2.1830   -16.1530    78.6570    11.3840     8.2170    11.1290    24.5310 
  108.8750     2.1720   -16.5170    75.7890    11.6750     8.5650    11.8400    24.4690 
  109.0000     2.1630   -16.9090    75.1070    11.8300     8.8410    11.5090    24.3710 
  109.1250     2.1690   -17.3020    77.0080    11.8780     9.0240    11.2130    24.2810 
