~V
VERS. 2.00: Ver 2.00
~W
STRT.M 50.0000:
STOP.M 220.0000:
STEP.M 0.1250:
NULL. -999.2500:
UWI. F11004:
~C
DEPT.M :
SP.MV :
GR.API :
RML.OHMM :
RI. :
RXO.OHMM :
CALI.CM :
DEN.GM/CC :
~A
# ...
  173.7500   -32.4400    93.5350     9.5630     7.7610     9.6300    24.7460     2.3580 
  173.8750   -32.0710    98.8070     9.7270     7.8970    10.0020    24.7330     2.3750 
  174.0000   -31.6970   103.2110     9.9240     8.0560    10.3020    24.6750     2.3980 
  174.1250   -31.2680   102.1170    10.1310     8.2270    10.4190    24.5520     2.4220 
  174.2500   -30.7980    99.2660    10.3030     8.3720    10.4750    24.4100     2.4450 
  174.3750   -30.3910   101.2100    10.3700     8.4350    10.4530    24.3000     2.4630 
  174.5000   -30.0360   104.4600    10.2310     8.3360    10.1520    24.2790     2.4640 
  174.6250   -29.6650   102.7400     9.8750     8.0790     9.5780    24.3280     2.4410 
  174.7500   -29.3350    97.3810     9.3270     7.6800     8.8830    24.3730     2.4050 
  174.8750   -29.0840    94.6190     8.6630     7.1840     8.1920    24.3450     2.3740 
  175.0000   -28.8170    94.6510     8.0080     6.6580     7.5920    24.3080     2.3520 
  175.1250   -28.5950    92.2140     7.4700     6.1920     7.0710    24.3460     2.3310 
  175.2500   -28.4610    85.3290     7.1050     5.8480     6.5930    24.3800     2.3110 
  175.3750   -28.3140    75.6610     6.9340     5.6620     6.3660    24.3500     2.3010 
  175.5000   -28.1540    68.6040     6.9710     5.6570     6.6050    24.2810     2.3010 
  175.6250   -28.0600    68.6660     7.1450     5.7720     7.0260    24.1990     2.3040 
  175.7500   -28.0220    71.7450     7.3920     5.9610     7.3310    24.0840     2.3090 
  175.8750   -27.9590    70.5240     7.6390     6.1790     7.5680    23.9560     2.3160 
  176.0000   -27.9370    63.0660     7.8000     6.3740     7.9260    23.9100     2.3250 
  176.1250   -27.9280    57.2320     7.8460     6.5060     8.2450    23.9020     2.3290 
  176.2500   -27.8090    55.2730     7.7830     6.5600     8.3050    23.8640     2.3250 
  176.3750   -27.6280    53.9090     7.6450     6.5400     8.0310    23.7700     2.3190 
  176.5000   -27.3670    52.3860     7.4810     6.4670     7.4870    23.6580     2.3260 
  176.6250   -26.9110    52.3020     7.3510     6.3820     7.1040    23.6640     2.3430 
  176.7500   -26.2620    54.7900     7.2930     6.3130     7.1440    23.8530     2.3570 
  176.8750   -25.5090    59.7740     7.3170     6.2740     7.5080    24.1610     2.3610 
  177.0000   -24.6070    65.7340     7.3890     6.2600     7.7700    24.4720     2.3610 
  177.1250   -23.5680    70.3410     7.4300     6.2380     7.7210    24.6950     2.3620 
  177.2500   -22.5510    74.2760     7.3860     6.1770     7.3920    24.7720     2.3640 
  177.3750   -21.6140    79.8810     7.2420     6.0580     6.8280    24.6580     2.3690 
  177.5000   -20.7610    87.2220     7.0340     5.8950     6.4470    24.3770     2.3810 
  177.6250   -20.0880    93.5090     6.8500     5.7470     6.4640    24.1060     2.3940 
  177.7500   -19.6430    96.4240     6.7530     5.6590     6.6430    23.9600     2.4030 
  177.8750   -19.3670    98.0870     6.7840     5.6590     6.6490    23.9840     2.4050 
  178.0000   -19.2720    98.0190     6.9820     5.7670     6.6720    24.1520     2.3960 
  178.1250   -19.3730    97.8310     7.3060     5.9600     7.0610    24.3460     2.3810 
  178.2500   -19.5370    98.9090     7.7180     6.2220     7.6350    24.4950     2.3680 
  178.3750   -19.6650   101.3960     8.1680     6.5330     8.0290    24.5420     2.3610 
  178.5000   -19.8340   101.8730     8.6120     6.8710     8.2510    24.4780     2.3620 
  178.6250   -19.9850    99.3260     9.0280     7.2120     8.5920    24.3910     2.3650 
  178.7500   -20.0170    98.4990     9.4190     7.5510     9.0210    24.3150     2.3680 
  178.8750   -19.9690    99.7640     9.7920     7.8910     9.4070    24.2330     2.3700 
  179.0000   -19.9260    96.6710    10.1360     8.2240     9.6500    24.1470     2.3700 
  179.1250   -19.8010    92.7200    10.4290     8.5240     9.8180    24.0730     2.3670 
  179.2500   -19.6110    93.4140    10.6350     8.7560    10.0950    24.0010     2.3640 
  179.3750   -19.4490    98.1020    10.7260     8.8850    10.4760    23.9260     2.3620 
  179.5000   -19.2570    99.2660    10.6680     8.8840    10.5810    23.9520     2.3650 
  179.6250   -19.0460    96.4620    10.5110     8.8000    10.4040    24.1160     2.3720 
  179.7500   -18.8810    93.8130    10.2990     8.6750    10.2480    24.3430     2.3800 
  179.8750   -18.7100    92.6260    10.0760     8.5400    10.1870    24.5050     2.3880 
  180.0000   -18.4930    92.7920     9.8760     8.4140    10.0990    24.5190     2.3940 
  180.1250   -18.3250    92.6520     9.7120     8.3090    10.0130    24.4660     2.3970 
  180.2500   -18.1840    90.4320     9.5880     8.2410     9.9030    24.4100     2.3930 
  180.3750   -18.0010    88.2860     9.5040     8.2190     9.8000    24.3580     2.3840 
  180.5000   -17.8490    89.9320     9.4840     8.2670    10.0540    24.2730     2.3750 
  180.6250   -17.7320    92.4530     9.5510     8.3890    10.5800    24.1690     2.3680 
  180.7500   -17.5860    92.2880     9.7240     8.5920    10.8330    24.0880     2.3650 
  180.8750   -17.4930    89.7270     9.9890     8.8640    10.7980    24.0260     2.3670 
  181.0000   -17.4650    90.8250    10.2740     9.1670    11.0390    23.9280     2.3740 
  181.1250   -17.4130    95.2390    10.4720     9.4260    11.1210    23.7700     2.3830 
  181.2500   -17.3520    97.0950    10.5240     9.5880    10.5130    23.5950     2.3880 
  181.3750   -17.3390    94.9540    10.4330     9.6360     9.6370    23.5440     2.3880 
  181.5000   -17.3190    92.2810    10.2710     9.5930     9.2010    23.6820     2.3840 
  181.6250   -17.2560    91.5160    10.1780     9.5640     9.1650    23.8250     2.3850 
  181.7500   -17.2260    91.7460    10.2310     9.6340     9.2060    23.8300     2.3890 
  181.8750   -17.1920    91.3020    10.4140     9.8400     9.0150    23.7290     2.3930 
  182.0000   -17.0740    90.7670    10.5940    10.1240     8.7190    23.5860     2.3900 
  182.1250   -16.9710    88.9650    10.6430    10.3500     8.7670    23.3810     2.3810 
  182.2500   -16.9150    87.4850    10.5420    10.4450     9.0080    23.2970     2.3680 
  182.3750   -16.8370    88.8960    10.3600    10.4130     8.9020    23.5830     2.3580 
  182.5000   -16.7630    92.0460    10.2240    10.3310     8.6530    24.0990     2.3550 
  182.6250   -16.7540    92.2030    10.1920    10.2860     8.7700    24.4160     2.3570 
  182.7500   -16.7440    87.9980    10.2470    10.2960     8.7040    24.4820     2.3580 
  182.8750   -16.7380    84.2020    10.3250    10.3320     7.9470    24.5200     2.3590 
  183.0000   -16.8600    83.2840    10.3240    10.3100     7.1490    24.5920     2.3610 
  183.1250   -17.0090    83.7800    10.1680    10.1540     7.1910    24.5730     2.3670 
  183.2500   -17.1630    82.6240     9.8430     9.8350     8.0160    24.4560     2.3760 
  183.3750   -17.3960    81.7060     9.4540     9.4370     8.6510    24.3480     2.3810 
  183.5000   -17.7500    81.5160     9.3260     9.2150     8.4220    24.3930     2.3790 
  183.6250   -18.1710    80.5120     9.8840     9.4600     8.5670    24.4940     2.3750 
  183.7500   -18.6830    80.8250    11.6910    10.5320    10.9390    24.4660     2.3740 
  183.8750   -19.3240    82.8830    15.4350    12.9350    16.7940    24.2800     2.3720 
  184.0000   -20.0120    80.9890    23.2120    18.1330    29.6440    24.1560     2.3550 
  184.1250   -20.7480    72.6830    36.9860    27.7340    55.1590    24.1960     2.3210 
  184.2500   -21.5810    64.3330    55.9310    44.2160   104.6940    24.3210     2.2820 
  184.3750   -22.4230    61.6000    82.5430    69.3210   187.8170    24.4580     2.2520 
  184.5000   -23.1950    61.4070   116.2130   101.5440   216.6390    24.5480     2.2420 
  184.6250   -23.9610    60.6940   149.2420   132.4520   185.0960    24.5670     2.2430 
  184.7500   -24.7260    60.7460   174.2110   155.7930   168.7940    24.4830     2.2460 
  184.8750   -25.3940    62.0800   187.8350   169.1320   161.1790    24.3900     2.2400 
