~V
VERS. 2.00: Ver 2.00
~W
STRT.M 54.0000:
STOP.M 226.0000:
STEP.M 0.1250:
NULL. -999.2500:
UWI. F11002:
~C
DEPT.M :
GR.API :
RML.OHMM :
RI. :
RXO.OHMM :
CALI.CM :
DEN.GM/CC :
SP.MV :
~A
# ...
   65.2500    61.2030    10.6620     9.2080     9.1590    23.4400     2.2840   -13.4010 
   65.3750    62.2810    10.8760     9.2650     9.0870    23.8340     2.2540   -14.2440 
   65.5000    63.0670    10.9770     9.2960     9.1910    24.4510     2.2150   -15.2320 
   65.6250    62.8260    10.9270     9.2660     9.1800    24.9720     2.1780   -16.2060 
   65.7500    63.0610    10.7820     9.1850     8.8660    25.0200     2.1530   -17.0890 
   65.8750    63.5810    10.6690     9.1150     8.5090    24.6160     2.1450   -17.9070 
   66.0000    65.3350    10.6610     9.1090     8.8080    24.1200     2.1530   -18.6450 
   66.1250    68.3500    10.7450     9.1670     9.5650    23.8560     2.1740   -19.1690 
   66.2500    68.7550    10.8590     9.2360    10.1300    23.7410     2.1990   -19.4370 
   66.3750    66.8250    10.9410     9.2380    10.1710    23.6760     2.2200   -19.4630 
   66.5000    67.8940    10.9820     9.1660     9.8440    23.6580     2.2300   -19.3760 
   66.6250    71.1750    11.0080     9.0650     9.5670    23.6550     2.2260   -19.2110 
   66.7500    72.6690    11.0630     8.9950     9.6930    23.7020     2.2130   -18.9520 
   66.8750    71.1570    11.1810     9.0060     9.8420    23.9030     2.1970   -18.5830 
   67.0000    69.1820    11.3360     9.0770    10.0190    24.2310     2.1860   -18.1590 
   67.1250    67.6970    11.4710     9.1730    10.0680    24.4760     2.1820   -17.7020 
   67.2500    66.0610    11.5270     9.2550    10.1810    24.4840     2.1880   -17.2180 
   67.3750    63.5460    11.4710     9.3010    10.3610    24.3080     2.2000   -16.7410 
   67.5000    61.6580    11.3690     9.3310    10.4690    24.0930     2.2070   -16.1830 
   67.6250    63.8060    11.2950     9.3790    10.5020    24.0360     2.2040   -15.5910 
   67.7500    70.8790    11.3030     9.4710    10.1290    24.1640     2.1940   -14.8950 
   67.8750    74.8880    11.3970     9.6230     9.5660    24.2450     2.1880   -13.9980 
   68.0000    71.9700    11.4870     9.7860    10.4920    24.0660     2.1950   -12.9480 
   68.1250    66.8800    11.4760     9.8760    13.1580    23.5930     2.2150   -11.7920 
   68.2500    65.1190    11.2850     9.7890    12.4910    23.1350     2.2410   -10.6060 
   68.3750    69.5040    10.8560     9.4250    10.9500    22.9190     2.2570    -9.3360 
   68.5000    78.7500    10.2540     8.8410     9.4620    22.9520     2.2590    -8.0800 
   68.6250    89.6630     9.5350     8.1080     8.1480    23.2100     2.2510    -6.8670 
   68.7500    95.5380     8.7530     7.3130     6.6400    23.6070     2.2430    -5.7540 
   68.8750    94.9210     7.9640     6.5480     6.0440    23.9150     2.2470    -4.8920 
   69.0000    97.0590     7.2300     5.8690     5.8860    24.0560     2.2650    -4.2850 
   69.1250   103.9640     6.6300     5.3200     5.5270    24.0550     2.2890    -3.9020 
   69.2500   110.6580     6.2900     4.9760     5.0900    24.0450     2.3090    -3.7550 
   69.3750   111.4960     6.5430     5.0240     4.8820    24.0540     2.3200    -3.9370 
   69.5000   108.7660     7.5390     5.5810     5.0120    24.1010     2.3380    -4.3240 
   69.6250   103.8550     9.3690     6.8180     5.8820    24.1920     2.3760    -4.8710 
   69.7500    95.3220    11.9540     8.8630     8.9910    24.2820     2.4340    -5.5600 
   69.8750    84.5080    14.7670    11.5850    22.8800    24.2970     2.4850    -6.3380 
   70.0000    75.7440    16.7220    13.9020    45.4050    24.1330     2.4970    -7.0570 
   70.1250    72.0110    17.0330    14.6960    38.1630    23.6970     2.4590    -7.6800 
   70.2500    72.1180    15.6910    13.7830    17.2340    23.1560     2.3850    -8.1350 
   70.3750    73.2230    13.4810    12.0160    11.2720    22.8460     2.3060    -8.4660 
   70.5000    73.7220    11.4870    10.4000     9.5200    22.7010     2.2530    -8.8460 
   70.6250    73.1000    10.0870     9.2070     9.1830    22.6860     2.2310    -9.3190 
   70.7500    71.2480     9.2600     8.4300     9.2200    22.7510     2.2350    -9.9400 
   70.8750    71.4560     8.8610     7.9780     9.0680    22.8610     2.2500   -10.6460 
   71.0000    73.8170     8.6630     7.6840     8.5650    23.0050     2.2620   -11.4860 
   71.1250    75.7290     8.6080     7.5140     8.0860    23.1490     2.2620   -12.4320 
   71.2500    74.5030     8.6890     7.4840     7.7380    23.2670     2.2500   -13.3940 
   71.3750    71.0110     8.9120     7.6300     8.3420    23.3410     2.2290   -14.3020 
   71.5000    68.7300     9.2150     7.8960     8.8270    23.3790     2.2090   -15.0570 
   71.6250    68.8210     9.5420     8.2140     9.1520    23.3920     2.1960   -15.6040 
   71.7500    70.9330     9.8480     8.5220     9.1920    23.3950     2.1930   -15.9240 
   71.8750    71.7500    10.0760     8.7710     9.1830    23.4210     2.1960   -15.9630 
   72.0000    70.0380    10.1690     8.9260     9.4020    23.5100     2.1990   -15.7010 
   72.1250    69.0210    10.0360     8.9060     9.3320    23.7050     2.1980   -15.1570 
   72.2500    70.5460     9.6020     8.6160     9.0340    24.1020     2.1920   -14.3580 
   72.3750    73.4000     8.8560     8.0040     8.4690    24.6590     2.1890   -13.2670 
   72.5000    80.1040     8.0290     7.2920     7.5590    25.1290     2.2010   -12.0000 
   72.6250    92.9360     7.3610     6.6980     6.3970    25.1520     2.2340   -10.6320 
   72.7500   104.4380     7.0450     6.3760     5.8610    24.5740     2.2860    -9.2600 
   72.8750   105.1010     7.2050     6.4060     6.2090    24.1680     2.3410    -7.9550 
   73.0000    98.5530     7.6180     6.6520     7.5870    23.9570     2.3760    -6.7240 
   73.1250    90.2010     8.0210     6.9400     9.9220    23.8020     2.3810    -5.5520 
   73.2500    85.8790     8.1570     7.0500     9.7210    23.6680     2.3590    -4.5050 
   73.3750    91.0150     7.8540     6.7880     7.7920    23.6730     2.3310    -3.6510 
   73.5000   102.8010     7.3100     6.2900     5.9330    23.7950     2.3160    -2.9300 
   73.6250   113.0760     6.7550     5.7460     5.0500    23.9240     2.3220    -2.3150 
   73.7500   117.8140     6.3590     5.3190     4.9350    23.9960     2.3390    -1.7040 
   73.8750   119.8670     6.1710     5.0960     5.2150    24.0250     2.3580    -1.2850 
   74.0000   117.8640     6.0750     4.9940     5.2850    24.0230     2.3710    -1.1860 
   74.1250   111.7860     6.0150     4.9480     5.0870    23.9920     2.3770    -1.5100 
   74.2500   106.1150     6.0150     4.9440     4.8490    23.9770     2.3740    -2.3310 
   74.3750   105.3360     6.2070     5.0590     4.8370    23.9200     2.3590    -3.6580 
   74.5000   102.6540     6.6610     5.3600     5.4210    23.7650     2.3300    -5.2200 
   74.6250    92.9720     7.3830     5.8830     7.0020    23.5370     2.2920    -6.9090 
   74.7500    80.2800     8.2710     6.5880     8.9480    23.4160     2.2530    -8.6590 
   74.8750    71.8660     9.1040     7.3460     9.8900    23.4070     2.2250   -10.1850 
   75.0000    68.1820     9.6850     7.9710    10.1440    23.4300     2.2130   -11.4020 
   75.1250    67.5960     9.9300     8.3390    10.1860    23.4060     2.2160   -12.2440 
   75.2500    67.1330     9.8760     8.4200    10.1560    23.2980     2.2280   -12.6830 
   75.3750    65.4840     9.6440     8.2610    10.1110    23.1760     2.2390   -12.7650 
   75.5000    66.1470     9.4300     8.0320    10.0790    23.0950     2.2430   -12.6310 
   75.6250    69.9140     9.3440     7.8390     9.8900    23.0380     2.2400   -12.3510 
   75.7500    73.2980     9.4380     7.7520     9.8140    23.0090     2.2360   -11.9710 
   75.8750    73.3940     9.6640     7.7970     9.9230    23.0190     2.2390   -11.5020 
   76.0000    72.8220     9.7950     7.8320     9.9150    23.1020     2.2520   -10.9680 
   76.1250    73.9670     9.5880     7.6660     9.8340    23.2650     2.2710   -10.3720 
   76.2500    75.4620     8.8900     7.1510     9.7240    23.3010     2.2850    -9.7390 
   76.3750    75.6460     7.7360     6.2900     9.1750    23.6300     2.2880    -9.0920 
