~V
VERS. 2.00: Ver 2.00
~W
STRT.M 55.0000:
STOP.M 277.0000:
STEP.M 0.1250:
NULL. -999.2500:
UWI. F11037:
~C
DEPT.M :
SP.MV :
GR.API :
RML.OHMM :
RI. :
RXO.OHMM :
CALI.CM :
DEN.GM/CC :
~A
# ...
  167.5000   -15.8880    79.0260    23.5700    21.1060    22.5310    24.8800     2.3210 
  167.6250   -15.9140    80.5740    24.5940    21.9020    23.5340    24.8810     2.3100 
  167.7500   -16.0280    80.2720    25.8490    22.9850    24.6830    24.8820     2.2960 
  167.8750   -16.1930    79.5400    27.0720    24.2230    26.3550    24.8820     2.2840 
  168.0000   -16.3300    79.5830    27.8710    25.3160    28.5980    24.8800     2.2760 
  168.1250   -16.4680    79.4290    27.7830    25.7280    30.6840    24.8780     2.2720 
  168.2500   -16.6810    79.7490    26.9530    25.3080    30.6160    24.8630     2.2680 
  168.3750   -16.7780    80.8650    25.7530    24.2650    27.4220    24.8280     2.2660 
  168.5000   -16.8150    80.9640    24.7290    23.1460    23.9180    24.8010     2.2650 
  168.6250   -16.8420    80.6360    24.6070    22.7210    21.6120    24.8200     2.2700 
  168.7500   -16.7340    81.8310    25.7160    23.4120    21.7510    24.8240     2.2800 
  168.8750   -16.6130    82.9230    28.2940    25.5620    24.8730    24.7770     2.2930 
  169.0000   -16.5100    82.2630    32.3050    29.3660    30.0290    24.7260     2.3040 
  169.1250   -16.3950    79.8870    37.1540    34.7420    37.6170    24.7150     2.3060 
  169.2500   -16.3330    76.8300    41.2460    40.0860    47.6940    24.7810     2.3020 
  169.3750   -16.3690    74.2440    43.1940    43.4420    57.8520    24.8310     2.2960 
  169.5000   -16.5350    72.4830    42.4560    43.5100    61.4090    24.8850     2.2930 
  169.6250   -16.6520    71.1090    39.7940    40.7040    52.4660    24.9790     2.2940 
  169.7500   -16.8030    71.8260    37.5450    37.6960    38.2370    25.0680     2.2950 
  169.8750   -17.0470    74.7740    37.2750    36.2590    29.0020    25.1530     2.2890 
  170.0000   -17.4000    77.1370    40.1260    37.5950    32.3840    25.2050     2.2740 
  170.1250   -17.9480    75.0520    48.6020    43.2740    48.6970    25.2350     2.2530 
  170.2500   -18.5650    71.7800    62.5420    53.2980    65.9570    25.2700     2.2320 
  170.3750   -19.1060    68.7080    80.2760    67.6020    69.0830    25.3460     2.2170 
  170.5000   -19.4980    64.3510    98.8130    84.9810    76.3300    25.4910     2.2070 
  170.6250   -19.9330    61.0880   114.5230   102.4180   124.5740    25.6320     2.2040 
  170.7500   -20.5070    60.5840   125.1500   116.4140   144.5180    25.7070     2.2050 
  170.8750   -21.1190    61.7930   128.5910   124.4930   132.3540    25.7640     2.2080 
  171.0000   -21.8580    62.7290   124.1060   124.9400   118.6160    25.7240     2.2120 
  171.1250   -23.0800    63.1170   112.1470   116.2460   117.6540    25.6000     2.2140 
  171.2500   -24.9860    63.7680    97.1040   102.1730   112.7540    25.5020     2.2140 
  171.3750   -27.6630    65.7550    82.3970    86.5840    94.1880    25.4550     2.2160 
  171.5000   -29.8580    70.0340    70.7800    73.1460    64.3100    25.4240     2.2210 
  171.6250   -30.1680    73.7420    64.6960    65.0260    51.0670    25.4110     2.2250 
  171.7500   -29.7740    74.5980    63.8360    62.2850    45.8590    25.4070     2.2270 
  171.8750   -29.1700    74.7290    68.0920    65.1210    41.7480    25.4070     2.2250 
  172.0000   -28.5190    74.6550    76.9980    73.5080    58.3950    25.4070     2.2220 
  172.1250   -27.2090    72.2450    89.6980    87.0430   110.2520    25.4070     2.2240 
  172.2500   -25.1140    69.5050   103.0810   102.0580   146.5580    25.4010     2.2320 
  172.3750   -22.3890    69.2660   114.4200   114.9800   122.2720    25.3890     2.2430 
  172.5000   -20.2270    70.1950   121.7970   123.0420   101.7220    25.3820     2.2540 
  172.6250   -19.9440    68.9530   124.6990   125.2320    97.9770    25.3960     2.2640 
  172.7500   -20.1930    67.2820   125.8800   124.8970   104.3370    25.4050     2.2730 
  172.8750   -20.4320    65.4510   127.6030   124.6390   115.8470    25.4050     2.2860 
  173.0000   -20.5320    63.4910   131.5770   126.0820   121.7720    25.3950     2.3010 
  173.1250   -20.5850    63.5680   139.6140   130.8980   114.0110    25.3560     2.3120 
  173.2500   -20.6600    65.7460   151.9210   139.8400   108.4720    25.3060     2.3120 
  173.3750   -20.7810    66.4490   168.5930   153.5660   133.5750    25.2920     2.2990 
  173.5000   -20.8930    63.3940   188.5880   171.5370   167.5480    25.3520     2.2780 
  173.6250   -21.0270    60.2170   208.3920   191.2880   190.3110    25.3690     2.2600 
  173.7500   -21.1860    60.2470   222.4180   207.7020   203.0940    25.3310     2.2480 
  173.8750   -21.4330    62.5530   225.7400   215.6810   224.4340    25.2770     2.2420 
  174.0000   -21.6530    63.9270   216.0590   211.8210   247.6030    25.2510     2.2390 
  174.1250   -21.7130    63.6940   194.0790   195.0350   220.7900    25.2620     2.2370 
  174.2500   -21.7240    64.0930   167.5340   171.8650   196.9140    25.2460     2.2400 
  174.3750   -21.6090    65.9040   141.8020   147.5420   169.1710    25.1870     2.2480 
  174.5000   -21.3660    67.7760   120.4180   126.3520   133.4510    25.1060     2.2600 
  174.6250   -20.9720    67.0670   105.5220   111.4990    97.4900    25.0900     2.2720 
  174.7500   -20.6380    65.2020    95.2880   101.7270    83.1030    25.1080     2.2810 
  174.8750   -20.2420    64.1670    87.9860    95.2510    76.2110    25.0910     2.2890 
  175.0000   -19.8350    64.2320    81.7980    89.8670    74.5910    25.0240     2.2990 
  175.1250   -19.7490    65.6500    75.3310    83.5350    76.9240    24.8790     2.3130 
  175.2500   -19.6820    66.8390    68.5220    76.0890    74.1810    24.7170     2.3260 
  175.3750   -19.6340    67.9210    62.3000    68.6540    59.8600    24.6980     2.3350 
  175.5000   -19.7970    68.9010    57.9720    62.8330    46.1650    24.7910     2.3360 
  175.6250   -19.8940    70.6520    57.2220    60.6230    41.6840    24.9410     2.3290 
  175.7500   -19.9060    72.7250    59.8940    62.1640    42.1900    25.0210     2.3180 
  175.8750   -20.0210    73.7820    65.4180    67.1510    51.0490    25.0100     2.3080 
  176.0000   -20.1020    73.4030    72.4800    74.3860    65.0850    24.9440     2.3020 
  176.1250   -20.0600    71.6140    79.0190    81.4670    86.3210    24.8690     2.3020 
  176.2500   -20.0030    68.5360    83.6160    86.0540    86.5940    24.7990     2.3050 
  176.3750   -19.9030    65.7300    86.2550    87.5750    66.1370    24.7170     2.3100 
  176.5000   -19.8280    64.6670    88.1850    87.3830    49.7410    24.6330     2.3150 
  176.6250   -19.9110    66.1600    91.8030    88.4330    50.7710    24.5480     2.3140 
  176.7500   -20.0560    66.9920    98.6830    92.9030    61.6740    24.4790     2.3050 
  176.8750   -20.2100    66.8110   109.6140   101.8310    67.9680    24.4390     2.2860 
  177.0000   -20.4320    67.2020   124.4640   115.2280    71.0780    24.4230     2.2620 
  177.1250   -20.7560    67.7450   141.7290   131.9190    87.3220    24.4150     2.2360 
  177.2500   -20.9210    66.2450   157.1710   147.8060   110.8950    24.3900     2.2170 
  177.3750   -20.9790    64.5080   166.5620   158.5010   127.4730    24.3230     2.2080 
  177.5000   -20.9740    63.8550   167.2260   160.5590   132.2090    24.2240     2.2100 
  177.6250   -20.9490    64.2080   159.2700   152.9640   128.3530    24.1000     2.2210 
  177.7500   -20.8180    64.8250   148.9290   141.8410   110.0990    23.9790     2.2340 
  177.8750   -20.6970    66.1300   140.8690   132.2720    96.9570    23.9040     2.2470 
  178.0000   -20.6130    67.5290   137.6660   127.4330    88.6370    23.8840     2.2580 
  178.1250   -20.3300    67.2100   139.7630   128.2650   100.4400    23.9820     2.2680 
  178.2500   -20.2950    67.3470   143.8730   131.4800   127.0380    24.1140     2.2750 
  178.3750   -20.4570    67.8810   147.2750   134.1360   140.0570    24.2320     2.2770 
  178.5000   -20.5190    67.4210   148.1470   134.1180   123.7600    24.3300     2.2740 
  178.6250   -20.7190    67.3490   146.2670   130.9620    92.0760    24.4090     2.2640 
