~V
VERS. 2.00: Ver 2.00
~W
STRT.M 55.0000:
STOP.M 281.0000:
STEP.M 0.1250:
NULL. -999.2500:
UWI. F11051:
~C
DEPT.M :
SP.MV :
GR.API :
RML.OHMM :
RI. :
RXO.OHMM :
CALI.CM :
DEN.GM/CC :
~A
# ...
  100.0000   -18.8950    58.7650     9.7180     6.8630     7.8550    22.5730     2.1390 
  100.1250   -18.8910    58.7990     9.6890     6.8710     7.6420    22.5810     2.1310 
  100.2500   -18.8570    59.8910     9.6270     6.8470     7.1890    22.5850     2.1200 
  100.3750   -18.8270    61.3850     9.5210     6.7810     6.8660    22.5910     2.1130 
  100.5000   -18.7690    62.9540     9.3690     6.6770     6.8280    22.5910     2.1120 
  100.6250   -18.7200    65.1080     9.1840     6.5510     6.7590    22.5960     2.1190 
  100.7500   -18.6580    67.8680     8.9800     6.4190     6.3830    22.6010     2.1280 
  100.8750   -18.5910    69.8600     8.7520     6.2870     6.0820    22.6080     2.1330 
  101.0000   -18.5340    68.9870     8.4890     6.1590     6.1260    22.6520     2.1340 
  101.1250   -18.4500    67.8140     8.1930     6.0420     6.4320    22.8070     2.1430 
  101.2500   -18.3820    70.9680     7.9510     5.9500     6.6790    22.9890     2.1660 
  101.3750   -18.3000    75.9830     7.8740     5.9010     6.6680    23.0510     2.1980 
  101.5000   -18.2490    76.8950     8.0210     5.9100     6.3780    22.9170     2.2240 
  101.6250   -18.2070    73.0920     8.3410     5.9830     6.2800    22.7470     2.2260 
  101.7500   -18.1740    71.5180     8.6400     6.0830     6.4570    22.7320     2.2110 
  101.8750   -18.1500    73.2380     8.7830     6.1670     6.6870    22.8530     2.1870 
  102.0000   -18.1170    74.2970     8.7260     6.1950     6.7880    22.9350     2.1660 
  102.1250   -18.0960    72.9740     8.5220     6.1380     6.7560    22.9510     2.1530 
  102.2500   -18.0630    73.5430     8.3240     6.0350     6.8650    22.9510     2.1460 
  102.3750   -18.0260    75.3810     8.1930     5.9250     6.6290    22.9530     2.1440 
  102.5000   -17.9730    74.5420     8.1420     5.8380     6.1030    22.9550     2.1470 
  102.6250   -17.8960    71.0770     8.1660     5.7960     5.9210    22.9590     2.1540 
  102.7500   -17.8220    67.7770     8.2240     5.7880     6.0020    22.9810     2.1590 
  102.8750   -17.7200    65.8030     8.2950     5.8060     6.2800    23.0360     2.1580 
  103.0000   -17.6400    64.9000     8.3890     5.8470     6.6200    23.1130     2.1530 
  103.1250   -17.5530    67.3850     8.5410     5.9290     6.8170    23.1920     2.1490 
  103.2500   -17.4940    71.2350     8.7480     6.0550     6.8250    23.2620     2.1550 
  103.3750   -17.4630    72.7500     8.9640     6.2110     6.7020    23.2840     2.1680 
  103.5000   -17.4410    71.4980     9.1090     6.3570     6.6820    23.2530     2.1820 
  103.6250   -17.4660    68.1520     9.0750     6.4150     6.9580    23.2260     2.1860 
  103.7500   -17.4910    64.8820     8.8770     6.3600     6.8920    23.2130     2.1830 
  103.8750   -17.5380    63.2940     8.5840     6.2150     6.7920    23.1980     2.1840 
  104.0000   -17.5650    64.4680     8.3180     6.0450     6.7180    23.1620     2.1950 
  104.1250   -17.6020    68.7990     8.2390     5.9470     6.4530    23.1120     2.2110 
  104.2500   -17.6360    69.7280     8.3960     5.9700     6.6120    23.0070     2.2160 
  104.3750   -17.6610    65.5870     8.7590     6.1130     7.0490    22.8790     2.2060 
  104.5000   -17.7020    62.0050     9.2120     6.3310     7.3990    22.8400     2.1870 
  104.6250   -17.7100    64.5280     9.5650     6.5500     7.2740    22.9310     2.1740 
  104.7500   -17.7390    67.9830     9.7010     6.7030     7.1240    23.0480     2.1720 
  104.8750   -17.7550    67.8990     9.6280     6.7670     6.8850    23.0910     2.1740 
  105.0000   -17.7770    67.3360     9.4530     6.7570     6.8070    23.0400     2.1750 
  105.1250   -17.8220    68.7490     9.3100     6.7020     6.7810    22.9370     2.1670 
  105.2500   -17.8520    66.7830     9.2240     6.6350     6.7130    22.8410     2.1520 
  105.3750   -17.8900    61.8150     9.1320     6.5580     6.6210    22.7950     2.1350 
  105.5000   -17.9080    58.5930     8.9650     6.4650     6.5960    22.8100     2.1190 
  105.6250   -17.9280    60.2200     8.6820     6.3350     6.5490    22.8660     2.1120 
  105.7500   -17.9460    63.8080     8.3440     6.1660     6.6260    22.8880     2.1170 
  105.8750   -17.9670    68.4330     8.0160     5.9660     6.6540    22.8720     2.1360 
  106.0000   -18.0080    73.4400     7.7380     5.7560     6.5270    22.8560     2.1650 
  106.1250   -18.0270    75.3930     7.5280     5.5690     6.5030    22.8550     2.1960 
  106.2500   -18.0880    74.4970     7.3680     5.4390     6.6120    22.8340     2.2230 
  106.3750   -18.1590    74.0160     7.2790     5.3930     6.6520    22.7740     2.2430 
  106.5000   -18.2600    75.2950     7.3200     5.4540     6.6360    22.7070     2.2550 
  106.6250   -18.4060    74.2280     7.5990     5.6500     6.8020    22.7090     2.2580 
  106.7500   -18.5610    69.4070     8.1110     5.9560     7.1080    22.7510     2.2470 
  106.8750   -18.7790    64.0390     8.7930     6.3480     7.7640    22.7260     2.2220 
  107.0000   -19.0260    61.3100     9.5210     6.7790     8.4450    22.6600     2.1870 
  107.1250   -19.2890    60.7800    10.1260     7.1660     9.0460    22.6260     2.1490 
  107.2500   -19.5430    59.9620    10.5110     7.4450     9.7440    22.6510     2.1210 
  107.3750   -19.7690    59.3640    10.6350     7.5860    10.2110    22.7360     2.1090 
  107.5000   -19.9620    58.3120    10.5220     7.6010     9.7000    22.8810     2.1120 
  107.6250   -20.1030    55.5160    10.2400     7.5200     9.1380    22.9910     2.1220 
  107.7500   -20.1920    53.2420     9.9390     7.4020     8.8150    22.9580     2.1290 
  107.8750   -20.2120    54.9670     9.7230     7.2750     8.6190    22.9010     2.1300 
  108.0000   -20.1720    59.7450     9.6430     7.1600     8.4800    22.9120     2.1270 
  108.1250   -20.0990    60.7810     9.6820     7.0780     8.3950    22.9800     2.1230 
  108.2500   -19.9840    58.4730     9.7390     7.0300     8.2670    23.0040     2.1210 
  108.3750   -19.8590    58.1370     9.7660     7.0110     8.1320    22.9760     2.1220 
  108.5000   -19.7160    62.5460     9.7510     7.0080     8.1840    22.9510     2.1250 
  108.6250   -19.5670    65.9190     9.7100     7.0050     8.1810    22.9460     2.1330 
  108.7500   -19.4400    65.7820     9.6690     6.9890     7.9520    22.9480     2.1420 
  108.8750   -19.2980    65.1580     9.6260     6.9560     7.6750    22.9810     2.1520 
  109.0000   -19.1940    65.1780     9.5790     6.9080     7.8020    23.0540     2.1590 
  109.1250   -19.0660    63.6340     9.5600     6.8670     8.0810    23.1120     2.1650 
  109.2500   -18.9570    62.4850     9.6270     6.8520     8.2560    23.0610     2.1700 
  109.3750   -18.8800    65.4310     9.7990     6.8740     8.0790    22.9700     2.1770 
  109.5000   -18.7990    69.8910    10.0350     6.9370     8.0070    22.9390     2.1840 
  109.6250   -18.7570    68.1350    10.2410     7.0350     8.1980    22.9400     2.1860 
  109.7500   -18.7150    62.3560    10.3380     7.1430     8.5240    22.9290     2.1820 
  109.8750   -18.6730    59.6330    10.3190     7.2400     8.6300    22.8950     2.1750 
  110.0000   -18.6250    61.8960    10.2350     7.3050     8.6120    22.8770     2.1720 
  110.1250   -18.5840    64.5420    10.1570     7.3210     8.5290    22.8970     2.1730 
  110.2500   -18.5490    65.5480    10.1140     7.3040     8.5050    22.9320     2.1750 
  110.3750   -18.5150    67.7750    10.0970     7.2790     8.5720    22.9500     2.1730 
  110.5000   -18.4930    71.9900    10.1080     7.2680     8.6410    22.9540     2.1640 
  110.6250   -18.4700    75.2410    10.1630     7.2890     8.6200    22.9610     2.1520 
  110.7500   -18.4510    74.4600    10.2630     7.3340     8.6110    22.9600     2.1430 
  110.8750   -18.4680    70.9260    10.4100     7.3960     8.6800    22.9480     2.1400 
  111.0000   -18.4710    67.7100    10.5710     7.4610     8.7730    22.9240     2.1430 
  111.1250   -18.5030    67.6150    10.6600     7.5090     8.7980    22.8860     2.1480 
