~V
VERS. 2.00: Ver 2.00
~W
STRT.M 51.0000:
STOP.M 282.0000:
STEP.M 0.1250:
NULL. -999.2500:
UWI. F11065:
~C
DEPT.M :
GR.API :
RML.OHMM :
RI. :
RXO.OHMM :
CALI.CM :
DEN.GM/CC :
SP.MV :
~A
   51.0000  -999.2500  -999.2500  -999.2500  -999.2500  -999.2500  -999.2500   187.5020 
   51.1250  -999.2500  -999.2500  -999.2500  -999.2500  -999.2500  -999.2500   188.0180 
   51.2500  -999.2500  -999.2500  -999.2500  -999.2500  -999.2500  -999.2500   188.9410 
   51.3750  -999.2500  -999.2500  -999.2500  -999.2500  -999.2500  -999.2500   190.3380 
   51.5000  -999.2500  -999.2500  -999.2500  -999.2500  -999.2500  -999.2500   192.1650 
   51.6250  -999.2500  -999.2500  -999.2500  -999.2500  -999.2500  -999.2500   194.2240 
   51.7500  -999.2500  -999.2500  -999.2500  -999.2500  -999.2500  -999.2500   196.4010 
   51.8750  -999.2500  -999.2500  -999.2500  -999.2500  -999.2500  -999.2500   198.6610 
   52.0000  -999.2500  -999.2500  -999.2500  -999.2500  -999.2500  -999.2500   200.9310 
   52.1250  -999.2500  -999.2500  -999.2500  -999.2500  -999.2500  -999.2500   202.9800 
   52.2500  -999.2500  -999.2500  -999.2500  -999.2500  -999.2500  -999.2500   204.2970 
   52.3750  -999.2500  -999.2500  -999.2500  -999.2500  -999.2500  -999.2500   204.2700 
   52.5000  -999.2500  -999.2500  -999.2500  -999.2500  -999.2500  -999.2500   202.7560 
   52.6250  -999.2500  -999.2500  -999.2500  -999.2500  -999.2500  -999.2500   199.9160 
   52.7500  -999.2500  -999.2500  -999.2500  -999.2500  -999.2500  -999.2500   196.3330 
   52.8750  -999.2500  -999.2500  -999.2500  -999.2500  -999.2500  -999.2500   192.7510 
   53.0000  -999.2500  -999.2500  -999.2500  -999.2500  -999.2500  -999.2500   189.4590 
   53.1250  -999.2500  -999.2500  -999.2500  -999.2500  -999.2500  -999.2500   186.3520 
   53.2500  -999.2500  -999.2500  -999.2500  -999.2500  -999.2500  -999.2500   183.3870 
   53.3750  -999.2500  -999.2500  -999.2500  -999.2500  -999.2500  -999.2500   180.5670 
   53.5000  -999.2500  -999.2500  -999.2500  -999.2500  -999.2500  -999.2500   178.0860 
   53.6250    43.6810     4.7810     0.5260     2.5820    26.1470  -999.2500   176.0900 
   53.7500    43.6810     4.7810     0.5260     2.5820    26.1470     0.0000   174.0600 
   53.8750    43.4090     4.7890     0.5260     2.5930    26.1560     0.0000   171.1890 
   54.0000    45.0220     4.7900     0.5210     2.7740    26.2080     0.0000   167.5870 
   54.1250    46.3710     4.6980     0.5140     2.9610    26.2470     0.0000   163.7820 
   54.2500    43.8300     4.5800     0.5150     2.8600    26.2370     0.0000   160.3500 
   54.3750    44.0420     4.4780     0.5250     2.4980    26.1410     0.0000   157.6900 
   54.5000    45.5130     4.3940     0.5180     2.1590    26.1070     0.9880   155.6190 
   54.6250    45.3310     4.3390     0.5090     1.9620    26.0700     1.9730   153.7880 
   54.7500    42.6120     4.3180     0.5020     1.8650    26.0340     1.9680   152.1020 
   54.8750    40.3170     4.3210     0.5010     1.8460    25.9860     1.9680   150.5300 
   55.0000    41.8190     4.3160     0.5020     2.0760    25.9320     1.9740   148.6100 
   55.1250    45.2630     4.2760     0.5040     2.6010    25.8800     1.9840   145.9870 
   55.2500    47.6320     4.1920     0.5090     3.3750    25.8580     1.9930   142.4860 
   55.3750    48.0780     4.0770     0.5150     3.1070    25.8830     2.0030   138.0050 
   55.5000    48.6470     3.9700     0.5190     3.2000    25.9360     2.0150   132.7050 
   55.6250    48.9530     3.8860     0.5220     3.0450    25.9730     2.0300   126.7910 
   55.7500    48.0280     3.8100     0.5210     2.3120    25.9880     2.0430   120.4160 
   55.8750    47.3310     3.6920     0.5170     2.0930    25.9900     2.0480   113.5200 
   56.0000    47.0770     3.4990     0.5110     2.0190    25.9910     2.0450   106.4780 
   56.1250    46.0430     3.2420     0.5030     2.0390    25.9910     2.0390    99.6310 
   56.2500    44.9680     2.9810     0.4910     2.0620    25.9910     2.0370    93.3050 
   56.3750    46.4400     2.8430     0.4780     2.1000    25.9900     2.0420    87.7180 
   56.5000    48.7640     2.8870     0.4700     2.0420    25.9890     2.0520    82.8620 
   56.6250    49.1530     3.1040     0.4740     1.8450    25.9860     2.0640    78.6350 
   56.7500    47.0660     3.4090     0.4980     1.6310    25.9850     2.0750    75.0820 
   56.8750    43.2850     3.6280     0.5370     1.9410    25.9950     2.0830    72.7250 
   57.0000    38.5860     3.5750     0.5520     2.1580    26.0040     2.0910    71.5100 
   57.1250    36.0390     3.1010     0.5110     2.2800    26.0000     2.1070    71.2990 
   57.2500    38.2090     2.2190     0.4040     2.3380    25.9940     2.1400    71.7350 
   57.3750    43.9340     1.1870     0.2670     2.4940    25.9900     2.2110    72.2760 
   57.5000    48.5330     0.3740     0.1570     2.7280    25.9890     2.3220    72.3020 
   57.6250    51.7180    -0.0850     0.0960     3.0110    25.9830     2.4560    71.1960 
   57.7500    55.4960    -0.2220     0.0820     3.2530    25.9690     2.5700    68.2640 
   57.8750    60.6370    -0.0440     0.1190     2.7810    25.8990     2.6030    62.8720 
   58.0000    65.4050     0.4640     0.2350     3.2520    25.7300     2.5470    55.8180 
   58.1250    67.2470     1.4660     0.4990     5.1380    25.4540     2.4280    47.6180 
   58.2500    66.1030     3.1210     1.0240     7.5130    25.1700     2.2970    38.5450 
   58.3750    65.1230     5.3350     2.0150     9.3560    24.9190     2.2020    28.9960 
   58.5000    65.4490     7.3050     3.3580     9.5370    24.7450     2.1510    19.6970 
   58.6250    66.7180     8.3190     4.7250     9.6230    24.5740     2.1300    11.3690 
   58.7500    67.1660     8.2060     5.7910     9.6390    24.3890     2.1250     4.7820 
   58.8750    67.3970     7.4580     6.4570     9.5700    24.2870     2.1260     0.4080 
   59.0000    68.3350     6.9050     6.9050     9.7280    24.2030     2.1300    -2.5110 
   59.1250    69.1490     6.8480     7.1980    10.4070    24.1190     2.1320    -4.5600 
   59.2500    69.3400     7.2370     7.3500    11.0330    24.0520     2.1340    -5.9870 
   59.3750    68.5050     7.8020     7.3410    10.7380    23.9860     2.1400    -6.8640 
   59.5000    68.4390     8.2160     7.2270    10.3740    23.9570     2.1510    -7.5620 
   59.6250    70.7520     8.3950     7.0670    10.0650    24.1370     2.1680    -8.1540 
   59.7500    74.2150     8.4450     6.9350     9.9260    24.5420     2.1840    -8.7610 
   59.8750    74.1390     8.5910     6.9090     9.8980    24.7380     2.1890    -9.3700 
   60.0000    69.4960     8.9510     6.9940     9.8290    24.5370     2.1840   -10.0500 
   60.1250    65.9640     9.5120     7.1710     9.9920    24.1200     2.1710   -10.7850 
   60.2500    66.9640    10.1560     7.3990     9.9680    23.7760     2.1570   -11.4980 
   60.3750    69.1420    10.6760     7.6100    10.0130    23.5790     2.1450   -12.1700 
   60.5000    69.0700    10.9390     7.7530     9.9280    23.4720     2.1370   -12.6330 
   60.6250    69.4100    10.9370     7.8120     9.6390    23.3920     2.1320   -12.8730 
   60.7500    71.6010    10.7710     7.8050     9.2650    23.2960     2.1310   -13.0150 
   60.8750    72.3590    10.5990     7.7640     9.2380    23.2260     2.1310   -13.1300 
   61.0000    71.3040    10.5150     7.7260     9.4000    23.1920     2.1310   -13.3050 
   61.1250    71.0460    10.5220     7.7070     9.4040    23.2430     2.1300   -13.5530 
   61.2500    71.5220    10.5870     7.7060     9.3430    23.3390     2.1290   -13.8470 
   61.3750    70.2080    10.6660     7.7070     9.6960    23.4090     2.1320   -14.1520 
   61.5000    67.4600    10.7300     7.6960    10.1970    23.3920     2.1370   -14.4480 
   61.6250    66.9010    10.7620     7.6660    10.3220    23.3250     2.1420   -14.7300 
   61.7500    68.2920    10.7360     7.6200    10.2290    23.2760     2.1450   -14.9010 
   61.8750    68.0990    10.6200     7.5720     9.7080    23.2720     2.1440   -15.0770 
   62.0000    66.8680    10.4320     7.5370     9.3090    23.3110     2.1410   -15.3020 
   62.1250    66.3190    10.2050     7.5150     9.4340    23.4010     2.1400   -15.5730 
