~V
VERS. 2.00: Ver 2.00
~W
STRT.M 58.0000:
STOP.M 271.0000:
STEP.M 0.1250:
NULL. -999.2500:
UWI. F11072:
~C
DEPT.M :
DEN.GM/CC :
GR.API :
RML.OHMM :
RI. :
RXO.OHMM :
CALI.CM :
SP.MV :
~A
# ...
  193.0000     2.2750    55.1570   129.9650   123.8200    66.7580    23.8120   -20.4370 
  193.1250     2.2790    56.7580   135.7180   128.7330    65.5350    23.8190   -20.2710 
  193.2500     2.2810    58.8780   140.7700   132.9790    64.6920    23.7980   -20.0970 
  193.3750     2.2780    62.0220   144.6600   136.1840    63.6920    23.7670   -19.9230 
  193.5000     2.2680    63.1580   146.9040   137.9540    64.3500    23.7470   -19.7490 
  193.6250     2.2500    60.3000   146.6280   137.5230    68.8550    23.7520   -19.5810 
  193.7500     2.2320    57.3830   143.8680   134.8760    78.2700    23.8670   -19.4240 
  193.8750     2.2170    57.8450   138.7400   130.0430    90.8480    24.1350   -19.2770 
  194.0000     2.2120    58.5150   131.9110   123.5370   102.4080    24.4950   -19.1380 
  194.1250     2.2190    55.0430   124.7530   116.5010   108.0100    24.8280   -19.0120 
  194.2500     2.2320    52.6250   118.9050   110.4660   106.2100    25.0080   -18.8930 
  194.3750     2.2480    54.9260   115.3830   106.4260   100.5220    25.0410   -18.7790 
  194.5000     2.2600    59.8980   114.5960   104.8470    96.4230    25.0440   -18.6650 
  194.6250     2.2650    60.8940   116.5640   105.8740    98.9120    25.0760   -18.5500 
  194.7500     2.2630    57.9120   119.7480   108.1940   104.5940    25.0690   -18.4350 
  194.8750     2.2580    55.7760   122.6910   110.5470   108.7910    25.0600   -18.3250 
  195.0000     2.2530    56.5480   123.9180   111.6110   107.6320    25.0400   -18.2230 
  195.1250     2.2500    57.4040   121.9060   109.9780   102.0570    24.9560   -18.1330 
  195.2500     2.2500    56.2220   117.1850   105.9600    98.2150    24.8660   -18.0530 
  195.3750     2.2530    54.4200   110.8370   100.3880    97.1830    24.7830   -17.9740 
  195.5000     2.2590    53.1830   104.4560    94.5970    93.9740    24.6550   -17.8990 
  195.6250     2.2670    53.7780   100.0150    90.3220    91.1140    24.5200   -17.8210 
  195.7500     2.2750    56.7560    98.1740    88.2950    87.8140    24.4160   -17.7360 
  195.8750     2.2800    58.9290    98.8290    88.5770    85.8480    24.3580   -17.6400 
  196.0000     2.2800    55.7870   101.0440    90.4860    85.8610    24.3490   -17.5290 
  196.1250     2.2750    50.5610   102.9340    92.5070    93.7510    24.3280   -17.4030 
  196.2500     2.2710    49.6090   102.5720    92.8370   111.0910    24.3140   -17.2710 
  196.3750     2.2730    52.5860    98.8840    90.3540   124.4300    24.3180   -17.1430 
  196.5000     2.2820    54.5360    91.9460    84.8930   118.7860    24.2890   -17.0240 
  196.6250     2.2960    54.6520    82.9180    77.2150    97.9390    24.2480   -16.9250 
  196.7500     2.3080    55.5280    73.9510    69.2520    80.4350    24.2120   -16.8530 
  196.8750     2.3150    56.4490    66.0480    62.0140    67.1290    24.1310   -16.8090 
  197.0000     2.3210    57.7770    59.3750    55.8010    55.5140    24.0330   -16.7880 
  197.1250     2.3300    58.7200    53.7170    50.5420    47.7140    23.9930   -16.7850 
  197.2500     2.3430    57.6760    48.6750    45.9080    44.7660    23.9760   -16.7890 
  197.3750     2.3530    55.0440    44.3720    41.9750    45.2380    24.0240   -16.7860 
  197.5000     2.3530    52.9220    41.1180    38.9610    43.6290    24.1550   -16.7730 
  197.6250     2.3380    54.8480    39.4320    37.2720    37.8830    24.4140   -16.7480 
  197.7500     2.3170    59.4010    39.1010    36.7570    34.9670    24.6900   -16.7080 
  197.8750     2.2980    62.8490    39.8450    37.2390    36.9980    24.8320   -16.6570 
  198.0000     2.2890    63.4950    41.2190    38.3930    41.5490    24.8580   -16.5990 
  198.1250     2.2910    63.8640    42.7100    39.8010    45.1080    24.8840   -16.5490 
  198.2500     2.2970    66.4070    43.9200    41.0250    46.6860    24.9040   -16.5140 
  198.3750     2.3020    68.0250    44.7300    41.8820    47.1000    24.9040   -16.4990 
  198.5000     2.3020    64.9840    45.2030    42.3800    47.1190    24.9380   -16.4980 
  198.6250     2.2950    59.9030    45.4800    42.6300    47.3030    24.9900   -16.5060 
  198.7500     2.2880    57.2820    45.7000    42.7900    47.6230    25.0180   -16.5110 
  198.8750     2.2840    56.8560    45.8840    42.8940    48.4880    25.0410   -16.5190 
  199.0000     2.2860    57.0740    46.0250    42.9410    49.9920    25.0190   -16.5330 
  199.1250     2.2880    57.2980    46.1030    42.9140    50.5540    24.9190   -16.5530 
  199.2500     2.2850    58.5880    46.1020    42.8080    49.9020    24.7600   -16.5710 
  199.3750     2.2790    61.6780    45.9590    42.5740    49.4080    24.5690   -16.5840 
  199.5000     2.2730    65.3730    45.5590    42.1210    49.9840    24.4590   -16.5870 
  199.6250     2.2740    65.9590    44.6780    41.2640    50.9420    24.4860   -16.5790 
  199.7500     2.2840    63.5040    43.3180    39.9960    50.7840    24.5450   -16.5700 
  199.8750     2.2990    62.9910    41.6110    38.4070    49.1160    24.5480   -16.5610 
  200.0000     2.3140    66.7020    39.9240    36.7830    46.4250    24.4340   -16.5450 
  200.1250     2.3220    71.2470    39.0640    35.7530    43.0050    24.3000   -16.5160 
  200.2500     2.3240    72.4320    39.7250    35.8880    39.6190    24.2330   -16.4840 
  200.3750     2.3190    68.6950    42.5390    37.7430    38.0630    24.2230   -16.4490 
  200.5000     2.3080    62.6940    47.8580    41.7340    39.4460    24.2260   -16.4230 
  200.6250     2.2920    59.8200    55.6590    48.1720    46.1810    24.3080   -16.4180 
  200.7500     2.2720    60.3500    64.0220    55.6570    58.6430    24.4790   -16.4260 
  200.8750     2.2540    59.0040    70.6420    62.2640    74.8440    24.6020   -16.4380 
  201.0000     2.2430    53.3400    73.0970    65.6570    90.1550    24.6500   -16.4570 
  201.1250     2.2450    50.0660    69.0990    63.2380   102.3650    24.6470   -16.4950 
  201.2500     2.2590    52.9200    60.9400    56.5800   101.2590    24.5920   -16.5440 
  201.3750     2.2790    58.3530    51.7590    48.4680    81.1830    24.5080   -16.6070 
  201.5000     2.2970    61.8850    44.4580    41.6660    54.7220    24.3720   -16.6770 
  201.6250     2.3030    63.2710    40.9250    37.9600    42.8820    24.2030   -16.7520 
  201.7500     2.2990    67.1150    40.3930    36.8230    43.5740    24.0770   -16.8300 
  201.8750     2.2900    71.9140    42.1120    37.7310    50.0630    24.0040   -16.9190 
  202.0000     2.2830    70.1270    45.2630    40.1030    55.8080    23.9650   -17.0210 
  202.1250     2.2790    60.7040    49.1300    43.4220    54.7310    23.9670   -17.1320 
  202.2500     2.2790    53.8400    53.0300    46.9770    51.8580    23.9030   -17.2490 
  202.3750     2.2810    53.3950    56.7100    50.4190    50.3480    23.7950   -17.3790 
  202.5000     2.2830    54.1980    60.1190    53.5960    51.0080    23.7280   -17.5250 
  202.6250     2.2860    54.4230    63.2690    56.4520    53.7810    23.6680   -17.6800 
  202.7500     2.2890    56.2490    66.2190    59.0500    57.6920    23.6520   -17.8450 
  202.8750     2.2900    57.7430    68.9460    61.3720    60.1040    23.7170   -18.0130 
  203.0000     2.2900    57.6650    71.4220    63.3940    60.1070    23.7610   -18.1730 
  203.1250     2.2870    57.9390    73.5710    65.0560    60.7040    23.7460   -18.3230 
  203.2500     2.2840    57.9420    75.3320    66.3690    63.8320    23.7270   -18.4650 
  203.3750     2.2840    56.9540    76.5120    67.2190    66.9070    23.6930   -18.5960 
  203.5000     2.2910    57.6140    76.9020    67.4560    67.6710    23.6430   -18.7130 
  203.6250     2.3040    60.7940    76.2900    66.8940    66.8860    23.6310   -18.8180 
  203.7500     2.3150    61.9080    75.0870    65.8250    65.9120    23.6090   -18.9100 
  203.8750     2.3170    61.2160    73.8100    64.6540    64.3330    23.5510   -18.9970 
  204.0000     2.3080    61.9400    73.0720    63.8900    62.3970    23.4460   -19.0870 
  204.1250     2.2880    64.2760    73.6120    64.1850    58.7040    23.2630   -19.1820 
