~V
VERS. 2.00: Ver 2.00
~W
STRT.M 52.0000:
STOP.M 282.0000:
STEP.M 0.1250:
NULL. -999.2500:
UWI. F11052:
~C
DEPT.M :
SP.MV :
GR.API :
RML.OHMM :
RI. :
RXO.OHMM :
CALI.CM :
DEN.GM/CC :
~A
# ...
  265.7500    -3.6610    58.6990     8.0320     7.2000     8.6250    25.9910     2.4870 
  265.8750    -3.7750    58.6510     8.2350     7.3480     8.4620    26.0050     2.4810 
  266.0000    -3.9720    58.5780     8.4340     7.5210     9.2080    25.9950     2.4780 
  266.1250    -4.2110    55.5210     8.6140     7.7080     9.3980    25.9290     2.4830 
  266.2500    -4.4190    52.5910     8.7630     7.8820     8.8490    25.8250     2.4910 
  266.3750    -4.6460    54.0650     8.8780     8.0390     7.8030    25.7530     2.5000 
  266.5000    -4.8660    58.5080     8.9820     8.1960     7.4160    25.7130     2.5080 
  266.6250    -4.9850    61.0510     9.1250     8.3840     8.1150    25.6900     2.5190 
  266.7500    -5.0790    60.9810     9.3220     8.5960     8.9370    25.6750     2.5310 
  266.8750    -5.2370    59.8080     9.5420     8.8000     9.2820    25.6650     2.5430 
  267.0000    -5.3220    58.7810     9.7180     8.9450     9.2800    25.6710     2.5490 
  267.1250    -5.3040    57.7110     9.7500     8.9630     9.8730    25.6660     2.5450 
  267.2500    -5.3470    57.7080     9.6300     8.8610    10.6030    25.6350     2.5370 
  267.3750    -5.3670    59.5290     9.3920     8.6700    10.6820    25.5850     2.5280 
  267.5000    -5.3470    61.6650     9.1050     8.4400    10.1970    25.5420     2.5240 
  267.6250    -5.3880    61.1410     8.8530     8.2320     9.9600    25.5580     2.5240 
  267.7500    -5.4050    58.0130     8.6790     8.0930     9.9990    25.5800     2.5220 
  267.8750    -5.3480    55.8490     8.5970     8.0450    10.4700    25.5950     2.5160 
  268.0000    -5.3410    57.6270     8.6060     8.0910    11.1550    25.5850     2.5040 
  268.1250    -5.3750    62.3620     8.7140     8.2170    11.0850    25.5660     2.4930 
  268.2500    -5.3870    65.5800     8.8840     8.3630    11.2580    25.4970     2.4870 
  268.3750    -5.3900    64.6540     9.0540     8.4730    12.6830    25.3870     2.4880 
  268.5000    -5.3470    61.3850     9.1320     8.5010    13.5780    25.2770     2.4930 
  268.6250    -5.2390    59.7980     9.0110     8.4100    13.6570    25.3540     2.4970 
  268.7500    -5.1830    60.2320     8.7260     8.2300    12.6550    25.4460     2.5000 
  268.8750    -5.1090    61.3750     8.3620     7.9940    11.5150    25.4430     2.5020 
  269.0000    -4.9090    60.8960     8.0230     7.7360    10.8110    25.3220     2.5030 
  269.1250    -4.6460    60.2230     7.8120     7.5010    10.4550    25.1390     2.5000 
  269.2500    -4.3730    60.8710     7.7370     7.3250     9.9220    25.0270     2.4930 
  269.3750    -4.1190    62.1260     7.7920     7.2350     9.9930    25.1660     2.4840 
  269.5000    -3.9470    62.2860     7.9540     7.2390    10.2600    25.4380     2.4760 
  269.6250    -3.8530    60.4100     8.1830     7.3310    10.3060    25.5510     2.4740 
  269.7500    -3.7440    58.7820     8.3900     7.4600    10.1400    25.5590     2.4750 
  269.8750    -3.6580    59.6160     8.4960     7.5780    10.1660    25.5380     2.4770 
  270.0000    -3.6890    62.8150     8.4430     7.6350    10.7930    25.5220     2.4760 
  270.1250    -3.7470    65.5240     8.1980     7.5740    11.0220    25.4190     2.4730 
  270.2500    -3.7720    66.0650     7.8460     7.4000     9.9530    25.2340     2.4720 
  270.3750    -3.8470    64.3930     7.4690     7.1370     8.2860    25.1040     2.4770 
  270.5000    -3.9230    60.8500     7.1520     6.8270     7.3770    25.0320     2.4850 
  270.6250    -3.9400    58.4740     6.9680     6.5300     7.2860    25.0930     2.4900 
  270.7500    -3.9540    58.6230     6.8880     6.2870     7.1360    25.2340     2.4880 
  270.8750    -3.9260    60.4110     6.8570     6.1100     6.8680    25.3910     2.4800 
  271.0000    -3.8730    60.1770     6.8110     5.9940     6.5720    25.5320     2.4720 
  271.1250    -3.8780    58.1330     6.7090     5.9290     6.2830    25.5950     2.4700 
  271.2500    -3.8980    58.7660     6.5780     5.8930     6.0420    25.6180     2.4690 
  271.3750    -3.9180    62.6680     6.4680     5.8760     5.9540    25.7090     2.4640 
  271.5000    -3.9230    63.6010     6.4210     5.8720     5.9400    25.8270     2.4520 
  271.6250    -3.8840    63.6010     6.4590     5.8800     6.0740    25.8610     2.4360 
  271.7500    -3.8330    63.6010     6.5400     5.8930     6.2680    25.8140     2.4230 
  271.8750    -3.8700    63.6010     6.6260     5.9070     6.3270    25.7380     2.4190 
  272.0000    -3.9350    63.6010     6.6890     5.9190     6.2040    25.7170     2.4240 
  272.1250    -3.9510    63.6010     6.7270     5.9250     6.1030    25.7700     2.4300 
  272.2500    -4.0030    63.6010     6.7560     5.9290     6.1030    25.8360     2.4310 
  272.3750    -4.0550    63.6010     6.7870     5.9380     6.0800    25.8460     2.4270 
  272.5000    -4.1140    63.6010     6.8160     5.9570     5.9220    25.8280     2.4200 
  272.6250    -4.2060    63.6010     6.8340     5.9820     6.0600    25.8420     2.4170 
  272.7500    -4.3200    63.6010     6.8400     6.0010     6.3310    25.8830     2.4170 
  272.8750    -4.3790    63.6010     6.8390     6.0060     6.7790    25.8860     2.4210 
  273.0000    -4.3850    63.6010     6.8350     5.9940     7.1930    25.8620     2.4270 
  273.1250    -4.4020    63.6010     6.8220     5.9710     7.8010    25.8070     2.4320 
  273.2500    -4.3570    63.6010     6.8000     5.9490     8.0510    25.7350     2.4360 
  273.3750    -4.2340    63.6010     6.7810     5.9360     7.8770    25.6610     2.4390 
  273.5000    -4.1320    63.6010     6.7880     5.9380     7.7790    25.6340     2.4400 
  273.6250    -4.0380    63.6010     6.8560     5.9690     7.7060    25.6860     2.4390 
  273.7500    -3.8800    63.6010     6.9800     6.0350     7.4920    25.7840     2.4400 
  273.8750    -3.7530    63.6010     7.1420     6.1340     7.2200    25.8710     2.4420 
  274.0000    -3.6450    63.6010     7.3190     6.2500     7.1800    25.9000     2.4480 
  274.1250    -3.5610    63.6010     7.4930     6.3550     7.4460    25.8850     2.4570 
  274.2500    -3.5280    63.6010     7.6510     6.4210     7.3430    25.8770     2.4660 
  274.3750    -3.5370    63.6010     7.7780     6.4380     7.2020    25.8760     2.4730 
  274.5000    -3.5280    63.6010     7.8570     6.4070     6.9580    25.8760     2.4770 
  274.6250    -3.5080    63.6010     7.8510     6.3350     6.5710    25.8780     2.4770 
  274.7500    -3.5310    63.6010     7.7530     6.2460     6.4330    25.8850     2.4740 
  274.8750    -3.5540    63.6010     7.5620     6.1510     6.4810    25.8840     2.4700 
  275.0000    -3.5900    63.6010     7.3040     6.0570     6.5810    25.8550     2.4670 
  275.1250    -3.5980    63.6010     7.0500     5.9710     6.5350    25.8530     2.4640 
  275.2500    -3.5590    63.6010     6.8750     5.9070     6.5830    25.9100     2.4570 
  275.3750    -3.4970    63.6010     6.8170     5.8800     6.7030    25.9690     2.4450 
  275.5000    -3.4540    63.6010     6.8600     5.8910     6.9370    25.9930     2.4310 
  275.6250    -3.4250    63.6010     6.9440     5.9230     6.8170    25.9830     2.4230 
  275.7500    -3.4230    63.6010     6.9860     5.9420     6.7270    25.9570     2.4260 
  275.8750    -3.4730    63.6010     6.9380     5.9290     6.5720    25.9280     2.4370 
  276.0000    -3.5590    63.6010     6.7920     5.8760     6.4070    25.9050     2.4520 
  276.1250    -3.6470    63.6010     6.5710     5.7890     6.3020    25.9020     2.4650 
  276.2500    -3.7690    63.6010     6.3380     5.6850     6.2680    25.9190     2.4750 
  276.3750    -3.9000    63.6010     6.1450     5.5750     6.2860    25.9360     2.4800 
  276.5000    -4.0150    63.6010     6.0270     5.4780     6.3500    25.9540     2.4800 
  276.6250    -4.1660    63.6010     5.9980     5.4160     6.4210    25.9390     2.4720 
  276.7500    -4.2490    63.6010     6.0120     5.3900     6.4220    25.9280     2.4590 
  276.8750    -4.2730    63.6010     6.0360     5.3860     6.4000    25.9140     2.4470 
