~V
VERS. 2.00: Ver 2.00
~W
STRT.M 59.0000:
STOP.M 225.0000:
STEP.M 0.1250:
NULL. -999.2500:
UWI. F11010:
~C
DEPT.M :
GR.API :
RML.OHMM :
RI. :
RXO.OHMM :
CALI.CM :
SP.MV :
DEN.GM/CC :
~A
# ...
   92.7500    65.1810     9.2370     7.7140     9.8010    24.4630   -19.1210     2.1790 
   92.8750    61.8100     9.3340     7.7840     9.9140    24.3100   -19.2640     2.1760 
   93.0000    59.8220     9.4550     7.8740     9.9790    24.2550   -19.1890     2.1760 
   93.1250    59.7900     9.5510     7.9440     9.8390    24.3870   -18.7780     2.1820 
   93.2500    60.3960     9.5890     7.9640     9.8230    24.4250   -18.1210     2.1910 
   93.3750    61.5860     9.5640     7.9250    10.0040    24.4380   -17.2740     2.1990 
   93.5000    64.0780     9.4980     7.8430     9.6410    24.4510   -16.3220     2.2020 
   93.6250    69.8880     9.4170     7.7480     8.9570    24.4960   -15.4800     2.1990 
   93.7500    74.1150     9.3270     7.6640     8.6750    24.5910   -14.8040     2.1900 
   93.8750    74.0040     9.2000     7.5870     9.0500    24.7450   -14.2600     2.1770 
   94.0000    73.4430     9.0090     7.5000     9.1940    24.9320   -13.8930     2.1590 
   94.1250    75.3560     8.7850     7.3960     9.2610    25.0610   -13.7520     2.1390 
   94.2500    75.0860     8.6680     7.3380     9.2960    25.1370   -13.7130     2.1280 
   94.3750    70.4080     8.8260     7.4460     9.2390    25.1420   -13.6690     2.1460 
   94.5000    67.3760     9.3640     7.8300     9.4630    25.0640   -13.5010     2.2030 
   94.6250    70.2410    10.2330     8.5410     9.9550    24.9750   -12.8950     2.2950 
   94.7500    72.8020    11.0280     9.3280    11.7210    24.9330   -11.8260     2.3820 
   94.8750    74.8130    11.3370     9.8150    15.4050    24.9740   -10.4140     2.4330 
   95.0000    79.7590    10.8990     9.6450    16.2860    25.0410    -8.7470     2.4320 
   95.1250    91.5870     9.7250     8.7190    13.0390    25.1050    -6.9310     2.3900 
   95.2500   102.8650     8.3770     7.5700     8.2740    25.1300    -5.1380     2.3410 
   95.3750   108.3360     7.2660     6.5700     6.0330    25.1030    -3.4980     2.3010 
   95.5000   108.0850     6.6050     5.8950     5.5870    25.0560    -2.0790     2.2770 
   95.6250   104.9820     6.4160     5.6030     5.7060    25.0190    -1.0090     2.2680 
   95.7500   104.2750     6.4230     5.5250     5.7890    24.9970    -0.2730     2.2710 
   95.8750   108.2750     6.4410     5.5210     5.8750    25.0040     0.1600     2.2830 
   96.0000   114.1880     6.3740     5.4890     5.7710    25.0070     0.3570     2.2960 
   96.1250   116.7140     6.2440     5.4120     5.1900    24.9860     0.4080     2.2910 
   96.2500   114.3010     6.1720     5.3640     4.9020    24.9470     0.3900     2.2690 
   96.3750   109.5690     6.2610     5.4180     5.1320    24.8580     0.3570     2.2420 
   96.5000   103.8170     6.5740     5.6380     5.9300    24.7350     0.3250     2.2330 
   96.6250    98.8120     7.1370     6.0830     7.1150    24.6470     0.2770     2.2640 
   96.7500    97.5710     7.8020     6.6620     7.8980    24.5880     0.2010     2.3210 
   96.8750    99.7570     8.3990     7.2380     8.1980    24.5030     0.1430     2.3770 
   97.0000   101.6850     8.7570     7.6340     9.2710    24.4300     0.1290     2.4080 
   97.1250   104.1050     8.7300     7.6690     9.0200    24.4610     0.1070     2.3970 
   97.2500   108.6380     8.4420     7.4320     7.6190    24.5080     0.0600     2.3630 
   97.3750   110.8640     8.0600     7.0710     6.5910    24.5020    -0.0170     2.3210 
   97.5000   106.4620     7.7480     6.7390     6.7080    24.4970    -0.1520     2.2850 
   97.6250    98.4180     7.6240     6.5550     7.1140    24.5940    -0.3300     2.2590 
   97.7500    95.0070     7.6400     6.5060     6.7950    24.8000    -0.4980     2.2440 
   97.8750    96.5940     7.7150     6.5420     6.3900    24.9940    -0.6660     2.2440 
   98.0000   100.5490     7.7670     6.5850     6.4130    25.1100    -0.8380     2.2560 
   98.1250   104.0770     7.7520     6.5710     6.5710    25.0400    -0.9930     2.2740 
   98.2500   102.6010     7.7120     6.5220     6.4480    24.9600    -1.1710     2.2850 
   98.3750    98.4870     7.7070     6.4810     6.1790    24.8800    -1.4370     2.2820 
   98.5000    95.9510     7.7800     6.4880     6.1310    24.7890    -1.8170     2.2640 
   98.6250    96.1990     7.9470     6.5700     6.4710    24.6320    -2.3370     2.2390 
   98.7500    94.6260     8.1520     6.6990     7.1100    24.5310    -2.9210     2.2190 
   98.8750    90.8400     8.3460     6.8380     7.7480    24.5860    -3.5300     2.2110 
   99.0000    89.0010     8.4940     6.9510     7.8830    24.7090    -4.1620     2.2120 
   99.1250    90.0570     8.5990     7.0220     7.6600    24.7650    -4.8180     2.2170 
   99.2500    90.6360     8.7100     7.0800     7.6460    24.7620    -5.4350     2.2160 
   99.3750    89.6410     8.8630     7.1570     8.1300    24.7460    -5.9790     2.2060 
   99.5000    87.0530     9.0700     7.2730     8.7200    24.7610    -6.4150     2.1910 
   99.6250    85.5700     9.3060     7.4200     9.5720    24.8720    -6.7190     2.1790 
   99.7500    86.5840     9.5150     7.5560     9.2410    24.8980    -6.9470     2.1770 
   99.8750    89.6720     9.6630     7.6530     8.9240    24.8480    -7.1710     2.1840 
  100.0000    90.5520     9.7400     7.6960     8.7450    24.7770    -7.4400     2.1930 
  100.1250    86.4350     9.7570     7.6900     8.2430    24.7420    -7.7540     2.1960 
  100.2500    80.8700     9.7570     7.6690     7.9350    24.7660    -8.1070     2.1900 
  100.3750    77.9630     9.7630     7.6530     8.2080    24.8360    -8.4150     2.1790 
  100.5000    77.1710     9.7830     7.6550     8.4780    24.8980    -8.6620     2.1690 
  100.6250    76.2330     9.8150     7.6740     8.4690    24.8930    -8.8870     2.1650 
  100.7500    75.6970     9.8470     7.7010     8.5460    24.8440    -9.1870     2.1640 
  100.8750    75.5400     9.8710     7.7240     8.7410    24.8130    -9.5370     2.1610 
  101.0000    73.4630     9.8850     7.7400     8.8780    24.7900    -9.8890     2.1560 
  101.1250    71.7700     9.8880     7.7560     8.7720    24.8120   -10.1980     2.1490 
  101.2500    74.3040     9.8870     7.7870     8.7360    24.8660   -10.4640     2.1460 
  101.3750    80.0580     9.8920     7.8380     8.7060    24.8770   -10.7450     2.1490 
  101.5000    82.3590     9.9160     7.9110     8.7170    24.7820   -11.0520     2.1600 
  101.6250    78.4280     9.9820     8.0040     9.2800    24.6930   -11.3700     2.1740 
  101.7500    73.1790    10.0850     8.1050     9.5190    24.7080   -11.6430     2.1840 
  101.8750    68.9900    10.2020     8.2020     9.3730    24.7680   -11.8570     2.1860 
  102.0000    67.4130    10.2930     8.2810     8.9930    24.8490   -11.9730     2.1780 
  102.1250    67.4740    10.2860     8.3120     8.7570    24.9350   -12.0630     2.1670 
  102.2500    66.7990    10.1570     8.2810     8.8000    24.9890   -12.1460     2.1570 
  102.3750    66.2180     9.9060     8.1820     9.1130    25.0000   -12.2290     2.1490 
  102.5000    66.2860     9.5820     8.0250     9.4760    25.0330   -12.3190     2.1400 
  102.6250    65.5080     9.3100     7.8560     9.6100    25.1500   -12.3550     2.1240 
  102.7500    64.4420     9.2220     7.7730     9.2820    25.3030   -12.3450     2.1120 
  102.8750    64.8270     9.3960     7.8590     8.7410    25.3920   -12.2270     2.1230 
  103.0000    66.0610     9.7900     8.1280     8.8060    25.3230   -11.9400     2.1730 
  103.1250    66.1450    10.1870     8.4730     9.1940    25.2290   -11.2590     2.2550 
  103.2500    67.6290    10.2870     8.6500    10.3180    25.2190   -10.1900     2.3310 
  103.3750    72.3750     9.9120     8.4640    11.9330    25.1800    -8.7970     2.3700 
  103.5000    78.3800     9.0890     7.8830    12.2390    25.0690    -7.1860     2.3640 
  103.6250    80.9800     8.0640     7.0890     7.4430    25.0700    -5.5220     2.3250 
  103.7500    82.6990     7.1960     6.3850     5.5790    25.0340    -3.8940     2.2870 
  103.8750    85.8910     6.6550     5.9100     5.2450    24.9980    -2.3940     2.2630 
