~V
VERS. 2.00: Ver 2.00
~W
STRT.M 45.0000:
STOP.M 277.0000:
STEP.M 0.1250:
NULL. -999.2500:
UWI. F11056:
~C
DEPT.M :
GR.API :
RML.OHMM :
RI. :
RXO.OHMM :
CALI.CM :
DEN.GM/CC :
SP.MV :
~A
# ...
  180.0000    75.6380    82.1690    77.5500    69.2220    26.5160     2.2520   -20.8740 
  180.1250    77.0020    81.9510    76.8380    65.8230    26.3890     2.2570   -20.9240 
  180.2500    73.9440    83.8090    78.1190    65.4020    26.2540     2.2600   -20.9330 
  180.3750    71.0730    87.7310    81.3420    69.8560    26.1710     2.2610   -20.9330 
  180.5000    71.9950    94.2160    86.9410    74.8330    26.0950     2.2640   -20.8910 
  180.6250    72.7940   103.2520    94.9070    77.8610    25.9610     2.2640   -20.7790 
  180.7500    70.8350   115.0730   105.4610    80.3730    25.7600     2.2610   -20.6670 
  180.8750    68.2070   129.1990   118.2590    86.6770    25.6280     2.2510   -20.6430 
  181.0000    67.6030   143.1610   131.3770    95.9570    25.8330     2.2350   -20.5550 
  181.1250    66.4320   152.9450   141.1530   110.8490    26.0540     2.2210   -20.4560 
  181.2500    63.7350   155.7410   144.5280   138.1880    26.1720     2.2140   -20.4690 
  181.3750    62.5770   151.5970   140.8930   152.3700    26.2260     2.2170   -20.5100 
  181.5000    65.3860   143.6010   132.9080   129.3940    26.2820     2.2280   -20.4920 
  181.6250    68.6930   136.6310   125.8850    99.4070    26.2260     2.2390   -20.5310 
  181.7500    69.7810   132.5750   122.1810    88.5810    26.0400     2.2440   -20.6380 
  181.8750    68.0130   131.0230   121.6380    91.2500    25.7670     2.2400   -20.6850 
  182.0000    63.7410   129.6450   121.9980   113.5890    25.5820     2.2290   -20.6900 
  182.1250    61.6400   125.9320   120.3390   148.5750    25.4620     2.2200   -20.6970 
  182.2500    63.6470   119.0440   115.4320   144.2620    25.3770     2.2200   -20.6410 
  182.3750    68.5230   109.7060   107.7720    99.9330    25.2810     2.2310   -20.5520 
  182.5000    71.4490    99.4630    98.8880    82.6390    25.2040     2.2490   -20.4690 
  182.6250    71.8940    89.5120    90.1360    88.9760    25.1560     2.2620   -20.3440 
  182.7500    71.6880    79.9000    81.5860    94.6560    25.1360     2.2670   -20.2230 
  182.8750    72.2320    70.4060    72.9150    87.5410    25.1110     2.2650   -20.1530 
  183.0000    73.7340    61.2270    63.9970    65.7500    25.0390     2.2610   -20.0870 
  183.1250    74.7810    52.9910    55.4350    47.8720    24.9100     2.2650   -20.0020 
  183.2500    74.4950    46.3720    48.1160    38.6690    24.7270     2.2820   -19.9490 
  183.3750    74.7890    41.7790    42.7640    33.4260    24.5610     2.3100   -19.8940 
  183.5000    75.6830    39.6460    40.0900    31.0590    24.5120     2.3420   -19.8110 
  183.6250    76.3330    39.4900    39.6910    31.1140    24.5790     2.3630   -19.7610 
  183.7500    75.8070    41.1060    41.3550    33.1870    24.7870     2.3660   -19.6610 
  183.8750    73.6140    44.1270    44.6350    36.7040    25.0660     2.3480   -19.4770 
  184.0000    70.9730    47.7950    48.6780    43.5650    25.3220     2.3170   -19.3510 
  184.1250    70.3660    50.7220    52.0130    49.6720    25.5110     2.2890   -19.2470 
  184.2500    72.4350    51.8210    53.4560    51.2620    25.7050     2.2740   -19.0840 
  184.3750    74.7910    50.6780    52.4120    44.4180    25.8560     2.2730   -18.9750 
  184.5000    73.4880    47.7490    49.1660    39.2520    25.8750     2.2860   -19.0110 
  184.6250    71.5780    44.6720    45.4980    37.3500    25.7580     2.3050   -19.0270 
  184.7500    71.4450    42.5410    42.6550    34.1710    25.4590     2.3220   -19.0690 
  184.8750    72.7070    42.0570    41.4910    29.8610    25.0360     2.3340   -19.2530 
  185.0000    74.3130    43.9980    42.9240    30.3080    24.7280     2.3350   -19.5070 
  185.1250    75.1300    48.2200    46.8060    37.6710    24.6720     2.3280   -19.7580 
  185.2500    73.9150    54.5620    52.8660    49.0690    24.7720     2.3150   -20.0490 
  185.3750    71.3800    62.2870    60.1970    54.8910    24.9560     2.3020   -20.3650 
  185.5000    70.3570    69.8470    67.0260    56.3290    25.1750     2.2910   -20.6200 
  185.6250    69.8670    75.8720    72.0260    63.9600    25.3410     2.2830   -20.8300 
  185.7500    68.6110    80.1250    75.1530    68.4000    25.3450     2.2740   -21.0130 
  185.8750    68.3660    83.3510    77.3070    58.9990    25.2320     2.2610   -21.1930 
  186.0000    68.9150    86.7110    79.6730    51.7690    25.1650     2.2430   -21.3850 
  186.1250    67.3850    90.6330    82.6100    64.5430    25.2190     2.2280   -21.5490 
  186.2500    64.3510    94.7520    85.6860    97.6190    25.3580     2.2210   -21.7000 
  186.3750    61.1240    98.5420    88.3220   113.2620    25.5660     2.2260   -21.8330 
  186.5000    57.8570   101.9750    90.5450    82.6700    25.6470     2.2390   -21.9360 
  186.6250    56.3180   106.1360    93.5290    64.2690    25.6290     2.2490   -22.0240 
  186.7500    58.1000   112.6290    98.8490    60.3870    25.5810     2.2480   -22.1070 
  186.8750    61.2260   123.1230   108.0700    66.7540    25.6130     2.2380   -22.1230 
  187.0000    61.2530   139.1110   122.4790    84.2260    25.6800     2.2210   -22.0070 
  187.1250    58.0760   157.9120   139.4620   107.3600    25.7120     2.2020   -21.9000 
  187.2500    55.3290   175.3850   155.3550   125.9790    25.7110     2.1850   -21.8240 
  187.3750    55.9530   186.5720   166.2650   135.0320    25.6930     2.1700   -21.6940 
  187.5000    60.2100   185.7160   168.1340   138.4270    25.6760     2.1600   -21.5640 
  187.6250    63.0160   173.8900   161.3610   137.2110    25.6440     2.1560   -21.5430 
  187.7500    62.1180   153.7890   146.7380   129.7860    25.6300     2.1610   -21.5220 
  187.8750    59.5090   130.1140   126.8150   121.5510    25.6110     2.1770   -21.4590 
  188.0000    59.1590   108.6630   106.1050   111.7690    25.5660     2.2060   -21.4980 
  188.1250    63.0960    92.4780    89.0470    81.6560    25.4600     2.2400   -21.5980 
  188.2500    68.7860    82.2580    77.6020    53.4930    25.2300     2.2730   -21.6660 
  188.3750    71.6670    77.5700    72.0540    42.0660    24.8230     2.2960   -21.7370 
  188.5000    68.6930    78.2760    72.3860    39.8630    24.4700     2.3000   -21.8150 
  188.6250    65.2560    82.4370    76.3610    44.8910    24.2580     2.2910   -21.8760 
  188.7500    66.4330    88.4670    82.2820    46.1360    24.2450     2.2780   -21.9180 
  188.8750    71.7150    94.2330    87.9650    48.4840    24.4510     2.2670   -21.9120 
  189.0000    74.8310    97.1800    90.7310    61.7710    24.9390     2.2610   -21.8760 
  189.1250    72.9070    97.0540    90.2700    77.3590    25.4760     2.2540   -21.8480 
  189.2500    68.7030    94.7730    87.5180    79.6480    25.7790     2.2450   -21.8170 
  189.3750    65.7140    91.8190    83.9460    67.4740    25.8130     2.2340   -21.7790 
  189.5000    65.3150    89.7200    81.0620    54.2680    25.5520     2.2260   -21.7760 
  189.6250    66.5890    89.2030    79.6900    54.6760    25.2130     2.2240   -21.7340 
  189.7500    68.2640    90.6900    80.3180    60.0200    24.9870     2.2280   -21.6640 
  189.8750    69.1660    94.4500    83.2200    60.1310    24.8620     2.2330   -21.6640 
  190.0000    67.5600   100.9900    88.8610    55.9010    24.7550     2.2370   -21.6600 
  190.1250    64.5200   109.6590    96.5890    58.2880    24.5990     2.2370   -21.5490 
  190.2500    61.9910   119.5860   105.6240    68.6200    24.4760     2.2320   -21.4210 
  190.3750    61.3050   128.9040   114.4560    81.4900    24.4750     2.2250   -21.3200 
  190.5000    60.9710   133.5280   119.9510    91.4400    24.6810     2.2190   -21.1290 
  190.6250    60.7690   130.9490   119.7310    95.1760    24.9940     2.2180   -20.9360 
  190.7500    62.0460   120.7210   112.6900    91.3500    25.3190     2.2230   -20.8290 
  190.8750    65.7750   105.2440   100.1020    80.8060    25.5800     2.2320   -20.7030 
  191.0000    69.8180    88.7760    85.1960    70.5500    25.7610     2.2450   -20.5640 
  191.1250    72.7030    74.7860    71.6390    57.6920    25.8560     2.2600   -20.5340 
