~V
VERS. 2.00: Ver 2.00
~W
STRT.M 55.0000:
STOP.M 236.0000:
STEP.M 0.1250:
NULL. -999.2500:
UWI. F11015:
~C
DEPT.M :
GR.API :
RML.OHMM :
RI. :
RXO.OHMM :
CALI.CM :
DEN.GM/CC :
SP.MV :
~A
# ...
  201.2500    66.1480    72.7780    75.1590    36.1530    24.0840     2.1610   -16.6230 
  201.3750    65.7520    68.1270    70.0530    31.0700    24.0800     2.1750   -16.7930 
  201.5000    62.9630    64.7380    66.2350    31.4480    24.0990     2.1820   -17.0200 
  201.6250    61.0110    61.7480    63.0140    37.2260    24.1590     2.1800   -17.1740 
  201.7500    61.7140    58.6440    59.7270    39.3560    24.2090     2.1810   -17.2640 
  201.8750    64.5710    55.8680    56.6370    34.7580    24.2270     2.1920   -17.3950 
  202.0000    68.3520    54.4560    54.6300    27.8550    24.2260     2.2080   -17.6540 
  202.1250    69.1350    56.1870    55.3790    26.1970    24.2430     2.2160   -18.0490 
  202.2500    67.2780    61.6060    59.5990    30.5630    24.3110     2.2110   -18.4420 
  202.3750    64.4270    71.0140    67.8010    43.4420    24.4230     2.1920   -18.7510 
  202.5000    62.1970    83.8640    79.6250    70.8270    24.5020     2.1670   -18.9600 
  202.6250    61.7840    98.1720    93.2620    85.6400    24.5370     2.1500   -19.1130 
  202.7500    62.6790   110.4280   105.1600    77.0340    24.5270     2.1460   -19.3080 
  202.8750    64.9120   118.3900   112.9690    72.3490    24.4890     2.1530   -19.5170 
  203.0000    65.8000   121.8520   116.2560    72.4960    24.4210     2.1630   -19.6250 
  203.1250    64.2640   122.3240   116.2690    81.0110    24.3760     2.1700   -19.5590 
  203.2500    62.1830   122.5840   115.8130    87.6110    24.3080     2.1730   -19.3780 
  203.3750    60.6690   123.9460   116.2800    94.3140    24.2280     2.1720   -19.1550 
  203.5000    60.1330   126.9670   118.2430    96.2650    24.2360     2.1700   -19.0210 
  203.6250    59.4180   131.9880   121.9900    95.0250    24.3170     2.1720   -18.9850 
  203.7500    58.6450   138.1770   126.8320   103.9790    24.4460     2.1750   -18.8860 
  203.8750    58.1350   144.2500   131.7840   127.0890    24.5440     2.1740   -18.6770 
  204.0000    57.9080   148.2220   135.2850   147.5320    24.6070     2.1670   -18.4530 
  204.1250    56.3330   147.2670   134.8950   159.8080    24.6480     2.1600   -18.3490 
  204.2500    54.9960   141.6150   130.3720   155.8320    24.6610     2.1590   -18.3980 
  204.3750    56.2180   132.6790   122.5820   137.2380    24.6580     2.1660   -18.5520 
  204.5000    58.9250   122.7030   113.3820   108.7720    24.6510     2.1720   -18.6660 
  204.6250    59.4910   113.9980   105.0270    85.6450    24.6580     2.1690   -18.7050 
  204.7500    60.0630   107.3900    98.6270    75.6180    24.6420     2.1600   -18.7790 
  204.8750    60.7380   102.8630    94.2830    76.0510    24.5960     2.1540   -18.9660 
  205.0000    58.8130    99.9490    91.5500    79.1000    24.5620     2.1550   -19.2270 
  205.1250    55.9880    98.1620    89.9550    86.6040    24.5650     2.1610   -19.4940 
  205.2500    57.9180    96.8490    88.9060    93.3360    24.6040     2.1650   -19.7370 
  205.3750    63.8100    95.8490    88.3130    96.6190    24.6460     2.1660   -19.9200 
  205.5000    66.6800    95.2830    88.2980    99.1760    24.6530     2.1660   -20.0630 
  205.6250    62.9420    95.5010    89.1400   103.8250    24.6150     2.1680   -20.2320 
  205.7500    58.8160    96.3120    90.5170    99.0030    24.5650     2.1710   -20.4900 
  205.8750    58.4250    97.1890    91.8280   101.3180    24.5360     2.1710   -20.7940 
  206.0000    61.2770    97.2600    92.2670   107.7900    24.4980     2.1710   -21.0640 
  206.1250    63.7620    95.1100    90.6250   102.0060    24.3990     2.1740   -21.2590 
  206.2500    65.4890    90.4520    86.7000    90.4280    24.2680     2.1800   -21.3960 
  206.3750    66.3730    83.6510    80.7340    83.1860    24.1830     2.1850   -21.5610 
  206.5000    65.9440    75.8200    73.5710    78.0310    24.1310     2.1900   -21.8450 
  206.6250    65.2110    68.5270    66.4990    69.5510    24.1170     2.1920   -22.2300 
  206.7500    65.2770    62.8310    60.6350    59.3720    24.1180     2.1930   -22.5490 
  206.8750    66.6580    59.3360    56.6980    52.4440    24.1130     2.1920   -22.7450 
  207.0000    68.5100    58.4310    55.1770    50.9210    24.0250     2.1910   -22.9370 
  207.1250    68.7680    60.9890    56.8880    53.3840    23.7540     2.1960   -23.2310 
  207.2500    67.2120    66.8260    61.6240    56.4590    23.4250     2.2060   -23.6290 
  207.3750    65.4430    75.9480    69.4590    64.1810    23.2590     2.2130   -24.0780 
  207.5000    66.1400    87.8040    80.0440    78.8540    23.3020     2.2090   -24.4680 
  207.6250    69.6250   100.6200    92.1080   102.7210    23.5560     2.1960   -24.7410 
  207.7500    71.1790   110.9360   102.6830   121.6120    23.8510     2.1870   -24.9870 
  207.8750    69.1030   115.7570   108.9670   119.4800    23.9980     2.1900   -25.3060 
  208.0000    65.0440   114.3800   109.6030    97.7910    24.0020     2.2060   -25.6830 
  208.1250    62.9860   109.6940   105.9520    98.3940    24.0060     2.2290   -26.0470 
  208.2500    62.8910   106.5180   102.5070    92.4490    24.0810     2.2550   -26.3290 
  208.3750    62.8620   105.5840   100.8400    95.9440    24.1470     2.2890   -26.4970 
  208.5000    62.7810   103.0000    98.4120    94.4550    24.1120     2.3430   -26.5980 
  208.6250    62.5900    89.7110    87.1920   109.9000    24.0300     2.4300   -26.7120 
  208.7500    61.5600    66.7130    66.4830   149.5400    23.9840     2.5270   -26.9030 
  208.8750    60.0490    42.7280    43.5620   108.8020    23.9910     2.5920   -27.1160 
  209.0000    60.0390    25.0050    25.9230    36.1970    23.9750     2.5950   -27.2750 
  209.1250    61.5280    15.5160    16.2350    13.5640    23.9860     2.5360   -27.3150 
  209.2500    60.6020    10.6490    11.1470     8.4450    24.0170     2.4650   -27.2780 
  209.3750    55.0850     8.3900     8.6380     8.1160    24.0140     2.4030   -27.2180 
  209.5000    47.9010     7.4300     7.4240     8.7050    23.9260     2.3580   -27.1830 
  209.6250    45.0260     7.0020     6.8390     8.5730    23.7910     2.3330   -27.1450 
  209.7500    49.1120     6.5960     6.3920     7.6410    23.6270     2.3240   -26.9750 
  209.8750    58.8950     6.1180     5.9460     6.3370    23.4280     2.3250   -26.6270 
  210.0000    71.1990     5.6830     5.5480     5.1950    23.3250     2.3320   -26.1880 
  210.1250    80.7310     5.5190     5.3730     5.1940    23.3430     2.3410   -25.7620 
  210.2500    85.4540     5.6680     5.4790     6.1520    23.3570     2.3520   -25.3850 
  210.3750    87.1740     6.0690     5.8510     7.1800    23.3510     2.3660   -25.0590 
  210.5000    88.4950     6.5990     6.4010     7.7890    23.3660     2.3800   -24.7590 
  210.6250    90.2000     7.0930     6.9620     8.1180    23.4740     2.3880   -24.4660 
  210.7500    92.8810     7.4380     7.3530     8.3500    23.6900     2.3870   -24.2010 
  210.8750    96.7810     7.6110     7.5060     8.3900    23.9480     2.3780   -23.9810 
  211.0000    99.8170     7.6610     7.4590     8.4260    24.1320     2.3670   -23.7890 
  211.1250   102.1710     7.6600     7.2970     8.4130    24.2050     2.3590   -23.5930 
  211.2500   105.0540     7.6640     7.1190     8.4100    24.2170     2.3550   -23.4130 
  211.3750   107.7760     7.6890     6.9590     8.4100    24.2040     2.3590   -23.2420 
  211.5000   108.6970     7.7350     6.8240     8.5440    24.1720     2.3670   -23.0250 
  211.6250   107.0640     7.7850     6.7030     8.6930    24.1390     2.3800   -22.7310 
  211.7500   103.2320     7.8420     6.5910     8.6320    24.1190     2.3930   -22.4300 
  211.8750    97.8770     7.9640     6.5260     8.5280    24.1350     2.4000   -22.2120 
  212.0000    95.6740     8.2800     6.5930     8.5390    24.1470     2.3960   -22.0730 
  212.1250    98.7650     9.0250     6.9580     8.9240    24.1340     2.3800   -21.9540 
  212.2500   102.3700    10.2790     7.6970    10.2750    24.1070     2.3580   -21.7710 
  212.3750   103.1340    12.1000     8.8850    13.2470    24.0980     2.3330   -21.4680 
