~V
VERS. 2.00: Ver 2.00
~W
STRT.M 62.0000:
STOP.M 218.0000:
STEP.M 0.1250:
NULL. -999.2500:
UWI. F11008:
~C
DEPT.M :
DEN.GM/CC :
GR.API :
RML.OHMM :
RI. :
RXO.OHMM :
CALI.CM :
SP.MV :
~A
# ...
  163.2500     2.2390    69.9270    58.0990    51.8160    45.8990    31.0880   -13.0010 
  163.3750     2.2350    72.9960    58.3510    51.4320    46.7500    31.0230   -12.9870 
  163.5000     2.2320    75.3170    58.8290    51.3110    49.4030    31.0460   -13.0130 
  163.6250     2.2310    74.7500    59.6870    51.6500    55.4440    31.0910   -12.9890 
  163.7500     2.2330    72.3660    60.9470    52.4770    59.6960    31.0260   -12.9430 
  163.8750     2.2360    71.7500    62.6250    53.8240    59.7550    30.8490   -12.9710 
  164.0000     2.2390    73.0390    64.6350    55.6250    60.4070    30.6480   -13.0500 
  164.1250     2.2380    73.5560    66.7210    57.6790    70.5470    30.5420   -13.1140 
  164.2500     2.2360    72.5500    68.4610    59.5650    78.8390    30.5520   -13.2120 
  164.3750     2.2340    72.8500    69.4740    60.8910    79.4340    30.5840   -13.3510 
  164.5000     2.2360    75.6720    69.4960    61.3420    73.8080    30.5250   -13.4890 
  164.6250     2.2430    77.7860    68.3530    60.6860    68.7970    30.4330   -13.6480 
  164.7500     2.2530    77.9340    66.4990    59.3600    63.7260    30.4360   -13.8310 
  164.8750     2.2640    76.8050    64.3030    57.7670    54.8400    30.5120   -13.9960 
  165.0000     2.2690    75.0940    62.0950    56.2340    46.0520    30.5210   -14.1120 
  165.1250     2.2650    74.6990    60.1540    54.9460    57.8420    30.4410   -14.1750 
  165.2500     2.2570    76.1110    58.6090    53.9150    70.9130    30.3960   -14.2650 
  165.3750     2.2500    77.8340    57.6050    53.2530    62.6850    30.3690   -14.4000 
  165.5000     2.2510    79.1970    57.2440    53.1440    47.7270    30.3480   -14.5210 
  165.6250     2.2570    80.5330    57.5210    53.8000    42.3530    30.2140   -14.6000 
  165.7500     2.2630    80.3620    57.8760    54.8240    51.2640    30.1810   -14.7040 
  165.8750     2.2620    76.3720    57.6220    55.4870    64.5520    30.2690   -14.7850 
  166.0000     2.2580    71.3980    56.1100    54.8520    62.2800    30.3230   -14.7770 
  166.1250     2.2580    72.0250    52.9520    52.0200    52.5580    30.2510   -14.8060 
  166.2500     2.2690    75.8010    49.1510    47.8230    49.6680    30.0940   -14.8750 
  166.3750     2.2880    78.3590    46.0830    43.5980    44.8710    29.9560   -14.8660 
  166.5000     2.3070    79.9630    45.3820    40.9790    38.2730    29.8720   -14.8140 
  166.6250     2.3090    83.3430    49.4850    42.3030    38.7710    29.8770   -14.8350 
  166.7500     2.2940    84.5520    59.0960    48.6560    45.6600    29.9440   -14.9210 
  166.8750     2.2660    78.8560    74.8860    61.3080    52.8300    29.9070   -15.0340 
  167.0000     2.2360    69.3270    96.5310    80.7530    93.2500    29.6800   -15.2110 
  167.1250     2.2150    64.3440   122.0540   105.7700   179.4790    29.5250   -15.4810 
  167.2500     2.2040    64.2150   146.3200   130.4170   233.3360    29.4750   -15.7450 
  167.3750     2.1990    66.3030   165.1970   149.4970   242.8560    29.4830   -15.9770 
  167.5000     2.1970    68.8210   176.5670   160.3400   224.6680    29.4690   -16.2240 
  167.6250     2.1980    70.3260   180.4610   163.4460   205.3240    29.3850   -16.4730 
  167.7500     2.2020    69.9310   180.9240   163.6830   200.4440    29.3040   -16.6420 
  167.8750     2.2100    68.8590   180.0280   163.3320   198.3860    29.2060   -16.7560 
  168.0000     2.2200    70.3970   178.4290   162.9450   199.2100    29.1480   -16.9200 
  168.1250     2.2280    72.4600   175.4100   161.8390   185.7240    29.1630   -17.0340 
  168.2500     2.2300    70.8490   170.3430   159.3110   183.0270    29.2580   -17.0480 
  168.3750     2.2250    66.5500   162.6730   154.7500   180.9690    29.3700   -17.0840 
  168.5000     2.2130    64.3580   152.0800   147.5710   173.2930    29.3960   -17.1700 
  168.6250     2.2010    68.4690   138.1470   136.7050   164.2940    29.3490   -17.2080 
  168.7500     2.1930    72.6950   122.1090   122.7650   154.1990    29.1760   -17.2520 
  168.8750     2.1960    73.9050   105.3900   106.8810   125.8680    28.9180   -17.4160 
  169.0000     2.2100    74.3890    89.8890    91.0660    88.7160    28.6520   -17.5910 
  169.1250     2.2310    77.6700    78.2930    78.2870    65.9120    28.3530   -17.6920 
  169.2500     2.2480    80.9730    71.5430    69.9770    48.9570    28.0880   -17.8660 
  169.3750     2.2570    80.1210    70.2160    66.9490    40.6130    27.9990   -18.0760 
  169.5000     2.2540    76.2050    74.2940    69.4660    41.3350    28.2240   -18.1950 
  169.6250     2.2410    74.1870    83.7500    78.0790    50.9470    28.4760   -18.3110 
  169.7500     2.2250    75.7540    96.0250    90.5760    59.8340    28.5950   -18.4820 
  169.8750     2.2130    80.6000   108.6220   104.4620    68.4180    28.5650   -18.5290 
  170.0000     2.2090    83.2290   118.7000   116.3540    78.4760    28.4770   -18.4640 
  170.1250     2.2140    79.3970   123.1500   122.1310   100.4370    28.4090   -18.5170 
  170.2500     2.2230    73.5310   122.5650   121.8760   120.9150    28.2200   -18.6070 
  170.3750     2.2310    70.4960   118.5810   117.2850   125.8460    27.9160   -18.6240 
  170.5000     2.2320    71.5130   113.5130   111.0200   113.0200    27.6540   -18.6470 
  170.6250     2.2230    73.0530   109.7160   105.7910   106.2660    27.2200   -18.7080 
  170.7500     2.2130    74.3630   108.0570   102.8090   105.6010    26.2630   -18.7290 
  170.8750     2.2110    75.2400   108.4870   102.2910   100.1020    24.9840   -18.7600 
  171.0000     2.2240    74.4660   110.2910   103.7640    93.1930    24.2840   -18.8060 
  171.1250     2.2460    73.3270   112.1320   106.0830   106.9180    24.2070   -18.8190 
  171.2500     2.2630    73.5620   112.6390   107.5470   115.8890    24.1410   -18.7720 
  171.3750     2.2660    75.2850   111.1520   107.1240   110.6190    23.9720   -18.6840 
  171.5000     2.2540    76.8660   107.8270   104.6220    98.0910    23.7410   -18.6350 
  171.6250     2.2370    78.4740   103.6010   100.7650    92.3980    23.6180   -18.5970 
  171.7500     2.2260    80.6840    99.9120    97.2300    83.9760    23.5940   -18.4820 
  171.8750     2.2220    80.3770    97.4160    95.0250    78.4870    23.6910   -18.4040 
  172.0000     2.2240    75.4290    95.9020    94.2800    75.8010    23.9180   -18.4270 
  172.1250     2.2270    69.9840    94.0370    93.8070    76.9120    24.2750   -18.3330 
  172.2500     2.2340    69.0890    90.2970    91.5490    76.3610    24.6080   -18.1490 
  172.3750     2.2470    71.7590    84.0170    86.2300    78.5680    25.0990   -18.0120 
  172.5000     2.2670    73.4660    75.7600    78.0010    83.4490    25.7590   -17.7680 
  172.6250     2.2940    72.3900    67.4470    68.6850    71.8350    26.0290   -17.3590 
  172.7500     2.3190    70.4600    61.2810    60.9910    50.7310    25.8500   -16.9720 
  172.8750     2.3360    70.8570    58.5700    56.5300    35.7270    25.5300   -16.5660 
  173.0000     2.3430    73.8660    59.8420    56.0240    32.6090    25.2940   -16.0710 
  173.1250     2.3390    75.1230    65.6240    60.1950    37.9640    25.2580   -15.5750 
  173.2500     2.3360    71.4710    74.7840    68.0580    55.3770    25.2260   -15.2010 
  173.3750     2.3460    65.5670    86.6330    79.0850    66.7420    25.1230   -14.8600 
  173.5000     2.3800    61.4850   100.0750    92.3350    65.4220    24.8720   -14.5270 
  173.6250     2.4450    59.8760   112.9290   105.8840    55.6660    24.4130   -14.2570 
  173.7500     2.5260    59.6790   122.3640   116.7700    52.5580    23.9040   -14.0450 
  173.8750     2.6020    61.5390   125.7810   122.1600    62.1420    23.5540   -13.8050 
  174.0000     2.6500    64.2000   121.6200   120.0300    77.7770    23.3820   -13.5140 
  174.1250     2.6460    64.6420   109.3950   109.1890    78.9810    23.2780   -13.2650 
  174.2500     2.6040    62.2920    93.2360    93.5320    64.4120    23.2000   -13.0100 
  174.3750     2.5410    61.3460    76.5850    76.5960    53.5830    23.3630   -12.7100 
