~V
VERS. 2.00: Ver 2.00
~W
STRT.M 57.0000:
STOP.M 272.0000:
STEP.M 0.1250:
NULL. -999.2500:
UWI. F11045:
~C
DEPT.M :
DEN.GM/CC :
GR.API :
RML.OHMM :
RI. :
RXO.OHMM :
CALI.CM :
SP.MV :
~A
# ...
  203.2500     2.4920    84.4800    12.9260     9.5200    11.0340    24.1660     6.3780 
  203.3750     2.4780    84.1750    12.2130     9.1490    10.8340    24.2410     6.4540 
  203.5000     2.4700    86.9700    11.3530     8.6420     8.4740    24.2810     6.5310 
  203.6250     2.4640    90.5450    10.7240     8.2170     7.4680    24.3040     6.5960 
  203.7500     2.4550    93.2020    10.5620     8.0400     7.8940    24.2970     6.6590 
  203.8750     2.4480    94.7660    10.9720     8.2200     8.3450    24.2890     6.7490 
  204.0000     2.4520    95.1910    11.9050     8.7910     8.6860    24.3010     6.8660 
  204.1250     2.4820    96.1290    13.0620     9.6500     9.3100    24.2750     7.0270 
  204.2500     2.5350    96.4050    13.8580    10.3820    11.1650    24.2040     7.2270 
  204.3750     2.6000    94.2210    13.8240    10.5780    13.4740    24.1280     7.4720 
  204.5000     2.6500    87.9920    12.8090    10.0280    15.3810    24.0720     7.7820 
  204.6250     2.6460    80.5130    11.0880     8.8410    12.5660    24.0670     8.1450 
  204.7500     2.5820    76.3400     9.3690     7.5320     8.5720    24.1890     8.5360 
  204.8750     2.4870    73.9720     8.0110     6.3880     6.2620    24.3740     8.9450 
  205.0000     2.4070    71.6970     7.1000     5.5190     5.7040    24.5210     9.3320 
  205.1250     2.3710    70.2180     6.5860     4.9690     5.5790    24.5740     9.6560 
  205.2500     2.3630    71.4810     6.2980     4.6630     5.2420    24.5870     9.9000 
  205.3750     2.3630    74.5160     6.2260     4.6060     4.9830    24.5520    10.0200 
  205.5000     2.3630    77.5570     6.4680     4.8410     4.8160    24.4870     9.9910 
  205.6250     2.3660    80.3320     7.2900     5.5070     4.8780    24.3760     9.8300 
  205.7500     2.3790    83.6490     8.6850     6.6110     5.7930    24.2990     9.6040 
  205.8750     2.4020    87.0490    10.4660     8.0970     8.1720    24.2800     9.2860 
  206.0000     2.4260    86.1840    12.1290     9.6710    11.5590    24.2910     8.8930 
  206.1250     2.4350    81.0880    12.7530    10.5980    11.7420    24.2820     8.4470 
  206.2500     2.4290    77.4540    12.1280    10.4810    10.6860    24.2790     8.0020 
  206.3750     2.4160    76.5570    10.6340     9.4820     9.3420    24.2860     7.6020 
  206.5000     2.4010    77.1820     8.9680     8.1380     7.8140    24.2820     7.2570 
  206.6250     2.3870    79.1530     7.7430     6.9850     6.1540    24.2920     7.0180 
  206.7500     2.3770    82.2430     7.0370     6.1860     5.6190    24.2910     6.8690 
  206.8750     2.3780    84.8070     6.7760     5.7280     5.5810    24.2350     6.8630 
  207.0000     2.3900    87.5750     6.8520     5.5550     5.6160    24.1050     6.9890 
  207.1250     2.4060    91.9830     7.1690     5.6130     5.7580    24.0550     7.2390 
  207.2500     2.4160    94.4650     7.5450     5.7660     5.8460    24.0170     7.5470 
  207.3750     2.4220    93.3150     7.8510     5.9290     6.1450    24.0270     7.8550 
  207.5000     2.4240    90.4520     8.0250     6.0550     6.5300    24.0890     8.1480 
  207.6250     2.4200    88.6280     8.1140     6.1610     6.7110    24.1300     8.3860 
  207.7500     2.4090    87.1210     8.3050     6.3430     6.7110    24.1360     8.5240 
  207.8750     2.3990    85.5020     8.8110     6.7210     6.8740    24.1270     8.5560 
  208.0000     2.3940    83.5210     9.8720     7.4470     7.7890    24.0880     8.5200 
  208.1250     2.3890    81.0940    11.9070     8.8230    10.3020    24.0220     8.4120 
  208.2500     2.3780    78.5500    15.0360    11.0080    13.8990    24.0000     8.2640 
  208.3750     2.3660    74.7030    19.4060    14.2170    17.9380    23.9940     8.1340 
  208.5000     2.3580    69.8210    24.9680    18.5730    19.0760    23.9680     8.0380 
  208.6250     2.3510    66.8260    31.3570    24.0340    22.7780    23.9280     7.9410 
  208.7500     2.3400    66.3460    37.5130    29.7540    26.5700    23.9440     7.8490 
  208.8750     2.3240    66.9640    42.4660    34.8340    27.4080    23.9900     7.7260 
  209.0000     2.3030    66.9270    45.5880    38.5380    27.4520    24.0510     7.5680 
  209.1250     2.2870    67.4420    46.7420    40.4290    28.5370    24.0020     7.4080 
  209.2500     2.2850    67.3950    47.0190    41.2540    27.9810    23.8480     7.2420 
  209.3750     2.2990    65.3440    47.1630    41.6400    26.2340    23.6890     7.0570 
  209.5000     2.3230    63.1820    47.6160    42.0640    24.5060    23.5970     6.8660 
  209.6250     2.3430    63.9480    48.3940    42.7000    25.5800    23.5930     6.7440 
  209.7500     2.3520    65.7060    49.0500    43.2940    30.0240    23.6720     6.7050 
  209.8750     2.3530    64.8730    49.1710    43.5260    33.5520    23.8250     6.7250 
  210.0000     2.3490    62.6660    48.4800    43.1400    33.2690    23.9730     6.7570 
  210.1250     2.3380    62.9140    46.8550    41.9750    32.4670    24.1080     6.7610 
  210.2500     2.3180    64.6080    44.7600    40.3720    32.0070    24.2040     6.7440 
  210.3750     2.2920    66.7770    42.6570    38.6830    32.3420    24.2580     6.6910 
  210.5000     2.2710    69.2430    41.0390    37.3040    32.2080    24.2710     6.6100 
  210.6250     2.2590    70.6100    40.5480    36.7690    31.8510    24.2490     6.5280 
  210.7500     2.2550    69.6860    41.3470    37.2640    31.8760    24.2230     6.4510 
  210.8750     2.2570    68.3930    43.5550    38.9520    34.6800    24.2270     6.3570 
  211.0000     2.2620    68.1900    47.1360    41.9040    39.9370    24.2630     6.2620 
  211.1250     2.2640    67.5630    57.1720    46.2090    47.6190    24.3170     6.1950 
  211.2500     2.2590    66.3860    63.0790    51.2800    53.1560    24.3630     6.1400 
  211.3750     2.2500    66.7010    68.9710    56.5900    54.6990    24.3640     6.0940 
  211.5000     2.2410    67.4000    74.3090    61.6000    54.7840    24.3410     6.0240 
  211.6250     2.2330    64.7570    78.3380    65.6160    56.3180    24.3200     5.8470 
  211.7500     2.2250    61.8980    80.7350    68.2730    61.0640    24.3640     5.5910 
  211.8750     2.2200    62.9220    81.3110    69.3110    71.1290    24.4220     5.3440 
  212.0000     2.2170    65.7160    80.2810    68.7870    76.4590    24.4400     5.1270 
  212.1250     2.2140    64.2280    78.2220    67.0250    74.5450    24.4720     4.9060 
  212.2500     2.2120    60.7780    76.2840    65.0790    64.4110    24.5380     4.7270 
  212.3750     2.2100    59.5840    75.2140    63.8090    58.2830    24.5940     4.5720 
  212.5000     2.2050    61.2230    75.3840    63.7980    59.3050    24.5910     4.4310 
  212.6250     2.1980    62.1840    76.9510    65.3380    63.7480    24.6100     4.2850 
  212.7500     2.1940    61.4550    79.2550    67.7490    65.4090    24.6310     4.1470 
  212.8750     2.1940    60.2190    81.5500    70.2870    67.2960    24.6350     4.0330 
  213.0000     2.1940    58.7210    82.9390    72.1140    68.5690    24.6000     3.9250 
  213.1250     2.1910    58.4250    82.4870    72.4060    70.2680    24.5980     3.8330 
  213.2500     2.1890    59.6740    80.5710    71.4630    69.7420    24.6190     3.7510 
  213.3750     2.1900    60.8300    77.9390    69.8540    64.8430    24.6240     3.7140 
  213.5000     2.1940    60.4820    75.6360    68.3260    61.8260    24.6310     3.7540 
  213.6250     2.2000    60.2740    74.9840    67.9200    57.5340    24.6120     3.8770 
  213.7500     2.2070    60.4640    76.2820    69.0830    56.7670    24.5920     3.9860 
  213.8750     2.2140    59.6380    79.2880    71.7810    61.1790    24.5610     4.0250 
  214.0000     2.2240    57.2540    83.0490    75.3270    72.8020    24.5250     3.9980 
  214.1250     2.2410    56.5490    85.7750    78.1970    88.8650    24.4940     3.9430 
  214.2500     2.2570    57.1200    86.2720    79.1870    93.4430    24.4950     3.8390 
  214.3750     2.2610    58.4270    84.5130    78.0640    85.6770    24.5220     3.7030 
