~V
VERS. 2.00: Ver 2.00
~W
STRT.M 60.0000:
STOP.M 279.0000:
STEP.M 0.1250:
NULL. -999.2500:
UWI. F11060:
~C
DEPT.M :
GR.API :
RML.OHMM :
RI. :
RXO.OHMM :
CALI.CM :
DEN.GM/CC :
SP.MV :
~A
# ...
  138.7500    66.0960    11.4130     9.9120    10.1570    24.1890     2.1580    -3.7100 
  138.8750    65.9390    11.4640     9.9240    10.3080    24.1920     2.1590    -3.5170 
  139.0000    64.3720    11.4790     9.9080    10.4110    24.1760     2.1660    -3.3210 
  139.1250    62.3340    11.4150     9.8450    10.4460    24.1260     2.1810    -3.1120 
  139.2500    61.8040    11.2680     9.7380    10.5340    24.0550     2.1970    -2.8580 
  139.3750    63.6910    11.0950     9.6290    10.5390    24.0150     2.2140    -2.5490 
  139.5000    64.8770    11.0210     9.6070    10.4660    24.0120     2.2340    -2.2430 
  139.6250    62.6880    11.2450     9.8190    10.2540    24.0230     2.2540    -1.9980 
  139.7500    60.2030    11.8280    10.3200    10.4500    24.0350     2.2710    -1.6950 
  139.8750    59.7190    12.7660    11.1350    12.1320    24.0790     2.2870    -1.3050 
  140.0000    61.1390    13.9560    12.2210    15.9480    24.2130     2.3030    -0.9150 
  140.1250    63.5230    15.1510    13.4240    17.9530    24.4200     2.3180    -0.5930 
  140.2500    64.9560    16.0030    14.4140    16.7040    24.5240     2.3300    -0.2720 
  140.3750    65.5760    16.1760    14.8240    15.5800    24.5030     2.3420     0.0770 
  140.5000    65.9780    15.4120    14.3400    15.2000    24.3990     2.3550     0.4380 
  140.6250    67.9000    13.5990    12.7950    14.4960    24.3030     2.3580     0.7620 
  140.7500    71.6140    11.2990    10.7290    12.9550    24.3540     2.3470     1.0100 
  140.8750    75.9810     8.9800     8.5970     9.9500    24.4880     2.3280     1.2540 
  141.0000    79.2140     7.0080     6.7370     6.8150    24.5010     2.3180     1.5090 
  141.1250    80.0490     5.6870     5.4210     5.6080    24.4320     2.3300     1.6700 
  141.2500    80.8470     4.9950     4.6340     5.1770    24.4320     2.3590     1.7400 
  141.3750    82.5390     4.9670     4.4030     5.2090    24.4370     2.3960     1.7820 
  141.5000    83.4160     5.6650     4.7690     5.5970    24.3900     2.4360     1.8000 
  141.6250    80.8580     7.2830     5.9210     7.5430    24.3700     2.4780     1.7490 
  141.7500    74.9360     9.5980     7.7710    11.4910    24.4020     2.5150     1.5880 
  141.8750    67.7080    12.1830    10.1060    16.4760    24.4960     2.5270     1.3540 
  142.0000    62.5280    14.1920    12.2640    21.4250    24.6320     2.4970     1.1380 
  142.1250    61.6150    14.3680    12.9540    24.4070    24.6590     2.4350     0.8900 
  142.2500    63.3340    12.9500    12.0680    20.0250    24.4840     2.3840     0.6150 
  142.3750    66.3040    10.8570    10.3460    13.3190    24.2170     2.3450     0.3400 
  142.5000    69.9390     9.0040     8.6360     8.6710    24.0230     2.3040     0.0370 
  142.6250    73.2080     7.9110     7.4470     7.0390    23.8850     2.2590    -0.3040 
  142.7500    73.9610     7.4010     6.7360     6.7210    23.7800     2.2280    -0.5930 
  142.8750    72.1220     7.3040     6.4170     7.2690    23.7100     2.2180    -0.8410 
  143.0000    69.9110     7.5370     6.4340     8.0120    23.7280     2.2300    -1.1070 
  143.1250    68.6600     8.2290     6.8640     7.7080    23.8650     2.2680    -1.3430 
  143.2500    69.2360     9.4200     7.7050     7.6350    23.9940     2.3260    -1.5630 
  143.3750    71.0870    11.0810     8.9590     8.7740    24.0640     2.3910    -1.7790 
  143.5000    72.2650    12.9540    10.4950    11.9060    24.0170     2.4380    -1.9340 
  143.6250    69.1610    14.3540    11.8630    17.7560    23.8910     2.4260    -2.0210 
  143.7500    63.8030    14.6750    12.4880    19.2140    23.8990     2.3590    -2.1580 
  143.8750    60.5000    13.7850    12.1150    14.5270    24.1350     2.2730    -2.3080 
  144.0000    60.9040    12.1410    11.0100    11.0390    24.4050     2.2080    -2.4370 
  144.1250    62.5140    10.5620     9.7810    10.0790    24.5520     2.1890    -2.4530 
  144.2500    64.1140     9.6370     8.9470     9.7080    24.5580     2.1980    -2.3680 
  144.3750    65.0110     9.6120     8.7420     9.3970    24.4810     2.2220    -2.2970 
  144.5000    64.8780    10.5090     9.2610     9.3250    24.4140     2.2620    -2.1590 
  144.6250    63.9110    12.1180    10.4860     9.9840    24.3820     2.3330    -1.8510 
  144.7500    61.8510    13.6160    11.8450    12.6690    24.3470     2.4210    -1.4370 
  144.8750    61.1750    14.1150    12.5710    18.8080    24.2990     2.4930    -0.9540 
  145.0000    64.9600    13.0100    11.9660    21.5530    24.2660     2.5100    -0.3790 
  145.1250    73.1350    10.5190     9.9960    14.7230    24.2500     2.4540     0.1410 
  145.2500    81.1470     7.9630     7.7830     7.9020    24.2530     2.3820     0.5510 
  145.3750    86.9700     6.0320     5.9540     5.4130    24.2650     2.3320     0.9740 
  145.5000    90.2120     4.8820     4.7100     4.7940    24.2650     2.3150     1.3640 
  145.6250    90.5220     4.4530     4.0830     4.8600    24.2540     2.3240     1.5760 
  145.7500    89.4020     4.4050     3.8450     4.7490    24.2350     2.3390     1.7410 
  145.8750    89.7310     4.5610     3.8710     4.6690    24.2210     2.3540     1.8790 
  146.0000    92.4090     4.7900     4.0460     4.9320    24.2250     2.3680     1.9050 
  146.1250    96.3650     4.9920     4.2760     5.4280    24.2520     2.3790     1.9620 
  146.2500    98.9600     5.1140     4.4770     5.3610    24.2610     2.3740     2.1350 
  146.3750    98.5350     5.1450     4.6160     4.8470    24.2470     2.3500     2.3040 
  146.5000    96.6830     5.1240     4.6970     4.6510    24.2390     2.3170     2.3970 
  146.6250    95.4110     5.1690     4.7880     4.7230    24.2540     2.2880     2.6170 
  146.7500    92.9710     5.3730     4.9700     4.9330    24.2570     2.2680     2.8680 
  146.8750    87.4970     5.7480     5.2770     5.2290    24.2520     2.2600     3.0100 
  147.0000    81.3060     6.2140     5.6650     5.7920    24.2400     2.2690     3.1880 
  147.1250    79.2200     6.5780     5.9840     6.4650    24.2250     2.2970     3.3910 
  147.2500    80.8790     6.6850     6.0850     6.9370    24.2310     2.3300     3.4670 
  147.3750    85.0700     6.4940     5.9180     6.4380    24.2380     2.3480     3.4880 
  147.5000    89.2050     6.0990     5.5450     5.4290    24.2250     2.3430     3.5760 
  147.6250    89.9500     5.6620     5.1030     5.0820    24.2300     2.3200     3.5960 
  147.7500    87.7440     5.3170     4.7280     5.1640    24.2650     2.3000     3.5560 
  147.8750    85.8670     5.1290     4.4890     5.3330    24.2950     2.2920     3.6120 
  148.0000    86.7790     5.1450     4.4320     5.5250    24.2870     2.3000     3.6400 
  148.1250    87.5210     5.4550     4.6280     5.6600    24.2400     2.3320     3.6200 
  148.2500    83.9100     6.0940     5.0890     5.9930    24.2370     2.3860     3.7030 
  148.3750    76.1220     7.1460     5.8760     7.2580    24.2740     2.4560     3.7820 
  148.5000    68.5090     8.6560     7.0500     9.7160    24.3030     2.5310     3.8020 
  148.6250    66.1270    10.6140     8.6780    12.0100    24.3020     2.5870     3.8810 
  148.7500    65.4660    12.7160    10.5640    13.6320    24.2890     2.6210     3.9840 
  148.8750    63.1320    14.6000    12.4220    15.5960    24.2910     2.6370     3.9870 
  149.0000    58.0160    15.8800    13.8650    16.5900    24.3040     2.6420     4.0260 
  149.1250    54.7710    16.2400    14.4950    16.9750    24.3010     2.6400     4.0850 
  149.2500    55.7910    16.0250    14.5230    16.3840    24.2940     2.6400     4.0180 
  149.3750    58.2380    15.6130    14.2530    15.6310    24.3030     2.6430     4.0020 
  149.5000    57.4420    15.3550    13.9980    14.8810    24.3110     2.6460     4.0600 
  149.6250    52.9960    15.5870    14.0720    15.3670    24.2980     2.6480     4.0190 
  149.7500    49.9190    16.2990    14.5480    16.5630    24.2590     2.6510     3.9550 
  149.8750    49.3920    17.3860    15.3950    17.8000    24.2160     2.6550     3.9720 
