~V
VERS. 2.00: Ver 2.00
~W
STRT.M 57.0000:
STOP.M 283.0000:
STEP.M 0.1250:
NULL. -999.2500:
UWI. F11039:
~C
DEPT.M :
SP.MV :
GR.API :
RML.OHMM :
RI. :
RXO.OHMM :
CALI.CM :
DEN.GM/CC :
~A
# ...
   68.2500   -13.8890    70.0480     7.4880     6.3800     7.0640    21.6830     2.2030 
   68.3750   -13.4070    74.0700     7.2500     6.1640     7.0680    22.1210     2.2190 
   68.5000   -13.0320    80.9770     7.2820     6.1460     7.2400    22.5360     2.2260 
   68.6250   -12.8130    85.0570     7.7390     6.4340     7.5410    22.8760     2.2270 
   68.7500   -12.7430    83.9470     8.6990     7.0980     8.2300    23.0780     2.2270 
   68.8750   -12.8790    79.3720    10.0960     8.1490    10.1200    23.0390     2.2300 
   69.0000   -13.1350    72.9860    11.4990     9.3090    13.5370    22.7880     2.2350 
   69.1250   -13.4910    66.1850    12.4760    10.2620    19.2980    22.5080     2.2360 
   69.2500   -13.9230    62.2990    12.6760    10.6860    25.2580    22.4120     2.2260 
   69.3750   -14.4280    61.6200    11.9010    10.3040    22.1680    22.2140     2.2060 
   69.5000   -14.9280    61.9270    10.6620     9.4280    13.0360    21.7280     2.1840 
   69.6250   -15.3590    64.0130     9.4490     8.4310     8.7950    21.2130     2.1650 
   69.7500   -15.6640    68.8310     8.6000     7.6170     7.7200    20.9080     2.1500 
   69.8750   -15.8080    72.2520     8.2860     7.1780     7.6630    20.7240     2.1340 
   70.0000   -15.8540    70.8360     8.3520     7.0570     7.6730    20.5600     2.1170 
   70.1250   -15.8050    66.8270     8.7170     7.2190     7.7600    20.4490     2.1070 
   70.2500   -15.6840    64.4490     9.3390     7.6330     7.9370    20.4050     2.1200 
   70.3750   -15.4870    64.4390    10.2160     8.2970     8.0920    20.4180     2.1760 
   70.5000   -15.2460    64.7180    11.2010     9.0920     8.2070    20.4920     2.2620 
   70.6250   -14.9870    63.4110    12.0920     9.8720     8.3500    20.6290     2.3490 
   70.7500   -14.7400    60.1230    12.6450    10.4440     8.5850    20.7870     2.3980 
   70.8750   -14.5030    57.2040    12.5700    10.5520     8.7970    20.8070     2.3770 
   71.0000   -14.2770    56.6680    11.9780    10.2230     8.7000    20.7180     2.3150 
   71.1250   -14.1070    58.4830    11.0900     9.5970     8.3140    20.5840     2.2490 
   71.2500   -13.9120    61.7580    10.1940     8.8870     7.9740    20.4820     2.1980 
   71.3750   -13.6850    66.9410     9.5490     8.3040     7.8480    20.4250     2.1700 
   71.5000   -13.4770    69.5530     9.1800     7.9080     7.8570    20.3690     2.1530 
   71.6250   -13.3280    67.3950     9.0390     7.6940     7.9030    20.2980     2.1420 
   71.7500   -13.2850    64.1140     9.0690     7.6380     7.9480    20.2150     2.1390 
   71.8750   -13.3330    63.5820     9.2670     7.7480     8.0170    20.1540     2.1570 
   72.0000   -13.4270    63.6070     9.5950     7.9880     8.1070    20.1710     2.2010 
   72.1250   -13.5250    62.6680    10.0170     8.3280     8.1810    20.2640     2.2660 
   72.2500   -13.6780    61.3750    10.4450     8.7030     8.2740    20.3780     2.3320 
   72.3750   -13.8900    59.9290    10.7200     8.9930     8.4510    20.5340     2.3640 
   72.5000   -14.0940    57.9710    10.7490     9.1080     8.7950    20.7260     2.3490 
   72.6250   -14.2700    58.3020    10.5160     9.0120     9.3280    20.9270     2.2960 
   72.7500   -14.4180    60.3610    10.1010     8.7430     9.8510    21.0910     2.2320 
   72.8750   -14.5730    60.2200     9.6590     8.3990     9.6490    21.1410     2.1840 
   73.0000   -14.7270    59.0820     9.3330     8.1050     9.0720    21.0490     2.1580 
   73.1250   -14.8500    59.6000     9.1770     7.9220     8.7200    20.8660     2.1480 
   73.2500   -14.9210    60.8310     9.1820     7.8600     8.6870    20.7280     2.1480 
   73.3750   -14.9410    59.4830     9.3020     7.9010     8.7610    20.6930     2.1520 
   73.5000   -14.9370    58.0100     9.4430     7.9760     8.6920    20.7040     2.1570 
   73.6250   -14.8960    58.9090     9.5480     8.0450     8.4690    20.7390     2.1610 
   73.7500   -14.8070    59.9770     9.5830     8.0810     8.2800    20.8030     2.1650 
   73.8750   -14.6820    59.4030     9.5340     8.0720     8.1970    20.8740     2.1680 
   74.0000   -14.5700    58.3700     9.4420     8.0310     8.1860    20.9180     2.1720 
   74.1250   -14.4620    58.6490     9.3410     7.9710     8.2170    20.9510     2.1750 
   74.2500   -14.3690    60.3430     9.2580     7.9040     8.2340    20.9970     2.1760 
   74.3750   -14.2800    64.0600     9.2020     7.8350     8.1740    21.0320     2.1760 
   74.5000   -14.1960    68.1810     9.1580     7.7690     8.0090    21.0720     2.1760 
   74.6250   -14.1130    69.3600     9.1130     7.7090     7.8690    21.1310     2.1760 
   74.7500   -14.0170    67.0090     9.0650     7.6570     7.7700    21.1830     2.1770 
   74.8750   -13.9320    65.1390     9.0200     7.6190     7.7130    21.2030     2.1780 
   75.0000   -13.8070    66.5960     8.9920     7.5940     7.6910    21.2070     2.1810 
   75.1250   -13.6830    68.1080     8.9900     7.5840     7.7120    21.2070     2.1830 
   75.2500   -13.5370    66.5440     9.0140     7.5890     7.7600    21.2070     2.1860 
   75.3750   -13.4120    63.5090     9.0560     7.6060     7.8210    21.2070     2.1900 
   75.5000   -13.3180    61.5440     9.0970     7.6290     7.8810    21.2060     2.1940 
   75.6250   -13.2650    59.7440     9.1220     7.6510     7.9060    21.2030     2.1970 
   75.7500   -13.2330    57.3680     9.1230     7.6610     7.9050    21.1950     2.1970 
   75.8750   -13.1870    58.0370     9.0940     7.6480     7.8700    21.1740     2.1920 
   76.0000   -13.1340    61.1560     9.0480     7.6100     7.8530    21.1310     2.1830 
   76.1250   -13.0760    63.4820     8.9950     7.5480     7.8940    21.0610     2.1720 
   76.2500   -13.0520    63.9110     8.9450     7.4770     7.9550    20.9760     2.1630 
   76.3750   -13.0570    63.7850     8.9050     7.4160     7.9570    20.8690     2.1580 
   76.5000   -13.0320    63.7300     8.8800     7.3800     7.9040    20.7170     2.1550 
   76.6250   -12.9650    63.7670     8.8790     7.3740     7.8150    20.5480     2.1510 
   76.7500   -12.8770    64.9010     8.9080     7.3940     7.7400    20.4250     2.1460 
   76.8750   -12.7200    66.5020     8.9730     7.4340     7.7010    20.3070     2.1380 
   77.0000   -12.5300    67.0950     9.0610     7.4830     7.6940    20.1420     2.1310 
   77.1250   -12.3120    66.2960     9.1530     7.5340     7.6810    19.9500     2.1280 
   77.2500   -12.0670    64.3670     9.2340     7.5820     7.6790    19.7950     2.1270 
   77.3750   -11.7790    62.5680     9.2890     7.6260     7.6490    19.7140     2.1280 
   77.5000   -11.5070    62.4590     9.3250     7.6690     7.6390    19.7690     2.1280 
   77.6250   -11.2660    62.2500     9.3570     7.7150     7.6680    19.9480     2.1280 
   77.7500   -11.0560    59.5790     9.3920     7.7630     7.7080    20.1740     2.1290 
   77.8750   -10.9020    57.2100     9.4290     7.8110     7.7650    20.3330     2.1300 
   78.0000   -10.7820    57.4310     9.4510     7.8460     7.8520    20.4310     2.1330 
   78.1250   -10.6900    58.6360     9.4400     7.8550     7.9380    20.4980     2.1350 
   78.2500   -10.6430    58.5620     9.3900     7.8260     8.0020    20.5320     2.1350 
   78.3750   -10.6860    58.9920     9.3150     7.7560     8.0620    20.5390     2.1350 
   78.5000   -10.7600    61.2450     9.2480     7.6710     8.1150    20.5370     2.1350 
   78.6250   -10.8380    64.5430     9.2130     7.5990     8.1130    20.5270     2.1360 
   78.7500   -10.8830    66.5750     9.2150     7.5580     8.0530    20.5110     2.1350 
   78.8750   -10.9000    65.7980     9.2440     7.5630     8.0300    20.4930     2.1340 
   79.0000   -10.8930    63.1550     9.2950     7.6080     8.0320    20.4890     2.1330 
   79.1250   -10.8540    60.4140     9.4010     7.7070     8.0220    20.4970     2.1320 
   79.2500   -10.7500    58.8840     9.6270     7.8960     8.0040    20.5180     2.1340 
   79.3750   -10.5460    58.0910    10.0590     8.2390     8.1480    20.5600     2.1460 
