~V
VERS. 2.00: Ver 2.00
~W
STRT.M 60.0000:
STOP.M 274.0000:
STEP.M 0.1250:
NULL. -999.2500:
UWI. F11079:
~C
DEPT.M :
GR.API :
RML.OHMM :
RI. :
RXO.OHMM :
CALI.CM :
DEN.GM/CC :
SP.MV :
~A
# ...
  206.2500    56.0550   221.1680   186.9480   333.6840    24.7750     2.1910   -10.4020 
  206.3750    55.9570   222.5610   191.0760   325.5220    24.7630     2.1760   -10.4450 
  206.5000    58.0640   217.4990   190.0840   316.8300    24.7670     2.1770   -10.4730 
  206.6250    58.9770   204.3900   182.1090   229.4670    24.8340     2.1890   -10.4900 
  206.7500    57.8480   185.4470   168.5510   197.1170    24.9240     2.2010   -10.4930 
  206.8750    57.5840   162.3360   150.5070   170.1460    24.9150     2.2090   -10.4580 
  207.0000    58.9440   137.4660   129.7800   123.2640    24.7650     2.2150   -10.3840 
  207.1250    59.5150   114.3080   109.2350    97.3290    24.4990     2.2220   -10.2990 
  207.2500    59.2570    95.3960    91.6960    81.2480    24.1220     2.2340   -10.2380 
  207.3750    62.0970    82.0840    78.8250    73.8840    23.5400     2.2530   -10.2190 
  207.5000    68.2830    74.6890    71.1920    67.6870    22.9800     2.2770   -10.2580 
  207.6250    71.3800    73.4240    69.1090    65.5420    22.6650     2.2940   -10.3710 
  207.7500    69.2720    76.0540    70.5840    63.5600    22.5350     2.2960   -10.4850 
  207.8750    63.6160    81.1080    74.3530    66.5510    22.5530     2.2810   -10.5530 
  208.0000    59.2830    87.0460    79.2270    67.9930    22.7380     2.2520   -10.5650 
  208.1250    59.2970    92.3550    84.0630    70.0510    22.9330     2.2220   -10.5340 
  208.2500    60.2230    96.9290    88.5030    72.3150    23.0510     2.2060   -10.4720 
  208.3750    59.8680   101.7070    93.1330    73.8650    23.0790     2.2110   -10.3780 
  208.5000    60.0030   107.6020    98.7160    73.8660    23.0410     2.2250   -10.2500 
  208.6250    61.5560   114.2880   105.1850    72.9790    22.9380     2.2330   -10.1260 
  208.7500    62.0760   119.8720   111.0030    73.5870    22.8520     2.2340   -10.0560 
  208.8750    62.4110   122.9020   114.7920    75.2280    22.9310     2.2290   -10.0230 
  209.0000    65.3630   123.1830   116.0300    74.9160    23.1890     2.2160    -9.9720 
  209.1250    68.1450   121.8490   115.2940    77.4710    23.3300     2.1970    -9.8720 
  209.2500    65.5940   120.2510   113.9780    81.4300    23.3240     2.1840    -9.7440 
  209.3750    60.4860   117.6270   111.7810    81.4070    23.4900     2.1810    -9.5840 
  209.5000    57.8200   111.8940   107.0700    76.5670    23.9070     2.1830    -9.3940 
  209.6250    59.2130   100.5980    97.4230    73.1250    24.3240     2.1870    -9.1860 
  209.7500    62.7160    85.6020    83.9870    55.2780    24.7100     2.2000    -9.0020 
  209.8750    66.5390    69.7730    69.1360    42.5910    24.9630     2.2210    -8.8770 
  210.0000    68.4380    56.0940    55.7850    34.9670    25.0530     2.2420    -8.8170 
  210.1250    68.1100    47.2530    46.7230    25.0630    24.9440     2.2530    -8.8000 
  210.2500    68.6800    43.1580    41.9730    18.9170    24.7100     2.2600    -8.8120 
  210.3750    70.6270    43.9300    41.5480    15.9910    24.4970     2.2670    -8.8640 
  210.5000    71.6010    49.9210    45.8530    17.6890    24.4290     2.2730    -8.9230 
  210.6250    69.7880    62.3780    56.6260    44.5000    24.6140     2.2670    -8.9540 
  210.7500    67.7600    79.4190    72.5770    98.2390    24.8630     2.2480    -8.9570 
  210.8750    66.2750    97.6080    90.5090   111.2820    25.0130     2.2240    -8.9380 
  211.0000    64.1510   110.7980   104.2280   145.8300    25.0640     2.2080    -8.9560 
  211.1250    61.9120   111.6970   106.1060   184.1710    25.0810     2.2050    -9.0380 
  211.2500    60.1530   104.3940    99.2980   131.5820    25.1000     2.2090    -9.1790 
  211.3750    59.6030    95.6640    90.0370    90.8820    25.0870     2.2140    -9.3660 
  211.5000    59.6590    90.3980    83.3750    75.6100    25.0200     2.2190    -9.6170 
  211.6250    59.3430    90.5200    81.6440    66.7010    24.9430     2.2160    -9.9040 
  211.7500    59.9650    94.0400    83.2710    66.8400    24.8550     2.2070   -10.1550 
  211.8750    60.6000    99.2470    86.8230    74.0610    24.6890     2.1940   -10.3650 
  212.0000    61.3180   104.3570    90.7540    80.6680    24.4900     2.1780   -10.5410 
  212.1250    62.3220   107.8370    93.6000    81.9610    24.3210     2.1580   -10.7110 
  212.2500    63.5770   109.8890    95.2260    80.1670    24.1630     2.1450   -10.8690 
  212.3750    64.0050   111.1920    96.1380    77.0920    24.0090     2.1450   -11.0080 
  212.5000    62.5860   112.4570    96.9860    75.3980    23.8770     2.1600   -11.1350 
  212.6250    61.0420   114.4650    98.5000    77.5110    23.7760     2.1800   -11.2640 
  212.7500    60.0010   117.6300   100.9970    82.5990    23.6400     2.1940   -11.4080 
  212.8750    59.2540   122.0180   104.4590    85.8980    23.5090     2.1990   -11.5470 
  213.0000    58.8870   127.1480   108.4520    85.0820    23.4840     2.2040   -11.6440 
  213.1250    58.6380   131.8840   112.0660    87.6090    23.5880     2.2180   -11.6680 
  213.2500    57.7420   135.1470   114.5460    92.4130    23.7320     2.2360   -11.6300 
  213.3750    57.1650   136.4060   115.6100    99.4920    23.8620     2.2470   -11.5420 
  213.5000    57.7130   135.8990   115.4780   106.6220    23.9050     2.2510   -11.4140 
  213.6250    57.2370   134.5360   114.7870   111.6230    23.9630     2.2430   -11.2870 
  213.7500    55.3180   133.4360   114.2760   113.1320    24.1050     2.2220   -11.2020 
  213.8750    54.0640   132.4200   113.8090   108.1290    24.2590     2.1920   -11.1630 
  214.0000    54.7590   129.8420   112.1570   104.1540    24.2660     2.1680   -11.1240 
  214.1250    56.0990   122.2270   106.5650   113.2720    24.1870     2.1680   -11.0480 
  214.2500    57.7540   109.3700    96.5990   113.9180    24.1500     2.1840   -10.9540 
  214.3750    61.0270    93.5040    83.7170    95.2190    24.1420     2.2020   -10.8420 
  214.5000    65.5010    78.1380    70.6560    65.4290    24.1050     2.2130   -10.6990 
  214.6250    69.1690    66.5360    60.3300    43.1380    23.9690     2.2210   -10.5070 
  214.7500    69.7050    58.7530    53.2300    29.3880    23.7300     2.2280   -10.2940 
  214.8750    67.9640    54.0690    48.9630    22.0250    23.5040     2.2310   -10.0860 
  215.0000    67.5560    51.3900    46.6970    20.5900    23.4310     2.2330    -9.9200 
  215.1250    70.0030    49.7210    45.6530    24.5170    23.5450     2.2380    -9.8140 
  215.2500    71.0270    48.3240    45.0110    30.9790    23.6940     2.2450    -9.7290 
  215.3750    68.0670    47.2900    44.6560    36.8990    23.7850     2.2550    -9.6480 
  215.5000    64.7470    47.0330    44.8440    38.5740    23.8120     2.2680    -9.5620 
  215.6250    65.8430    48.0240    46.0320    34.7790    23.8570     2.2870    -9.4300 
  215.7500    68.7900    49.6380    47.8450    27.9030    23.9460     2.3100    -9.2180 
  215.8750    69.3840    50.7210    49.3110    20.8690    23.9420     2.3390    -8.9560 
  216.0000    67.5440    49.7920    48.9390    17.1800    23.7010     2.3720    -8.6790 
  216.1250    67.2630    45.3990    45.0150    17.0920    23.4580     2.3850    -8.4310 
  216.2500    68.7620    38.7240    38.5610    15.3290    23.3910     2.3640    -8.2260 
  216.3750    69.4810    31.4610    31.3580    13.0760    23.3690     2.3290    -8.0660 
  216.5000    70.4960    25.2120    25.0990    11.5420    23.3320     2.3100    -7.9980 
  216.6250    73.3180    21.2290    20.9630    10.4510    23.2320     2.3210    -8.0750 
  216.7500    74.2410    19.3580    18.7210    10.7790    23.1210     2.3430    -8.2550 
  216.8750    72.0310    19.5460    18.2500    11.8610    23.1450     2.3580    -8.4770 
  217.0000    70.9530    21.8030    19.5320    14.6630    23.3800     2.3550    -8.7080 
  217.1250    73.9180    26.5740    23.0470    18.4120    23.7420     2.3290    -8.9380 
  217.2500    75.1370    33.4120    28.6420    22.3760    24.0180     2.2950    -9.1550 
  217.3750    72.7180    41.7470    36.0690    25.7450    24.1250     2.2650    -9.3770 
