~V
VERS. 2.00: Ver 2.00
~W
STRT.M 55.0000:
STOP.M 249.0000:
STEP.M 0.1250:
NULL. -999.2500:
UWI. F11017:
~C
DEPT.M :
GR.API :
RML.OHMM :
RI. :
RXO.OHMM :
CALI.CM :
DEN.GM/CC :
SP.MV :
~A
   55.0000    38.5630     1.8220     0.5020     5.0820    25.5510  -999.2500    61.1350 
   55.1250    38.5990     1.7780     0.4990     4.9790    25.5390  -999.2500    62.1610 
   55.2500    40.4170     1.7310     0.4940     4.9270    25.5250  -999.2500    63.5540 
   55.3750    40.9150     1.6820     0.4870     4.8570    25.5000  -999.2500    65.3490 
   55.5000    40.2250     1.6310     0.4810     4.6840    25.4750     0.0000    67.5860 
   55.6250    39.5330     1.5890     0.4770     4.1080    25.4470     0.0000    70.3040 
   55.7500    38.5210     1.5720     0.4720     2.8460    25.3840     0.0000    73.3520 
   55.8750    36.4840     1.5950     0.4650     1.3850    25.2680     0.0000    76.5850 
   56.0000    34.3110     1.6660     0.4520     0.6220    25.0750     2.1080    79.8510 
   56.1250    33.9950     1.7770     0.4360     0.4190    24.8590     2.1110    82.9470 
   56.2500    34.6640     1.8880     0.4190     0.3900    24.7050     2.1010    85.7740 
   56.3750    37.0690     1.9610     0.4050     0.4270    24.6260     2.0740    88.2600 
   56.5000    41.1740     1.9720     0.3930     0.4670    24.5820     2.0300    90.3390 
   56.6250    43.4120     1.9130     0.3820     0.5060    24.5160     1.9810    91.8850 
   56.7500    42.7190     1.8240     0.3710     0.5290    24.3900     1.9370    93.0100 
   56.8750    41.5420     1.7380     0.3600     0.5550    24.2030     1.9040    93.8080 
   57.0000    42.9150     1.6760     0.3510     0.5900    23.9850     1.8790    94.3620 
   57.1250    44.5770     1.6600     0.3460     0.6310    23.8200     1.8590    94.7070 
   57.2500    42.9870     1.6920     0.3490     0.6540    23.7550     1.8440    94.8750 
   57.3750    41.1120     1.7770     0.3610     0.6490    23.7330     1.8420    94.8160 
   57.5000    41.6930     1.8920     0.3800     0.6120    23.7250     1.8640    94.4610 
   57.6250    42.2620     1.9540     0.3950     0.5650    23.7340     1.9220    93.6350 
   57.7500    41.6260     1.8660     0.3910     0.4870    23.7360     2.0070    92.2080 
   57.8750    42.8050     1.5610     0.3570     0.4270    23.7270     2.1140    89.9100 
   58.0000    46.1050     1.0680     0.2980     0.3310    23.7200     2.2360    86.4440 
   58.1250    46.2950     0.6070     0.2350     0.2310    23.8090     2.3690    81.2170 
   58.2500    44.6520     0.3470     0.1990     0.1840    23.9280     2.4900    74.2450 
   58.3750    45.9540     0.2980     0.2160     0.2830    24.0350     2.5600    65.5750 
   58.5000    50.6100     0.4480     0.3150     0.9550    24.0510     2.5510    55.5350 
   58.6250    54.5410     0.8530     0.5690     1.8360    23.9450     2.4720    44.6720 
   58.7500    55.9910     1.4800     1.0110     3.4650    23.8310     2.3760    33.8130 
   58.8750    56.6510     2.2560     1.6520     5.3130    23.6870     2.2940    23.4570 
   59.0000    60.3350     3.0340     2.4430     6.1370    23.5000     2.2460    14.0130 
   59.1250    69.0300     3.5450     3.2350     5.4480    23.2290     2.2380     6.1110 
   59.2500    77.0480     3.7050     3.8540     4.5950    22.9720     2.2490    -0.1520 
   59.3750    80.3830     3.6470     4.2450     4.0730    22.8400     2.2630    -4.7140 
   59.5000    80.9290     3.5880     4.4710     3.7270    22.8850     2.2720    -7.7880 
   59.6250    85.0260     3.6500     4.6210     3.6790    23.0300     2.2740    -9.6860 
   59.7500    90.8760     3.7900     4.7560     3.8230    23.1630     2.2750   -11.0480 
   59.8750    94.2410     3.9540     4.8820     4.0270    23.2690     2.2780   -12.1080 
   60.0000    94.1420     4.1030     4.9990     4.1090    23.3870     2.2800   -12.9820 
   60.1250    91.6080     4.2150     5.0980     4.1280    23.5480     2.2770   -13.6840 
   60.2500    89.0800     4.2940     5.1720     4.2760    23.6800     2.2690   -14.2720 
   60.3750    87.0720     4.3430     5.2120     4.3940    23.5960     2.2600   -14.7810 
   60.5000    85.6700     4.3660     5.2160     4.4720    23.2940     2.2520   -15.2310 
   60.6250    83.8380     4.3900     5.2170     4.4910    23.0200     2.2460   -15.6330 
   60.7500    81.4190     4.4950     5.2980     4.5180    22.9940     2.2400   -15.9810 
   60.8750    79.4590     4.8050     5.5770     4.7810    23.1340     2.2310   -16.2490 
   61.0000    79.1380     5.4400     6.1760     5.2640    23.3760     2.2260   -16.4420 
   61.1250    79.8370     6.4800     7.1960     6.1870    23.7290     2.2410   -16.5860 
   61.2500    80.2960     7.6810     8.4290     8.1090    24.0660     2.2850   -16.6920 
   61.3750    79.3290     8.7050     9.5580    11.3040    24.2700     2.3520   -16.7740 
   61.5000    78.2260     9.1620    10.1840    16.6550    24.3190     2.4230   -16.8430 
   61.6250    78.6560     8.6550     9.8580    21.2020    24.2760     2.4580   -16.9020 
   61.7500    80.3020     7.5320     8.8200    17.4380    24.2170     2.4440   -16.9850 
   61.8750    82.7310     6.3210     7.5290    10.4780    24.1450     2.3900   -17.1160 
   62.0000    86.7040     5.4410     6.4460     5.9470    24.0230     2.3210   -17.2850 
   62.1250    88.8900     5.0850     5.8730     4.9830    23.7850     2.2590   -17.4990 
   62.2500    88.6340     5.0750     5.7040     4.8530    23.4650     2.2150   -17.7650 
   62.3750    88.5230     5.2660     5.8060     4.8210    23.0830     2.1910   -18.0530 
   62.5000    88.9380     5.5170     6.0180     4.6960    22.6830     2.1860   -18.3430 
   62.6250    89.4250     5.6780     6.1660     4.8510    22.4120     2.1980   -18.6350 
   62.7500    89.9680     5.6730     6.1480     5.2050    22.2940     2.2170   -18.9170 
   62.8750    92.2290     5.4860     5.9420     5.4110    22.3410     2.2350   -19.1900 
   63.0000    94.5760     5.1750     5.6040     5.3570    22.5330     2.2460   -19.4930 
   63.1250    96.4320     4.8980     5.2810     5.0940    22.9010     2.2530   -19.8490 
   63.2500    98.3250     4.8650     5.1620     4.8150    23.3730     2.2610   -20.2630 
   63.3750    96.7390     5.2460     5.4070     4.7230    23.7740     2.2800   -20.7770 
   63.5000    89.5620     6.1220     6.1110     5.3630    23.9690     2.3170   -21.4290 
   63.6250    79.8370     7.4640     7.3020     7.3290    24.0250     2.3740   -22.2560 
   63.7500    70.5640     8.9000     8.6680    10.4980    24.1220     2.4310   -23.2130 
   63.8750    63.8940    10.0290     9.8510    15.4400    24.2490     2.4630   -24.2620 
   64.0000    61.5850    10.4740    10.4710    21.6990    24.3220     2.4450   -25.3360 
   64.1250    60.5100     9.9830    10.2070    18.6650    24.3270     2.3760   -26.3870 
   64.2500    57.5640     9.0590     9.4240    12.0070    24.3630     2.2940   -27.3810 
   64.3750    55.3860     8.1930     8.5570     8.8690    24.4350     2.2250   -28.2790 
   64.5000    57.1770     7.6670     7.9240     8.1040    24.4890     2.1820   -29.0390 
   64.6250    60.8570     7.5500     7.6700     8.1320    24.4570     2.1670   -29.6060 
   64.7500    61.1440     7.6500     7.6570     8.2870    24.3830     2.1650   -30.0360 
   64.8750    59.9990     7.8420     7.7620     8.4760    24.3290     2.1690   -30.3710 
   65.0000    60.2100     8.0450     7.8840     8.6290    24.3810     2.1730   -30.6370 
   65.1250    61.6010     8.2090     7.9500     8.9380    24.5110     2.1750   -30.8180 
   65.2500    61.6310     8.3190     7.9460     9.2200    24.6030     2.1770   -30.9420 
   65.3750    60.5630     8.3550     7.8770     9.1420    24.6200     2.1810   -31.0240 
   65.5000    60.8860     8.3070     7.7510     8.6510    24.6110     2.1870   -31.0800 
   65.6250    63.5080     8.1880     7.5800     8.4520    24.6060     2.1960   -31.1190 
   65.7500    64.3170     8.0540     7.3920     8.4120    24.6060     2.2030   -31.1350 
   65.8750    62.0340     7.9470     7.2070     8.4350    24.6060     2.2040   -31.1100 
   66.0000    57.7460     7.8920     7.0430     8.4330    24.6000     2.1970   -31.0370 
   66.1250    55.8730     7.9020     6.9240     8.2750    24.5680     2.1830   -30.9250 
