~V
VERS. 2.00: Ver 2.00
~W
STRT.M 51.0000:
STOP.M 282.0000:
STEP.M 0.1250:
NULL. -999.2500:
UWI. F11065:
~C
DEPT.M :
GR.API :
RML.OHMM :
RI. :
RXO.OHMM :
CALI.CM :
DEN.GM/CC :
SP.MV :
~A
# ...
  174.7500    68.8550   114.6780   112.8330    71.8830    24.0930     2.2420   -24.1600 
  174.8750    68.3230   123.7050   122.3600    81.7760    24.0930     2.2380   -24.2270 
  175.0000    70.0070   130.9520   129.9860    88.8070    24.0930     2.2380   -24.2960 
  175.1250    71.6060   135.5400   134.8500    95.0970    24.0930     2.2420   -24.2590 
  175.2500    69.9880   137.2180   136.8990    98.2610    24.0750     2.2490   -24.2780 
  175.3750    66.9000   136.0500   136.4070    99.0620    24.0060     2.2580   -24.3160 
  175.5000    66.2600   133.3220   134.5380   101.9570    23.8850     2.2660   -24.4470 
  175.6250    66.7530   129.8160   131.8300   103.5440    23.7850     2.2710   -24.6380 
  175.7500    66.6590   126.1270   128.7320   102.6210    23.7670     2.2700   -24.7400 
  175.8750    65.7200   122.4660   125.7410   107.7170    23.8510     2.2640   -24.8150 
  176.0000    64.1510   118.2970   122.8210   117.6350    23.9480     2.2530   -24.9000 
  176.1250    63.0490   112.5920   118.9510   123.1780    24.0160     2.2380   -25.1140 
  176.2500    64.5720   104.4620   112.5110   122.4110    24.0760     2.2200   -25.2950 
  176.3750    68.4400    93.7700   102.1550   123.2510    24.1840     2.2070   -25.5070 
  176.5000    71.7350    82.6060    89.9510   112.9690    24.3380     2.2070   -25.6980 
  176.6250    74.1420    73.0020    78.5000    66.1040    24.3610     2.2220   -25.8800 
  176.7500    75.5770    66.4440    70.0140    33.2860    24.2380     2.2480   -26.1150 
  176.8750    74.7570    63.9210    66.0790    26.5560    24.0940     2.2710   -26.3400 
  177.0000    71.9670    64.2250    65.5280    35.7990    24.0440     2.2830   -26.5460 
  177.1250    68.9970    66.4370    67.3310    55.0400    24.0480     2.2840   -26.6280 
  177.2500    67.6610    69.7440    70.5020    68.0270    24.1030     2.2790   -26.7740 
  177.3750    67.5150    73.7840    74.3160    68.7300    24.2760     2.2710   -26.9330 
  177.5000    66.8450    78.5490    78.4390    58.3210    24.5020     2.2640   -27.0730 
  177.6250    65.4230    84.4450    83.3640    49.8180    24.6730     2.2580   -27.2320 
  177.7500    64.6750    91.7880    89.8110    57.1990    24.7310     2.2540   -27.3230 
  177.8750    64.6980   100.6510    98.3270    79.3550    24.7120     2.2510   -27.4510 
  178.0000    64.5340   110.1610   107.9280    97.0270    24.6900     2.2480   -27.5480 
  178.1250    64.2690   119.5720   117.3810   106.8700    24.6810     2.2450   -27.6360 
  178.2500    64.3170   128.2790   125.4290   112.6770    24.6810     2.2410   -27.6860 
  178.3750    65.2840   135.7970   131.1810   113.4310    24.6930     2.2360   -27.6570 
  178.5000    66.4050   142.3250   135.5550   113.5380    24.7170     2.2320   -27.7050 
  178.6250    66.9050   148.0190   139.3960   114.3510    24.7390     2.2300   -27.7570 
  178.7500    66.5940   153.0300   143.1470   115.0960    24.7480     2.2310   -27.9270 
  178.8750    65.8650   157.4100   146.9600   111.6140    24.7590     2.2340   -28.1570 
  179.0000    64.8870   161.3480   150.8190   106.5450    24.7850     2.2360   -28.4230 
  179.1250    65.3260   164.8160   154.6030   102.7090    24.8170     2.2360   -28.7220 
  179.2500    67.5290   167.6510   158.1150   100.1210    24.8360     2.2330   -28.9380 
  179.3750    68.2510   169.3810   160.8370    89.0730    24.7960     2.2300   -29.1010 
  179.5000    66.2080   169.7340   162.3390    73.3690    24.7300     2.2310   -29.1780 
  179.6250    65.0350   168.1770   162.0780    65.7090    24.7410     2.2380   -29.2650 
  179.7500    66.8720   164.0970   159.4230    76.4910    24.8860     2.2490   -29.2400 
  179.8750    68.8490   156.7350   153.2640    95.2680    25.0520     2.2620   -29.1290 
  180.0000    69.5380   147.3000   144.3510   106.8320    25.1610     2.2720   -28.9590 
  180.1250    69.2200   137.4780   134.2110   107.0890    25.1920     2.2760   -28.8550 
  180.2500    67.4870   129.4170   125.1160   101.6830    25.1750     2.2730   -28.8020 
  180.3750    65.6440   125.8270   119.9960    93.0840    25.1050     2.2640   -28.7010 
  180.5000    65.0640   127.0500   119.6870    80.9540    24.9990     2.2550   -28.6850 
  180.6250    65.4170   132.7600   124.3400    77.7910    24.9000     2.2500   -28.6840 
  180.7500    65.4530   141.5940   132.9940    97.0140    24.8230     2.2500   -28.8210 
  180.8750    66.1790   151.0610   143.3790   133.3910    24.7550     2.2520   -28.9860 
  181.0000    66.9150   158.2850   151.9040   161.3770    24.6800     2.2530   -29.1070 
  181.1250    66.3850   161.7900   156.2120   166.9430    24.6280     2.2530   -29.2340 
  181.2500    66.2480   161.7210   155.8470   160.2370    24.6040     2.2510   -29.3390 
  181.3750    67.0220   159.7040   152.5430   145.5140    24.6170     2.2480   -29.5220 
  181.5000    66.4060   158.2950   149.7100   138.7190    24.6920     2.2430   -29.6990 
  181.6250    63.6350   158.7400   148.9960   140.6320    24.7870     2.2360   -29.8160 
  181.7500    61.4600   161.3230   150.7890   145.7950    24.8620     2.2280   -29.8440 
  181.8750    62.0810   165.7440   154.7710   156.3020    24.8670     2.2230   -29.8270 
  182.0000    63.1350   170.8490   159.4900   169.0160    24.7810     2.2210   -29.9000 
  182.1250    62.6170   176.1190   164.1840   182.4730    24.6940     2.2230   -29.8470 
  182.2500    60.6960   181.6880   168.9690   185.4950    24.7430     2.2270   -29.8010 
  182.3750    59.5380   188.6290   175.3770   183.6180    24.9160     2.2320   -29.6870 
  182.5000    59.8800   197.2440   184.5590   184.1770    25.1500     2.2360   -29.4960 
  182.6250    60.1540   206.0280   196.0310   185.8790    25.3300     2.2380   -29.2540 
  182.7500    60.9350   210.8730   206.1510   208.4510    25.3980     2.2360   -28.9560 
  182.8750    62.7600   204.2780   205.8260   265.5400    25.3770     2.2330   -28.5740 
  183.0000    64.3920   185.6770   191.1130   338.0090    25.3230     2.2370   -28.0100 
  183.1250    64.2970   158.9430   164.8410   326.4420    25.2510     2.2530   -27.3490 
  183.2500    64.8490   131.1570   135.2930   234.8280    25.2150     2.2800   -26.3920 
  183.3750    69.8210   109.9960   111.6410   136.4270    25.2280     2.3100   -25.2820 
  183.5000    75.2840    97.1150    96.4080    86.9110    25.2640     2.3300   -24.0800 
  183.6250    74.3480    91.9810    89.2890    73.5160    25.2980     2.3340   -22.9240 
  183.7500    66.8840    93.0900    88.9110    81.0990    25.3190     2.3250   -21.8610 
  183.8750    62.4060    99.0750    94.2240   103.7070    25.3390     2.3080   -20.9100 
  184.0000    65.2740   106.9390   102.2270   122.6400    25.3470     2.2950   -20.1530 
  184.1250    70.9940   114.5540   110.6020   135.8290    25.3210     2.2860   -19.4850 
  184.2500    73.6230   120.1090   117.0840   131.9290    25.2660     2.2820   -19.0750 
  184.3750    71.2850   122.1170   119.7630   125.8430    25.2140     2.2780   -18.8960 
  184.5000    67.2100   121.3120   119.4310   131.9100    25.2090     2.2730   -18.7820 
  184.6250    63.3990   118.5060   116.9630   128.3160    25.2380     2.2680   -18.7190 
  184.7500    62.1140   114.6060   113.1220   110.9000    25.2720     2.2660   -18.5940 
  184.8750    62.7610   110.6220   108.6760   101.2820    25.3100     2.2690   -18.5400 
  185.0000    63.0690   107.6250   104.7840   107.4320    25.3390     2.2730   -18.5140 
  185.1250    63.7840   106.4620   102.4340   128.5420    25.3340     2.2730   -18.5430 
  185.2500    66.1170   107.5900   102.4020   139.0290    25.3630     2.2680   -18.6120 
  185.3750    69.8640   110.6760   105.2390   120.0680    25.4440     2.2600   -18.6970 
  185.5000    70.3850   113.3200   108.9560   111.8240    25.4970     2.2580   -18.8560 
  185.6250    67.1900   112.9650   110.5250   128.6960    25.4920     2.2660   -18.9910 
  185.7500    63.6730   107.9470   107.1350   143.5340    25.4390     2.2820   -19.1920 
  185.8750    63.4750    98.5040    97.9550   139.5370    25.3790     2.2980   -19.2780 
