~V
VERS. 2.00: Ver 2.00
~W
STRT.M 55.0000:
STOP.M 276.0000:
STEP.M 0.1250:
NULL. -999.2500:
UWI. F11046:
~C
DEPT.M :
GR.API :
RML.OHMM :
RI. :
RXO.OHMM :
CALI.CM :
DEN.GM/CC :
SP.MV :
~A
# ...
  235.0000    62.1940    66.6790    59.6860    63.7100    24.9330     2.2610   -15.0030 
  235.1250    62.2690    66.0330    59.4810    63.5570    24.9240     2.2600   -15.1110 
  235.2500    63.1090    63.8650    57.6400    68.3800    24.9060     2.2700   -15.1650 
  235.3750    64.3110    60.6550    54.3630    68.2200    24.8680     2.2870   -15.2090 
  235.5000    67.7810    57.8000    50.9300    53.7650    24.8400     2.3030   -15.2530 
  235.6250    72.5340    57.5810    49.5140    39.7040    24.8470     2.3070   -15.3400 
  235.7500    74.4700    61.1260    51.4060    38.4200    24.8930     2.3000   -15.4460 
  235.8750    71.9790    69.2210    57.6100    48.3300    24.9640     2.2840   -15.6060 
  236.0000    66.2410    82.0320    68.6230    81.2350    25.0080     2.2660   -15.8700 
  236.1250    63.1070    98.8010    84.1680   121.6600    25.0200     2.2540   -16.1430 
  236.2500    65.0670   115.7530   100.4300   144.6580    25.0170     2.2480   -16.3950 
  236.3750    69.6240   129.6410   113.7230   134.3020    25.0070     2.2470   -16.6790 
  236.5000    72.3020   138.9320   122.2670   113.1720    24.9970     2.2470   -16.8650 
  236.6250    73.0040   144.4210   127.3790   111.9200    25.0090     2.2450   -16.9870 
  236.7500    74.3970   148.7760   132.3280   118.5230    25.0170     2.2410   -17.1910 
  236.8750    76.5740   151.8080   137.2530   133.3730    25.0240     2.2370   -17.2400 
  237.0000    79.8410   151.1550   139.6510   159.9260    25.0370     2.2360   -17.0840 
  237.1250    80.9700   143.3050   135.0730   178.7930    25.0470     2.2380   -16.9940 
  237.2500    78.4610   129.9540   124.0960   160.0490    24.9940     2.2440   -16.9040 
  237.3750    74.6800   118.1000   109.7640   115.4880    24.8760     2.2580   -16.7730 
  237.5000    72.4510   104.6890    95.9460    74.5650    24.7560     2.2830   -16.7670 
  237.6250    71.9970    94.3100    85.8540    57.4970    24.7290     2.3190   -16.7110 
  237.7500    72.0650    87.9860    79.5320    54.6390    24.7490     2.3550   -16.4800 
  237.8750    73.1310    85.0920    76.5160    58.5570    24.7940     2.3830   -16.3410 
  238.0000    74.4230    84.8990    76.1760    66.1630    24.9300     2.4020   -16.2970 
  238.1250    76.6670    87.0590    78.2250    65.1820    25.2330     2.4180   -16.1110 
  238.2500    79.4920    90.6280    81.8050    59.5650    25.4030     2.4360   -15.9610 
  238.3750    80.6780    95.7200    86.5530    60.3870    25.3300     2.4510   -15.8760 
  238.5000    79.3750   102.3970    92.0180    73.2990    25.0960     2.4560   -15.7170 
  238.6250    76.5470   109.2230    97.3240    90.8550    24.9770     2.4460   -15.6390 
  238.7500    74.2050   113.9950   101.4550    88.8280    24.9390     2.4290   -15.6470 
  238.8750    72.7540   116.1450   103.9100    79.4090    24.9290     2.4110   -15.6500 
  239.0000    74.5480   116.5320   104.9310    73.7590    24.8900     2.3930   -15.6990 
  239.1250    79.9760   115.6920   104.9430    78.5610    24.7960     2.3760   -15.7940 
  239.2500    83.4780   113.4840   103.9270    85.5630    24.7370     2.3600   -15.8550 
  239.3750    82.5270   109.5640   101.2000    93.0300    24.7060     2.3460   -15.8610 
  239.5000    79.7590   104.0120    96.4850    97.8900    24.6970     2.3380   -15.7840 
  239.6250    79.1820    97.7410    90.4690   102.0890    24.7200     2.3310   -15.6100 
  239.7500    79.5150    92.3240    84.9400    85.8700    24.7830     2.3230   -15.4360 
  239.8750    78.0350    88.7270    81.1510    66.1950    24.8670     2.3130   -15.1800 
  240.0000    75.7550    87.2060    79.5850    64.6380    24.9250     2.3080   -14.8690 
  240.1250    76.1210    87.5180    80.0300    79.3550    24.9340     2.3190   -14.7250 
  240.2500    78.3230    88.6130    81.3230    82.6190    24.9100     2.3420   -14.5790 
  240.3750    79.5300    90.0210    82.9680    74.8200    24.7990     2.3640   -14.4050 
  240.5000    78.7460    91.6460    84.8060    74.6420    24.5570     2.3720   -14.3620 
  240.6250    77.2330    93.7620    87.0810    74.6670    24.4230     2.3620   -14.3620 
  240.7500    76.9040    96.3550    90.0170    82.6500    24.4430     2.3470   -14.3680 
  240.8750    76.7400    98.8800    93.4150    95.8560    24.5420     2.3380   -14.5030 
  241.0000    76.7890   100.1740    96.2250   117.8690    24.6560     2.3380   -14.6370 
  241.1250    76.2620    98.3160    96.2550   115.2620    24.6620     2.3390   -14.5960 
  241.2500    74.5830    93.2000    92.7130   100.9060    24.5460     2.3330   -14.5910 
  241.3750    72.3670    85.6570    85.9830    83.6530    24.4100     2.3190   -14.6410 
  241.5000    70.9390    77.3920    77.7020    76.1220    24.3470     2.3030   -14.5880 
  241.6250    71.8250    70.6330    70.3090    67.8630    24.2760     2.2930   -14.5480 
  241.7500    72.9040    66.4460    65.2780    57.2400    24.1190     2.2900   -14.4930 
  241.8750    73.5030    65.1330    63.1310    50.0350    23.9370     2.2920   -14.3650 
  242.0000    73.1770    66.3760    63.8020    50.6660    23.8360     2.2960   -14.3070 
  242.1250    71.5690    69.3660    66.9070    58.1980    23.8690     2.2980   -14.2810 
  242.2500    70.4710    72.2700    70.6000    67.8950    24.0460     2.2990   -14.2130 
  242.3750    70.1790    73.7120    73.1390    73.9130    24.2340     2.3010   -14.1810 
  242.5000    71.4060    73.0080    73.2360    77.6150    24.3400     2.3040   -14.1670 
  242.6250    74.7050    70.5200    70.7610    73.6070    24.3650     2.3100   -14.1390 
  242.7500    77.5150    68.1460    67.8430    62.1980    24.3860     2.3130   -14.2130 
  242.8750    77.1490    67.3610    66.2790    52.0260    24.4200     2.3100   -14.2770 
  243.0000    73.0620    68.9960    67.2850    49.1250    24.4530     2.3000   -14.2580 
  243.1250    69.4310    73.1290    71.5180    60.7640    24.4560     2.2870   -14.3500 
  243.2500    68.2350    77.8380    77.2940    73.3990    24.4890     2.2740   -14.4230 
  243.3750    69.0920    80.9380    82.2590    87.6340    24.5540     2.2630   -14.4000 
  243.5000    71.4190    80.4020    83.5110    95.8250    24.6300     2.2570   -14.4290 
  243.6250    72.9290    74.9790    78.4700    84.8080    24.6810     2.2590   -14.4370 
  243.7500    71.9520    67.1340    69.7700    63.1790    24.7030     2.2690   -14.2920 
  243.8750    69.7740    59.5010    60.7130    41.8240    24.7010     2.2850   -14.1520 
  244.0000    68.8200    54.3390    53.9810    29.9920    24.6960     2.3000   -14.0690 
  244.1250    68.9010    53.6040    51.6470    29.6030    24.7010     2.3070   -13.8480 
  244.2500    69.1700    56.9280    53.5680    36.1280    24.7010     2.3040   -13.6540 
  244.3750    68.6950    63.9050    59.6880    52.8860    24.6830     2.2910   -13.5980 
  244.5000    66.9850    73.5220    69.3430    78.2320    24.6710     2.2700   -13.5080 
  244.6250    65.7800    83.6700    80.7340    96.5200    24.7430     2.2470   -13.4090 
  244.7500    67.3850    91.3960    90.2590    99.5300    24.8220     2.2280   -13.4130 
  244.8750    69.4260    94.7010    95.0460    95.2810    24.8720     2.2180   -13.3900 
  245.0000    69.4900    93.2170    94.1580    92.9010    24.8870     2.2180   -13.3610 
  245.1250    68.0100    88.2110    88.9460    92.3760    24.8840     2.2230   -13.4670 
  245.2500    66.6380    82.7880    83.0330    84.7210    24.8810     2.2250   -13.5380 
  245.3750    65.4560    78.6520    78.2670    69.8900    24.8540     2.2220   -13.5600 
  245.5000    64.9330    76.5190    75.6050    57.1430    24.7990     2.2230   -13.5870 
  245.6250    65.1890    76.3210    75.4140    64.3040    24.7740     2.2470   -13.6180 
  245.7500    64.6670    76.5720    76.2000    74.9150    24.7560     2.2960   -13.6600 
  245.8750    64.3870    75.9610    76.3850    82.6010    24.7270     2.3570   -13.7080 
  246.0000    65.7860    73.6290    74.7020    76.7730    24.7300     2.4010   -13.6240 
  246.1250    67.4930    69.5150    70.6970    69.6610    24.7620     2.4040   -13.4850 
