~V
VERS. 2.00: Ver 2.00
~W
STRT.M 52.0000:
STOP.M 279.0000:
STEP.M 0.1250:
NULL. -999.2500:
UWI. F11031:
~C
DEPT.M :
DEN.GM/CC :
GR.API :
RML.OHMM :
RI. :
RXO.OHMM :
CALI.CM :
SP.MV :
~A
# ...
  254.5000     2.4940    58.9510    12.5920    11.9480    12.9670    23.7010    -9.5280 
  254.6250     2.4790    56.8770    12.3470    11.7080    11.6550    23.8860    -9.5550 
  254.7500     2.4700    54.0920    12.1640    11.5280    10.9210    23.9420    -9.5700 
  254.8750     2.4690    54.2140    12.1250    11.4700    10.6650    23.9940    -9.5760 
  255.0000     2.4760    57.3040    12.2760    11.5540    10.8940    24.1460    -9.6010 
  255.1250     2.4860    61.6620    12.5880    11.7740    10.8660    24.3030    -9.6420 
  255.2500     2.4940    65.0830    12.8870    12.0420    11.3160    24.3010    -9.7100 
  255.3750     2.4970    64.2580    13.0350    12.2770    12.4570    24.3960    -9.7970 
  255.5000     2.4930    59.5320    12.9730    12.4060    13.5830    24.4830    -9.8870 
  255.6250     2.4840    56.6420    12.7550    12.3640    14.0770    24.5640    -9.9680 
  255.7500     2.4750    57.6760    12.5530    12.2090    13.1180    24.5640   -10.0360 
  255.8750     2.4710    58.9490    12.4620    12.0230    12.2120    24.5300   -10.0770 
  256.0000     2.4720    58.0220    12.5050    11.8830    11.5570    24.4120   -10.1000 
  256.1250     2.4770    57.2590    12.6620    11.8540    11.7800    23.5720   -10.1280 
  256.2500     2.4850    58.4420    12.8850    11.9140    12.2490    21.6780   -10.1490 
  256.3750     2.4920    60.8220    13.1440    12.0180    13.0290    21.3670   -10.1700 
  256.5000     2.4980    62.5260    13.3870    12.1070    13.8560    22.7440   -10.1980 
  256.6250     2.4990    61.8280    13.5160    12.1250    14.1570    24.4060   -10.2360 
  256.7500     2.4970    60.9210    13.5070    12.0630    14.4830    24.6390   -10.2920 
  256.8750     2.4930    62.6470    13.3910    11.9240    14.8680    24.6260   -10.3710 
  257.0000     2.4880    66.0580    13.2320    11.7310    15.5270    24.6500   -10.4290 
  257.1250     2.4870    67.1100    13.0980    11.5350    16.1010    24.7760   -10.4530 
  257.2500     2.4870    64.0530    13.0050    11.3860    16.1090    24.7710   -10.4470 
  257.3750     2.4910    58.9340    12.9500    11.3120    16.0070    24.6200   -10.4090 
  257.5000     2.4970    56.8900    12.9210    11.3160    16.3170    23.9450   -10.3490 
  257.6250     2.5060    60.8910    12.8940    11.3640    17.3440    23.1680   -10.2610 
  257.7500     2.5130    65.5010    12.8230    11.3790    17.0090    22.4950   -10.1540 
  257.8750     2.5170    65.1040    12.6710    11.3080    16.2180    22.4840   -10.0380 
  258.0000     2.5140    60.3570    12.4320    11.1250    14.7090    22.9380    -9.9400 
  258.1250     2.5030    57.1950    12.1120    10.8180    14.3510    23.8580    -9.8610 
  258.2500     2.4900    57.0730    11.7190    10.4330    14.2780    24.4660    -9.8270 
  258.3750     2.4790    58.1690    11.2310    10.0050    13.9190    24.5720    -9.8340 
  258.5000     2.4750    59.7130    10.6600     9.5640    12.2430    24.4830    -9.8360 
  258.6250     2.4770    61.3770    10.0940     9.1460    10.5040    24.4530    -9.8270 
  258.7500     2.4780    61.2730     9.6340     8.7770     9.0360    24.4310    -9.8080 
  258.8750     2.4740    61.6500     9.3170     8.4780     8.0490    24.3820    -9.7580 
  259.0000     2.4620    65.8570     9.1270     8.2620     7.4440    24.3270    -9.6710 
  259.1250     2.4450    71.6520     9.0340     8.1400     7.2080    24.2290    -9.5390 
  259.2500     2.4270    72.9930     8.9980     8.0810     6.8640    23.8960    -9.3590 
  259.3750     2.4100    70.2110     9.0070     8.0520     6.4910    23.5150    -9.1330 
  259.5000     2.3960    65.7330     9.0220     8.0200     6.2340    23.3960    -8.8890 
  259.6250     2.3910    60.0790     8.9440     7.9520     6.1460    23.5450    -8.6460 
  259.7500     2.3960    58.0530     8.7410     7.8480     6.0640    23.8310    -8.3850 
  259.8750     2.4080    61.4650     8.4600     7.7200     5.8880    24.1580    -8.1430 
  260.0000     2.4220    65.1010     8.1880     7.5900     5.6640    24.4590    -7.9360 
  260.1250     2.4280    61.4730     8.0220     7.4860     5.5590    24.5610    -7.7720 
  260.2500     2.4250    56.7600     7.9720     7.4160     5.5650    24.6150    -7.6340 
  260.3750     2.4180    56.7200     8.0070     7.3810     5.6730    24.6400    -7.5290 
  260.5000     2.4120    58.9350     8.0790     7.3760     5.8340    24.5210    -7.4600 
  260.6250     2.4070    57.0250     8.1640     7.3970     5.9060    24.2910    -7.4250 
  260.7500     2.3970    52.7000     8.2590     7.4430     6.0110    24.1670    -7.4080 
  260.8750     2.3790    51.4110     8.3670     7.5230     6.4670    24.1520    -7.3860 
  261.0000     2.3590    53.7450     8.4900     7.6420     7.2190    24.0000    -7.3620 
  261.1250     2.3510    56.2060     8.6510     7.8000     7.5980    23.9600    -7.3500 
  261.2500     2.3610    56.0150     8.8610     7.9800     7.5270    23.9090    -7.3620 
  261.3750     2.3920    55.4870     9.1240     8.1710     7.4320    23.8640    -7.3830 
  261.5000     2.4350    56.5050     9.4200     8.3600     7.4290    23.7410    -7.4040 
  261.6250     2.4750    56.6970     9.6660     8.5180     7.7670    23.5430    -7.4300 
  261.7500     2.4980    54.8230     9.7930     8.6120     8.4990    23.4920    -7.4830 
  261.8750     2.5010    52.9170     9.7750     8.6170     9.2420    23.6010    -7.5600 
  262.0000     2.4880    52.6940     9.6340     8.5320     9.7520    23.7600    -7.6600 
  262.1250     2.4670    53.5480     9.4160     8.3740     9.3800    23.7980    -7.7790 
  262.2500     2.4560    54.3490     9.2130     8.2030     9.1810    23.8440    -7.8890 
  262.3750     2.4620    55.7130     9.0700     8.0610     9.2630    23.8160    -8.0080 
  262.5000     2.4850    56.9500     8.9890     7.9770     9.0090    23.4970    -8.1540 
  262.6250     2.5150    56.2020     8.9270     7.9720     8.0260    23.2400    -8.3220 
  262.7500     2.5360    53.9410     8.8280     8.0150     7.4300    23.1560    -8.4990 
  262.8750     2.5420    52.0950     8.6830     8.0760     7.2970    22.9380    -8.6800 
  263.0000     2.5310    52.4380     8.5360     8.1210     7.5120    22.7030    -8.8500 
  263.1250     2.5020    55.1870     8.4840     8.1230     7.6570    22.5730    -8.9870 
  263.2500     2.4670    57.6960     8.5640     8.0970     7.7310    22.6880    -9.0870 
  263.3750     2.4350    59.0650     8.7540     8.0670     7.8900    23.3160    -9.1510 
  263.5000     2.4170    58.6460     9.0130     8.0680     8.4000    23.7460    -9.1600 
  263.6250     2.4240    57.0730     9.3160     8.1400     8.8170    23.8150    -9.1500 
  263.7500     2.4470    56.3290     9.6340     8.2920     8.7550    23.5470    -9.1630 
  263.8750     2.4760    57.3660     9.9580     8.5310     8.6690    23.1410    -9.1720 
  264.0000     2.5030    58.3330    10.2770     8.8540     9.0740    22.6290    -9.1840 
  264.1250     2.5180    58.3100    10.5970     9.2530     9.8290    22.7230    -9.2190 
  264.2500     2.5240    59.5530    10.9440     9.6820    10.1890    23.1890    -9.2910 
  264.3750     2.5240    60.9510    11.3280    10.1030    10.0030    23.4890    -9.3950 
  264.5000     2.5190    60.1620    11.7230    10.4830     9.7770    23.5020    -9.5380 
  264.6250     2.5150    61.0090    12.0370    10.8110     9.9710    23.4740    -9.6810 
  264.7500     2.5130    65.3980    12.2220    11.1120    10.4420    23.4260    -9.8000 
  264.8750     2.5150    67.7050    12.3090    11.4010    11.2070    23.4320    -9.9420 
  265.0000     2.5170    63.7210    12.3870    11.6760    12.5460    23.1000   -10.0870 
  265.1250     2.5150    59.4130    12.5280    11.9150    14.1870    21.0780   -10.2210 
  265.2500     2.5090    60.8560    12.7130    12.1040    14.5840    19.2950   -10.3460 
  265.3750     2.5000    65.2250    12.8790    12.2310    13.1420    19.2630   -10.4480 
  265.5000     2.4880    68.3660    12.9850    12.2980    11.6080    19.3480   -10.5080 
  265.6250     2.4740    69.1760    13.0900    12.3120    10.8730    19.3200   -10.5350 
