~V
VERS. 2.00: Ver 2.00
~W
STRT.M 53.0000:
STOP.M 287.0000:
STEP.M 0.1250:
NULL. -999.2500:
UWI. F11059:
~C
DEPT.M :
GR.API :
RML.OHMM :
RI. :
RXO.OHMM :
CALI.CM :
DEN.GM/CC :
SP.MV :
~A
# ...
  131.7500    87.5410     6.7790     5.5780     5.5980    24.7100     2.3200   -15.5720 
  131.8750    83.0420     6.9600     5.8500     8.4130    24.5990     2.2870   -15.8180 
  132.0000    76.3480     7.5980     6.4940    12.0740    24.4840     2.2440   -16.1370 
  132.1250    70.6220     8.4860     7.3170    12.2180    24.3830     2.2090   -16.5150 
  132.2500    67.1530     9.3570     8.0730    10.6880    24.3320     2.1910   -16.9270 
  132.3750    65.8900     9.9070     8.5120    10.0430    24.3350     2.1880   -17.3390 
  132.5000    64.9660    10.1160     8.6850    10.0380    24.3730     2.1900   -17.7210 
  132.6250    64.2420    10.0900     8.7180    10.1600    24.4050     2.1940   -18.0460 
  132.7500    63.6270     9.9760     8.7090    10.2890    24.4240     2.1990   -18.2620 
  132.8750    61.3630     9.8760     8.6880    10.2450    24.4300     2.2050   -18.3740 
  133.0000    59.1700     9.8140     8.6580    10.2330    24.4300     2.2130   -18.4170 
  133.1250    60.1070     9.8060     8.6470    10.2440    24.4290     2.2190   -18.4100 
  133.2500    63.9960     9.8720     8.6850    10.2760    24.4430     2.2200   -18.3770 
  133.3750    65.3750    10.0200     8.7950    10.6480    24.4670     2.2110   -18.3280 
  133.5000    62.5620    10.1930     8.9290    11.7790    24.4470     2.1950   -18.2690 
  133.6250    59.6250    10.3270     9.0260    13.2110    24.3810     2.1760   -18.2100 
  133.7500    58.3270    10.3770     9.0300    12.0400    24.3360     2.1610   -18.1500 
  133.8750    58.5160    10.3340     8.9120    11.1960    24.3260     2.1570   -18.0910 
  134.0000    59.1160    10.2580     8.7320    10.7760    24.3220     2.1610   -18.0370 
  134.1250    59.1220    10.1940     8.5480    10.7510    24.3170     2.1680   -17.9900 
  134.2500    58.1300    10.1620     8.4060    10.7750    24.3140     2.1760   -17.9330 
  134.3750    58.6370    10.1500     8.3310    10.7270    24.3050     2.1800   -17.8720 
  134.5000    61.6570    10.1230     8.3070    10.5150    24.2620     2.1790   -17.7900 
  134.6250    64.3360    10.0660     8.3220    10.3440    24.1910     2.1740   -17.6950 
  134.7500    64.6600     9.9930     8.3770    10.2790    24.1630     2.1660   -17.6090 
  134.8750    63.7100     9.9600     8.4880    10.4740    24.1400     2.1590   -17.5420 
  135.0000    62.3970    10.0010     8.6460    10.8210    24.1170     2.1550   -17.5000 
  135.1250    61.1050    10.1120     8.8350    11.1600    24.1180     2.1570   -17.4730 
  135.2500    60.5870    10.2500     9.0210    11.3440    24.1640     2.1650   -17.4500 
  135.3750    59.2900    10.3480     9.1530    11.1590    24.2640     2.1760   -17.4150 
  135.5000    57.9370    10.3910     9.2190    10.9330    24.3480     2.1870   -17.3810 
  135.6250    59.3030    10.4020     9.2260    10.8090    24.3730     2.1980   -17.3460 
  135.7500    62.4300    10.4210     9.2030    10.8020    24.3520     2.2070   -17.3110 
  135.8750    63.0760    10.4770     9.1810    10.7720    24.2930     2.2140   -17.2710 
  136.0000    60.7560    10.5520     9.1710    10.6560    24.2200     2.2160   -17.2030 
  136.1250    59.2490    10.6140     9.1650    10.5610    24.1620     2.2130   -17.1120 
  136.2500    61.4490    10.6310     9.1500    10.6030    24.1380     2.2070   -17.0060 
  136.3750    66.5470    10.5720     9.1100    10.6760    24.1420     2.2040   -16.8980 
  136.5000    70.7910    10.4550     9.0530    10.5230    24.1630     2.2030   -16.7900 
  136.6250    71.9960    10.3050     9.0020    10.2310    24.2000     2.2060   -16.6750 
  136.7500    71.1000    10.1640     8.9880    10.1780    24.2300     2.2100   -16.5450 
  136.8750    69.9500    10.0890     9.0600    10.3060    24.2640     2.2140   -16.4100 
  137.0000    68.6380    10.0970     9.2230    10.3650    24.3000     2.2190   -16.2560 
  137.1250    66.8460    10.1760     9.4580    10.3100    24.3490     2.2260   -16.0790 
  137.2500    64.8070    10.2870     9.7090    10.2050    24.4120     2.2330   -15.8780 
  137.3750    63.3830    10.3730     9.8730    10.5640    24.5080     2.2440   -15.6440 
  137.5000    63.2490    10.4110     9.9130    11.0550    24.5880     2.2630   -15.3840 
  137.6250    63.3510    10.4110     9.8490    11.3130    24.6430     2.2960   -15.1250 
  137.7500    63.6780    10.3900     9.7290    11.2550    24.6640     2.3440   -14.8610 
  137.8750    65.8610    10.3420     9.5950    10.1940    24.6740     2.4000   -14.5690 
  138.0000    67.3020    10.2780     9.5050     9.8860    24.6880     2.4490   -14.2830 
  138.1250    65.8760    10.2660     9.5310    11.6870    24.7130     2.4810   -14.0120 
  138.2500    64.3490    10.4460     9.7900    12.1950    24.7620     2.5010   -13.7740 
  138.3750    65.5300    11.1020    10.5340    12.0360    24.8060     2.5220   -13.5910 
  138.5000    64.8420    12.3710    11.9030    13.7100    24.8250     2.5560   -13.4610 
  138.6250    59.6690    14.3590    13.9980    21.0100    24.8330     2.5980   -13.3600 
  138.7500    53.4950    17.0190    16.7200    29.8830    24.8400     2.6350   -13.2840 
  138.8750    51.0020    19.9530    19.5940    36.8840    24.8410     2.6490   -13.2590 
  139.0000    50.7960    22.5640    21.8350    35.0550    24.8360     2.6440   -13.2920 
  139.1250    51.3980    24.5150    23.0250    31.1470    24.8300     2.6290   -13.3770 
  139.2500    51.8030    25.6030    23.3670    29.0440    24.8280     2.6180   -13.4860 
  139.3750    51.5990    25.8060    23.5630    30.0660    24.8380     2.6180   -13.5980 
  139.5000    51.9740    25.8380    24.2120    31.0380    24.8590     2.6280   -13.7150 
  139.6250    52.8580    26.2990    25.4020    31.0730    24.8810     2.6430   -13.8460 
  139.7500    52.9830    27.2520    26.7510    31.6210    24.9060     2.6590   -13.9820 
  139.8750    52.6810    27.8310    27.0860    33.7400    24.9140     2.6690   -14.1040 
  140.0000    54.1270    27.0770    25.5520    36.7480    24.9120     2.6650   -14.2150 
  140.1250    58.1850    24.5700    22.2130    38.4600    24.9070     2.6350   -14.3200 
  140.2500    62.8950    20.7030    18.0620    32.1570    24.9100     2.5780   -14.4100 
  140.3750    66.6700    16.5480    14.3840    20.1460    24.9170     2.4980   -14.4940 
  140.5000    70.5040    13.1180    11.6740    12.1670    24.9210     2.4200   -14.5600 
  140.6250    74.0920    10.7290     9.9230     9.4240    24.9200     2.3590   -14.6030 
  140.7500    75.2070     9.3130     8.9500     8.8730    24.9190     2.3210   -14.6420 
  140.8750    73.9480     8.7270     8.6090     8.8980    24.9110     2.3070   -14.6750 
  141.0000    73.6320     8.5800     8.5710     8.9500    24.9060     2.3040   -14.6750 
  141.1250    75.5300     8.6580     8.6320     8.7300    24.9060     2.3070   -14.6300 
  141.2500    78.8060     8.7780     8.6380     8.3370    24.9130     2.3140   -14.5420 
  141.3750    81.6070     8.7830     8.4930     8.2820    24.9180     2.3210   -14.4000 
  141.5000    83.3920     8.6370     8.2230     8.4270    24.9170     2.3250   -14.1990 
  141.6250    83.8660     8.3710     7.8810     8.6800    24.9030     2.3230   -13.9250 
  141.7500    83.1730     8.0750     7.5720     8.8330    24.8750     2.3120   -13.5430 
  141.8750    81.8780     7.9350     7.5090     8.8410    24.8580     2.3010   -13.0250 
  142.0000    79.4380     8.1430     7.8790     8.9110    24.8480     2.3060   -12.3850 
  142.1250    75.1670     8.9380     8.9360    10.1380    24.8290     2.3390   -11.6420 
  142.2500    68.4750    10.6030    10.9920    14.3920    24.7970     2.4020   -10.8950 
  142.3750    61.3350    13.6470    14.5370    24.3440    24.7770     2.4830   -10.2130 
  142.5000    57.7550    17.8990    19.1480    33.9810    24.7690     2.5580    -9.6040 
  142.6250    56.6200    22.7360    23.7680    38.6730    24.7640     2.6110    -9.0760 
  142.7500    55.4680    26.8290    26.7280    40.0790    24.7590     2.6370    -8.6660 
  142.8750    54.5590    28.2110    26.3370    38.9880    24.7590     2.6360    -8.4230 
