~V
VERS. 2.00: Ver 2.00
~W
STRT.M 53.0000:
STOP.M 257.0000:
STEP.M 0.1250:
NULL. -999.2500:
UWI. F11022:
~C
DEPT.M :
GR.API :
RML.OHMM :
RI. :
RXO.OHMM :
CALI.CM :
SP.MV :
DEN.GM/CC :
~A
# ...
  154.2500    86.2440     9.4570     8.5820     8.9050    25.3460   -24.1200     2.2420 
  154.3750    82.7980     9.4650     8.6920     8.3130    25.3520   -24.1590     2.2380 
  154.5000    78.9170     9.3800     8.6430     9.1440    25.3350   -24.2520     2.2360 
  154.6250    77.9620     9.1390     8.4160    10.4440    25.3070   -24.3430     2.2390 
  154.7500    80.2550     8.6760     8.0060    10.4470    25.2970   -24.3540     2.2450 
  154.8750    83.5550     8.0100     7.4380     8.7340    25.3000   -24.3740     2.2500 
  155.0000    85.0100     7.2860     6.8180     6.9770    25.2940   -24.4860     2.2540 
  155.1250    84.0040     6.7770     6.3430     6.2820    25.2890   -24.5080     2.2560 
  155.2500    83.3070     6.6250     6.1440     6.1170    25.2850   -24.4840     2.2610 
  155.3750    83.3420     6.8720     6.2810     6.3440    25.2780   -24.6150     2.2680 
  155.5000    82.4970     7.4750     6.7470     7.2310    25.2590   -24.7200     2.2750 
  155.6250    80.4720     8.3140     7.4780     9.2110    25.2430   -24.6730     2.2760 
  155.7500    77.6870     9.0850     8.2160    11.3440    25.2380   -24.7450     2.2710 
  155.8750    75.0870     9.5040     8.7050    11.5650    25.2360   -24.8810     2.2610 
  156.0000    76.3990     9.3800     8.7390    11.0550    25.2230   -24.8800     2.2510 
  156.1250    80.5330     8.6800     8.2380    10.1540    25.2140   -24.8960     2.2490 
  156.2500    83.8800     7.7790     7.4950     9.0020    25.2110   -25.0240     2.2550 
  156.3750    86.5790     6.9660     6.7520     7.1470    25.2110   -25.0290     2.2670 
  156.5000    87.4120     6.4290     6.1810     5.9210    25.2030   -25.0220     2.2760 
  156.6250    82.1210     6.2880     5.9050     5.7320    25.1820   -25.1710     2.2710 
  156.7500    74.9770     6.4760     5.8980     6.2030    25.1620   -25.1910     2.2580 
  156.8750    72.3860     6.9690     6.1640     7.0530    25.1680   -25.1700     2.2490 
  157.0000    74.5350     7.7480     6.7090     7.9750    25.1990   -25.2980     2.2500 
  157.1250    74.5770     8.8870     7.6150     9.0190    25.2210   -25.4500     2.2570 
  157.2500    71.9270    10.3720     8.8710    10.9690    25.2400   -25.4610     2.2580 
  157.3750    69.3790    12.1820    10.4730    13.7830    25.2740   -25.5320     2.2500 
  157.5000    68.4090    14.1620    12.3170    16.8930    25.3270   -25.7030     2.2390 
  157.6250    67.5690    15.8630    14.0770    19.9400    25.3960   -25.7510     2.2360 
  157.7500    65.2110    16.8010    15.2890    21.5030    25.4240   -25.7830     2.2430 
  157.8750    63.3410    16.6900    15.6070    21.4720    25.4290   -25.9070     2.2540 
  158.0000    63.5400    15.6050    14.9900    18.6760    25.4190   -25.9790     2.2680 
  158.1250    64.0000    13.8950    13.6600    16.9590    25.3920   -25.9230     2.2780 
  158.2500    62.9830    12.1080    12.1310    15.3050    25.3620   -25.9710     2.2840 
  158.3750    65.3880    10.4860    10.6500    13.7020    25.3550   -26.0830     2.2850 
  158.5000    75.0820     9.1320     9.3410    11.1470    25.3570   -26.0790     2.2800 
  158.6250    85.0270     8.1060     8.2910     8.6300    25.3480   -26.0320     2.2720 
  158.7500    86.5760     7.3400     7.4780     7.2710    25.3510   -26.1340     2.2630 
  158.8750    82.8240     6.8120     6.9050     6.1970    25.4160   -26.1910     2.2580 
  159.0000    80.0710     6.5060     6.5680     5.3770    25.5300   -26.1600     2.2590 
  159.1250    79.0940     6.4200     6.4630     5.2490    25.5580   -26.2810     2.2650 
  159.2500    77.4490     6.4580     6.4910     5.5340    25.5110   -26.3740     2.2720 
  159.3750    76.9050     6.5580     6.5970     5.8830    25.4510   -26.3530     2.2790 
  159.5000    77.5900     6.6920     6.7540     6.1350    25.4030   -26.4360     2.2870 
  159.6250    77.3550     6.8960     6.9780     6.2600    25.3690   -26.6300     2.2940 
  159.7500    77.6030     7.2120     7.2870     6.3330    25.3590   -26.6690     2.2970 
  159.8750    78.0020     7.6470     7.6840     6.7930    25.3540   -26.6850     2.2940 
  160.0000    75.7410     8.1310     8.1110     7.8850    25.3400   -26.8410     2.2840 
  160.1250    72.1390     8.4980     8.4260     9.3960    25.3340   -26.9460     2.2690 
  160.2500    71.8010     8.7030     8.5800     9.9960    25.3660   -26.9790     2.2530 
  160.3750    75.4350     8.8660     8.6620     9.4420    25.3970   -27.0840     2.2440 
  160.5000    78.8380     9.2140     8.8520     8.3940    25.3880   -27.1960     2.2480 
  160.6250    77.1270    10.0680     9.4070     7.9440    25.3620   -27.2320     2.2620 
  160.7500    73.0210    11.4460    10.3930     9.2810    25.4100   -27.2920     2.2760 
  160.8750    69.7570    13.1730    11.7530    13.8030    25.4720   -27.4300     2.2800 
  161.0000    68.3430    14.8270    13.2270    18.5760    25.5000   -27.5090     2.2720 
  161.1250    67.3680    15.8500    14.3960    17.1070    25.5000   -27.4840     2.2550 
  161.2500    65.3010    16.3890    15.2490    18.5010    25.4970   -27.5890     2.2360 
  161.3750    62.9090    17.0640    16.1660    21.2210    25.4860   -27.6860     2.2220 
  161.5000    61.5180    18.6620    17.7390    23.5680    25.4660   -27.6270     2.2200 
  161.6250    61.3760    22.0170    20.8070    24.4910    25.4630   -27.6580     2.2320 
  161.7500    59.2120    26.8100    25.4260    37.5150    25.4950   -27.7530     2.2440 
  161.8750    54.8200    32.0100    31.0260    60.2660    25.5410   -27.7010     2.2410 
  162.0000    52.1580    35.3690    35.6160    79.6640    25.5970   -27.6530     2.2210 
  162.1250    53.1660    33.3620    35.0730    59.1250    25.5810   -27.7600     2.1960 
  162.2500    54.9230    27.0490    29.4660    34.7760    25.5020   -27.7180     2.1840 
  162.3750    57.7940    19.4670    21.8350    24.3820    25.4160   -27.6480     2.1870 
  162.5000    64.4860    13.1040    15.0850    18.7590    25.3520   -27.7220     2.1960 
  162.6250    74.5020     9.0370    10.5620    10.9200    25.2850   -27.6810     2.2050 
  162.7500    81.0970     6.6050     7.7030     5.8530    25.1890   -27.6310     2.2170 
  162.8750    82.2380     5.3370     6.0730     4.2880    25.1210   -27.7320     2.2310 
  163.0000    80.8480     4.8880     5.3330     4.1140    25.1170   -27.7600     2.2390 
  163.1250    80.3670     5.1990     5.4020     4.3580    25.1300   -27.6930     2.2350 
  163.2500    79.4620     6.1860     6.1420     5.2940    25.1360   -27.8160     2.2340 
  163.3750    76.2220     7.9680     7.6450     7.6300    25.1360   -27.9570     2.2450 
  163.5000    71.4240    10.6530    10.0710    12.0910    25.1340   -27.9630     2.2630 
  163.6250    68.5480    14.2640    13.6770    18.5760    25.0980   -28.0720     2.2730 
  163.7500    68.3480    18.0630    17.8970    26.8190    25.0090   -28.2510     2.2720 
  163.8750    68.2290    20.9930    21.5860    35.9060    24.8890   -28.3110     2.2660 
  164.0000    66.7070    22.0360    23.3140    42.0350    24.7620   -28.3860     2.2600 
  164.1250    65.8000    20.9350    22.4370    36.2640    24.7440   -28.5740     2.2610 
  164.2500    67.5840    19.1550    20.5460    26.1200    24.8370   -28.6830     2.2660 
  164.3750    70.9550    17.5850    18.6430    17.7510    25.0320   -28.7190     2.2650 
  164.5000    73.6040    16.4800    17.0660    13.6310    25.2070   -28.8210     2.2540 
  164.6250    75.1490    15.5940    15.6910    14.0770    25.2840   -28.9700     2.2410 
  164.7500    76.3970    14.4520    14.1970    16.0850    25.3190   -28.9840     2.2380 
  164.8750    79.0500    12.8720    12.4850    16.0890    25.3420   -29.0390     2.2460 
  165.0000    82.6670    11.0390    10.7100    11.7070    25.3450   -29.2200     2.2620 
  165.1250    84.9140     9.4760     9.2430     7.9250    25.3100   -29.2750     2.2770 
  165.2500    85.5420     8.5560     8.2990     6.7440    25.2390   -29.2910     2.2880 
  165.3750    85.7080     8.4520     7.9960     6.8710    25.1570   -29.4480     2.2940 
