~V
VERS. 2.00: Ver 2.00
~W
STRT.M 50.0000:
STOP.M 275.0000:
STEP.M 0.1250:
NULL. -999.2500:
UWI. F11033:
~C
DEPT.M :
DEN.GM/CC :
GR.API :
RML.OHMM :
RI. :
RXO.OHMM :
CALI.CM :
SP.MV :
~A
# ...
  162.5000     2.1910    62.7040    20.1680    18.8120    29.1860    25.5370   -27.2030 
  162.6250     2.1950    62.5480    20.3880    19.6610    28.5950    25.5410   -27.3330 
  162.7500     2.1970    62.7500    19.6560    19.4780    26.4610    25.5720   -27.3770 
  162.8750     2.1970    62.7370    18.7000    18.8400    23.6460    25.6300   -27.3710 
  163.0000     2.1970    63.6910    17.9870    18.2230    19.9560    25.6810   -27.3500 
  163.1250     2.2010    65.9790    17.5000    17.7330    19.1980    25.7170   -27.3270 
  163.2500     2.2110    67.0730    16.7500    17.0210    21.9890    25.7020   -27.3130 
  163.3750     2.2280    66.9920    15.3810    15.7630    22.3260    25.6200   -27.3310 
  163.5000     2.2450    69.3860    13.4230    13.9580    17.6900    25.5020   -27.3860 
  163.6250     2.2540    74.7800    11.3240    11.9800    12.2300    25.3880   -27.4860 
  163.7500     2.2580    78.1260     9.5950    10.2790     9.1660    25.3280   -27.6210 
  163.8750     2.2620    78.5350     8.4410     9.0390     7.5100    25.3070   -27.7570 
  164.0000     2.2670    77.4930     7.8640     8.2950     6.7690    25.3050   -27.8750 
  164.1250     2.2740    76.1570     7.7940     8.0440     6.5770    25.3040   -27.9890 
  164.2500     2.2780    76.3510     7.9640     8.0820     6.7260    25.3020   -28.0970 
  164.3750     2.2770    78.4790     8.2090     8.2660     6.8960    25.2970   -28.1920 
  164.5000     2.2720    80.3280     8.4010     8.4520     7.1890    25.3000   -28.2840 
  164.6250     2.2690    79.5260     8.4520     8.5130     8.1020    25.3020   -28.3800 
  164.7500     2.2720    76.1830     8.4350     8.4690     8.8180    25.3020   -28.5090 
  164.8750     2.2750    71.0360     8.5310     8.4510     8.6540    25.3020   -28.6800 
  165.0000     2.2680    66.9280     9.0060     8.6740     8.5010    25.3040   -28.8820 
  165.1250     2.2510    66.7920    10.2990     9.5000    10.1550    25.3050   -29.0980 
  165.2500     2.2320    68.1140    12.5640    11.0980    13.0800    25.3060   -29.3300 
  165.3750     2.2190    68.4870    15.9320    13.6520    18.3380    25.3090   -29.5580 
  165.5000     2.2100    69.0370    20.2880    17.1990    27.3540    25.3130   -29.7850 
  165.6250     2.1990    69.5750    24.9180    21.3400    38.6660    25.3120   -30.0220 
  165.7500     2.1900    67.1220    28.4730    24.8750    40.4530    25.2930   -30.2090 
  165.8750     2.1810    62.7160    30.0990    26.8820    35.0420    25.2440   -30.3560 
  166.0000     2.1730    60.5550    29.9410    27.2360    31.3360    25.1760   -30.4750 
  166.1250     2.1670    62.7850    28.9370    26.5220    29.6970    25.1230   -30.5710 
  166.2500     2.1660    64.6500    28.1890    25.7550    27.9630    25.1180   -30.6580 
  166.3750     2.1710    64.8220    27.9990    25.3370    27.1060    25.1620   -30.7630 
  166.5000     2.1790    65.2550    28.1410    25.2440    28.4900    25.2310   -30.8530 
  166.6250     2.1870    66.6180    27.9710    25.0480    29.7100    25.2830   -30.8990 
  166.7500     2.1960    67.2780    27.0210    24.3110    30.9180    25.2920   -30.9420 
  166.8750     2.2050    66.9920    25.2400    22.9130    30.5840    25.2680   -30.9710 
  167.0000     2.2150    67.5640    23.0030    21.1010    26.1380    25.2280   -30.9940 
  167.1250     2.2200    70.2850    21.0160    19.4300    19.7770    25.1860   -31.0580 
  167.2500     2.2200    72.6900    19.7260    18.3030    16.7930    25.1700   -31.1310 
  167.3750     2.2170    73.9880    19.2360    17.8430    16.4950    25.1650   -31.1950 
  167.5000     2.2120    73.9360    19.4050    17.9890    17.6660    25.1550   -31.2500 
  167.6250     2.2030    74.3240    19.9290    18.5610    19.0210    25.1330   -31.2930 
  167.7500     2.1940    75.2600    20.3410    19.1460    19.7930    25.1010   -31.3290 
  167.8750     2.1870    76.1540    20.3700    19.4450    19.1790    25.0700   -31.3930 
  168.0000     2.1860    76.7280    19.9210    19.2930    17.6530    25.0330   -31.4880 
  168.1250     2.1930    76.3990    19.0500    18.6750    16.5840    25.0160   -31.5640 
  168.2500     2.2070    77.5090    18.0610    17.8730    16.2820    25.0110   -31.6470 
  168.3750     2.2250    80.2120    17.1820    17.1160    15.8660    25.0110   -31.7430 
  168.5000     2.2410    81.4110    16.6090    16.5940    14.7360    25.0110   -31.9030 
  168.6250     2.2490    77.2540    16.5450    16.4830    14.0830    25.0110   -32.1730 
  168.7500     2.2500    69.9330    16.9270    16.7440    14.6130    25.0120   -32.4920 
  168.8750     2.2480    64.9010    17.6500    17.3140    16.1890    25.0130   -32.8150 
  169.0000     2.2400    64.7840    18.5480    18.0780    17.4130    25.0120   -33.1300 
  169.1250     2.2250    68.8840    19.4180    18.8750    17.7360    25.0100   -33.4520 
  169.2500     2.2120    72.7410    20.1220    19.5600    17.7950    24.9930   -33.7770 
  169.3750     2.2030    74.1330    20.6260    20.0740    17.9720    24.9500   -34.0970 
  169.5000     2.1990    73.6380    20.9760    20.4220    18.2350    24.9010   -34.3870 
  169.6250     2.1950    72.6520    21.3170    20.6760    18.8350    24.8960   -34.6190 
  169.7500     2.1970    72.6690    21.9450    21.0560    20.0500    24.9310   -34.8300 
  169.8750     2.2090    72.7000    23.2300    21.8530    21.3080    24.9790   -35.0400 
  170.0000     2.2280    72.2870    25.5630    23.4130    21.7390    25.0060   -35.2600 
  170.1250     2.2420    72.8640    29.5950    26.3590    22.8760    25.0020   -35.4860 
  170.2500     2.2450    72.0810    35.4210    30.9150    29.2820    24.9900   -35.6960 
  170.3750     2.2390    67.2000    43.1890    37.3430    48.5270    24.9880   -35.8840 
  170.5000     2.2270    60.3170    52.8420    45.6770    66.2060    24.9820   -36.0350 
  170.6250     2.2090    58.0310    64.4270    56.0490    62.3630    24.9520   -36.1420 
  170.7500     2.1840    59.5080    77.7070    68.3050    62.2710    24.9240   -36.2120 
  170.8750     2.1580    59.6700    93.3800    83.3170    82.2520    24.8940   -36.2640 
  171.0000     2.1410    58.1560   112.7600   102.5250   129.8130    24.8850   -36.3040 
  171.1250     2.1390    56.8390   137.7850   127.7850   158.8680    24.9220   -36.3230 
  171.2500     2.1450    55.2990   165.6470   156.1120   180.5060    25.0220   -36.3280 
  171.3750     2.1520    53.1190   189.2310   181.2220   197.7640    25.1720   -36.3510 
  171.5000     2.1580    52.1320   198.8270   194.7920   204.2230    25.3530   -36.4130 
  171.6250     2.1660    53.4630   187.7030   189.4490   190.3430    25.4930   -36.5320 
  171.7500     2.1750    55.8610   165.9340   171.9260   159.9090    25.5670   -36.7130 
  171.8750     2.1760    60.2670   142.2430   149.7010   131.0380    25.5610   -36.9290 
  172.0000     2.1710    65.4630   122.0760   128.8530   109.0870    25.4980   -37.1760 
  172.1250     2.1640    68.5080   108.4530   113.5430    97.1370    25.4620   -37.4390 
  172.2500     2.1620    68.1350   100.3600   103.7870    83.7350    25.4450   -37.7140 
  172.3750     2.1610    65.8590    97.1270    99.2980    75.4990    25.4330   -37.9790 
  172.5000     2.1590    62.5160    98.0830    99.5660    74.3760    25.4270   -38.2380 
  172.6250     2.1500    59.4410   103.1160   104.5480    90.4420    25.4910   -38.4690 
  172.7500     2.1380    59.1170   110.8810   112.6870   106.9130    25.5880   -38.6660 
  172.8750     2.1330    59.5120   120.3530   122.8340   121.0870    25.6330   -38.8300 
  173.0000     2.1360    57.7600   129.8860   133.2260   132.7450    25.5830   -38.9590 
  173.1250     2.1460    54.9860   136.7500   141.0140   152.0600    25.4470   -39.0560 
  173.2500     2.1530    52.8330   139.8360   144.9220   155.1650    25.3420   -39.1450 
  173.3750     2.1550    51.7810   139.6250   145.2340   149.6750    25.2930   -39.2150 
  173.5000     2.1530    52.4090   137.8170   143.5180   139.0860    25.2600   -39.2580 
  173.6250     2.1490    55.7620   136.3760   141.7520   134.4590    25.2540   -39.2940 
