~V
VERS. 2.00: Ver 2.00
~W
STRT.M 52.0000:
STOP.M 287.0000:
STEP.M 0.1250:
NULL. -999.2500:
UWI. F11078:
~C
DEPT.M :
GR.API :
RML.OHMM :
RI. :
RXO.OHMM :
CALI.CM :
DEN.GM/CC :
SP.MV :
~A
   52.0000  -999.2500  -999.2500  -999.2500  -999.2500  -999.2500  -999.2500   202.7650 
   52.1250  -999.2500  -999.2500  -999.2500  -999.2500  -999.2500  -999.2500   202.4420 
   52.2500  -999.2500  -999.2500  -999.2500  -999.2500  -999.2500  -999.2500   202.1270 
   52.3750  -999.2500  -999.2500  -999.2500  -999.2500  -999.2500  -999.2500   201.8470 
   52.5000  -999.2500  -999.2500  -999.2500  -999.2500  -999.2500  -999.2500   201.8030 
   52.6250  -999.2500  -999.2500  -999.2500  -999.2500  -999.2500  -999.2500   201.9620 
   52.7500  -999.2500  -999.2500  -999.2500  -999.2500  -999.2500  -999.2500   202.3120 
   52.8750  -999.2500  -999.2500  -999.2500  -999.2500  -999.2500  -999.2500   202.7500 
   53.0000  -999.2500  -999.2500  -999.2500  -999.2500  -999.2500  -999.2500   203.3660 
   53.1250  -999.2500  -999.2500  -999.2500  -999.2500  -999.2500  -999.2500   204.0630 
   53.2500  -999.2500  -999.2500  -999.2500  -999.2500  -999.2500  -999.2500   204.6770 
   53.3750  -999.2500  -999.2500  -999.2500  -999.2500  -999.2500  -999.2500   205.0840 
   53.5000  -999.2500  -999.2500  -999.2500  -999.2500  -999.2500  -999.2500   205.1960 
   53.6250  -999.2500  -999.2500  -999.2500  -999.2500  -999.2500  -999.2500   205.0410 
   53.7500  -999.2500  -999.2500  -999.2500  -999.2500  -999.2500  -999.2500   204.6890 
   53.8750  -999.2500  -999.2500  -999.2500  -999.2500  -999.2500  -999.2500   204.2690 
   54.0000  -999.2500  -999.2500  -999.2500  -999.2500  -999.2500  -999.2500   203.7260 
   54.1250  -999.2500  -999.2500  -999.2500  -999.2500  -999.2500     0.0000   203.1540 
   54.2500  -999.2500  -999.2500  -999.2500  -999.2500  -999.2500     0.0000   202.5930 
   54.3750  -999.2500  -999.2500  -999.2500  -999.2500  -999.2500     0.0000   202.1460 
   54.5000  -999.2500  -999.2500  -999.2500  -999.2500  -999.2500     0.5650   201.7330 
   54.6250  -999.2500  -999.2500  -999.2500  -999.2500  -999.2500     2.2670   201.3710 
   54.7500    57.2010     2.5550     0.4970     1.7900    25.8530     2.2910   200.9050 
   54.8750    57.2010     2.5550     0.4970     1.7900    25.8530     2.3180   200.1970 
   55.0000    57.2010     2.5550     0.4970     1.7900    25.8530     2.3320   199.2340 
   55.1250    57.0720     2.5130     0.4920     1.7940    25.8740     2.3270   198.0430 
   55.2500    57.5460     2.4140     0.4770     1.7780    25.9120     2.3050   196.6980 
   55.3750    59.0830     2.3440     0.4600     1.7850    25.9300     2.2730   195.1360 
   55.5000    61.0600     2.3130     0.4500     2.0090    25.9350     2.2360   193.2790 
   55.6250    62.3100     2.3010     0.4460     2.3530    25.9350     2.1980   190.8090 
   55.7500    62.3840     2.2780     0.4470     2.4940    25.9350     2.1650   187.4380 
   55.8750    61.3060     2.2150     0.4490     2.4320    25.9350     2.1440   183.1450 
   56.0000    59.6310     2.0780     0.4490     2.1440    25.9110     2.1450   177.9110 
   56.1250    59.0380     1.8940     0.4480     1.6220    25.8260     2.1690   171.8210 
   56.2500    58.0480     1.7040     0.4460     1.3050    25.6590     2.2090   164.8760 
   56.3750    54.3900     1.5500     0.4430     1.2000    25.4310     2.2550   157.3900 
   56.5000    49.2180     1.4610     0.4450     1.2240    25.2310     2.2980   149.5540 
   56.6250    46.8930     1.4120     0.4530     1.2620    25.1240     2.3310   141.6610 
   56.7500    46.5980     1.3890     0.4630     1.2910    25.1070     2.3580   134.0020 
   56.8750    45.7350     1.3930     0.4690     1.2600    25.1400     2.3860   126.6920 
   57.0000    45.0640     1.4330     0.4660     1.2620    25.1720     2.4190   119.6840 
   57.1250    45.3580     1.4710     0.4600     1.2550    25.1950     2.4540   113.2170 
   57.2500    45.6520     1.5100     0.4540     1.2470    25.2170     2.4810   107.2960 
   57.3750    47.5180     1.6080     0.4320     1.2310    25.2550     2.4870   101.6960 
   57.5000    50.0170     1.6820     0.3900     1.2390    25.2750     2.4660    96.6440 
   57.6250    52.5240     1.6060     0.3320     1.2990    25.2780     2.4290    92.4890 
   57.7500    55.4230     1.3430     0.2620     1.3490    25.2650     2.3900    89.2950 
   57.8750    56.9030     0.9640     0.1880     1.3750    25.2170     2.3650    86.9540 
   58.0000    55.9520     0.6340     0.1260     1.3690    25.1130     2.3690    85.3950 
   58.1250    54.9960     0.4440     0.0830     1.4030    25.0020     2.4080    84.0650 
   58.2500    55.5450     0.4040     0.0640     1.4400    24.9510     2.4790    82.4840 
   58.3750    57.5000     0.5020     0.0800     1.4700    24.9790     2.5630    80.0560 
   58.5000    61.1040     0.7940     0.1680     1.8220    24.9200     2.6160    75.8910 
   58.6250    64.9340     1.3410     0.3790     2.9950    24.4840     2.6060    69.9460 
   58.7500    66.4970     2.2370     0.8130     4.9780    23.8750     2.5320    62.6040 
   58.8750    67.7320     3.4910     1.6100     6.5600    23.4110     2.4220    54.3700 
   59.0000    71.3900     4.8830     2.9090     6.8710    23.2240     2.3210    45.5980 
   59.1250    74.5190     5.9730     4.3900     7.0410    23.1490     2.2550    36.7480 
   59.2500    74.0050     6.5290     5.6230     7.0580    23.1200     2.2240    28.4070 
   59.3750    71.9340     6.6160     6.3710     6.9150    23.0980     2.2150    21.1870 
   59.5000    74.7630     6.4810     6.6490     6.7430    23.1000     2.2200    15.7870 
   59.6250    81.9500     6.3540     6.6810     6.5090    23.1220     2.2300    11.9670 
   59.7500    89.9670     6.2520     6.5480     6.2870    23.1760     2.2430     9.3100 
   59.8750    95.2900     6.1280     6.2980     6.2850    23.2310     2.2580     7.3850 
   60.0000    96.0490     5.9440     5.9770     6.5490    23.2640     2.2700     6.0000 
   60.1250    96.6330     5.7570     5.6680     6.5250    23.3010     2.2810     4.9450 
   60.2500    98.6250     5.6620     5.4430     6.0440    23.3860     2.2960     4.0670 
   60.3750    99.7880     5.7510     5.3670     5.5260    23.5250     2.3130     3.3070 
   60.5000    94.8820     6.1030     5.5110     5.9050    23.6660     2.3220     2.5310 
   60.6250    84.7920     6.6350     5.8320     6.9610    23.7240     2.3150     1.6790 
   60.7500    75.9240     7.2450     6.2730     7.6160    23.6980     2.2890     0.7720 
   60.8750    73.3730     7.8030     6.7330     7.4040    23.6700     2.2510    -0.1850 
   61.0000    74.5550     8.1600     7.0690     6.9840    23.6500     2.2160    -1.2000 
   61.1250    73.3800     8.3150     7.2310     6.8530    23.6050     2.1950    -2.2550 
   61.2500    69.9160     8.3490     7.2770     6.8830    23.6120     2.1910    -3.2730 
   61.3750    68.3120     8.4050     7.3400     7.1380    23.6730     2.2010    -4.2380 
   61.5000    69.5840     8.6640     7.5670     7.2280    23.6550     2.2240    -5.1080 
   61.6250    70.9680     9.1490     7.9540     7.3050    23.5490     2.2530    -5.8660 
   61.7500    72.2240     9.7600     8.4160     8.1140    23.5030     2.2830    -6.4650 
   61.8750    73.7350    10.2770     8.8120    10.1220    23.5390     2.3070    -6.8960 
   62.0000    74.9420    10.3900     8.9390    12.1610    23.5130     2.3110    -7.2170 
   62.1250    77.3680    10.0990     8.7860     9.9870    23.4340     2.2920    -7.5190 
   62.2500    80.1750     9.5740     8.4450     8.3250    23.3870     2.2580    -7.8400 
   62.3750    80.5930     9.0670     8.0570     7.7760    23.4420     2.2200    -8.1540 
   62.5000    76.7620     8.7990     7.7560     7.8550    23.6170     2.1950    -8.3920 
   62.6250    71.2990     8.7410     7.5800     8.0260    23.8120     2.1830    -8.5210 
   62.7500    68.4490     8.7810     7.5070     7.9070    23.9150     2.1830    -8.5990 
   62.8750    70.0170     8.8040     7.4770     7.5310    23.9000     2.1870    -8.7080 
   63.0000    73.8640     8.7500     7.4550     7.2330    23.8520     2.1880    -8.8400 
   63.1250    73.8040     8.6800     7.4720     7.1720    23.8270     2.1820    -8.9760 
