~V
VERS. 2.00: Ver 2.00
~W
STRT.M 55.0000:
STOP.M 249.0000:
STEP.M 0.1250:
NULL. -999.2500:
UWI. F11017:
~C
DEPT.M :
GR.API :
RML.OHMM :
RI. :
RXO.OHMM :
CALI.CM :
DEN.GM/CC :
SP.MV :
~A
# ...
  235.0000    63.6250     8.8530     8.1140     8.4110    23.3560     2.4070    -5.8170 
  235.1250    61.8800     8.8400     8.1270     8.1540    23.2660     2.4190    -5.8530 
  235.2500    61.1290     8.8460     8.1510     7.8080    23.1540     2.4280    -5.8900 
  235.3750    61.5380     8.8740     8.1940     7.8810    23.0600     2.4310    -5.9050 
  235.5000    61.4510     8.9100     8.2480     8.3750    23.0330     2.4220    -5.9060 
  235.6250    60.9490     8.9310     8.2920     9.1650    22.9920     2.3990    -5.9140 
  235.7500    60.6770     8.9280     8.3120     9.9710    22.9770     2.3700    -5.9060 
  235.8750    60.2060     8.9020     8.3070    10.9990    23.0340     2.3460    -5.8880 
  236.0000    59.0580     8.8620     8.2820    12.5340    23.1330     2.3340    -5.8560 
  236.1250    57.8860     8.8090     8.2410    14.0770    23.1610     2.3410    -5.8100 
  236.2500    58.1990     8.7360     8.1830    15.4270    23.1400     2.3610    -5.7600 
  236.3750    58.8230     8.6280     8.1020    14.3810    23.1480     2.3850    -5.7070 
  236.5000    58.8380     8.4850     7.9930    12.4440    23.2130     2.4070    -5.6450 
  236.6250    59.3200     8.3240     7.8690    10.2050    23.3080     2.4220    -5.5890 
  236.7500    59.8510     8.1870     7.7620     8.7870    23.3340     2.4320    -5.5510 
  236.8750    60.0170     8.1190     7.7050     7.8810    23.3120     2.4400    -5.5230 
  237.0000    60.6980     8.1530     7.7300     7.7740    23.2770     2.4470    -5.5130 
  237.1250    63.0390     8.3200     7.8730     8.1000    23.2540     2.4510    -5.5280 
  237.2500    64.5340     8.5880     8.1150     8.4890    23.2260     2.4530    -5.5680 
  237.3750    63.1440     8.9290     8.4400     8.9000    23.2000     2.4530    -5.6430 
  237.5000    60.6690     9.3080     8.8200     9.3000    23.1640     2.4530    -5.7290 
  237.6250    59.8510     9.6740     9.2100     9.7490    23.1000     2.4520    -5.8090 
  237.7500    60.3810     9.9800     9.5590     9.9180    23.0590     2.4450    -5.8980 
  237.8750    60.2500    10.1830     9.8170     9.6520    23.0890     2.4350    -5.9910 
  238.0000    58.5910    10.2520     9.9490     8.9440    23.1060     2.4220    -6.1050 
  238.1250    57.1780    10.1550     9.9130     8.0530    23.0460     2.4140    -6.2480 
  238.2500    58.2390     9.9520     9.7600     7.2840    22.9270     2.4140    -6.3850 
  238.3750    59.9760     9.7180     9.5530     6.9700    22.8420     2.4200    -6.5150 
  238.5000    58.9060     9.5500     9.3800     6.9540    22.7850     2.4310    -6.6500 
  238.6250    56.9090     9.5680     9.3520     6.9650    22.7050     2.4430    -6.7880 
  238.7500    56.8090     9.7860     9.4970     7.2530    22.6110     2.4500    -6.9220 
  238.8750    56.8090    10.1680     9.8050     8.1780    22.4910     2.4500    -7.0360 
  239.0000    56.8090    10.6290    10.2150    10.1720    22.3700     2.4430    -7.1120 
  239.1250    56.8090    11.0330    10.6240    12.6240    22.4150     2.4280    -7.1450 
  239.2500    56.8090    11.2940    10.9330    13.1940    22.5240     2.4110    -7.1290 
  239.3750    56.8090    11.3950    11.1090    12.2090    22.5940     2.3960    -7.0680 
  239.5000    56.8090    11.3890    11.1770    10.5650    22.5860     2.3850    -6.9810 
  239.6250    56.8090    11.3920    11.2300     9.1320    22.5620     2.3840    -6.8860 
  239.7500    56.8090    11.5180    11.3810     8.7340    22.5770     2.3970    -6.7840 
  239.8750    56.8090    11.8250    11.6970     9.5270    22.5890     2.4250    -6.7020 
  240.0000    56.8090    12.3230    12.2020    10.3860    22.5840     2.4620    -6.6500 
  240.1250    56.8090    12.9920    12.8960    10.7660    22.5280     2.4960    -6.6120 
  240.2500    56.8090    13.7240    13.6830    11.2230    22.4490     2.5140    -6.6010 
  240.3750    56.8090    14.4320    14.4750    12.3240    22.3160     2.5180    -6.6260 
  240.5000    56.8090    15.0370    15.1880    14.2170    22.1470     2.5150    -6.6860 
  240.6250    56.8090    15.4570    15.7260    16.4030    21.9800     2.5140    -6.7590 
  240.7500    56.8090    15.7100    16.0870    19.5130    21.7900     2.5180    -6.8400 
  240.8750    56.8090    15.8240    16.2880    21.7640    21.6530     2.5220    -6.9070 
  241.0000    56.8090    15.8450    16.3680    21.8730    21.5820     2.5240    -6.9540 
  241.1250    56.8090    15.8290    16.3770    17.1530    21.4850     2.5190    -7.0100 
  241.2500    56.8090    15.8310    16.3800    14.0240    21.3290     2.5120    -7.0840 
  241.3750    56.8090    15.8790    16.4120    13.0010    21.1250     2.5050    -7.1570 
  241.5000    56.8090    15.9800    16.4950    13.4000    20.8890     2.5010    -7.2110 
  241.6250    56.8090    16.1270    16.6350    13.8990    20.5920     2.5020    -7.2360 
  241.7500    56.8090    16.2830    16.8000    13.3240    20.2250     2.5070    -7.2520 
  241.8750    56.8090    16.4190    16.9580    12.8000    19.8070     2.5130    -7.2650 
  242.0000    56.8090    16.5130    17.0800    12.5050    19.3870     2.5190    -7.2550 
  242.1250    56.8090    16.5510    17.1410    12.0730    18.9960     2.5240    -7.1910 
  242.2500    56.8090    16.5550    17.1590    11.7320    18.7210     2.5280    -7.0690 
  242.3750    56.8090    16.5410    17.1520    11.7110    18.6780     2.5310    -6.8980 
  242.5000    56.8090    16.5270    17.1410    11.9260    18.9090     2.5330    -6.7040 
  242.6250    56.8090    16.5190    17.1370    12.4000    19.4760     2.5320    -6.5150 
  242.7500    56.8090    16.5160    17.1400    13.6280    20.2110     2.5310    -6.3140 
  242.8750    56.8090    16.5140    17.1440    14.8490    20.9440     2.5290    -6.1170 
  243.0000    56.8090    16.5100    17.1450    15.7030    21.5130     2.5280    -5.9470 
  243.1250    56.8090    16.5030    17.1410    15.2770    21.8030     2.5250    -5.8030 
  243.2500    56.8090    16.4940    17.1330    15.2850    21.9560     2.5180    -5.6970 
  243.3750    56.8090    16.4830    17.1230    14.9660    22.1190     2.5070    -5.6470 
  243.5000    56.8090    16.4720    17.1130    14.0390    22.2940     2.4930    -5.6260 
  243.6250    56.8090    16.4630    17.1010    12.4990    22.3330     2.4790    -5.6000 
  243.7500    56.8090    16.4570    17.0890    11.5570    22.2250     2.4660    -5.5820 
  243.8750    56.8090    16.4540    17.0740    11.6700    22.0800     2.4520    -5.5610 
  244.0000    56.8090    16.4550    17.0580    12.5400    22.0550     2.4310    -5.5450 
  244.1250    56.8090    16.4570    17.0420    13.5760    22.2330     2.3990    -5.5560 
  244.2500    56.8090    16.4600    17.0280    14.1120    22.4690     2.3630    -5.5690 
  244.3750    56.8090    16.4600    17.0170    13.8750    22.6020     2.3340    -5.5600 
  244.5000    56.8090    16.4580    17.0100    13.7230    22.6370     2.3200    -5.5330 
  244.6250    56.8090    16.4560    17.0070    14.5780    22.6000     2.3240    -5.5050 
  244.7500    56.8090    16.4550    17.0070    15.0700    22.5370     2.3350    -5.4650 
  244.8750    56.8090    16.4550    17.0070    14.8480    22.4500     2.3410    -5.4080 
  245.0000    56.8090    16.4550    17.0070    14.9880    22.3070     2.3410    -5.3180 
  245.1250    56.8090    16.4550    17.0070    14.7970    22.1000     2.3370    -5.1770 
  245.2500    56.8090    16.4550    17.0070    14.6910    21.8210     2.3400    -5.0240 
  245.3750    56.8090    16.4550    17.0070    14.2320    21.3970     2.3510    -4.8860 
  245.5000    56.8090    16.4550    17.0070    13.3250    20.7570     2.3650    -4.7650 
  245.6250    56.8090    16.4550    17.0070    11.9930    19.8710     2.3770    -4.6520 
  245.7500    56.8090    16.4550    17.0070    10.4100    18.7850     2.3850    -4.5650 
  245.8750    56.8090    16.4550    17.0070     8.7310    17.5290     2.3890    -4.5170 
  246.0000    56.8090    16.4550    17.0070     7.6300    16.3220     2.3900    -4.5130 
  246.1250    56.8090    16.4550    17.0070     6.9710    15.5210     2.3890    -4.5610 
