~V
VERS. 2.00: Ver 2.00
~W
STRT.M 55.0000:
STOP.M 236.0000:
STEP.M 0.1250:
NULL. -999.2500:
UWI. F11015:
~C
DEPT.M :
GR.API :
RML.OHMM :
RI. :
RXO.OHMM :
CALI.CM :
DEN.GM/CC :
SP.MV :
~A
# ...
  100.0000    72.2780     8.6900     7.2850     7.2360    23.5710     2.2710   -14.8090 
  100.1250    74.9860     8.5600     7.1610     6.8940    23.5940     2.2450   -14.4070 
  100.2500    80.1670     9.0460     7.4310     6.7160    23.5710     2.2240   -13.9300 
  100.3750    82.6160    10.1170     8.1510     7.2870    23.4860     2.2300   -13.3260 
  100.5000    78.1290    11.4880     9.2170     9.4690    23.3590     2.2650   -12.6670 
  100.6250    73.3510    12.4520    10.1880    12.6620    23.2960     2.3140   -12.0530 
  100.7500    74.4160    12.4070    10.4600    12.8580    23.4380     2.3520   -11.5010 
  100.8750    80.4540    11.2670     9.7960     9.4550    23.7500     2.3550   -10.9760 
  101.0000    86.8540     9.5210     8.4920     6.3310    24.0340     2.3170   -10.4390 
  101.1250    89.7250     7.9040     7.1230     5.4650    24.1140     2.2610    -9.9320 
  101.2500    90.3910     6.7640     6.0450     5.1370    24.1200     2.2250    -9.5050 
  101.3750    91.5010     6.1010     5.3240     4.9570    24.1730     2.2170    -9.2010 
  101.5000    94.2000     5.8380     4.9480     4.9120    24.2620     2.2310    -9.0470 
  101.6250    96.6050     6.0230     4.9770     4.9010    24.2920     2.2560    -9.0800 
  101.7500    97.8860     6.6560     5.3960     4.9870    24.2780     2.2850    -9.2480 
  101.8750    97.8750     7.7790     6.2460     5.6630    24.2540     2.3180    -9.5030 
  102.0000    95.1700     9.3150     7.5170     7.8310    24.2230     2.3560    -9.8220 
  102.1250    90.7010    10.9040     9.0390    12.9350    24.1740     2.4020   -10.2370 
  102.2500    85.8580    11.9300    10.2890    15.5860    24.1140     2.4480   -10.7670 
  102.3750    82.9560    12.0090    10.8030    13.2660    24.0500     2.4660   -11.4540 
  102.5000    84.1450    11.2620    10.5010     9.5550    23.9580     2.4290   -12.2630 
  102.6250    87.3190    10.2730     9.7490     9.2940    23.7520     2.3460   -13.0900 
  102.7500    87.2160     9.6090     9.0940     9.8250    23.5060     2.2700   -13.8220 
  102.8750    83.5070     9.3880     8.7130     9.3080    23.3480     2.2220   -14.4630 
  103.0000    81.9100     9.4560     8.5630     8.7350    23.3310     2.1980   -15.0640 
  103.1250    83.7390     9.4840     8.4290     8.6430    23.4290     2.1890   -15.5990 
  103.2500    83.8200     9.2460     8.1200     8.3260    23.5170     2.1820   -16.0310 
  103.3750    82.3510     8.7270     7.6110     7.4010    23.5750     2.1760   -16.3070 
  103.5000    82.3460     8.0240     6.9770     6.1540    23.6530     2.1730   -16.3940 
  103.6250    84.7540     7.3130     6.3580     5.9740    23.7080     2.1800   -16.3300 
  103.7500    86.0270     6.8280     5.9130     6.5000    23.7330     2.1960   -16.2720 
  103.8750    86.0870     6.8180     5.7980     6.9790    23.8040     2.2240   -16.3010 
  104.0000    88.0230     7.5370     6.1780     6.8460    23.9140     2.2690   -16.4240 
  104.1250    89.8280     9.3280     7.3430     7.4940    24.0720     2.3390   -16.6760 
  104.2500    87.7570    11.9480     9.2650    11.7860    24.1390     2.4250   -17.0560 
  104.3750    81.4260    14.8630    11.7270    19.3150    24.1370     2.5040   -17.5680 
  104.5000    75.1920    17.0500    14.0020    24.5880    24.0540     2.5460   -18.2310 
  104.6250    73.2800    17.0950    14.7120    23.0420    23.8500     2.5160   -19.0510 
  104.7500    72.0820    15.3950    13.7870    16.9600    23.6000     2.4330   -19.9700 
  104.8750    70.3990    13.0360    12.0240    11.9480    23.4420     2.3310   -20.9340 
  105.0000    69.5830    11.0100    10.2870     9.7970    23.3970     2.2440   -21.8800 
  105.1250    70.3090     9.8260     9.0780     9.2990    23.4060     2.1890   -22.7040 
  105.2500    70.0910     9.2430     8.3280     9.1630    23.4090     2.1540   -23.3690 
  105.3750    69.6050     9.0280     7.9160     8.9680    23.4040     2.1290   -23.8600 
  105.5000    70.4560     8.9900     7.7180     8.6510    23.3880     2.1130   -24.2480 
  105.6250    71.5370     9.0150     7.6530     8.4390    23.3530     2.1130   -24.5680 
  105.7500    71.0440     9.0470     7.6460     8.6490    23.3370     2.1250   -24.7570 
  105.8750    68.7060     9.0920     7.6800     9.1420    23.3390     2.1420   -24.7590 
  106.0000    64.7710     9.1850     7.7620     9.5010    23.3570     2.1570   -24.6320 
  106.1250    61.4560     9.3850     7.9280     9.6000    23.3930     2.1660   -24.4690 
  106.2500    63.2960     9.6820     8.1620     9.6510    23.4160     2.1710   -24.3450 
  106.3750    67.9090    10.0150     8.4200    10.0730    23.4460     2.1700   -24.3040 
  106.5000    70.5750    10.2670     8.6230    10.8290    23.5010     2.1610   -24.2720 
  106.6250    70.3300    10.2640     8.6460    11.2380    23.5260     2.1470   -24.1750 
  106.7500    68.9740     9.9960     8.4740    10.3590    23.5680     2.1330   -24.0700 
  106.8750    66.7250     9.5660     8.1600     9.7370    23.6720     2.1230   -24.0380 
  107.0000    65.0130     9.1580     7.8270     9.5990    23.8140     2.1180   -24.1000 
  107.1250    67.4180     9.0180     7.6440     9.6030    23.9530     2.1240   -24.2360 
  107.2500    71.1810     9.2130     7.6870     9.9080    24.1010     2.1370   -24.3960 
  107.3750    72.1130     9.7040     7.9610    12.0230    24.2470     2.1460   -24.5750 
  107.5000    69.8900    10.3380     8.3900    19.3610    24.2980     2.1410   -24.7590 
  107.6250    67.1930    10.8230     8.7920    35.2580    24.1490     2.1200   -24.9270 
  107.7500    66.2830    10.9430     8.9770    36.4720    23.9030     2.0960   -25.0980 
  107.8750    67.5180    10.6540     8.8680    22.1860    23.6570     2.0830   -25.3050 
  108.0000    70.4580    10.0840     8.5150    12.4820    23.4970     2.0850   -25.5400 
  108.1250    73.3670     9.4860     8.0670     9.9760    23.4110     2.0960   -25.7860 
  108.2500    75.0260     9.0670     7.6910     9.3620    23.3150     2.1090   -26.0100 
  108.3750    73.9700     8.8870     7.4570     9.2200    23.2060     2.1180   -26.1560 
  108.5000    70.8370     8.9090     7.3700     9.2600    23.1500     2.1230   -26.2480 
  108.6250    68.4910     9.0460     7.4040     9.3010    23.1450     2.1250   -26.3780 
  108.7500    67.7390     9.1810     7.4820     9.3690    23.1470     2.1290   -26.5710 
  108.8750    67.7370     9.2610     7.5600     9.4180    23.1320     2.1360   -26.7470 
  109.0000    65.9340     9.2720     7.6130     9.3760    23.1190     2.1410   -26.8270 
  109.1250    62.5090     9.2320     7.6300     9.2420    23.1230     2.1450   -26.7940 
  109.2500    60.2820     9.1850     7.6280     9.1750    23.1350     2.1460   -26.6990 
  109.3750    61.3620     9.1430     7.6160     9.2750    23.1660     2.1450   -26.6000 
  109.5000    64.6550     9.1060     7.5850     9.3270    23.2310     2.1430   -26.5520 
  109.6250    66.1080     9.0580     7.5200     9.4000    23.2380     2.1430   -26.5310 
  109.7500    67.0080     8.9910     7.4240     9.4580    23.1740     2.1470   -26.4550 
  109.8750    69.5090     8.9060     7.3090     9.5050    23.0680     2.1540   -26.3280 
  110.0000    71.7560     8.8230     7.1990     9.4790    23.0140     2.1580   -26.2230 
  110.1250    69.1770     8.7870     7.1200     9.5010    23.0320     2.1570   -26.1800 
  110.2500    64.3370     8.8130     7.0860     9.6120    23.0890     2.1580   -26.1980 
  110.3750    62.0040     8.8880     7.0950     9.6580    23.1650     2.1640   -26.2800 
  110.5000    62.8450     8.9660     7.1350     9.6250    23.3130     2.1690   -26.3870 
  110.6250    63.2710     8.9770     7.1780     9.6380    23.5090     2.1680   -26.4560 
  110.7500    62.1010     8.9030     7.1940     9.6620    23.6180     2.1630   -26.4690 
  110.8750    61.7770     8.7790     7.1750     9.6310    23.5720     2.1600   -26.4370 
  111.0000    63.6270     8.6800     7.1430     9.5690    23.4300     2.1600   -26.3810 
  111.1250    64.2650     8.6910     7.1490     9.5920    23.2880     2.1580   -26.3130 
