~V
VERS. 2.00: Ver 2.00
~W
STRT.M 47.0000:
STOP.M 272.0000:
STEP.M 0.1250:
NULL. -999.2500:
UWI. F11040:
~C
DEPT.M :
DEN.GM/CC :
GR.API :
RML.OHMM :
RI. :
RXO.OHMM :
CALI.CM :
SP.MV :
~A
# ...
  148.2500     2.3870    79.9460     4.6520     4.2360     4.7310    23.7150   -10.6510 
  148.3750     2.3890    83.1150     4.6310     4.1570     4.6950    23.7150   -10.6280 
  148.5000     2.3960    86.7380     4.7350     4.2550     4.7650    23.7180   -10.6590 
  148.6250     2.4050    86.1510     4.8420     4.4220     4.9560    23.7250   -10.7000 
  148.7500     2.4110    82.7750     4.8870     4.5620     5.1680    23.7400   -10.7450 
  148.8750     2.4130    80.0020     4.8700     4.6410     5.3050    23.7610   -10.7760 
  149.0000     2.4110    79.4710     4.8200     4.6600     5.3130    23.7750   -10.7710 
  149.1250     2.4090    82.0920     4.7790     4.6460     5.2100    23.7790   -10.7730 
  149.2500     2.4090    84.6660     4.7800     4.6380     5.1220    23.7790   -10.7690 
  149.3750     2.4110    85.7560     4.8310     4.6520     5.1570    23.7790   -10.7650 
  149.5000     2.4100    87.9090     4.9260     4.6880     5.2540    23.7790   -10.7550 
  149.6250     2.4040    91.7050     5.0470     4.7310     5.3260    23.7790   -10.7420 
  149.7500     2.3950    91.4190     5.1670     4.7660     5.3890    23.7790   -10.7190 
  149.8750     2.3860    85.6770     5.2630     4.7790     5.3900    23.7790   -10.7110 
  150.0000     2.3790    81.5830     5.3180     4.7620     5.3960    23.7790   -10.7330 
  150.1250     2.3740    84.8970     5.3100     4.7030     5.3970    23.7790   -10.7150 
  150.2500     2.3720    88.8360     5.2560     4.6150     5.4070    23.7790   -10.7190 
  150.3750     2.3700    88.2020     5.1870     4.5280     5.3810    23.7780   -10.7500 
  150.5000     2.3670    83.4110     5.1810     4.5000     5.3760    23.7780   -10.8210 
  150.6250     2.3620    77.7690     5.4180     4.6680     5.4330    23.7770   -10.9590 
  150.7500     2.3550    74.2250     6.0340     5.1360     5.6590    23.7770   -11.1180 
  150.8750     2.3460    73.6700     7.1590     6.0180     6.3010    23.7800   -11.2630 
  151.0000     2.3350    72.8930     8.8430     7.3850     7.6060    23.7910   -11.3540 
  151.1250     2.3220    69.3220    11.0100     9.2530    10.0770    23.8210   -11.4630 
  151.2500     2.3070    66.4600    13.2340    11.3090    13.4550    23.8840   -11.5900 
  151.3750     2.2920    65.4910    15.1140    13.2110    16.2540    23.9960   -11.7220 
  151.5000     2.2790    64.2070    16.3240    14.6050    18.4330    24.1230   -11.8390 
  151.6250     2.2720    62.8280    16.6060    15.1240    20.5740    24.2200   -11.9030 
  151.7500     2.2710    64.8260    16.1760    14.8970    21.1440    24.2230   -11.9590 
  151.8750     2.2720    69.0600    15.1560    14.0430    19.3540    24.1680   -11.9820 
  152.0000     2.2700    68.8160    13.6500    12.6900    17.1740    24.1180   -12.0000 
  152.1250     2.2660    63.4500    11.7950    10.9860    17.6680    24.1100   -12.0060 
  152.2500     2.2680    61.6520    10.0320     9.3220    17.7650    24.0910   -12.0040 
  152.3750     2.2800    66.6710     8.8450     8.0730    13.9670    24.0190   -12.0060 
  152.5000     2.3020    73.3410     8.7110     7.5800     8.8030    23.8990   -11.9900 
  152.6250     2.3240    71.8370    10.3310     8.3660     7.9310    23.8090   -11.9580 
  152.7500     2.3360    65.3980    13.7840    10.6080    10.3190    23.7790   -11.9120 
  152.8750     2.3320    60.3610    19.0850    14.5620    15.6890    23.7820   -11.8830 
  153.0000     2.3160    57.8500    25.7590    20.1690    25.0660    23.7970   -11.8820 
  153.1250     2.2930    55.4270    32.5680    26.7930    35.1800    23.8370   -11.8970 
  153.2500     2.2730    52.2800    37.8540    32.8210    39.8830    23.9040   -11.9200 
  153.3750     2.2600    51.1830    40.5320    36.8010    40.0040    23.9840   -11.9340 
  153.5000     2.2530    52.7160    40.5740    38.0510    39.0810    24.0490   -11.9520 
  153.6250     2.2520    54.9150    39.0020    37.0990    37.8440    24.1030   -11.9570 
  153.7500     2.2530    55.6890    37.3820    35.6350    38.1420    24.1220   -11.9680 
  153.8750     2.2570    55.8500    36.2640    34.3590    40.3950    24.1200   -11.9750 
  154.0000     2.2610    57.3050    35.8210    33.5630    40.7590    24.1150   -11.9720 
  154.1250     2.2640    58.7810    36.2600    33.5020    38.7420    24.1160   -11.9960 
  154.2500     2.2660    58.7560    37.4690    34.1370    37.7980    24.1180   -12.0350 
  154.3750     2.2670    58.1110    39.3630    35.4480    38.2060    24.1230   -12.0600 
  154.5000     2.2670    56.8900    41.7650    37.3340    39.8270    24.1340   -12.0420 
  154.6250     2.2660    53.7930    44.3810    39.6080    43.4760    24.1510   -11.9980 
  154.7500     2.2630    51.7540    46.7930    41.8680    46.6220    24.1650   -11.9490 
  154.8750     2.2580    52.7180    48.7020    43.7990    47.9610    24.1700   -11.9260 
  155.0000     2.2520    54.3920    49.8940    45.1580    49.7480    24.1710   -11.9530 
  155.1250     2.2480    53.2110    50.1290    45.6770    52.8100    24.1690   -11.9760 
  155.2500     2.2470    52.6350    49.5870    45.4780    54.2250    24.1640   -11.9880 
  155.3750     2.2490    54.6860    48.4390    44.6940    55.1440    24.1540   -12.0030 
  155.5000     2.2550    58.0810    46.9720    43.5620    55.6580    24.1350   -12.0530 
  155.6250     2.2630    59.8920    45.6600    42.4790    53.1460    24.1070   -12.1430 
  155.7500     2.2690    59.3780    44.9220    41.8400    49.9400    24.0920   -12.2400 
  155.8750     2.2720    58.8760    44.9530    41.8540    49.0780    24.0880   -12.2960 
  156.0000     2.2700    59.4600    45.6630    42.4960    48.3830    24.0880   -12.3050 
  156.1250     2.2670    59.8960    46.6170    43.4530    49.8600    24.0910   -12.2980 
  156.2500     2.2630    58.7370    47.0830    44.0830    55.9240    24.0940   -12.3220 
  156.3750     2.2620    57.1620    46.5370    43.8750    59.7710    24.0980   -12.3500 
  156.5000     2.2640    56.3380    44.8070    42.5910    58.4680    24.1020   -12.3690 
  156.6250     2.2690    56.6480    42.1120    40.3170    53.3730    24.1030   -12.3540 
  156.7500     2.2750    57.7230    39.2640    37.7670    45.9110    24.1070   -12.3000 
  156.8750     2.2780    58.4610    36.7980    35.4440    38.4670    24.1130   -12.2640 
  157.0000     2.2790    58.0420    35.0070    33.6650    35.5010    24.1230   -12.2490 
  157.1250     2.2770    58.8880    34.1150    32.6720    35.4910    24.1420   -12.2660 
  157.2500     2.2740    60.7330    34.0240    32.4010    35.9230    24.1620   -12.2690 
  157.3750     2.2720    61.5150    34.7790    32.9020    36.4570    24.1700   -12.2710 
  157.5000     2.2700    61.3250    36.4000    34.2040    36.9020    24.1710   -12.2580 
  157.6250     2.2690    61.8040    38.8710    36.3380    37.4860    24.1710   -12.2350 
  157.7500     2.2650    62.5860    41.6730    38.8810    40.2550    24.1710   -12.2280 
  157.8750     2.2580    61.9400    44.2360    41.3480    46.4450    24.1680   -12.2170 
  158.0000     2.2500    59.6330    45.9310    43.1560    54.9030    24.1590   -12.2230 
  158.1250     2.2440    57.3740    46.0730    43.6000    59.4350    24.1330   -12.2360 
  158.2500     2.2410    58.3820    44.9230    42.7960    57.9410    24.0770   -12.2150 
  158.3750     2.2400    62.0020    42.9510    41.1160    51.9890    23.9810   -12.1530 
  158.5000     2.2410    65.1540    40.7750    39.1270    45.4150    23.8520   -12.0670 
  158.6250     2.2430    63.9840    38.9700    37.3970    43.2310    23.7600   -12.0110 
  158.7500     2.2460    61.2140    37.6780    36.1270    41.8120    23.7140   -11.9700 
  158.8750     2.2530    61.0490    36.8540    35.3100    40.2280    23.7460   -11.9570 
  159.0000     2.2620    62.6280    36.3680    34.8400    38.8500    23.8350   -11.9290 
  159.1250     2.2700    61.1520    36.0640    34.5750    40.5880    23.9210   -11.8580 
  159.2500     2.2750    57.8230    35.7520    34.3180    41.4900    23.8930   -11.7990 
  159.3750     2.2760    57.2400    35.3370    33.9670    39.8410    23.7820   -11.7670 
