~V
VERS. 2.00: Ver 2.00
~W
STRT.M 60.0000:
STOP.M 274.0000:
STEP.M 0.1250:
NULL. -999.2500:
UWI. F11079:
~C
DEPT.M :
GR.API :
RML.OHMM :
RI. :
RXO.OHMM :
CALI.CM :
DEN.GM/CC :
SP.MV :
~A
# ...
  150.0000    66.5400    10.4040     9.2570     9.5790    24.4260     2.2190    -5.9860 
  150.1250    64.8660    10.4070     9.2810     9.4930    24.5020     2.1890    -6.0150 
  150.2500    61.7760    10.4040     9.3070     9.4510    24.4730     2.1540    -6.0660 
  150.3750    60.5420    10.3860     9.3190     9.6440    24.4000     2.1260    -6.1450 
  150.5000    62.8260    10.3630     9.3160     9.8240    24.3540     2.1160    -6.2500 
  150.6250    67.0660    10.3600     9.3140    10.0370    24.3300     2.1200    -6.3550 
  150.7500    68.9840    10.3850     9.3260    10.0680    24.3100     2.1310    -6.4770 
  150.8750    68.0430    10.4330     9.3600     9.9150    24.3360     2.1460    -6.6230 
  151.0000    67.3280    10.4890     9.4080     9.8210    24.4690     2.1610    -6.7780 
  151.1250    67.5410    10.5220     9.4520    10.0590    24.7390     2.1670    -6.9090 
  151.2500    65.6820    10.5200     9.4840    10.6570    25.1480     2.1630    -6.9920 
  151.3750    62.3210    10.4910     9.5090    10.8480    25.5800     2.1570    -7.0390 
  151.5000    61.3610    10.4570     9.5340    10.7130    25.7270     2.1530    -7.0420 
  151.6250    63.0350    10.4410     9.5710    10.3540    25.4260     2.1470    -7.0220 
  151.7500    63.0660    10.4440     9.6220    10.2050    24.9880     2.1390    -6.9920 
  151.8750    62.3010    10.4410     9.6720    10.2590    24.6200     2.1310    -6.9570 
  152.0000    63.5320    10.4080     9.7000    10.4080    24.3730     2.1250    -6.9100 
  152.1250    64.5030    10.3200     9.6750    10.3980    24.2940     2.1240    -6.8530 
  152.2500    64.5040    10.1940     9.6010    10.0140    24.2740     2.1270    -6.7830 
  152.3750    64.6540    10.0570     9.4940     9.6620    24.2570     2.1360    -6.6770 
  152.5000    65.2740     9.9390     9.3920     9.4780    24.2130     2.1460    -6.5460 
  152.6250    65.5380     9.8770     9.3380     9.5320    24.1500     2.1570    -6.3760 
  152.7500    65.8710     9.8800     9.3350     9.5200    24.0820     2.1680    -6.1840 
  152.8750    66.9940     9.9520     9.3760     9.6300    24.0060     2.1760    -6.0110 
  153.0000    67.6660    10.0670     9.4450     9.9270    23.9370     2.1790    -5.8710 
  153.1250    67.0770    10.1570     9.5150    10.1050    23.8840     2.1780    -5.7590 
  153.2500    65.9240    10.1650     9.5510    10.0020    23.8270     2.1790    -5.6430 
  153.3750    65.2940    10.0680     9.5240     9.6480    23.7790     2.1840    -5.5280 
  153.5000    64.3980     9.8730     9.4060     9.1340    23.6980     2.1930    -5.3910 
  153.6250    64.7250     9.6160     9.1850     8.6220    23.5180     2.2040    -5.2320 
  153.7500    66.4390     9.3660     8.9220     8.4230    23.3680     2.2120    -5.0660 
  153.8750    70.9660     9.1720     8.6840     8.3710    23.2420     2.2110    -4.9320 
  154.0000    76.7590     9.0870     8.5360     8.3630    23.1650     2.1970    -4.8500 
  154.1250    76.6990     9.2350     8.5910     8.4820    23.1310     2.1790    -4.8420 
  154.2500    71.3940     9.6680     8.8960     8.9260    23.1380     2.1700    -4.8850 
  154.3750    66.7810    10.4200     9.4860     9.2970    23.1540     2.1730    -4.9600 
  154.5000    67.4640    11.4930    10.3690     9.6190    23.1620     2.1890    -5.0660 
  154.6250    71.6660    12.9500    11.6100    10.8200    23.1660     2.2290    -5.1660 
  154.7500    73.6690    14.7460    13.1760    12.6270    23.2130     2.2920    -5.2320 
  154.8750    73.5560    16.8580    15.0630    13.2110    23.3630     2.3620    -5.2340 
  155.0000    72.4270    19.1970    17.2210    13.2580    23.6230     2.4170    -5.1970 
  155.1250    71.6510    21.5170    19.4930    15.4470    23.8540     2.4500    -5.1580 
  155.2500    72.4860    23.4140    21.5130    20.8750    24.0170     2.4710    -5.1460 
  155.3750    74.1890    24.5330    22.9120    23.5810    24.1010     2.4680    -5.1710 
  155.5000    75.8700    24.7470    23.4810    20.4130    24.1240     2.4200    -5.2230 
  155.6250    76.0500    24.1260    23.1740    17.8930    24.1190     2.3320    -5.3350 
  155.7500    72.7800    23.0800    22.3580    17.3910    24.1210     2.2500    -5.4350 
  155.8750    66.4400    21.8060    21.2490    17.5860    24.1030     2.2050    -5.4710 
  156.0000    61.3260    20.4780    20.0590    18.0600    24.0190     2.2140    -5.4450 
  156.1250    61.6290    19.3480    19.0240    16.7460    23.7890     2.2810    -5.3870 
  156.2500    63.5580    18.7110    18.3590    14.2660    23.6040     2.3680    -5.3120 
  156.3750    63.0700    18.9110    18.3300    12.0760    23.5210     2.4370    -5.2200 
  156.5000    63.3840    20.1040    19.1470    14.0350    23.5480     2.4720    -5.1300 
  156.6250    68.1820    21.9830    20.7780    22.2930    23.6950     2.5040    -5.0590 
  156.7500    72.3300    23.4080    22.3300    33.1990    23.9020     2.5440    -5.0520 
  156.8750    72.9600    23.3010    22.7200    36.3460    24.1200     2.5660    -5.1270 
  157.0000    70.6760    21.2030    21.2270    42.5720    24.2560     2.5420    -5.2550 
  157.1250    65.4190    17.7240    18.1220    31.7050    24.3310     2.4770    -5.3860 
  157.2500    59.3340    14.4150    14.9060    19.6040    24.3850     2.3990    -5.5060 
  157.3750    57.0190    11.9720    12.3370    12.3130    24.3800     2.3180    -5.5940 
  157.5000    60.6260    10.4870    10.6070    10.2500    24.3430     2.2500    -5.6290 
  157.6250    63.9380     9.8290     9.6930    10.3170    24.2950     2.2140    -5.6190 
  157.7500    64.3660     9.5480     9.2410    10.4430    24.2520     2.2040    -5.5660 
  157.8750    65.2700     9.3570     9.0150    10.1600    24.1850     2.2060    -5.4400 
  158.0000    70.3120     9.0600     8.8060     9.6060    24.1530     2.2110    -5.2290 
  158.1250    76.8540     8.6180     8.5090     8.8590    24.1870     2.2170    -4.9230 
  158.2500    80.4370     8.1920     8.1950     7.9610    24.2440     2.2240    -4.5580 
  158.3750    80.9420     7.9280     7.9760     7.1680    24.2380     2.2300    -4.1900 
  158.5000    79.7610     7.9190     7.9560     7.0950    24.1740     2.2320    -3.8580 
  158.6250    76.0720     8.2220     8.2380     8.0050    24.1390     2.2220    -3.5590 
  158.7500    71.8040     8.7060     8.7410     9.0390    24.1220     2.2030    -3.2820 
  158.8750    70.0710     9.2030     9.3250     9.5920    24.0890     2.1840    -3.0370 
  159.0000    70.1390     9.5020     9.7650     9.8880    24.0600     2.1760    -2.7980 
  159.1250    69.3370     9.3580     9.7590    10.1370    24.0530     2.1810    -2.5210 
  159.2500    69.7050     8.8210     9.3020    10.0520    24.0630     2.1920    -2.1980 
  159.3750    73.8050     8.0380     8.5300     9.0530    24.0460     2.2120    -1.8020 
  159.5000    81.9610     7.2100     7.6520     7.3680    23.9250     2.2450    -1.3230 
  159.6250    90.9490     6.5240     6.8690     6.5380    23.7530     2.2860    -0.7640 
  159.7500    96.8320     6.0260     6.2540     6.1830    23.6690     2.3200    -0.1950 
  159.8750    99.4470     5.7090     5.8190     6.0810    23.6360     2.3380     0.3140 
  160.0000   100.6320     5.5500     5.5510     6.0830    23.6150     2.3440     0.7370 
  160.1250   100.7690     5.5340     5.4420     5.8760    23.5880     2.3460     1.0500 
  160.2500    98.3630     5.5930     5.4260     5.7480    23.5760     2.3460     1.2860 
  160.3750    93.8240     5.7060     5.4790     5.8470    23.5730     2.3380     1.4390 
  160.5000    89.1800     5.9010     5.6180     6.3450    23.6060     2.3200     1.5410 
  160.6250    86.2430     6.3260     5.9550     7.1730    23.7610     2.2960     1.6470 
  160.7500    85.9920     7.1370     6.5960     7.6550    24.0240     2.2800     1.7840 
  160.8750    86.4780     8.5530     7.6970     8.4330    24.2080     2.2840     1.9660 
  161.0000    83.1740    11.3050     9.4410    11.1740    24.2340     2.3230     2.1610 
  161.1250    73.2700    14.5790    12.0860    19.7950    24.1640     2.4020     2.3150 
