~V
VERS. 2.00: Ver 2.00
~W
STRT.M 57.0000:
STOP.M 278.0000:
STEP.M 0.1250:
NULL. -999.2500:
UWI. F11043:
~C
DEPT.M :
SP.MV :
GR.API :
RML.OHMM :
RI. :
RXO.OHMM :
CALI.CM :
DEN.GM/CC :
~A
# ...
   68.2500   -18.0490    82.1580     9.4520     6.4900     7.6840    23.4020     2.2080 
   68.3750   -18.0520    85.1140     9.2530     6.3190     7.7240    23.3980     2.1950 
   68.5000   -18.1150    84.9710     9.1330     6.2110     7.8850    23.3950     2.1910 
   68.6250   -18.2130    82.1550     9.0440     6.1500     8.1130    23.4000     2.1840 
   68.7500   -18.3250    81.5000     8.9500     6.1010     8.2310    23.3960     2.1700 
   68.8750   -18.4700    83.3010     8.8710     6.0630     8.1810    23.3900     2.1530 
   69.0000   -18.6820    85.1650     8.8480     6.0500     8.0230    23.3920     2.1400 
   69.1250   -18.9620    85.7310     8.9220     6.0890     8.0570    23.4010     2.1340 
   69.2500   -19.3000    85.6340     9.0860     6.1840     8.2720    23.3980     2.1290 
   69.3750   -19.6660    82.8670     9.3280     6.3380     8.6360    23.3950     2.1190 
   69.5000   -20.0290    77.3630     9.6180     6.5370     9.0490    23.4010     2.1080 
   69.6250   -20.3950    73.0070     9.9140     6.7620     9.5040    23.3990     2.1020 
   69.7500   -20.7790    70.3690    10.1800     6.9850     9.9290    23.3910     2.1040 
   69.8750   -21.1450    68.2650    10.3930     7.1830    10.2120    23.3920     2.1100 
   70.0000   -21.4800    65.7390    10.5330     7.3350    10.2600    23.4010     2.1160 
   70.1250   -21.7520    64.1500    10.5760     7.4090    10.0990    23.4000     2.1190 
   70.2500   -21.9400    64.3250    10.5400     7.4100     9.7710    23.3950     2.1200 
   70.3750   -22.0420    67.2560    10.4490     7.3500     9.6510    23.4000     2.1220 
   70.5000   -22.0710    71.9880    10.3470     7.2630     9.5470    23.4010     2.1240 
   70.6250   -22.0720    72.6620    10.2980     7.1940     9.6570    23.3950     2.1220 
   70.7500   -22.0670    68.0100    10.3190     7.1670     9.7270    23.3980     2.1200 
   70.8750   -22.0620    63.2200    10.4010     7.1780     9.8660    23.3950     2.1190 
   71.0000   -22.0270    62.4860    10.5090     7.2090    10.1390    23.3800     2.1150 
   71.1250   -21.9260    65.0540    10.5930     7.2350    10.2360    23.3680     2.1120 
   71.2500   -21.7330    67.4530    10.6180     7.2360    10.0840    23.3760     2.1140 
   71.3750   -21.4260    70.4410    10.5840     7.2060     9.6820    23.3480     2.1250 
   71.5000   -21.0610    74.2910    10.5200     7.1490     9.3200    23.3160     2.1410 
   71.6250   -20.6880    75.8040    10.4720     7.0860     9.0720    23.3220     2.1580 
   71.7500   -20.3680    74.6980    10.4810     7.0480     9.0040    23.3640     2.1720 
   71.8750   -20.1380    73.4690    10.5610     7.0580     8.9020    23.3970     2.1830 
   72.0000   -20.0220    72.5910    10.7060     7.1210     8.8890    23.3880     2.1890 
   72.1250   -20.0160    69.4410    10.8870     7.2260     9.1140    23.3520     2.1900 
   72.2500   -20.1040    63.9740    11.0600     7.3480     9.1320    23.3610     2.1860 
   72.3750   -20.3060    58.9940    11.2000     7.4750     9.2100    23.3700     2.1820 
   72.5000   -20.6000    58.2190    11.2970     7.6000     9.5110    23.3480     2.1810 
   72.6250   -20.9630    62.2460    11.3550     7.7070     9.9440    23.3540     2.1850 
   72.7500   -21.3230    65.0180    11.3960     7.7850    10.2370    23.3700     2.1890 
   72.8750   -21.6550    64.5510    11.4230     7.8240    10.2280    23.3460     2.1850 
   73.0000   -21.9420    62.9850    11.4250     7.8250    10.2490    23.3260     2.1720 
   73.1250   -22.1780    62.9680    11.3870     7.7920    10.2530    23.3320     2.1520 
   73.2500   -22.3440    62.5110    11.3250     7.7490    10.3490    23.3430     2.1320 
   73.3750   -22.4460    62.2830    11.2720     7.7140    10.5230    23.3470     2.1180 
   73.5000   -22.4960    63.9360    11.2620     7.7030    10.6980    23.3760     2.1120 
   73.6250   -22.4660    64.5950    11.3030     7.7150    10.8660    23.3870     2.1090 
   73.7500   -22.3760    62.9300    11.3450     7.7250    10.9210    23.3970     2.1040 
   73.8750   -22.2120    60.7080    11.3410     7.7140    10.8950    23.4250     2.0980 
   74.0000   -22.0060    60.5690    11.2580     7.6700    10.6330    23.4370     2.0920 
   74.1250   -21.7910    62.9830    11.0970     7.5940     9.9180    23.4240     2.0870 
   74.2500   -21.6390    63.8750    10.9230     7.5090     9.1860    23.4090     2.0810 
   74.3750   -21.5060    61.8110    10.7810     7.4290     8.7760    23.4030     2.0780 
   74.5000   -21.3390    60.7030    10.6920     7.3650     8.8660    23.3920     2.0810 
   74.6250   -21.1380    63.3800    10.6680     7.3370     9.2890    23.3900     2.0920 
   74.7500   -20.9150    64.8890    10.7050     7.3500     9.6440    23.3980     2.1040 
   74.8750   -20.7050    61.9490    10.8080     7.4100     9.7640    23.4070     2.1160 
   75.0000   -20.4840    59.4440    10.9750     7.5140     9.9140    23.4040     2.1290 
   75.1250   -20.2360    61.4530    11.1760     7.6480    10.3170    23.3990     2.1420 
   75.2500   -19.9950    63.7330    11.3400     7.7780    10.4930    23.4100     2.1490 
   75.3750   -19.7530    66.1040    11.3990     7.8740    10.0730    23.4180     2.1480 
   75.5000   -19.5180    68.6540    11.3140     7.9080     9.2590    23.4070     2.1390 
   75.6250   -19.2640    68.6840    11.0840     7.8670     8.7530    23.4140     2.1220 
   75.7500   -18.9800    65.9570    10.8100     7.7880     8.4700    23.4340     2.1040 
   75.8750   -18.6270    63.9470    10.5810     7.7100     8.3460    23.4390     2.0900 
   76.0000   -18.1740    64.7050    10.4730     7.6640     8.1900    23.4180     2.0820 
   76.1250   -17.6250    65.4000    10.5060     7.6640     8.0630    23.3640     2.0800 
   76.2500   -17.0040    64.8990    10.5450     7.6580     8.0670    23.3030     2.0860 
   76.3750   -16.3780    65.5470    10.4110     7.5540     8.0860    23.2610     2.1020 
   76.5000   -15.7190    68.4600     9.9560     7.2630     8.0770    23.2580     2.1300 
   76.6250   -14.9610    74.9290     9.1620     6.7560     7.8570    23.3290     2.1670 
   76.7500   -14.1520    83.5250     8.3050     6.1770     7.1880    23.4320     2.2100 
   76.8750   -13.3800    92.6300     7.6280     5.6650     6.1530    23.5090     2.2540 
   77.0000   -12.7330    98.3870     7.3160     5.3370     5.6650    23.5320     2.2890 
   77.1250   -12.2930    97.0080     7.5260     5.3220     6.4760    23.5310     2.3040 
   77.2500   -12.0090    91.8590     8.1180     5.5790     7.8200    23.5280     2.3030 
   77.3750   -11.8210    87.4410     8.9090     6.0290     7.8350    23.5150     2.2900 
   77.5000   -11.7480    84.2550     9.6280     6.5240     7.4600    23.5110     2.2660 
   77.6250   -11.8470    82.2980     9.8810     6.8190     7.5940    23.5220     2.2380 
   77.7500   -12.0350    82.3150     9.5770     6.7910     7.6600    23.5150     2.2190 
   77.8750   -12.2270    85.3360     8.8720     6.4840     7.0530    23.5050     2.2120 
   78.0000   -12.3940    90.5790     8.1160     6.0780     6.2600    23.5140     2.2130 
   78.1250   -12.5330    94.1090     7.7260     5.8030     6.0750    23.5300     2.2130 
   78.2500   -12.6770    94.1400     7.8340     5.7720     6.1460    23.5280     2.2090 
   78.3750   -12.8680    89.5050     8.4230     6.0240     6.5260    23.5180     2.2050 
   78.5000   -13.1370    81.9440     9.3150     6.5140     7.3950    23.5120     2.2040 
   78.6250   -13.5020    75.0220    10.1560     7.0950     8.4790    23.5290     2.2030 
   78.7500   -13.9360    70.8170    10.6500     7.5530     8.5690    23.5310     2.1960 
   78.8750   -14.4390    70.7730    10.7470     7.7930     8.1000    23.5190     2.1810 
   79.0000   -14.9790    73.2060    10.6010     7.8410     7.6950    23.5180     2.1630 
   79.1250   -15.5170    74.2870    10.4510     7.7950     7.9010    23.5250     2.1490 
   79.2500   -15.9490    72.8760    10.4070     7.7550     8.6940    23.5340     2.1400 
   79.3750   -16.2380    70.9010    10.3980     7.7160     9.4580    23.5310     2.1360 
