~V
VERS. 2.00: Ver 2.00
~W
STRT.M 53.0000:
STOP.M 276.0000:
STEP.M 0.1250:
NULL. -999.2500:
UWI. F11074:
~C
DEPT.M :
DEN.GM/CC :
SP.MV :
GR.API :
RML.OHMM :
RI. :
RXO.OHMM :
CALI.CM :
~A
# ...
  143.0000     2.1820   -15.1970    75.1960    14.0440    12.1140    11.0570    21.6950 
  143.1250     2.1940   -15.2270    80.8750    13.8540    11.8780    11.2730    21.7070 
  143.2500     2.2040   -15.2230    81.8980    13.7890    11.7350    11.6490    21.8080 
  143.3750     2.2050   -15.2110    77.6840    13.8400    11.7160    11.5940    22.0910 
  143.5000     2.1940   -15.1890    72.8850    13.9570    11.8070    11.2980    22.5360 
  143.6250     2.1750   -15.1090    71.0640    14.0680    11.9640    11.7950    23.0440 
  143.7500     2.1560   -14.9810    70.0250    14.1020    12.1120    12.6440    23.3850 
  143.8750     2.1440   -14.8110    68.2450    14.0100    12.1970    13.1680    23.5400 
  144.0000     2.1420   -14.5960    66.0880    13.7660    12.1730    13.2520    23.5750 
  144.1250     2.1450   -14.3330    65.5780    13.3610    12.0030    13.1510    23.5740 
  144.2500     2.1510   -14.0150    66.4650    12.8520    11.7100    13.0440    23.5730 
  144.3750     2.1590   -13.6380    68.3670    12.2390    11.2800    12.9230    23.5760 
  144.5000     2.1720   -13.1960    70.4260    11.4720    10.6650    12.8690    23.6020 
  144.6250     2.1950   -12.6760    73.6170    10.4400     9.7620    12.2830    23.6930 
  144.7500     2.2280   -12.1340    79.5850     9.2040     8.6330    10.6970    23.8390 
  144.8750     2.2700   -11.6050    87.0570     7.9300     7.4160     8.6020    23.9490 
  145.0000     2.3130   -11.0830    93.5660     6.8410     6.3070     7.3650    23.9910 
  145.1250     2.3420   -10.6400    97.1910     6.1800     5.5180     6.6650    23.9940 
  145.2500     2.3530   -10.3010   101.7080     5.9350     5.0610     6.2660    23.9940 
  145.3750     2.3530   -10.0760   107.9940     6.0770     4.9280     6.1340    23.9960 
  145.5000     2.3510    -9.9770   112.0160     6.5470     5.0860     6.5110    23.9970 
  145.6250     2.3490   -10.0410   107.7460     7.2700     5.5140     7.0790    24.0000 
  145.7500     2.3450   -10.1900    99.7880     8.0510     6.0770     7.4210    24.0150 
  145.8750     2.3360   -10.3710    95.8040     8.7300     6.6610     7.6730    24.0480 
  146.0000     2.3210   -10.5920    97.1350     9.1730     7.1420     7.9110    24.1070 
  146.1250     2.3070   -10.7760    99.8880     9.3100     7.4110     8.0810    24.2130 
  146.2500     2.2960   -10.9420   100.3440     9.2910     7.5290     8.2910    24.3010 
  146.3750     2.2870   -11.1030    99.0980     9.2460     7.5760     8.4390    24.3340 
  146.5000     2.2750   -11.2620    97.5380     9.2500     7.6180     8.5010    24.3370 
  146.6250     2.2640   -11.3970    95.4360     9.3200     7.6830     8.5800    24.3360 
  146.7500     2.2530   -11.5570    91.5040     9.4140     7.7590     8.6650    24.3380 
  146.8750     2.2410   -11.7720    87.0800     9.5060     7.8310     8.7450    24.3390 
  147.0000     2.2280   -11.9870    85.5920     9.5900     7.8950     8.8880    24.3390 
  147.1250     2.2170   -12.1810    87.9420     9.6550     7.9480     9.3040    24.3390 
  147.2500     2.2120   -12.3000    89.2590     9.6390     7.9590     9.8810    24.3390 
  147.3750     2.2150   -12.3000    89.5630     9.4370     7.8530    10.2150    24.3390 
  147.5000     2.2250   -12.1800    91.8710     8.9700     7.5580     9.9680    24.3390 
  147.6250     2.2460   -12.0050    97.5220     8.2690     7.0480     8.8410    24.3390 
  147.7500     2.2730   -11.7830   102.5790     7.6290     6.5130     7.5190    24.3390 
  147.8750     2.3020   -11.5110   106.1570     7.2990     6.1470     7.3350    24.3390 
  148.0000     2.3240   -11.2150   108.0690     7.3670     6.0630     7.8840    24.3390 
  148.1250     2.3310   -10.9360   107.3050     7.7090     6.2500     8.2690    24.3390 
  148.2500     2.3320   -10.6950   105.0610     7.9430     6.4510     8.3150    24.3390 
  148.3750     2.3310   -10.4860   103.8220     7.7860     6.4310     8.1390    24.3410 
  148.5000     2.3330   -10.3400   104.6710     7.1790     6.0770     7.4600    24.3730 
  148.6250     2.3380   -10.2500   105.1660     6.3870     5.5050     6.3160    24.4600 
  148.7500     2.3400   -10.1810   106.1960     5.8030     5.0100     5.8710    24.5670 
  148.8750     2.3380   -10.1350   109.2800     5.5730     4.7370     5.8190    24.6120 
  149.0000     2.3350   -10.1130   112.1850     5.6870     4.7230     5.9320    24.6190 
  149.1250     2.3400   -10.1170   110.2970     6.0680     4.9590     6.0210    24.6190 
  149.2500     2.3490   -10.1640   106.2890     6.5130     5.3080     6.1830    24.6190 
  149.3750     2.3570   -10.2660   102.4200     6.8770     5.6550     6.4080    24.6190 
  149.5000     2.3630   -10.3740    99.7890     7.0670     5.9010     6.5530    24.6190 
  149.6250     2.3700   -10.4190    98.6070     7.0460     5.9700     6.5270    24.6280 
  149.7500     2.3730   -10.4370    97.9150     6.9140     5.9070     6.3770    24.6500 
  149.8750     2.3660   -10.4410    96.8580     6.7580     5.7700     6.5290    24.6720 
  150.0000     2.3480   -10.4400    97.6930     6.6470     5.6240     6.8260    24.6750 
  150.1250     2.3310   -10.4560   102.7820     6.6360     5.5320     6.8370    24.6560 
  150.2500     2.3250   -10.4820   106.8270     6.7600     5.5270     6.6160    24.6310 
  150.3750     2.3310   -10.5120   108.3620     7.1340     5.6800     6.6080    24.6200 
  150.5000     2.3520   -10.5910   107.3440     7.9590     6.1120     7.6170    24.6190 
  150.6250     2.3920   -10.7350   101.7470     9.5030     7.0570    11.1260    24.6190 
  150.7500     2.4420   -10.9410    94.5010    11.5050     8.4650    16.5260    24.6190 
  150.8750     2.4860   -11.2380    89.6930    13.4010    10.0520    18.4840    24.6190 
  151.0000     2.4960   -11.6390    89.6080    14.4860    11.2760    14.3950    24.6180 
  151.1250     2.4570   -12.1470    90.4780    14.4030    11.6750    12.3480    24.5700 
  151.2500     2.4040   -12.7340    89.2350    13.8710    11.6320    13.0370    24.4470 
  151.3750     2.3520   -13.3620    85.2020    13.3870    11.5240    12.4570    24.3120 
  151.5000     2.2930   -13.9690    80.3010    13.0680    11.4900    11.9490    24.2900 
  151.6250     2.2340   -14.5150    79.5240    12.6810    11.3880    12.0490    24.4010 
  151.7500     2.1990   -14.9330    79.2550    12.0670    11.0710    12.6680    24.5030 
  151.8750     2.1910   -15.1310    76.4310    11.3340    10.5790    12.3720    24.5440 
  152.0000     2.1890   -15.0600    73.8560    10.6610    10.0530    11.5980    24.5830 
  152.1250     2.1790   -14.7030    77.4430    10.0810     9.5470    11.0440    24.6880 
  152.2500     2.1680   -14.1620    86.9180     9.4880     9.0010    10.2640    24.8210 
  152.3750     2.1690   -13.5300    98.7600     8.8960     8.4240     9.2540    24.8850 
  152.5000     2.1850   -12.8550   107.6620     8.3750     7.8890     8.5040    24.8980 
  152.6250     2.2070   -12.1770   107.0920     8.0100     7.4880     8.2610    24.8980 
  152.7500     2.2270   -11.5790   102.9120     7.7990     7.2300     8.3370    24.8980 
  152.8750     2.2440   -11.0990   102.0590     7.7340     7.1070     8.2260    24.8980 
  153.0000     2.2610   -10.7720   106.2330     7.8080     7.1050     7.7280    24.8980 
  153.1250     2.2820   -10.6010   110.6600     8.0900     7.2760     7.6630    24.8980 
  153.2500     2.3040   -10.4970   109.9150     8.6570     7.6720     8.0310    24.8980 
  153.3750     2.3270   -10.4300   105.1160     9.6270     8.3940     8.6290    24.8980 
  153.5000     2.3540   -10.4110    99.0190    11.0970     9.5410     9.9190    24.8980 
  153.6250     2.3950   -10.4230    91.4250    13.0390    11.2050    13.6270    24.8980 
  153.7500     2.4460   -10.4350    80.2810    14.8880    13.0210    19.6790    24.8980 
  153.8750     2.4910   -10.4650    70.6060    15.8450    14.2930    22.3430    24.8980 
  154.0000     2.5070   -10.5130    70.9190    15.2250    14.2180    17.8800    24.8980 
  154.1250     2.4700   -10.6000    80.9580    13.1790    12.6280    11.6950    24.8980 
