~V
VERS. 2.00: Ver 2.00
~W
STRT.M 52.0000:
STOP.M 279.0000:
STEP.M 0.1250:
NULL. -999.2500:
UWI. F11031:
~C
DEPT.M :
DEN.GM/CC :
GR.API :
RML.OHMM :
RI. :
RXO.OHMM :
CALI.CM :
SP.MV :
~A
# ...
  220.7500     2.1530    56.1640   119.9390   117.5520    30.3130    22.0170   -14.9590 
  220.8750     2.1570    57.8460   115.5340   116.0450    32.3870    21.8420   -15.0250 
  221.0000     2.1650    58.4210   102.3900   105.5290    34.5750    21.8140   -15.1330 
  221.1250     2.1770    61.0020    86.1420    89.6950    37.1560    21.8800   -15.2350 
  221.2500     2.2000    63.8450    73.5240    75.5780    36.7950    21.8660   -15.3620 
  221.3750     2.2440    63.9390    67.0000    66.6030    31.7510    21.7450   -15.4750 
  221.5000     2.3070    60.6560    66.9150    63.9980    25.4290    22.0680   -15.5480 
  221.6250     2.3670    58.2520    73.3550    68.3960    28.9960    22.1840   -15.6120 
  221.7500     2.3960    58.8550    83.8880    77.3750    40.8080    22.2470   -15.6420 
  221.8750     2.3840    59.2210    96.3470    88.8210    51.7720    22.6130   -15.6180 
  222.0000     2.3400    57.2030   107.5850    99.7280    48.3540    22.8730   -15.5840 
  222.1250     2.2930    54.0480   113.6200   106.1870    43.0350    23.4190   -15.4590 
  222.2500     2.2630    53.0070   115.1320   108.2160    41.2550    23.6040   -15.2300 
  222.3750     2.2550    54.7380   114.6060   107.7700    44.1300    23.6930   -15.0190 
  222.5000     2.2590    57.1380   114.0360   106.7710    53.4310    23.6690   -14.7960 
  222.6250     2.2610    58.9770   113.7220   105.6750    65.1230    23.6570   -14.5380 
  222.7500     2.2550    59.5760   113.4820   104.3830    67.8130    23.5780   -14.3470 
  222.8750     2.2450    59.0760   113.9130   103.3940    65.8730    23.5160   -14.1980 
  223.0000     2.2360    58.7620   115.9620   103.5850    66.0530    23.5370   -14.0630 
  223.1250     2.2330    59.1900   120.7130   106.0220    67.2620    23.5430   -14.0570 
  223.2500     2.2330    59.0380   127.5530   110.3830    71.1560    23.5640   -14.1210 
  223.3750     2.2330    57.7150   135.3470   115.9030    81.7890    23.6970   -14.1760 
  223.5000     2.2310    56.2800   142.5380   121.4050    94.6170    23.9350   -14.2890 
  223.6250     2.2300    54.9480   147.5870   125.5880    97.4970    24.0030   -14.4370 
  223.7500     2.2310    53.5600   150.7720   128.3120    99.7260    24.0270   -14.5450 
  223.8750     2.2330    53.0940   152.6790   129.8730   103.9600    24.0580   -14.6900 
  224.0000     2.2340    54.3330   153.6020   130.5930   116.7120    24.1370   -14.8380 
  224.1250     2.2320    55.9750   152.4750   130.0190   128.5150    24.1500   -14.9140 
  224.2500     2.2250    57.0570   147.8440   127.2000   123.1960    24.1440   -15.0110 
  224.3750     2.2140    57.9490   138.5420   120.9560   104.9510    24.0830   -15.1090 
  224.5000     2.2020    58.9590   125.2400   111.1290    88.9830    23.9830   -15.1120 
  224.6250     2.1970    58.6330   110.8800    99.2920    69.8640    23.7560   -15.0520 
  224.7500     2.2040    55.9400    99.0670    88.6490    50.6330    23.2890   -14.9960 
  224.8750     2.2260    52.8370    91.6080    81.2520    40.3700    22.8080   -14.8840 
  225.0000     2.2620    52.5840    88.7890    77.8880    39.4390    22.7010   -14.7270 
  225.1250     2.3060    53.7550    89.7060    78.2620    39.6650    22.6460   -14.6000 
  225.2500     2.3470    53.6830    90.7060    79.4910    39.3570    22.5220   -14.4280 
  225.3750     2.3750    54.3610    87.7080    78.2350    41.0890    22.2330   -14.1770 
  225.5000     2.3860    56.8600    76.9870    70.7420    42.0970    21.8660   -13.9270 
  225.6250     2.3820    58.2610    58.4400    55.3890    34.4740    21.7810   -13.7010 
  225.7500     2.3760    58.2620    39.6060    38.5490    26.5700    21.9780   -13.3960 
  225.8750     2.3760    59.1200    25.0370    24.9520    20.0350    22.3380   -13.0270 
  226.0000     2.3820    61.3910    15.6790    15.9310    12.8760    22.1450   -12.6450 
  226.1250     2.3910    61.3330    10.9130    11.0750     7.5320    22.1130   -12.1750 
  226.2500     2.3980    57.8340     8.5280     8.4290     6.1260    22.2800   -11.6710 
  226.3750     2.4020    52.6520     7.5690     7.1560     6.1570    22.6940   -11.1910 
  226.5000     2.4060    49.2260     7.4450     6.7500     6.4180    23.1540   -10.6910 
  226.6250     2.4130    48.2470     7.8140     6.9550     6.4990    23.6770   -10.2030 
  226.7500     2.4190    46.0530     8.2850     7.4000     6.6240    23.9150    -9.8090 
  226.8750     2.4240    42.1270     8.6400     7.8660     6.9470    23.9690    -9.4750 
  227.0000     2.4240    40.0110     8.7770     8.2090     7.3710    23.9660    -9.2140 
  227.1250     2.4190    41.4410     8.6960     8.3570     7.3570    24.0570    -9.0610 
  227.2500     2.4100    43.3880     8.5060     8.3540     7.0970    23.9440    -8.9510 
  227.3750     2.3980    44.2980     8.2590     8.2150     6.8100    23.8820    -8.8730 
  227.5000     2.3810    43.6490     7.9740     7.9530     6.7450    23.8280    -8.8600 
  227.6250     2.3560    41.5820     7.6110     7.5490     6.4870    23.8030    -8.8720 
  227.7500     2.3240    41.3390     7.1640     7.0290     5.9550    23.6180    -8.8960 
  227.8750     2.2890    44.9730     6.6940     6.4370     5.3810    23.4690    -9.0070 
  228.0000     2.2570    52.2730     6.3120     5.8680     5.0260    23.4730    -9.2130 
  228.1250     2.2390    60.6010     6.1580     5.4640     4.8240    23.1880    -9.4820 
  228.2500     2.2340    67.4720     6.2640     5.2920     4.8490    22.9280    -9.8330 
  228.3750     2.2410    71.9650     6.6300     5.3910     5.3540    22.8680   -10.2890 
  228.5000     2.2550    73.8180     7.1960     5.7510     6.1950    22.8050   -10.7810 
  228.6250     2.2730    74.1960     7.8430     6.3200     7.0170    22.7950   -11.2800 
  228.7500     2.2900    76.8060     8.3960     6.9240     7.2970    22.9990   -11.7970 
  228.8750     2.3040    81.8150     8.7420     7.4190     7.3230    23.3360   -12.2690 
  229.0000     2.3150    87.2310     8.8570     7.7090     7.3080    23.8640   -12.6490 
  229.1250     2.3240    91.4080     8.8050     7.7760     7.3410    24.6770   -13.0030 
  229.2500     2.3350    95.4310     8.7290     7.7480     7.4130    24.9290   -13.3140 
  229.3750     2.3470    98.3960     8.6940     7.6920     7.5990    25.0610   -13.5520 
  229.5000     2.3580    99.8860     8.7300     7.6420     7.7960    25.0770   -13.7900 
  229.6250     2.3660    99.2220     8.8570     7.6120     7.8150    24.9570   -14.0370 
  229.7500     2.3690    96.6220     9.0280     7.5930     7.7820    24.8760   -14.2320 
  229.8750     2.3680    95.1750     9.1790     7.5640     7.7180    24.7700   -14.4410 
  230.0000     2.3630    96.9590     9.2540     7.5020     7.6920    24.6860   -14.6930 
  230.1250     2.3530    99.0240     9.2570     7.4100     7.8930    24.6910   -14.9080 
  230.2500     2.3430    97.8700     9.3130     7.3520     8.0730    24.7130   -15.1260 
  230.3750     2.3360    96.3000     9.5870     7.4230     8.0920    24.6210   -15.4080 
  230.5000     2.3340    96.1690    10.2890     7.7440     8.1780    24.2220   -15.7300 
  230.6250     2.3380    94.6240    11.8220     8.5570     9.0080    23.8980   -16.1030 
  230.7500     2.3430    92.1990    14.3760    10.0140    10.5830    23.7030   -16.5690 
  230.8750     2.3470    89.7270    18.2000    12.3530    13.1460    23.6280   -17.0710 
  231.0000     2.3480    85.6380    23.4330    15.8050    17.7710    23.5400   -17.5420 
  231.1250     2.3480    77.1580    29.9930    20.6020    25.3110    23.4410   -18.0070 
  231.2500     2.3470    67.9800    36.6580    25.9940    34.9380    23.3230   -18.4570 
  231.3750     2.3420    63.6440    41.9360    30.8580    39.8760    23.2030   -18.8300 
  231.5000     2.3350    64.9840    44.5600    34.0060    37.3730    23.0430   -19.1160 
  231.6250     2.3280    66.4090    44.0480    34.6650    33.2820    22.9160   -19.3380 
  231.7500     2.3220    65.1000    42.1230    33.8750    30.7100    22.9040   -19.4670 
  231.8750     2.3190    64.4570    40.0690    32.5730    29.3710    22.9600   -19.5240 
