~V
VERS. 2.00: Ver 2.00
~W
STRT.M 62.0000:
STOP.M 218.0000:
STEP.M 0.1250:
NULL. -999.2500:
UWI. F11008:
~C
DEPT.M :
DEN.GM/CC :
GR.API :
RML.OHMM :
RI. :
RXO.OHMM :
CALI.CM :
SP.MV :
~A
# ...
  185.7500     2.4200   102.3290     7.8590     7.1690     7.0530    25.3800   -27.3260 
  185.8750     2.4000    95.6910     7.9300     7.2860     6.6440    25.9070   -28.4080 
  186.0000     2.3750    96.3910     7.9760     7.3660     5.6390    26.1280   -29.3590 
  186.1250     2.3610    99.6490     8.0350     7.4090     6.8890    26.1860   -29.9960 
  186.2500     2.3640    97.5340     8.1490     7.4550     7.9210    26.0680   -30.2860 
  186.3750     2.3780    93.6700     8.3370     7.5410     8.7180    25.8120   -30.3430 
  186.5000     2.3950    94.4630     8.5950     7.6910     8.9250    25.6030   -30.1580 
  186.6250     2.4060    98.0040     8.8990     7.9110     9.2800    25.4730   -29.6850 
  186.7500     2.4150    95.5470     9.2040     8.1650     9.9240    25.3680   -29.1480 
  186.8750     2.4250    89.2810     9.4870     8.4230    11.1480    25.3290   -28.5470 
  187.0000     2.4370    85.4370     9.7340     8.6670    11.3150    25.3380   -27.8080 
  187.1250     2.4510    88.3770     9.9110     8.8700    10.9060    25.3310   -27.0350 
  187.2500     2.4670    94.4250     9.9830     9.0000    11.2470    25.2780   -26.2340 
  187.3750     2.4860    99.0910     9.8910     8.9960    11.7840    25.2580   -25.2810 
  187.5000     2.5070   100.0340     9.5880     8.7930    11.9940    25.2460   -24.2620 
  187.6250     2.5140    99.8110     9.0380     8.3210    11.8090    25.1990   -23.2120 
  187.7500     2.4990   102.4490     8.3590     7.6800    10.8120    25.1700   -22.1140 
  187.8750     2.4650   105.4770     7.6890     6.9940     8.8340    25.2480   -21.0470 
  188.0000     2.4240   103.6610     7.1750     6.4090     7.1410    25.3900   -20.0690 
  188.1250     2.3990    99.6900     6.9950     6.0990     6.3900    25.4950   -19.3180 
  188.2500     2.3970    98.0960     7.1340     6.0910     6.2290    25.4900   -18.8270 
  188.3750     2.4150    98.9230     7.5230     6.3660     6.3320    25.3780   -18.5780 
  188.5000     2.4430    99.2510     8.0170     6.8330     6.7180    25.2840   -18.5130 
  188.6250     2.4630   100.2020     8.3910     7.3010     8.4020    25.2270   -18.5800 
  188.7500     2.4630   102.6960     8.4980     7.5660     9.8110    25.2230   -18.5890 
  188.8750     2.4410   101.3410     8.2970     7.5280     9.8160    25.3760   -18.4610 
  189.0000     2.4060    94.4220     7.8510     7.2100     8.5650    25.7870   -18.2380 
  189.1250     2.3790    86.2960     7.2940     6.7240     6.8230    26.1360   -17.7800 
  189.2500     2.3700    79.4140     6.7810     6.2430     5.9470    26.0570   -17.0810 
  189.3750     2.3780    72.7520     6.3780     5.8410     6.0390    25.7500   -16.2500 
  189.5000     2.3920    70.2260     6.0940     5.5390     6.3340    25.4350   -15.3390 
  189.6250     2.4040    77.1310     5.9240     5.3310     6.2790    25.1880   -14.4310 
  189.7500     2.4110    85.0490     5.8270     5.1830     5.8150    24.9680   -13.7120 
  189.8750     2.4180    87.3270     5.7930     5.0870     5.2850    24.8210   -13.2730 
  190.0000     2.4240    86.9580     5.8130     5.0440     5.0260    24.7640   -13.0440 
  190.1250     2.4260    88.4710     5.8790     5.0660     5.8130    24.7120   -13.0820 
  190.2500     2.4230    89.5120     5.9590     5.1350     6.0410    24.6720   -13.3580 
  190.3750     2.4160    88.9240     6.0330     5.2320     6.0600    24.6680   -13.7580 
  190.5000     2.4110    89.5840     6.0870     5.3250     5.9740    24.6890   -14.2710 
  190.6250     2.4120    91.9960     6.1110     5.3770     6.0470    24.6670   -14.8730 
  190.7500     2.4160    94.8990     6.1090     5.3710     6.1140    24.6180   -15.3970 
  190.8750     2.4170    98.1420     6.0840     5.3100     6.1260    24.5770   -15.7780 
  191.0000     2.4130   100.7160     6.0470     5.2150     5.9960    24.5540   -16.0220 
  191.1250     2.4020   100.3300     6.0310     5.1280     5.6260    24.4360   -16.0190 
  191.2500     2.3930    98.5240     6.0730     5.0950     5.1900    24.1760   -15.7940 
  191.3750     2.3930    97.0480     6.2120     5.1550     5.0260    23.8640   -15.4030 
  191.5000     2.4020    97.6700     6.4690     5.3330     5.5340    23.7360   -14.8750 
  191.6250     2.4140    98.9500     6.8440     5.6420     6.2430    23.8870   -14.3210 
  191.7500     2.4220    97.1030     7.2590     6.0210     6.9570    24.1240   -13.8340 
  191.8750     2.4210    92.4760     7.6390     6.4040     7.7130    24.2110   -13.4440 
  192.0000     2.4120    91.8530     7.9160     6.7190     9.0940    24.1430   -13.2030 
  192.1250     2.4000    97.7470     8.0310     6.8930     8.9980    24.0430   -13.1250 
  192.2500     2.3910   100.0580     8.0330     6.9470     8.2710    24.0230   -13.1840 
  192.3750     2.3850    95.9840     7.9880     6.9230     7.8320    24.0870   -13.3900 
  192.5000     2.3840    90.8780     7.9730     6.8850     7.9380    24.2010   -13.6600 
  192.6250     2.3870    89.8300     8.0670     6.9080     8.0920    24.3750   -13.9350 
  192.7500     2.3920    89.9500     8.2680     7.0210     7.9880    24.5580   -14.1910 
  192.8750     2.3950    89.9610     8.5460     7.2250     7.9940    24.6750   -14.3840 
  193.0000     2.3890    91.4280     8.8410     7.4890     8.2640    24.7040   -14.5030 
  193.1250     2.3740    93.6910     9.0800     7.7610     8.8530    24.6930   -14.5940 
  193.2500     2.3580    94.4740     9.2260     7.9820     9.4630    24.7000   -14.6610 
  193.3750     2.3480    93.4930     9.2740     8.1200     9.7080    24.6920   -14.6920 
  193.5000     2.3520    91.9960     9.2510     8.1690    10.1180    24.6570   -14.7280 
  193.6250     2.3720    92.1390     9.2280     8.1570     9.9290    24.6130   -14.7380 
  193.7500     2.3930    93.4560     9.3060     8.1760     9.5700    24.5960   -14.7620 
  193.8750     2.4070    95.3210     9.5640     8.3280     9.9220    24.5900   -14.8090 
  194.0000     2.4100    96.1200    10.0290     8.6930    11.1930    24.5670   -14.8690 
  194.1250     2.4100    91.8690    10.6770     9.3070    11.2280    24.6560   -14.9360 
  194.2500     2.4160    85.9600    11.3810     9.9990    12.1830    24.6500   -14.9630 
  194.3750     2.4300    83.8920    12.0060    10.5580    15.8820    24.4960   -14.9680 
  194.5000     2.4450    87.7820    12.3670    10.7910    19.5230    24.2720   -14.9480 
  194.6250     2.4470    93.0570    12.2470    10.5870    18.1170    24.2970   -14.9040 
  194.7500     2.4350    94.8950    11.7960    10.1510    12.6230    24.4520   -14.8380 
  194.8750     2.4140    95.3920    11.2510     9.6750     9.9050    24.5910   -14.7730 
  195.0000     2.3940    96.3000    10.8140     9.2970    10.4490    24.6500   -14.7100 
  195.1250     2.3820    97.2460    10.5550     9.0820    11.9400    24.6650   -14.6340 
  195.2500     2.3780    95.9710    10.3760     8.9590    12.1620    24.6510   -14.5580 
  195.3750     2.3820    94.5290    10.2210     8.8630    11.3880    24.6190   -14.4810 
  195.5000     2.3920    96.3040    10.0740     8.7590     9.7080    24.5870   -14.4230 
  195.6250     2.4030    99.9820     9.9540     8.6540     9.3550    24.5430   -14.4050 
  195.7500     2.4060   101.9470     9.8640     8.5670     9.3540    24.4760   -14.4080 
  195.8750     2.3990   101.9440     9.7870     8.4900     9.0350    24.4260   -14.4020 
  196.0000     2.3850   100.5700     9.7080     8.4020     9.1430    24.4190   -14.3620 
  196.1250     2.3730    98.1410     9.6550     8.2980     9.7530    24.4400   -14.2780 
  196.2500     2.3680    98.4220     9.7140     8.2400     9.9620    24.4480   -14.1300 
  196.3750     2.3720   101.9050     9.9960     8.3240     9.6560    24.4820   -13.9040 
  196.5000     2.3800   104.1360    10.5980     8.6550     9.7370    24.4850   -13.5870 
  196.6250     2.3810    99.4280    11.6140     9.3720    10.7090    24.4210   -13.1890 
  196.7500     2.3720    90.9890    12.9220    10.4240    13.6680    24.3410   -12.7630 
  196.8750     2.3560    84.7000    14.3950    11.7320    15.6090    24.2990   -12.3050 
