~V
VERS. 2.00: Ver 2.00
~W
STRT.M 55.0000:
STOP.M 277.0000:
STEP.M 0.1250:
NULL. -999.2500:
UWI. F11037:
~C
DEPT.M :
SP.MV :
GR.API :
RML.OHMM :
RI. :
RXO.OHMM :
CALI.CM :
DEN.GM/CC :
~A
# ...
  156.2500   -13.3350    67.6500    96.0360    85.0830    87.7490    25.0770     2.2380 
  156.3750   -13.1550    67.2770   109.2910    97.0250   103.3540    25.0780     2.2360 
  156.5000   -12.9620    65.7310   120.4650   107.1680   125.6760    25.0810     2.2300 
  156.6250   -12.6500    64.9070   125.6500   113.3700   132.6890    25.0830     2.2210 
  156.7500   -12.3050    65.3970   122.6190   113.6680   126.1650    25.0840     2.2120 
  156.8750   -12.1090    65.5150   110.7300   105.8880   116.7540    25.0840     2.2080 
  157.0000   -11.8410    65.8590    92.6780    90.6430   113.2790    25.0840     2.2170 
  157.1250   -11.5060    68.2210    74.0620    72.4270   100.6750    25.0680     2.2400 
  157.2500   -11.3120    70.4980    59.4890    56.8970    64.9570    25.0220     2.2650 
  157.3750   -11.2850    72.5490    50.1310    46.1320    36.9310    24.9550     2.2820 
  157.5000   -11.1940    74.2900    45.3290    40.0960    26.7680    24.9250     2.2850 
  157.6250   -11.0920    75.7640    44.0710    38.0660    32.2180    24.9120     2.2760 
  157.7500   -11.0910    76.8500    44.3590    38.0230    38.2880    24.9130     2.2670 
  157.8750   -11.2200    77.4500    45.1090    38.9580    41.1990    24.8940     2.2620 
  158.0000   -11.4490    76.2720    45.5510    40.0160    39.4550    24.8290     2.2620 
  158.1250   -11.7690    72.1530    45.2140    40.4550    35.1270    24.7660     2.2610 
  158.2500   -12.1770    67.8470    44.2730    40.2670    32.6110    24.6810     2.2570 
  158.3750   -12.4640    66.4280    42.8440    39.6180    34.4450    24.7810     2.2520 
  158.5000   -12.7620    68.2410    40.8680    38.4570    37.5460    24.9350     2.2470 
  158.6250   -13.2450    70.2760    38.0110    36.2950    37.4510    25.0210     2.2410 
  158.7500   -13.7060    70.0450    34.3880    33.1280    35.0560    25.0520     2.2370 
  158.8750   -14.1340    69.3330    30.3310    29.2470    32.6710    25.0690     2.2370 
  159.0000   -14.4680    70.7270    26.4030    25.2110    29.1600    25.0610     2.2430 
  159.1250   -14.3500    74.7130    23.1820    21.7350    23.4890    25.0370     2.2580 
  159.2500   -14.0730    79.1720    20.6170    19.1120    19.4970    25.0410     2.2760 
  159.3750   -13.8850    83.3790    18.6950    17.3910    17.4470    25.0600     2.2920 
  159.5000   -13.6220    85.4280    17.4990    16.4670    16.6560    25.0740     2.3010 
  159.6250   -13.2740    85.2310    17.0340    16.1730    16.5960    25.0780     2.3030 
  159.7500   -12.8460    85.4050    16.7730    16.0670    16.8440    25.0800     2.3020 
  159.8750   -12.2740    85.7080    16.3910    15.8670    16.9960    25.0780     2.3040 
  160.0000   -11.8220    83.6750    15.8660    15.4600    16.3720    25.0770     2.3100 
  160.1250   -11.6990    80.2740    15.3180    14.9870    15.1570    25.0780     2.3190 
  160.2500   -11.6480    78.8880    14.9340    14.7050    13.9400    25.0800     2.3250 
  160.3750   -11.6010    79.5330    14.8320    14.7210    13.7290    25.0780     2.3270 
  160.5000   -11.5800    81.1900    15.0250    15.0020    14.8530    25.0840     2.3290 
  160.6250   -11.5900    82.5540    15.3980    15.4230    16.6960    25.1060     2.3340 
  160.7500   -11.6010    82.6460    15.6970    15.7720    18.2430    25.1370     2.3420 
  160.8750   -11.6780    81.9150    15.7630    15.9040    18.0680    25.1540     2.3500 
  161.0000   -11.7290    82.1040    15.5540    15.7420    17.0520    25.1710     2.3530 
  161.1250   -11.7030    80.7270    15.1330    15.2850    16.5900    25.2000     2.3490 
  161.2500   -11.5890    77.0470    14.6730    14.6860    16.4440    25.2150     2.3420 
  161.3750   -11.4240    75.5820    14.2780    14.0670    15.9650    25.2200     2.3360 
  161.5000   -11.2430    80.5000    14.0160    13.5520    14.9460    25.2200     2.3310 
  161.6250   -11.0380    86.2040    13.9840    13.2820    13.8560    25.2200     2.3260 
  161.7500   -10.9630    85.9310    14.1990    13.2800    13.8960    25.2200     2.3170 
  161.8750   -10.8650    83.6950    14.6690    13.5640    14.6700    25.2200     2.3030 
  162.0000   -10.7580    83.1720    15.3440    14.1080    15.7510    25.2200     2.2870 
  162.1250   -10.8000    81.7670    16.1040    14.8190    16.6970    25.2200     2.2740 
  162.2500   -10.9350    79.0360    16.7630    15.4720    17.3490    25.2170     2.2670 
  162.3750   -11.1450    78.9250    17.1720    15.8900    17.4170    25.2030     2.2630 
  162.5000   -11.4800    81.8170    17.2160    15.9580    17.2060    25.1720     2.2630 
  162.6250   -11.7630    83.0220    16.7740    15.5800    16.5810    25.1620     2.2630 
  162.7500   -11.9870    83.2540    15.9780    14.8780    16.2360    25.1730     2.2670 
  162.8750   -12.2630    84.6670    14.9940    13.9800    15.9880    25.1990     2.2760 
  163.0000   -12.5320    85.5420    14.0540    13.0730    15.0210    25.2090     2.2910 
  163.1250   -12.8060    85.4930    13.4800    12.3960    13.7360    25.1940     2.3080 
  163.2500   -13.0330    87.1020    13.4230    12.0650    12.6730    25.1820     2.3210 
  163.3750   -13.2000    89.2610    13.9830    12.1740    12.6360    25.2110     2.3250 
  163.5000   -13.2980    89.4840    15.2030    12.7980    14.1380    25.2620     2.3220 
  163.6250   -13.4250    86.2800    17.1880    14.1140    17.2910    25.2960     2.3130 
  163.7500   -13.5840    80.7290    19.7610    16.0800    20.1100    25.3160     2.3020 
  163.8750   -13.7430    73.6670    22.7500    18.6700    23.2720    25.3340     2.2880 
  164.0000   -13.9760    68.4260    25.8230    21.6550    30.2030    25.3440     2.2720 
  164.1250   -14.2150    69.0230    28.3420    24.3630    36.0450    25.3480     2.2570 
  164.2500   -14.5580    71.8150    29.8590    26.0960    38.1480    25.3450     2.2490 
  164.3750   -14.9820    74.4660    30.2010    26.5910    37.5940    25.3340     2.2520 
  164.5000   -15.3020    77.5320    29.5900    26.1240    37.0530    25.3070     2.2640 
  164.6250   -15.5330    78.9770    28.5520    25.3630    32.5100    25.2880     2.2790 
  164.7500   -15.7290    77.3970    27.6670    24.9320    28.6970    25.2830     2.2870 
  164.8750   -15.8410    74.7820    27.0300    24.8790    27.7440    25.2900     2.2860 
  165.0000   -15.8440    74.2480    26.4080    24.8230    30.0100    25.3050     2.2810 
  165.1250   -15.8080    75.7850    25.3460    24.1230    31.3990    25.3030     2.2800 
  165.2500   -15.6670    77.2290    23.7520    22.6700    30.2930    25.3080     2.2870 
  165.3750   -15.4600    77.5450    21.8300    20.7180    25.5570    25.2990     2.3000 
  165.5000   -15.4270    77.3890    19.9760    18.7330    18.5870    25.2860     2.3130 
  165.6250   -15.4110    79.9620    18.6670    17.2540    15.7660    25.2800     2.3170 
  165.7500   -15.3370    83.0180    17.9780    16.4000    15.8520    25.2800     2.3150 
  165.8750   -15.3550    83.2460    17.8250    16.1360    17.2230    25.2800     2.3090 
  166.0000   -15.3460    81.9840    18.0180    16.3210    18.2370    25.2800     2.3050 
  166.1250   -15.3380    81.4470    18.3540    16.7290    18.3740    25.2800     2.3030 
  166.2500   -15.4240    80.7290    18.6630    17.0680    18.1120    25.2770     2.3040 
  166.3750   -15.4670    79.2090    18.9190    17.2540    17.6080    25.2580     2.3030 
  166.5000   -15.4770    78.9600    19.1770    17.3830    17.1830    25.2060     2.2980 
  166.6250   -15.5140    79.4630    19.5370    17.6660    17.2030    25.1280     2.2910 
  166.7500   -15.6040    78.4170    20.0270    18.1720    18.4810    25.0580     2.2850 
  166.8750   -15.6620    77.0010    20.6170    18.8290    19.9430    25.0070     2.2840 
  167.0000   -15.7880    77.6080    21.2370    19.4730    21.7670    24.9550     2.2900 
  167.1250   -15.9220    79.4400    21.8100    19.9410    23.0230    24.9170     2.3030 
  167.2500   -15.9090    79.5360    22.3310    20.2820    23.1890    24.8930     2.3160 
  167.3750   -15.9300    78.3850    22.8740    20.6240    22.6350    24.8840     2.3230 
