~V
VERS. 2.00: Ver 2.00
~W
STRT.M 59.0000:
STOP.M 291.0000:
STEP.M 0.1250:
NULL. -999.2500:
UWI. F11077:
~C
DEPT.M :
DEN.GM/CC :
GR.API :
RML.OHMM :
RI. :
RXO.OHMM :
CALI.CM :
SP.MV :
~A
# ...
  239.0000     2.7090    67.7890    48.2570    40.1710    77.5990    25.2540   -12.8270 
  239.1250     2.7520    65.8340    51.2290    43.6670   169.5150    25.3520   -11.0800 
  239.2500     2.7490    64.6370    43.9540    38.5800   202.5950    25.4290    -9.4490 
  239.3750     2.7110    69.2200    31.2750    28.3310   102.7040    25.4430    -8.0250 
  239.5000     2.6570    79.9850    20.7600    19.3590    33.2340    25.4090    -6.8140 
  239.6250     2.6070    91.0080    14.2940    13.6250    12.9860    25.3800    -5.8430 
  239.7500     2.5780    95.5020    11.3270    10.8370     8.6360    25.4130    -5.1210 
  239.8750     2.5690    93.8690    10.7750    10.1130     9.6990    25.4750    -4.6160 
  240.0000     2.5740    91.5530    11.5790    10.6390    13.3940    25.4910    -4.2710 
  240.1250     2.5840    90.2090    13.1730    12.0590    17.1710    25.4670    -4.0860 
  240.2500     2.5900    91.1450    14.9010    13.8670    18.4650    25.4620    -4.0080 
  240.3750     2.5940    94.6640    16.0320    15.3050    16.9490    25.5160    -3.9570 
  240.5000     2.6000    96.8090    16.0760    15.6930    15.2200    25.6530    -3.8770 
  240.6250     2.6070    94.7970    14.9220    14.7840    15.1090    25.8390    -3.7160 
  240.7500     2.6080    90.9190    12.8400    12.8270    14.8580    25.9670    -3.4870 
  240.8750     2.5930    87.8400    10.4110    10.4670    12.7860    25.9820    -3.2320 
  241.0000     2.5580    83.9670     8.2430     8.3480     8.7420    25.9260    -2.9820 
  241.1250     2.5110    77.7260     6.6250     6.7400     5.8980    25.8510    -2.7340 
  241.2500     2.4670    70.4020     5.6590     5.7260     4.7000    25.7730    -2.4870 
  241.3750     2.4380    64.5630     5.2710     5.2500     4.3980    25.6800    -2.2600 
  241.5000     2.4270    61.0120     5.2470     5.1480     4.3540    25.5910    -2.0950 
  241.6250     2.4330    59.3450     5.4350     5.3040     4.4520    25.5390    -2.0140 
  241.7500     2.4510    59.8230     5.7020     5.6030     4.6120    25.5370    -2.0330 
  241.8750     2.4700    62.9500     5.9590     5.9410     4.7650    25.5570    -2.1240 
  242.0000     2.4840    67.7080     6.1750     6.2490     4.9690    25.5760    -2.2370 
  242.1250     2.4890    72.6310     6.3460     6.4990     5.2130    25.6080    -2.3740 
  242.2500     2.4840    77.2220     6.4650     6.6650     5.4220    25.6540    -2.5060 
  242.3750     2.4740    81.8480     6.5150     6.7260     5.5670    25.6780    -2.6440 
  242.5000     2.4610    87.6980     6.4960     6.6860     5.6930    25.6550    -2.8070 
  242.6250     2.4500    95.8900     6.4220     6.5620     5.8450    25.5950    -2.9940 
  242.7500     2.4460   103.5120     6.3310     6.3890     5.9340    25.5520    -3.1880 
  242.8750     2.4480   104.3330     6.2800     6.2260     5.8310    25.5630    -3.3800 
  243.0000     2.4520    98.7980     6.3210     6.1290     5.7780    25.5970    -3.5850 
  243.1250     2.4540    94.4250     6.4920     6.1410     6.0050    25.6220    -3.8030 
  243.2500     2.4540    96.4730     6.8310     6.3000     6.4200    25.6530    -4.0610 
  243.3750     2.4500   101.8240     7.3540     6.6240     6.9290    25.7060    -4.3570 
  243.5000     2.4390   104.2630     8.0280     7.0900     7.7930    25.7580    -4.6690 
  243.6250     2.4230   102.2340     8.7980     7.6560     9.3680    25.8210    -4.9880 
  243.7500     2.4020    97.5060     9.5690     8.2480    11.3960    25.9260    -5.2900 
  243.8750     2.3800    93.1900    10.2260     8.7710    12.6640    26.0520    -5.5740 
  244.0000     2.3640    91.2690    10.6860     9.1470    12.3580    26.1060    -5.8380 
  244.1250     2.3540    90.6260    10.9440     9.3600    11.8440    26.1050    -6.0940 
  244.2500     2.3480    90.0430    11.1450     9.5060    11.9310    26.0910    -6.3480 
  244.3750     2.3440    90.0690    11.5600     9.7750    12.5590    26.0890    -6.5950 
  244.5000     2.3360    90.2730    12.4640    10.3750    13.8280    26.0970    -6.8210 
  244.6250     2.3250    89.6250    14.0850    11.4930    16.2540    26.1110    -7.0430 
  244.7500     2.3150    88.2700    16.6700    13.3730    22.6480    26.1150    -7.2490 
  244.8750     2.3080    87.3340    20.3190    16.1930    32.1100    26.0990    -7.4580 
  245.0000     2.3010    86.9940    24.8280    19.8820    36.3800    26.0820    -7.6560 
  245.1250     2.2910    86.3980    29.9620    24.2940    34.0650    26.0770    -7.7800 
  245.2500     2.2740    85.5220    35.4830    29.2210    35.0600    26.1030    -7.8370 
  245.3750     2.2510    83.9520    41.2530    34.4830    43.2070    26.1500    -7.8800 
  245.5000     2.2290    81.5910    47.2550    39.9910    53.5850    26.1840    -7.9400 
  245.6250     2.2120    79.9480    53.4810    45.7210    60.2490    26.2020    -8.0240 
  245.7500     2.2020    79.6590    59.6400    51.4260    64.3620    26.1980    -8.1440 
  245.8750     2.2000    79.1550    65.1590    56.6140    72.4210    26.1780    -8.2990 
  246.0000     2.2040    76.6840    69.5900    60.8940    82.9250    26.1600    -8.4930 
  246.1250     2.2120    74.2690    72.7650    64.1170    87.3710    26.1540    -8.7630 
  246.2500     2.2230    74.9530    74.5870    66.2070    83.6760    26.1530    -9.0790 
  246.3750     2.2310    77.7910    75.1000    67.1950    77.3670    26.1530    -9.3810 
  246.5000     2.2390    79.3720    74.7060    67.3930    76.9030    26.1530    -9.6570 
  246.6250     2.2470    78.8210    73.9060    67.2060    83.0330    26.1520    -9.9270 
  246.7500     2.2560    77.5680    73.3870    67.2230    88.1430    26.1490   -10.2080 
  246.8750     2.2670    76.1290    73.8120    68.0400    86.2870    26.1490   -10.4750 
  247.0000     2.2750    75.1620    75.5880    70.0550    81.6190    26.1800   -10.7210 
  247.1250     2.2770    75.5410    78.9410    73.5340    83.3660    26.2430   -10.9490 
  247.2500     2.2730    76.0840    83.7970    78.5090    91.4380    26.3050   -11.1520 
  247.3750     2.2680    74.8180    89.4850    84.4470    97.6980    26.3410   -11.3550 
  247.5000     2.2680    72.6140    94.7720    90.2300   102.3170    26.3160   -11.5640 
  247.6250     2.2740    71.3420    98.5680    94.8180   105.7480    26.2170   -11.7440 
  247.7500     2.2810    70.3920   100.0550    97.3380   107.4450    26.1390   -11.8960 
  247.8750     2.2840    68.4820    99.1200    97.5190   105.5940    26.1780   -11.9920 
  248.0000     2.2780    67.2600    96.2930    95.7350   101.9480    26.3020   -12.0230 
  248.1250     2.2690    68.2820    91.9230    92.2510    98.1570    26.4660   -12.0160 
  248.2500     2.2610    70.3420    86.5630    87.5240    92.5360    26.5180   -11.9740 
  248.3750     2.2580    71.6720    81.0840    82.3830    85.8600    26.3640   -11.8820 
  248.5000     2.2530    72.0210    76.3700    77.7850    78.0240    26.1520   -11.7640 
  248.6250     2.2430    71.9550    72.9420    74.3350    69.5050    26.0190   -11.6650 
  248.7500     2.2270    71.7320    71.1230    72.4480    66.0750    25.9340   -11.5960 
  248.8750     2.2130    71.6280    70.9110    72.2110    70.7510    25.8710   -11.5840 
  249.0000     2.2070    72.2480    72.0620    73.4210    73.2400    25.8360   -11.6600 
  249.1250     2.2150    73.7890    74.7020    76.2060    74.2970    25.8210   -11.8050 
  249.2500     2.2290    75.5290    79.3120    81.0270    74.3630    25.7990   -12.0080 
  249.3750     2.2420    76.0510    86.2760    88.2120    75.5880    25.7720   -12.2370 
  249.5000     2.2480    74.6850    95.2550    97.3780    80.0700    25.7590   -12.4600 
  249.6250     2.2480    72.1500   105.2330   107.5500   100.3540    25.7590   -12.6290 
  249.7500     2.2470    69.8670   113.7150   116.4450   136.4270    25.7580   -12.7340 
  249.8750     2.2460    69.2240   117.8870   121.4310   155.5850    25.7590   -12.8070 
  250.0000     2.2460    70.0640   117.1910   121.7180   146.1260    25.7590   -12.8320 
  250.1250     2.2400    70.2540   113.2110   118.4230   124.3020    25.7680   -12.7980 
