~V
VERS. 2.00: Ver 2.00
~W
STRT.M 55.0000:
STOP.M 276.0000:
STEP.M 0.1250:
NULL. -999.2500:
UWI. F11046:
~C
DEPT.M :
GR.API :
RML.OHMM :
RI. :
RXO.OHMM :
CALI.CM :
DEN.GM/CC :
SP.MV :
~A
   55.0000  -999.2500  -999.2500  -999.2500  -999.2500  -999.2500  -999.2500   166.2830 
   55.1250  -999.2500  -999.2500  -999.2500  -999.2500  -999.2500  -999.2500   167.0860 
   55.2500  -999.2500  -999.2500  -999.2500  -999.2500  -999.2500  -999.2500   167.8580 
   55.3750  -999.2500  -999.2500  -999.2500  -999.2500  -999.2500  -999.2500   168.6440 
   55.5000  -999.2500  -999.2500  -999.2500  -999.2500  -999.2500  -999.2500   169.2800 
   55.6250  -999.2500  -999.2500  -999.2500  -999.2500  -999.2500  -999.2500   169.7320 
   55.7500  -999.2500  -999.2500  -999.2500  -999.2500  -999.2500  -999.2500   170.0180 
   55.8750  -999.2500  -999.2500  -999.2500  -999.2500  -999.2500  -999.2500   170.2090 
   56.0000  -999.2500  -999.2500  -999.2500  -999.2500  -999.2500  -999.2500   170.4030 
   56.1250  -999.2500  -999.2500  -999.2500  -999.2500  -999.2500  -999.2500   170.6520 
   56.2500  -999.2500  -999.2500  -999.2500  -999.2500  -999.2500  -999.2500   170.9400 
   56.3750  -999.2500  -999.2500  -999.2500  -999.2500  -999.2500  -999.2500   171.1730 
   56.5000  -999.2500  -999.2500  -999.2500  -999.2500  -999.2500  -999.2500   171.4280 
   56.6250  -999.2500  -999.2500  -999.2500  -999.2500  -999.2500  -999.2500   171.7170 
   56.7500  -999.2500  -999.2500  -999.2500  -999.2500  -999.2500  -999.2500   171.9350 
   56.8750  -999.2500  -999.2500  -999.2500  -999.2500  -999.2500  -999.2500   172.1160 
   57.0000  -999.2500  -999.2500  -999.2500  -999.2500  -999.2500  -999.2500   172.0630 
   57.1250  -999.2500  -999.2500  -999.2500  -999.2500  -999.2500  -999.2500   171.6950 
   57.2500  -999.2500  -999.2500  -999.2500  -999.2500  -999.2500  -999.2500   171.0650 
   57.3750  -999.2500  -999.2500  -999.2500  -999.2500  -999.2500  -999.2500   170.1830 
   57.5000  -999.2500  -999.2500  -999.2500  -999.2500  -999.2500  -999.2500   169.0420 
   57.6250  -999.2500  -999.2500  -999.2500  -999.2500  -999.2500  -999.2500   167.4980 
   57.7500  -999.2500  -999.2500  -999.2500  -999.2500  -999.2500     0.0000   165.4740 
   57.8750  -999.2500  -999.2500  -999.2500  -999.2500  -999.2500     0.0000   162.5540 
   58.0000  -999.2500  -999.2500  -999.2500  -999.2500  -999.2500     0.0000   158.6840 
   58.1250  -999.2500  -999.2500  -999.2500  -999.2500  -999.2500     0.0000   153.7590 
   58.2500  -999.2500  -999.2500  -999.2500  -999.2500  -999.2500     0.0000   148.0240 
   58.3750  -999.2500  -999.2500  -999.2500  -999.2500  -999.2500     0.0000   141.4620 
   58.5000  -999.2500  -999.2500  -999.2500  -999.2500  -999.2500     0.0110   133.8860 
   58.6250  -999.2500  -999.2500  -999.2500  -999.2500  -999.2500     2.0140   125.0370 
   58.7500    51.7610     0.9140     0.3310     3.6270    25.8190     2.0250   115.2520 
   58.8750    51.7610     0.9140     0.3310     3.6270    25.8190     2.0360   105.3380 
   59.0000    51.5700     0.7410     0.3210     3.6930    25.8120     2.0420    95.8240 
   59.1250    52.2940     0.5900     0.3110     3.9340    25.8230     2.0420    86.9700 
   59.2500    52.9090     0.4850     0.3030     1.9430    25.8280     2.0410    79.1280 
   59.3750    53.7740     0.4100     0.2990     1.1630    25.8310     2.0470    72.6920 
   59.5000    55.4660     0.3550     0.2980     0.7740    25.8340     2.0620    67.7540 
   59.6250    56.2030     0.3160     0.2990     0.5590    25.8390     2.0840    63.9620 
   59.7500    54.8490     0.2880     0.2980     0.4700    25.8340     2.1050    60.5770 
   59.8750    52.9660     0.2710     0.2980     0.6700    25.8300     2.1190    57.2680 
   60.0000    52.5790     0.2650     0.2980     1.2620    25.8290     2.1210    53.9850 
   60.1250    52.9460     0.2630     0.3010     3.5980    25.8300     2.1080    50.9160 
   60.2500    52.7610     0.2610     0.3050     4.5310    25.8310     2.0850    47.6190 
   60.3750    53.3180     0.2550     0.3100     4.7430    25.8300     2.0570    43.8640 
   60.5000    54.8520     0.2470     0.3140     2.1720    25.8210     2.0320    39.8670 
   60.6250    53.8730     0.2380     0.3180     1.6100    25.8150     2.0130    36.3980 
   60.7500    51.7890     0.2300     0.3190     1.0480    25.8130     2.0020    33.8490 
   60.8750    51.9010     0.2250     0.3150     1.4190    25.8160     1.9960    31.7590 
   61.0000    53.7830     0.2250     0.3080     2.6910    25.8210     1.9920    29.5710 
   61.1250    55.5220     0.2360     0.2990     2.3990    25.8200     1.9920    26.9020 
   61.2500    57.3270     0.2540     0.2910     1.2050    25.8220     2.0010    23.9950 
   61.3750    59.9370     0.2760     0.2820     1.4020    25.8180     2.0240    20.8960 
   61.5000    60.7980     0.2930     0.2730     2.6600    25.7770     2.0650    17.7180 
   61.6250    59.2760     0.2740     0.2560     1.5660    25.6470     2.1170    14.5350 
   61.7500    58.1180     0.1880     0.2290     0.8440    25.4410     2.1650    11.6110 
   61.8750    57.2340     0.0270     0.1890     0.8020    25.1940     2.2060     9.4200 
   62.0000    56.1750    -0.1710     0.1420     1.2980    24.9140     2.2580     8.1410 
   62.1250    56.4910    -0.3340     0.1000     1.7800    24.7150     2.3540     7.9860 
   62.2500    57.9470    -0.4230     0.0710     2.0990    24.7400     2.4750     8.3790 
   62.3750    58.5230    -0.4340     0.0610     1.7890    24.9640     2.5590     8.9420 
   62.5000    59.8090    -0.3680     0.0830     2.0530    25.4280     2.5340     9.3070 
   62.6250    63.1990    -0.1730     0.1880     2.9210    26.5690     2.3500     9.3380 
   62.7500    65.8940     0.2080     0.4380     4.6240    28.1710     2.0990     9.1610 
   62.8750    67.5540     0.8550     0.9320     5.7040    28.8590     1.8900     8.5490 
   63.0000    70.6560     1.7680     1.7560     6.3410    27.2890     1.8030     7.4880 
   63.1250    76.1820     2.7480     2.8770     7.2290    25.7150     1.8600     5.9230 
   63.2500    81.9870     3.5000     3.9600     7.9390    25.0790     1.9750     4.0980 
   63.3750    86.9270     3.9420     4.8110     7.7710    25.0200     2.0840     2.2960 
   63.5000    91.0240     4.1960     5.4590     7.2040    25.0520     2.1590     0.5670 
   63.6250    93.9860     4.4480     6.0130     7.2560    25.0730     2.2020    -1.1070 
   63.7500    94.5750     4.7520     6.5230     8.4580    25.0200     2.2370    -2.9730 
   63.8750    90.8470     5.0620     6.9540    10.0230    24.9280     2.2690    -4.8620 
   64.0000    83.0640     5.3340     7.2710    10.4940    24.9260     2.2930    -6.6780 
   64.1250    76.5860     5.5820     7.5080    10.1870    25.1820     2.3000    -8.4170 
   64.2500    74.1120     5.9010     7.8000     9.8270    25.5270     2.2880   -10.0840 
   64.3750    73.1280     6.3870     8.2530     9.7490    25.8160     2.2580   -11.8000 
   64.5000    70.6360     7.0780     8.9060    10.9900    25.9970     2.2120   -13.5200 
   64.6250    66.3750     7.8930     9.6780    15.7690    26.3320     2.1540   -15.2010 
   64.7500    62.8760     8.5740    10.3000    20.9450    26.8650     2.0980   -16.6790 
   64.8750    62.1710     8.9040    10.5280    17.6180    27.1940     2.0580   -18.0320 
   65.0000    64.7380     8.8080    10.2910    13.0560    27.0500     2.0420   -19.2880 
   65.1250    66.6950     8.3910     9.7220    11.3400    26.9700     2.0480   -20.5070 
   65.2500    67.1860     7.9410     9.1350    11.1280    27.2340     2.0540   -21.7020 
   65.3750    66.5340     7.6050     8.6900    10.8770    27.6670     2.0470   -22.6860 
   65.5000    66.1950     7.4240     8.4390    10.6280    28.0660     2.0260   -23.3830 
   65.6250    66.6640     7.3790     8.3560    10.3260    28.4000     2.0070   -23.7200 
   65.7500    68.3570     7.3880     8.3360    10.3320    28.5720     2.0070   -23.8010 
   65.8750    70.7180     7.4070     8.3280    10.4000    28.3950     2.0260   -23.6300 
   66.0000    70.7160     7.4090     8.3020    10.5070    28.1150     2.0440   -23.2490 
   66.1250    67.2480     7.3770     8.2380    10.5240    28.3180     2.0340   -22.7700 
