~V
VERS. 2.00: Ver 2.00
~W
STRT.M 60.0000:
STOP.M 273.0000:
STEP.M 0.1250:
NULL. -999.2500:
UWI. F11028:
~C
DEPT.M :
DEN.GM/CC :
GR.API :
RML.OHMM :
RI. :
RXO.OHMM :
CALI.CM :
SP.MV :
~A
# ...
  150.0000     2.3020    95.3270     4.8180     4.3060     4.8620    22.6330   -12.0540 
  150.1250     2.2990    95.5870     5.0440     4.4690     5.1520    22.5680   -12.0060 
  150.2500     2.2950    96.4520     5.2200     4.6120     5.6950    22.5780   -11.9870 
  150.3750     2.2900    98.3100     5.2720     4.7110     5.9990    22.6630   -11.9740 
  150.5000     2.2870    99.3380     5.1960     4.7550     5.8590    22.7890   -11.9450 
  150.6250     2.2840    98.1590     5.0780     4.7530     5.2960    22.7940   -11.9890 
  150.7500     2.2780    97.0090     5.0400     4.7430     5.0870    22.7430   -12.0390 
  150.8750     2.2670    96.2150     5.1290     4.7520     5.0160    22.6720   -12.0620 
  151.0000     2.2520    95.1540     5.3000     4.7880     5.0500    22.6460   -12.0790 
  151.1250     2.2370    94.0240     5.4400     4.8240     5.1970    22.6520   -12.0530 
  151.2500     2.2260    92.7750     5.4770     4.8260     5.3320    22.7190   -11.9990 
  151.3750     2.2220    91.1320     5.4400     4.8030     5.4520    22.9450   -11.9050 
  151.5000     2.2240    89.3810     5.4580     4.8270     5.5670    23.2640   -11.8220 
  151.6250     2.2310    89.0460     5.8130     5.0680     5.6700    23.6240   -11.7370 
  151.7500     2.2410    87.7290     6.7060     5.6640     6.2590    23.6750   -11.6700 
  151.8750     2.2510    84.3000     8.3260     6.7760     8.1150    23.7010   -11.6440 
  152.0000     2.2620    80.1470    10.7750     8.5560    11.9960    23.8290   -11.6330 
  152.1250     2.2710    78.0780    16.8670    11.2000    17.0180    24.1630   -11.6970 
  152.2500     2.2780    76.8120    21.1010    14.3860    20.1830    24.3160   -11.7830 
  152.3750     2.2780    73.5650    24.8990    17.6250    21.6580    24.2300   -11.9140 
  152.5000     2.2690    70.0440    27.7210    20.3360    22.6940    23.9650   -12.0360 
  152.6250     2.2510    68.1290    29.4670    22.1250    23.8880    23.8440   -12.1090 
  152.7500     2.2300    67.2240    30.7930    23.3690    25.1210    23.8770   -12.1950 
  152.8750     2.2080    65.0400    32.0530    24.4030    25.6700    24.0910   -12.2670 
  153.0000     2.1900    61.6690    33.2950    25.4170    25.9610    24.3070   -12.3780 
  153.1250     2.1760    61.8270    34.3400    26.4300    26.9640    24.2870   -12.4730 
  153.2500     2.1650    64.3220    35.1250    27.3860    28.4600    24.2200   -12.5670 
  153.3750     2.1590    66.1650    35.7050    28.2430    29.6030    24.0810   -12.6940 
  153.5000     2.1580    66.2340    36.2150    29.0140    29.5270    24.0230   -12.8420 
  153.6250     2.1630    66.4200    36.7650    29.7540    28.5500    23.9910   -13.0520 
  153.7500     2.1710    68.3950    37.2990    30.4810    28.5210    23.9500   -13.2450 
  153.8750     2.1790    69.7000    37.6430    31.1060    30.0940    23.9390   -13.4370 
  154.0000     2.1860    68.3010    37.5940    31.4580    31.8370    23.9500   -13.5990 
  154.1250     2.1910    66.4440    36.9420    31.2750    31.1600    23.9090   -13.7760 
  154.2500     2.1960    67.0390    35.8230    30.6050    28.6210    23.9190   -13.9280 
  154.3750     2.2000    70.3520    34.3950    29.5810    25.8930    23.8680   -14.0350 
  154.5000     2.2030    73.1120    32.8050    28.3700    24.2110    23.8330   -14.1720 
  154.6250     2.2040    72.1460    31.2330    27.1260    23.9010    23.7660   -14.2810 
  154.7500     2.2050    68.7780    29.9460    26.0480    24.2670    23.7530   -14.4070 
  154.8750     2.2050    68.1980    29.2460    25.3550    25.1320    23.7270   -14.5430 
  155.0000     2.2070    72.5440    29.4570    25.2880    24.7940    23.6880   -14.6970 
  155.1250     2.2100    75.9280    31.1430    26.3060    24.4240    23.6490   -14.8930 
  155.2500     2.2110    74.5050    34.3350    28.5360    27.5250    23.6370   -15.1120 
  155.3750     2.2080    69.7140    39.0550    32.1100    34.7500    23.7370   -15.3410 
  155.5000     2.2000    66.2810    45.1100    36.9840    40.9210    23.8250   -15.5580 
  155.6250     2.1900    65.1320    52.1610    42.9880    45.2470    23.8360   -15.7740 
  155.7500     2.1820    64.2220    59.4490    49.3860    51.4300    23.8110   -15.9940 
  155.8750     2.1770    63.8810    66.5280    55.6650    59.0910    23.7820   -16.1910 
  156.0000     2.1760    62.8870    73.1710    61.5200    66.0940    23.7850   -16.4000 
  156.1250     2.1780    61.8230    78.8840    66.5410    72.6290    23.6960   -16.5740 
  156.2500     2.1810    60.5690    82.9750    70.2490    77.5540    23.6350   -16.7300 
  156.3750     2.1840    61.2510    84.7360    72.0800    81.8570    23.5960   -16.9130 
  156.5000     2.1870    64.8510    84.2430    72.0260    90.3740    23.5460   -17.0710 
  156.6250     2.1890    68.1060    82.2960    70.6590    90.2810    23.3530   -17.2650 
  156.7500     2.1900    67.6860    80.1120    69.0340    79.7920    23.0370   -17.4190 
  156.8750     2.1860    64.6940    77.9300    67.4290    65.3370    22.6070   -17.5410 
  157.0000     2.1790    63.6760    75.4150    65.6060    63.3090    21.7710   -17.6020 
  157.1250     2.1720    65.7860    71.9390    62.9780    66.4320    21.4750   -17.6090 
  157.2500     2.1680    66.8510    67.6920    59.5600    64.4000    21.5840   -17.6090 
  157.3750     2.1730    65.0520    63.3510    55.7980    51.7970    21.7700   -17.5310 
  157.5000     2.1850    61.4040    59.8280    52.4300    40.0620    21.9440   -17.4440 
  157.6250     2.2020    58.4620    58.0350    50.3380    38.3240    21.7680   -17.3140 
  157.7500     2.2160    58.9360    57.6350    49.4950    40.3090    21.7910   -17.1690 
  157.8750     2.2250    63.0590    57.8820    49.4450    43.4940    21.9250   -17.0470 
  158.0000     2.2310    65.8990    57.6790    49.3210    46.1650    21.7850   -16.9250 
  158.1250     2.2340    63.9340    55.7650    47.9360    48.0690    21.5670   -16.8170 
  158.2500     2.2360    60.9640    52.4480    45.2700    44.1030    21.7390   -16.6720 
  158.3750     2.2380    61.4580    48.7860    42.1000    37.4500    21.8270   -16.5400 
  158.5000     2.2400    65.7110    46.0230    39.4970    31.7980    21.8300   -16.3880 
  158.6250     2.2410    70.4820    45.3850    38.5350    29.6050    21.8550   -16.1790 
  158.7500     2.2400    71.8910    46.8740    39.2810    31.7180    22.2600   -15.9790 
  158.8750     2.2360    69.2260    50.2260    41.5990    39.4160    22.8330   -15.7650 
  159.0000     2.2310    65.0830    54.6660    44.9990    50.7090    23.1860   -15.5940 
  159.1250     2.2260    63.5610    58.7860    48.5660    54.3600    23.5230   -15.4010 
  159.2500     2.2220    66.1000    61.3180    51.2330    52.3690    23.6510   -15.2100 
  159.3750     2.2190    68.5870    61.6170    52.2920    49.3960    23.7190   -15.0420 
  159.5000     2.2160    66.9390    59.6340    51.4080    48.5210    23.8390   -14.8860 
  159.6250     2.2140    65.4810    55.5060    48.4040    48.1760    24.0630   -14.7810 
  159.7500     2.2140    68.7380    50.1370    44.0600    44.5550    24.0870   -14.6610 
  159.8750     2.2170    73.2230    43.9790    38.8410    37.8400    24.0290   -14.5770 
  160.0000     2.2230    73.9960    37.4300    33.1520    30.7000    23.9360   -14.4590 
  160.1250     2.2350    73.2680    31.0970    27.5540    25.7180    23.8720   -14.3570 
  160.2500     2.2480    75.2340    25.5540    22.6160    21.1920    23.8590   -14.2940 
  160.3750     2.2610    77.3150    21.1610    18.6660    16.6900    23.9200   -14.2180 
  160.5000     2.2720    78.3020    18.0680    15.8030    12.8490    23.9420   -14.1480 
  160.6250     2.2770    79.1520    16.4430    14.1320    11.7290    24.0130   -14.0530 
  160.7500     2.2770    81.1910    15.8810    13.3330    12.8040    24.1720   -13.9920 
  160.8750     2.2720    84.0180    16.1570    13.2580    13.4440    24.3610   -13.9450 
  161.0000     2.2640    85.9840    17.0410    13.7630    12.9880    24.4080   -13.9220 
  161.1250     2.2560    85.5090    18.2960    14.7230    13.4730    24.5500   -13.9400 
