~V
VERS. 2.00: Ver 2.00
~W
STRT.M 55.0000:
STOP.M 276.0000:
STEP.M 0.1250:
NULL. -999.2500:
UWI. F11046:
~C
DEPT.M :
GR.API :
RML.OHMM :
RI. :
RXO.OHMM :
CALI.CM :
DEN.GM/CC :
SP.MV :
~A
# ...
  122.5000    65.8770     7.8480     6.7460     9.0920    24.4940     2.1710   -16.8400 
  122.6250    64.3310     8.0110     7.0660     9.2080    24.4330     2.1840   -18.1650 
  122.7500    65.9180     7.9660     7.1480     9.2260    24.3500     2.2020   -19.1870 
  122.8750    68.8390     7.8610     7.1070     9.2670    24.3030     2.2190   -19.9300 
  123.0000    70.5830     7.8350     7.0690     9.2820    24.3080     2.2310   -20.3310 
  123.1250    70.4610     7.9960     7.1460     9.2210    24.4240     2.2310   -20.5660 
  123.2500    69.6030     8.2930     7.3490     8.9770    24.6530     2.2160   -20.6520 
  123.3750    67.5020     8.6100     7.6260     8.7330    24.9440     2.1860   -20.6270 
  123.5000    65.7620     8.7580     7.8420     8.8130    25.1210     2.1530   -20.4230 
  123.6250    69.0220     8.4660     7.7360     9.2050    25.0320     2.1370   -19.8810 
  123.7500    76.5650     7.7310     7.2150     9.2070    24.8460     2.1520   -19.0830 
  123.8750    84.5130     6.6980     6.3560     8.2540    24.7700     2.1980   -17.9970 
  124.0000    90.0430     5.6400     5.3990     6.3030    24.6670     2.2620   -16.7910 
  124.1250    91.2690     4.9220     4.6560     4.7660    24.4710     2.3170   -15.7260 
  124.2500    89.7450     4.6790     4.2610     4.1480    24.3110     2.3410   -14.9540 
  124.3750    86.5140     4.9290     4.2640     4.5300    24.2300     2.3300   -14.6310 
  124.5000    82.3430     5.5930     4.6620     6.0060    24.1920     2.2910   -14.8200 
  124.6250    76.4560     6.5130     5.4390     8.6630    24.1690     2.2460   -15.5370 
  124.7500    70.6980     7.4080     6.3620    10.2300    24.1780     2.2130   -16.6480 
  124.8750    67.9510     8.0990     7.2120    10.7120    24.1950     2.1970   -18.0560 
  125.0000    68.6890     8.5230     7.8180    10.4530    24.2030     2.1940   -19.5990 
  125.1250    68.6630     8.7510     8.1330    10.2050    24.2040     2.2000   -21.0210 
  125.2500    67.2320     8.9720     8.3410    10.4380    24.2210     2.2070   -22.1350 
  125.3750    67.4530     9.2430     8.5620    11.2600    24.2830     2.2170   -22.6950 
  125.5000    69.5910     9.4730     8.7900    12.5980    24.4130     2.2330   -22.5530 
  125.6250    69.8720     9.4080     8.8010    12.2970    24.5820     2.2610   -21.7730 
  125.7500    66.2390     8.9890     8.4410    11.7290    24.7350     2.2960   -20.4080 
  125.8750    62.5460     8.3700     7.7940    10.6250    24.8360     2.3380   -18.6210 
  126.0000    64.5790     7.9120     7.1600     8.9660    24.8900     2.3830   -16.5230 
  126.1250    72.9260     8.1500     6.9740     6.9730    24.9010     2.4350   -14.1970 
  126.2500    76.4280     9.4020     7.4730     7.6530    24.8720     2.4950   -11.8870 
  126.3750    68.8780    11.9020     8.8770    12.5220    24.8220     2.5570    -9.7140 
  126.5000    56.7120    15.4030    11.3190    22.6160    24.7820     2.6130    -7.9050 
  126.6250    51.3630    18.9010    14.6790    24.9720    24.7340     2.6500    -6.5990 
  126.7500    50.9890    21.2680    17.8750    22.4160    24.6820     2.6670    -5.8630 
  126.8750    50.8170    22.1250    19.8700    21.0180    24.6240     2.6620    -5.5400 
  127.0000    50.7720    21.8110    20.4140    21.2810    24.5880     2.6370    -5.4880 
  127.1250    53.6620    21.0340    20.1830    19.5360    24.5790     2.5980    -5.6140 
  127.2500    55.0350    20.3450    19.9730    17.1780    24.5200     2.5590    -5.7410 
  127.3750    53.4060    19.5550    19.6670    15.8930    24.3580     2.5330    -5.9270 
  127.5000    52.2310    18.1950    18.6970    15.3950    24.1320     2.5200    -6.1230 
  127.6250    54.6230    15.8720    16.4580    16.6200    24.0540     2.5110    -6.2670 
  127.7500    58.4190    13.0440    13.4820    15.0040    24.2980     2.4920    -6.3510 
  127.8750    62.7570    10.3030    10.5240    10.6890    24.7270     2.4590    -6.3670 
  128.0000    68.3310     8.1810     8.1730     6.8060    25.1220     2.4170    -6.3730 
  128.1250    72.7770     7.1180     6.7930     5.5930    25.2740     2.3770    -6.3590 
  128.2500    74.0510     7.0260     6.2320     5.5870    25.3000     2.3560    -6.3760 
  128.3750    73.3050     7.9180     6.4790     6.2820    25.2710     2.3650    -6.3790 
  128.5000    70.6330     9.8470     7.6140     7.7090    25.2410     2.4100    -6.2930 
  128.6250    65.5790    13.0290    10.0020    11.4970    25.2210     2.4860    -6.2160 
  128.7500    60.5590    17.1260    13.5950    18.1400    25.2070     2.5650    -6.0490 
  128.8750    56.1090    21.6680    18.1810    25.6710    25.1830     2.6280    -5.8920 
  129.0000    51.6530    25.8770    23.0260    29.7420    25.1450     2.6640    -5.7320 
  129.1250    49.5400    28.6170    26.6990    31.5870    25.1130     2.6730    -5.5340 
  129.2500    50.4390    29.6380    28.5110    32.8030    25.0820     2.6720    -5.3500 
  129.3750    51.1120    29.1400    28.5370    30.3230    25.0440     2.6680    -5.1950 
  129.5000    49.2950    27.6680    27.3300    28.3040    25.0120     2.6620    -5.1580 
  129.6250    48.1320    25.8210    25.4550    27.8510    24.9340     2.6450    -5.1670 
  129.7500    50.4040    24.1420    23.5360    23.7870    24.8580     2.6200    -5.2990 
  129.8750    52.6650    22.9020    21.9500    19.7690    24.9000     2.5950    -5.4070 
  130.0000    52.0680    22.2300    20.9370    17.8210    25.0620     2.5840    -5.4760 
  130.1250    50.4020    22.1280    20.6110    18.3470    25.2010     2.5940    -5.5520 
  130.2500    49.9770    22.2150    20.6500    21.1510    25.2130     2.6070    -5.6160 
  130.3750    49.8220    22.1470    20.7130    24.5820    25.1770     2.6030    -5.7170 
  130.5000    48.9230    21.6690    20.4620    24.0950    25.1650     2.5720    -5.8050 
  130.6250    48.7360    20.7090    19.6920    19.9830    25.1650     2.5210    -5.9040 
  130.7500    49.4890    19.6180    18.6960    16.6870    25.1800     2.4790    -6.0070 
  130.8750    50.4180    18.7110    17.7970    16.2940    25.2080     2.4650    -6.1270 
  131.0000    52.2290    18.1810    17.2190    17.2620    25.2200     2.4840    -6.2510 
  131.1250    54.1920    18.0870    17.0730    17.9280    25.2220     2.5200    -6.3270 
  131.2500    54.4590    18.2120    17.1830    17.7090    25.2120     2.5490    -6.3700 
  131.3750    54.1980    18.4270    17.4100    17.2790    25.1680     2.5630    -6.4080 
  131.5000    55.0680    18.6840    17.6750    16.7230    25.1100     2.5630    -6.4400 
  131.6250    54.9180    19.0410    18.0180    15.8660    25.0650     2.5610    -6.4570 
  131.7500    52.6670    19.5240    18.4950    16.6070    25.0430     2.5640    -6.3970 
  131.8750    49.8200    20.0700    19.0900    18.0250    25.0140     2.5740    -6.3420 
  132.0000    48.8350    20.5060    19.6730    18.5330    24.9930     2.5890    -6.3180 
  132.1250    50.1900    20.5180    19.9340    19.4840    24.9810     2.6040    -6.3320 
  132.2500    52.0490    20.0120    19.6760    19.3300    24.9750     2.6160    -6.4730 
  132.3750    53.6330    19.0300    18.8680    17.8650    25.0010     2.6180    -6.6060 
  132.5000    54.5450    17.7720    17.6780    15.5950    25.0240     2.6080    -6.7630 
  132.6250    56.5790    16.5560    16.4020    13.5050    25.0010     2.5850    -6.9330 
  132.7500    59.0570    15.6530    15.3420    12.3790    25.0200     2.5590    -7.1630 
  132.8750    58.7930    15.2210    14.6790    12.3230    25.1830     2.5400    -7.3710 
  133.0000    54.7740    15.3270    14.5210    12.7210    25.4310     2.5360    -7.5140 
  133.1250    49.2910    15.9980    14.9730    13.1810    25.5960     2.5510    -7.6260 
  133.2500    46.8730    16.9500    15.8480    14.1500    25.5800     2.5770    -7.5780 
  133.3750    48.2560    17.8900    16.9150    15.9380    25.3850     2.6040    -7.5220 
  133.5000    51.3260    18.4970    17.8150    17.5060    25.1800     2.6180    -7.4650 
  133.6250    53.5160    18.4640    18.0800    17.5970    25.1140     2.6020    -7.4620 
