~V
VERS. 2.00: Ver 2.00
~W
STRT.M 57.0000:
STOP.M 280.0000:
STEP.M 0.1250:
NULL. -999.2500:
UWI. F11041:
~C
DEPT.M :
SP.MV :
GR.API :
RML.OHMM :
RI. :
RXO.OHMM :
CALI.CM :
DEN.GM/CC :
~A
# ...
  113.2500     1.1400   105.4210     8.5280     6.9110     5.6190    24.7510     2.2990 
  113.3750     1.5040   103.7940     8.7120     6.8990     5.7850    24.5620     2.3000 
  113.5000     1.7920    99.0740     9.0650     7.0270     5.9060    24.3860     2.3060 
  113.6250     1.9960    96.9750     9.3160     7.1770     6.0140    24.3240     2.3200 
  113.7500     2.1330    98.4170     9.3110     7.2220     6.0460    24.3130     2.3330 
  113.8750     2.1920   101.3920     9.1060     7.1430     5.9970    24.3050     2.3420 
  114.0000     2.1690   103.4760     8.8490     6.9990     5.8740    24.2560     2.3520 
  114.1250     2.0850   103.4990     8.6600     6.8710     5.6730    24.2140     2.3640 
  114.2500     1.9980   103.0370     8.5420     6.7940     5.6420    24.1750     2.3710 
  114.3750     1.9190   102.5150     8.4630     6.7690     5.8240    24.1400     2.3710 
  114.5000     1.8380   102.3270     8.4110     6.7860     5.9880    24.0970     2.3620 
  114.6250     1.7190   100.8550     8.4360     6.8650     5.8220    24.1420     2.3440 
  114.7500     1.5630    98.0920     8.6080     7.0340     6.0010    24.1610     2.3230 
  114.8750     1.3790    96.7230     8.9830     7.3200     6.3830    24.1010     2.3020 
  115.0000     1.1960    96.2600     9.5460     7.7180     6.2690    23.9950     2.2820 
  115.1250     1.0120    93.6950    10.1930     8.1790     6.4370    23.8540     2.2650 
  115.2500     0.8260    88.2360    10.7010     8.5790     6.8390    23.7790     2.2520 
  115.3750     0.6440    84.2510    10.8670     8.7850     7.1090    23.7630     2.2440 
  115.5000     0.4860    85.4050    10.5820     8.6950     7.3740    23.7420     2.2400 
  115.6250     0.4050    88.6100     9.8390     8.2490     7.1530    23.7010     2.2420 
  115.7500     0.3820    89.1670     8.8890     7.5930     6.9310    23.7070     2.2510 
  115.8750     0.4180    86.7670     7.9370     6.8590     6.6030    23.8010     2.2640 
  116.0000     0.4970    84.4090     7.1580     6.1820     6.1700    23.9630     2.2770 
  116.1250     0.6050    84.0270     6.6840     5.6920     5.9510    24.1410     2.2860 
  116.2500     0.7040    87.0090     6.4170     5.3670     5.8460    24.2840     2.2910 
  116.3750     0.7660    92.4620     6.2080     5.1380     5.9520    24.2730     2.2960 
  116.5000     0.7520    95.6810     5.8890     4.9060     6.0170    24.1300     2.3040 
  116.6250     0.6130    93.9110     5.3850     4.6120     6.1700    24.0190     2.3190 
  116.7500     0.3700    92.0440     4.8780     4.3170     6.0860    24.2300     2.3410 
  116.8750     0.0490    93.0290     4.5850     4.1230     5.6210    24.5780     2.3640 
  117.0000    -0.3480    94.5850     4.6840     4.1210     5.3010    24.7850     2.3790 
  117.1250    -0.8500    94.7130     5.3270     4.3980     5.5270    24.6640     2.3790 
  117.2500    -1.4440    91.4880     6.3290     4.8960     6.3300    24.3470     2.3650 
  117.3750    -2.1120    83.9250     7.4380     5.5260     7.2370    24.0110     2.3350 
  117.5000    -2.8090    74.8610     8.3410     6.1420     7.8340    23.8080     2.2860 
  117.6250    -3.4930    68.9120     8.7420     6.5460     8.6450    23.7000     2.2350 
  117.7500    -4.1250    66.1960     8.7510     6.7170     8.4430    23.6230     2.2020 
  117.8750    -4.7020    64.6500     8.5720     6.7340     7.9570    23.5640     2.1890 
  118.0000    -5.1670    63.0420     8.3990     6.7090     7.6520    23.5440     2.1860 
  118.1250    -5.4600    61.6990     8.3190     6.7140     7.5090    23.5650     2.1880 
  118.2500    -5.5980    60.4940     8.3010     6.7530     7.2670    23.6040     2.1870 
  118.3750    -5.5940    59.7790     8.3370     6.8160     7.0170    23.6150     2.1840 
  118.5000    -5.4610    60.6030     8.4470     6.9100     6.8840    23.5380     2.1830 
  118.6250    -5.2110    64.2980     8.6910     7.0670     6.8530    23.4330     2.1860 
  118.7500    -4.8910    69.9360     9.0890     7.2940     6.8370    23.3770     2.1930 
  118.8750    -4.5210    72.8190     9.6380     7.5830     6.8580    23.3690     2.2070 
  119.0000    -4.1440    72.1080    10.2410     7.8860     6.9240    23.3700     2.2240 
  119.1250    -3.7660    70.7930    10.6550     8.0740     6.9470    23.3590     2.2400 
  119.2500    -3.3640    70.6240    10.6780     8.0420     6.9640    23.3430     2.2560 
  119.3750    -2.9110    71.2040    10.2380     7.7490     7.0370    23.3370     2.2770 
  119.5000    -2.4000    73.0660     9.4420     7.2540     6.9750    23.4510     2.3000 
  119.6250    -1.8560    79.4820     8.5550     6.6960     6.4670    23.7110     2.3160 
  119.7500    -1.3110    88.9480     7.8260     6.2090     5.9170    24.0000     2.3190 
  119.8750    -0.8080    97.3520     7.3240     5.8380     5.6950    24.1840     2.3070 
  120.0000    -0.3750   100.9460     7.0190     5.5850     5.7110    24.2180     2.2910 
  120.1250    -0.0260    96.8200     6.8940     5.4570     5.7790    24.1380     2.2830 
  120.2500     0.2590    90.2260     6.9150     5.4430     5.8600    24.0670     2.2830 
  120.3750     0.4710    85.1930     7.1020     5.5500     5.8270    24.0660     2.2830 
  120.5000     0.6000    82.8280     7.4640     5.7710     5.8250    24.0770     2.2800 
  120.6250     0.6530    83.0230     7.9390     6.0580     6.0610    24.0330     2.2740 
  120.7500     0.6660    85.1640     8.3210     6.2980     6.4100    23.9380     2.2680 
  120.8750     0.7030    86.9220     8.4010     6.3820     6.7650    23.8600     2.2660 
  121.0000     0.8000    85.5440     8.0450     6.2330     6.8390    23.8820     2.2730 
  121.1250     0.9780    84.2110     7.2100     5.8250     6.5360    24.0270     2.2920 
  121.2500     1.1990    90.1360     6.2090     5.3100     6.1320    24.1520     2.3170 
  121.3750     1.4290   101.1680     5.3910     4.8550     5.8520    24.2180     2.3430 
  121.5000     1.6470   108.1730     5.0790     4.6280     5.7040    24.2140     2.3670 
  121.6250     1.8430   104.1610     5.5680     4.8180     5.7560    24.1900     2.3880 
  121.7500     2.0150    95.3600     6.6980     5.4110     6.4090    24.1800     2.4090 
  121.8750     2.1420    87.3510     8.1910     6.3310     8.1990    24.1960     2.4380 
  122.0000     2.2190    82.6750     9.5320     7.3290    11.4860    24.2190     2.4660 
  122.1250     2.2310    79.0810     9.9500     7.9010    11.5290    24.0400     2.4540 
  122.2500     2.1820    77.5390     9.3950     7.8290     8.9550    23.7360     2.4010 
  122.3750     2.1100    79.8750     8.2330     7.2350     6.9230    23.5590     2.3450 
  122.5000     2.0160    85.6980     6.9600     6.4190     6.0110    23.7760     2.3210 
  122.6250     1.9180    91.4320     5.9690     5.6560     5.6560    24.3730     2.3280 
  122.7500     1.8140    95.9570     5.3030     5.0600     5.4180    24.8220     2.3440 
  122.8750     1.6960   100.5500     4.9080     4.6400     5.1940    25.0180     2.3610 
  123.0000     1.5630   104.5660     4.7300     4.3920     5.0010    25.1340     2.3760 
  123.1250     1.4090   104.1680     4.8090     4.3560     5.0220    25.2060     2.3850 
  123.2500     1.2240    99.1610     5.1340     4.5130     5.1730    25.1990     2.3850 
  123.3750     0.9840    92.2370     5.6950     4.8530     5.4480    25.1270     2.3770 
  123.5000     0.7010    86.6930     6.4180     5.3310     5.9550    24.8660     2.3630 
  123.6250     0.3620    81.4380     7.1340     5.8480     6.7230    24.3340     2.3440 
  123.7500     0.0040    76.7020     7.6170     6.2480     7.1540    23.9390     2.3320 
  123.8750    -0.3480    75.9940     7.6820     6.4070     7.1310    23.8320     2.3320 
  124.0000    -0.6860    79.5490     7.2530     6.2710     7.0480    23.9650     2.3500 
  124.1250    -1.0220    82.6470     6.4690     5.9020     7.2550    24.0710     2.3810 
  124.2500    -1.3640    82.6630     5.8520     5.5740     7.4090    24.0500     2.4060 
  124.3750    -1.7160    82.9170     5.8700     5.5200     7.0860    23.9780     2.4110 
