~V
VERS. 2.00: Ver 2.00
~W
STRT.M 47.0000:
STOP.M 270.0000:
STEP.M 0.1250:
NULL. -999.2500:
UWI. F11075:
~C
DEPT.M :
GR.API :
RML.OHMM :
RI. :
RXO.OHMM :
CALI.CM :
DEN.GM/CC :
SP.MV :
~A
   47.0000  -999.2500  -999.2500  -999.2500  -999.2500  -999.2500  -999.2500    49.2310 
   47.1250  -999.2500  -999.2500  -999.2500  -999.2500  -999.2500  -999.2500    49.2250 
   47.2500  -999.2500  -999.2500  -999.2500  -999.2500  -999.2500  -999.2500    49.2200 
   47.3750  -999.2500  -999.2500  -999.2500  -999.2500  -999.2500  -999.2500    49.3930 
   47.5000  -999.2500  -999.2500  -999.2500  -999.2500  -999.2500  -999.2500    49.5050 
   47.6250  -999.2500  -999.2500  -999.2500  -999.2500  -999.2500  -999.2500    49.5670 
   47.7500  -999.2500  -999.2500  -999.2500  -999.2500  -999.2500  -999.2500    49.5340 
   47.8750  -999.2500  -999.2500  -999.2500  -999.2500  -999.2500  -999.2500    49.3980 
   48.0000  -999.2500  -999.2500  -999.2500  -999.2500  -999.2500  -999.2500    49.2040 
   48.1250    48.4430    85.4150     0.8940     2.3440    25.8610  -999.2500    48.9600 
   48.2500    48.4430    85.4150     0.8940     2.3440    25.8610  -999.2500    48.6400 
   48.3750    48.4700    99.9960     0.8930     2.3050    25.8630  -999.2500    48.2020 
   48.5000    49.2570    98.6020     0.9430     2.9860    25.8670  -999.2500    47.6510 
   48.6250    49.1700    83.5680     0.9820     4.7480    25.8640  -999.2500    47.0280 
   48.7500    47.7140    70.9270     0.9460     4.1370    25.8620  -999.2500    46.3760 
   48.8750    48.0540    79.5060     0.9000     2.3530    25.8570  -999.2500    45.6690 
   49.0000    46.1160   122.0390     0.9410     2.4340    25.8330  -999.2500    44.8600 
   49.1250    45.3100   199.9670     1.0030     2.4610    25.8140  -999.2500    43.9020 
   49.2500    47.2350   274.8130     1.0620     2.7290    25.8130  -999.2500    42.7650 
   49.3750    49.2570   285.6640     1.0920     3.0110    25.8130  -999.2500    41.3840 
   49.5000    48.1200   251.8210     1.0900     3.1330    25.8070  -999.2500    39.7620 
   49.6250    44.8990   247.9210     1.0610     2.7350    25.8050  -999.2500    37.8700 
   49.7500    42.9200   358.2170     1.0090     2.2980    25.8070  -999.2500    35.7040 
   49.8750    42.9260   520.8280     0.9470     2.1650    25.8140  -999.2500    33.2660 
   50.0000    43.7590   538.3660     0.8980     2.1180    25.8110  -999.2500    30.7050 
   50.1250    44.8470   369.0760     0.8780     2.1790    25.8050  -999.2500    28.1150 
   50.2500    46.2690   152.9570     0.8820     2.4590    25.8030     2.1820    25.6980 
   50.3750    48.9570    56.0530     0.9070     2.9560    25.8030     2.1820    23.6930 
   50.5000    51.7700    34.8370     0.9400     3.7560    25.7900     2.1820    22.1240 
   50.6250    51.7190    29.8320     0.9730     3.8030    25.7330     2.1820    21.0430 
   50.7500    47.6190    29.7920     1.0040     2.9830    25.6330     2.1820    20.4610 
   50.8750    43.7510    32.7660     1.0250     2.1160    25.4540     2.1820    20.4020 
   51.0000    44.0900    35.8120     1.0320     1.5490    25.2710     2.1820    20.7350 
   51.1250    45.7510    37.9660     1.0170     1.3310    25.1620     2.1790    21.3870 
   51.2500    46.8040    39.3180     0.9910     1.3650    25.1270     2.1710    22.1670 
   51.3750    48.7220    40.0530     0.9730     1.4180    25.1310     2.1560    23.0040 
   51.5000    51.4620    40.2560     0.9700     1.4380    25.1430     2.1370    23.8770 
   51.6250    53.2090    40.3920     0.9820     1.4210    25.1880     2.1200    24.7170 
   51.7500    52.9680    41.6050     0.9980     1.3290    25.2880     2.1050    25.4770 
   51.8750    53.5010    45.6940     1.0130     1.2770    25.4180     2.0890    26.1140 
   52.0000    55.3930    52.2680     1.0340     1.2520    25.5230     2.0650    26.5680 
   52.1250    56.3350    58.9170     1.0680     1.2270    25.5730     2.0320    26.7860 
   52.2500    54.4090    62.2690     1.1200     1.3170    25.6060     1.9930    26.7950 
   52.3750    52.3370    61.1420     1.1730     1.6930    25.6600     1.9590    26.5420 
   52.5000    53.0550    60.6820     1.2100     2.3430    25.6980     1.9350    26.0950 
   52.6250    55.0950    66.3020     1.2320     2.8920    25.7060     1.9210    25.5270 
   52.7500    56.1580    80.8500     1.2460     2.9870    25.6980     1.9150    24.8460 
   52.8750    54.5270   101.1250     1.2570     2.6240    25.6850     1.9150    24.0680 
   53.0000    51.5830   116.1190     1.2540     2.5410    25.6650     1.9170    23.2780 
   53.1250    48.8950   120.2850     1.2250     2.5090    25.6410     1.9200    22.4730 
   53.2500    49.2620   118.9250     1.1740     2.1880    25.6130     1.9230    21.6150 
   53.3750    52.5180   143.6700     1.1170     2.0620    25.5980     1.9240    20.7570 
   53.5000    54.3640   213.2460     1.0820     1.9900    25.5900     1.9290    19.8720 
   53.6250    53.7590   279.4160     1.0730     1.9880    25.5790     1.9400    18.9440 
   53.7500    52.5620   263.7530     1.0620     1.9890    25.5610     1.9590    17.9970 
   53.8750    52.1400   153.0060     1.0100     2.0960    25.5390     1.9850    17.0430 
   54.0000    51.9100    52.1940     0.9090     2.3320    25.5260     2.0110    16.1210 
   54.1250    52.8220     9.6100     0.7830     2.5350    25.5010     2.0380    15.2940 
   54.2500    55.5830     2.8420     0.6860     2.3460    25.4790     2.0800    14.6200 
   54.3750    57.1520     1.2590     0.6430     1.8270    25.4430     2.1610    14.0120 
   54.5000    58.4260     0.4490     0.6310     1.6020    25.3870     2.2780    13.2170 
   54.6250    62.8270     0.1650     0.6380     1.6830    25.3010     2.4100    11.9610 
   54.7500    71.0280     0.1830     0.6880     3.0100    25.1620     2.5250    10.1070 
   54.8750    76.9000     0.5400     0.9000     7.5710    24.9550     2.5910     7.5290 
   55.0000    75.5470     1.4720     1.4840    19.7840    24.8040     2.6220     4.4530 
   55.1250    69.3270     3.4850     2.8730    37.5690    24.7220     2.6390     1.0090 
   55.2500    63.3000     6.5270     5.5560    57.9120    24.6820     2.6500    -2.7840 
   55.3750    61.2580     9.0370     8.9130    63.2410    24.6420     2.6410    -6.8540 
   55.5000    62.8210     9.6270    10.6340    45.3150    24.6140     2.5940   -10.8220 
   55.6250    66.4450     8.6020    10.3160    23.1480    24.5770     2.5090   -14.3890 
   55.7500    70.0840     7.2840     9.0700    14.0920    24.5530     2.4070   -17.3670 
   55.8750    71.0530     6.7040     7.8030    11.3870    24.5470     2.3220   -19.5700 
   56.0000    70.0640     6.7400     6.8720    10.3570    24.5500     2.2650   -21.2710 
   56.1250    68.4230     7.1770     6.3680    10.2400    24.5490     2.2330   -22.5820 
   56.2500    66.5290     7.7640     6.2580    10.6940    24.5450     2.2120   -23.5420 
   56.3750    64.5450     8.1300     6.4110    11.0050    24.5400     2.1990   -24.1460 
   56.5000    63.3470     8.1160     6.6010    10.9330    24.5380     2.1910   -24.5230 
   56.6250    64.0180     7.8120     6.7490    10.7650    24.5360     2.1890   -24.7520 
   56.7500    66.6140     7.4790     6.8570    10.5930    24.5420     2.1930   -24.8820 
   56.8750    68.1740     7.4510     6.9990    10.4730    24.5520     2.1990   -24.9100 
   57.0000    67.1300     7.8150     7.2310    10.5420    24.5570     2.2040   -24.8500 
   57.1250    65.3650     8.5050     7.5340    10.9180    24.5480     2.2080   -24.7020 
   57.2500    65.6160     9.2950     7.8210    11.8620    24.5420     2.2100   -24.4440 
   57.3750    66.9620     9.7630     7.8980    13.5550    24.5420     2.2120   -24.0880 
   57.5000    68.3220     9.6650     7.6740    13.8500    24.5460     2.2110   -23.7000 
   57.6250    72.3450     9.0030     7.1740    10.7710    24.5680     2.2080   -23.2410 
   57.7500    79.8260     8.0150     6.5350     8.4220    24.6540     2.2060   -22.7300 
   57.8750    86.4790     7.0620     5.9690     7.0110    24.8230     2.2090   -22.2300 
   58.0000    88.2660     6.3930     5.6000     6.7950    24.9680     2.2180   -21.7930 
   58.1250    85.6380     6.0960     5.4680     7.1120    25.0170     2.2330   -21.4650 
