~V
VERS. 2.00: Ver 2.00
~W
STRT.M 55.0000:
STOP.M 275.0000:
STEP.M 0.1250:
NULL. -999.2500:
UWI. F11036:
~C
DEPT.M :
GR.API :
RML.OHMM :
RI. :
RXO.OHMM :
CALI.CM :
DEN.GM/CC :
SP.MV :
~A
# ...
  223.7500    66.5870   179.0100   161.8120   112.6080    24.1500     2.3020   -14.6020 
  223.8750    65.1960   174.2260   158.0290   107.5550    23.7540     2.3020   -13.7590 
  224.0000    63.9940   168.0490   153.3670    78.5220    23.7130     2.2830   -12.9690 
  224.1250    61.4970   158.3070   145.6580    58.2710    24.1020     2.2620   -12.1650 
  224.2500    61.9640   145.1650   134.7870    52.3800    24.5770     2.2530   -11.5150 
  224.3750    68.6480   129.7970   121.6650    59.7020    24.9290     2.2570   -10.9980 
  224.5000    75.1490   114.2150   108.0210    68.6220    25.0680     2.2660   -10.5450 
  224.6250    73.1690   101.1870    96.3500    69.8680    24.9690     2.2790   -10.2070 
  224.7500    68.8270    92.2090    88.1790    69.5800    24.7930     2.3120    -9.9250 
  224.8750    66.8150    88.1630    84.5100    73.2580    24.6660     2.3810    -9.6080 
  225.0000    65.8720    88.8410    85.7340    74.5400    24.6400     2.4860    -9.2940 
  225.1250    63.8080    91.7200    90.6970    79.2510    24.6170     2.5920    -9.1360 
  225.2500    63.9580    90.9670    93.0070    83.5930    24.4790     2.6550    -9.0030 
  225.3750    65.1720    82.2920    85.4100   114.6510    24.3480     2.6530    -8.8870 
  225.5000    64.6000    65.6620    66.3170   161.5670    24.3630     2.5980    -8.7840 
  225.6250    67.1290    45.9380    44.2520   129.9500    24.5260     2.5280    -8.5910 
  225.7500    74.4970    29.2750    27.7780    50.4760    24.7390     2.4780    -8.3520 
  225.8750    82.3360    17.8080    17.7990    17.2940    24.9970     2.4560    -8.1730 
  226.0000    85.9650    11.2930    12.5310     8.4880    25.1620     2.4500    -8.0350 
  226.1250    84.3980     8.7350    10.2780     8.1840    25.1280     2.4450    -7.8330 
  226.2500    82.6510     7.8710     9.3500     8.4250    25.1040     2.4340    -7.6720 
  226.3750    83.5630     7.7230     9.2250     8.4540    25.1300     2.4200    -7.6240 
  226.5000    87.7580     7.9070     9.5480     8.2020    25.1870     2.4080    -7.6750 
  226.6250    94.2370     8.1830    10.0030     8.0620    25.1900     2.4060    -7.8760 
  226.7500   101.3550     8.3960    10.3540     8.2720    25.1840     2.4130    -8.2390 
  226.8750   107.6980     8.5060    10.5420     8.5440    25.1300     2.4290    -8.6510 
  227.0000   110.4540     8.5080    10.5660     8.7200    25.0580     2.4440    -9.0970 
  227.1250   110.1520     8.4000    10.4070     8.7680    24.9760     2.4480    -9.6110 
  227.2500   112.0670     8.2390    10.1240     8.6640    24.8960     2.4360   -10.0740 
  227.3750   116.9800     8.1050     9.7930     8.4700    24.8490     2.4130   -10.4970 
  227.5000   120.8230     8.1140     9.5360     8.2240    24.8460     2.3840   -10.8780 
  227.6250   121.9010     8.4740     9.5580     7.9870    24.8560     2.3630   -11.1710 
  227.7500   120.8630     9.2760     9.9710     8.8530    24.8720     2.3510   -11.2960 
  227.8750   116.2110    10.5900    10.8710    10.8820    24.8730     2.3510   -11.2960 
  228.0000   107.6490    12.3950    12.2920    14.3430    24.8200     2.3570   -11.1640 
  228.1250    98.4620    14.5960    14.2140    16.3710    24.7600     2.3640   -10.8480 
  228.2500    91.8650    16.8900    16.3250    18.6860    24.7210     2.3660   -10.4810 
  228.3750    87.7420    19.0620    18.3530    21.2780    24.6920     2.3640   -10.0110 
  228.5000    86.3150    20.9830    20.0930    23.2340    24.6770     2.3600    -9.4340 
  228.6250    87.8380    22.6040    21.4810    24.9770    24.6740     2.3590    -8.8050 
  228.7500    87.9610    24.0430    22.7170    26.4190    24.6740     2.3630    -8.2370 
  228.8750    84.0190    25.3440    23.9140    28.0640    24.6740     2.3660    -7.7040 
  229.0000    77.9370    26.5000    25.0890    29.9500    24.6740     2.3650    -7.2310 
  229.1250    73.5240    27.4840    26.1940    31.6500    24.6740     2.3560    -6.8740 
  229.2500    71.1360    28.4340    27.2500    33.1810    24.6740     2.3420    -6.5700 
  229.3750    69.7530    29.6110    28.3970    33.5030    24.6760     2.3290    -6.2880 
  229.5000    69.5450    31.3570    29.9160    31.6180    24.6800     2.3200    -6.0640 
  229.6250    72.0140    33.9510    32.2180    32.9090    24.6820     2.3190    -5.9300 
  229.7500    75.3040    36.7430    34.9980    35.7740    24.6860     2.3270    -5.7670 
  229.8750    77.6150    38.5210    37.1940    41.3560    24.7000     2.3460    -5.5990 
  230.0000    77.6300    37.8970    37.0840    50.3550    24.7260     2.3730    -5.4040 
  230.1250    74.7310    33.8580    33.0470    50.6440    24.7290     2.3990    -5.0970 
  230.2500    75.0760    28.0760    27.1000    36.8400    24.7140     2.4130    -4.7760 
  230.3750    82.5700    22.4810    21.5610    20.9930    24.6960     2.4100    -4.5250 
  230.5000    93.2640    18.7040    17.8820    11.9780    24.6860     2.3940    -4.4040 
  230.6250    96.4030    18.3850    16.9400    11.4880    24.6670     2.3720    -4.3510 
  230.7500    90.2920    21.9060    18.6600    14.8200    24.6330     2.3530    -4.4270 
  230.8750    80.7310    29.5880    23.7000    25.0800    24.5800     2.3390    -4.6650 
  231.0000    73.5150    40.8980    32.8590    47.1320    24.5360     2.3310    -5.0490 
  231.1250    70.9650    53.9980    46.3110    76.0010    24.4890     2.3270    -5.6060 
  231.2500    70.1620    65.1550    59.7010    80.2980    24.4400     2.3240    -6.1780 
  231.3750    69.4940    71.2410    67.9620    72.8950    24.3760     2.3200    -6.7060 
  231.5000    70.2000    70.8800    68.6050    66.8500    24.3200     2.3140    -7.1410 
  231.6250    73.6380    65.1790    63.0480    62.9080    24.2830     2.3120    -7.4920 
  231.7500    77.4880    58.4150    56.2190    51.4530    24.2700     2.3210    -7.7410 
  231.8750    79.4580    52.9820    50.5490    36.9760    24.2470     2.3480    -7.8700 
  232.0000    79.7640    49.9690    47.0970    30.7680    24.2370     2.3850    -7.9770 
  232.1250    78.4110    49.7770    46.3080    33.7110    24.2720     2.4140    -8.1080 
  232.2500    74.8580    51.3030    47.2510    39.9630    24.3380     2.4200    -8.2360 
  232.3750    71.6520    53.6760    49.1920    45.6650    24.3640     2.3980    -8.3960 
  232.5000    72.0300    56.1380    51.3720    47.0460    24.3310     2.3590    -8.6100 
  232.6250    73.9700    58.3820    53.3080    44.5410    24.3560     2.3180    -8.8490 
  232.7500    74.5240    60.9080    55.3510    44.1430    24.5100     2.2890    -9.1560 
  232.8750    73.6480    64.4950    58.2640    48.1130    24.6320     2.2750    -9.5130 
  233.0000    72.3190    69.7870    62.7230    59.2070    24.6760     2.2730    -9.8050 
  233.1250    70.6140    77.2700    69.2530    79.4990    24.6890     2.2800   -10.0580 
  233.2500    69.1400    86.2190    77.2020    89.0160    24.7030     2.2870   -10.3150 
  233.3750    68.3530    95.9540    85.8920    93.6250    24.6970     2.2910   -10.5500 
  233.5000    67.8130   105.7210    94.5700   103.5200    24.6860     2.2890   -10.6880 
  233.6250    66.8370   114.5090   102.4140   124.9200    24.6910     2.2830   -10.7880 
  233.7500    65.0770   121.5360   108.9110   140.0210    24.7130     2.2770   -10.8790 
  233.8750    63.9860   126.0330   113.4410   148.7660    24.7300     2.2740   -10.9390 
  234.0000    63.5640   127.5690   115.5510   143.0480    24.7340     2.2770   -11.0460 
  234.1250    61.8380   125.9630   115.0200   129.4860    24.7290     2.2860   -11.0880 
  234.2500    59.4040   122.4610   112.9140   118.5840    24.7210     2.2970   -11.0210 
  234.3750    58.2230   117.7030   109.7440   115.3290    24.6780     2.3090   -10.8390 
  234.5000    59.6930   111.9880   105.6590   117.7470    24.5920     2.3240   -10.6500 
  234.6250    63.4990   105.1630   100.4100   111.2860    24.4920     2.3450   -10.4280 
  234.7500    68.7850    97.3090    94.0680    94.4570    24.4280     2.3710   -10.0690 
  234.8750    73.2710    88.4450    86.5770    76.4200    24.3760     2.3950    -9.6160 
