~V
VERS. 2.00: Ver 2.00
~W
STRT.M 55.0000:
STOP.M 283.0000:
STEP.M 0.1250:
NULL. -999.2500:
UWI. F11062:
~C
DEPT.M :
SP.MV :
GR.API :
RML.OHMM :
RI. :
RXO.OHMM :
CALI.CM :
DEN.GM/CC :
~A
# ...
  268.7500    -4.7670    59.4510     7.7170     6.6410     6.8290    24.0380     2.4440 
  268.8750    -4.7510    60.7310     7.7050     6.6570     6.6920    24.0420     2.4490 
  269.0000    -4.7380    61.3900     7.6360     6.6240     6.5010    24.0470     2.4500 
  269.1250    -4.7590    59.2170     7.5330     6.5530     6.4160    24.0460     2.4450 
  269.2500    -4.8160    58.1760     7.4320     6.4750     6.4110    24.0410     2.4390 
  269.3750    -4.8600    60.3570     7.3520     6.4100     6.5020    24.0390     2.4320 
  269.5000    -4.8640    63.3420     7.2990     6.3710     6.6110    24.0410     2.4280 
  269.6250    -4.8650    63.1560     7.2720     6.3600     6.7130    24.0420     2.4290 
  269.7500    -4.8810    61.3850     7.2640     6.3670     6.8580    24.0400     2.4350 
  269.8750    -4.9060    59.6160     7.2760     6.3850     6.9300    24.0390     2.4420 
  270.0000    -4.9400    58.7880     7.3070     6.4120     6.9250    24.0420     2.4470 
  270.1250    -4.9660    59.9590     7.3530     6.4450     6.8620    24.0440     2.4470 
  270.2500    -4.9700    62.9500     7.4030     6.4820     6.7570    24.0420     2.4430 
  270.3750    -4.9460    67.2540     7.4420     6.5180     6.6390    24.0400     2.4380 
  270.5000    -4.9190    69.6920     7.4620     6.5440     6.5990    24.0420     2.4350 
  270.6250    -4.9170    66.3300     7.4550     6.5500     6.6380    24.0430     2.4340 
  270.7500    -4.9240    61.2870     7.4270     6.5350     6.7650    24.0390     2.4360 
  270.8750    -4.9400    60.0110     7.3870     6.5070     6.8920    24.0340     2.4400 
  271.0000    -4.9350    62.3040     7.3500     6.4770     6.9320    24.0260     2.4430 
  271.1250    -4.9240    63.3540     7.3370     6.4650     6.9930    24.0110     2.4450 
  271.2500    -4.9180    63.1810     7.3590     6.4850     7.0990    23.9910     2.4440 
  271.3750    -4.9500    63.6670     7.4210     6.5420     7.2180    23.9780     2.4420 
  271.5000    -4.9870    64.1300     7.5170     6.6340     7.1640    23.9750     2.4390 
  271.6250    -4.9700    63.3240     7.6360     6.7530     7.2450    23.9770     2.4340 
  271.7500    -4.9190    61.7230     7.7540     6.8750     7.2420    23.9810     2.4290 
  271.8750    -4.8770    60.1120     7.8490     6.9810     7.1960    23.9830     2.4250 
  272.0000    -4.8440    59.5650     7.9060     7.0550     7.1320    23.9820     2.4220 
  272.1250    -4.8020    60.8490     7.9060     7.0820     7.0480    23.9760     2.4220 
  272.2500    -4.7820    62.6210     7.8620     7.0700     6.9710    23.9700     2.4250 
  272.3750    -4.7520    63.1670     7.7900     7.0310     6.9900    23.9670     2.4300 
  272.5000    -4.7380    61.8920     7.7140     6.9810     7.1140    23.9670     2.4350 
  272.6250    -4.7660    60.6330     7.6650     6.9450     7.3230    23.9720     2.4360 
  272.7500    -4.8250    61.2780     7.6580     6.9400     7.6780    23.9760     2.4330 
  272.8750    -4.8890    63.0240     7.6950     6.9710     8.2190    23.9790     2.4270 
  273.0000    -4.9790    63.3840     7.7670     7.0360     8.7000    23.9800     2.4220 
  273.1250    -5.0630    63.3840     7.8540     7.1210     8.8250    23.9790     2.4190 
  273.2500    -5.1220    63.3840     7.9250     7.1990     8.9010    23.9780     2.4180 
  273.3750    -5.1800    63.3840     7.9570     7.2480     8.9260    23.9760     2.4190 
  273.5000    -5.2330    63.3840     7.9350     7.2560     8.7830    23.9720     2.4210 
  273.6250    -5.3030    63.3840     7.8500     7.2100     8.3120    23.9690     2.4240 
  273.7500    -5.3840    63.3840     7.7250     7.1250     7.5280    23.9650     2.4260 
  273.8750    -5.4570    63.3840     7.5850     7.0180     6.8950    23.9630     2.4270 
  274.0000    -5.4930    63.3840     7.4540     6.9090     6.7190    23.9630     2.4280 
  274.1250    -5.4970    63.3840     7.3580     6.8220     6.7420    23.9640     2.4300 
  274.2500    -5.4520    63.3840     7.3040     6.7690     6.7490    23.9670     2.4360 
  274.3750    -5.3890    63.3840     7.2930     6.7570     6.7520    23.9720     2.4440 
  274.5000    -5.3130    63.3840     7.3190     6.7800     6.8710    23.9770     2.4520 
  274.6250    -5.2210    63.3840     7.3670     6.8290     7.1090    23.9790     2.4560 
  274.7500    -5.1410    63.3840     7.4160     6.8790     7.3040    23.9800     2.4550 
  274.8750    -5.0700    63.3840     7.4510     6.9200     7.5090    23.9800     2.4510 
  275.0000    -5.0240    63.3840     7.4710     6.9450     7.8580    23.9800     2.4460 
  275.1250    -5.0220    63.3840     7.4830     6.9620     8.2950    23.9800     2.4410 
  275.2500    -5.0530    63.3840     7.5050     6.9840     8.7960    23.9790     2.4370 
  275.3750    -5.0930    63.3840     7.5440     7.0210     9.5190    23.9770     2.4360 
  275.5000    -5.1430    63.3840     7.5980     7.0750    10.2700    23.9750     2.4390 
  275.6250    -5.1990    63.3840     7.6530     7.1360    10.5500    23.9700     2.4440 
  275.7500    -5.2360    63.3840     7.6930     7.1900     9.9270    23.9660     2.4480 
  275.8750    -5.2600    63.3840     7.7120     7.2280     9.0430    23.9640     2.4500 
  276.0000    -5.2440    63.3840     7.7120     7.2490     8.2360    23.9650     2.4470 
  276.1250    -5.2010    63.3840     7.7020     7.2540     7.8020    23.9700     2.4410 
  276.2500    -5.1820    63.3840     7.6930     7.2520     7.7020    23.9780     2.4350 
  276.3750    -5.1540    63.3840     7.6930     7.2480     7.7710    23.9890     2.4330 
  276.5000    -5.1260    63.3840     7.6990     7.2420     7.6630    24.0040     2.4340 
  276.6250    -5.1100    63.3840     7.7090     7.2350     7.4930    24.0210     2.4390 
  276.7500    -5.0600    63.3840     7.7160     7.2310     7.3680    24.0270     2.4430 
  276.8750    -5.0200    63.3840     7.7180     7.2290     7.3290    24.0280     2.4440 
  277.0000    -5.0250    63.3840     7.7140     7.2290     7.4420    24.0300     2.4410 
  277.1250    -5.0060    63.3840     7.7070     7.2310     7.7670    24.0300     2.4360 
  277.2500    -4.9870    63.3840     7.7010     7.2310     8.1020    24.0300     2.4290 
  277.3750    -4.9730    63.3840     7.7020     7.2300     8.3230    24.0300     2.4220 
  277.5000    -4.9620    63.3840     7.7080     7.2290     8.3380    24.0300     2.4170 
  277.6250    -4.9170    63.3840     7.7180     7.2280     8.2580    24.0300     2.4160 
  277.7500    -4.8780    63.3840     7.7250     7.2280     8.1740    24.0290     2.4180 
  277.8750    -4.8620    63.3840     7.7260     7.2290     8.0610    24.0280     2.4240 
  278.0000    -4.8000    63.3840     7.7210     7.2300     7.8890    24.0250     2.4320 
  278.1250    -4.7770    63.3840     7.7120     7.2320     7.5980    24.0250     2.4360 
  278.2500    -4.7620    63.3840     7.7050     7.2340     7.3470    24.0250     2.4370 
  278.3750    -4.7530    63.3840     7.7020     7.2340     7.4000    24.0250     2.4340 
  278.5000    -4.6940    63.3840     7.7050     7.2330     7.6900    24.0260     2.4300 
  278.6250    -4.6630    63.3840     7.7120     7.2310     8.1590    24.0270     2.4270 
  278.7500    -4.6930    63.3840     7.7190     7.2290     8.5610    24.0260     2.4250 
  278.8750    -4.6900    63.3840     7.7240     7.2270     9.3570    24.0240     2.4250 
  279.0000    -4.6850    63.3840     7.7250     7.2270     9.6850    24.0250     2.4260 
  279.1250    -4.6770    63.3840     7.7250     7.2270     8.7470    24.0240     2.4280 
  279.2500    -4.6840    63.3840     7.7250     7.2270     7.9180    24.0250     2.4340 
  279.3750    -4.7090    63.3840     7.7250     7.2270     7.6000    24.0270     2.4400 
  279.5000    -4.7620    63.3840     7.7250     7.2270     7.4620    24.0270     2.4470 
  279.6250    -4.7890    63.3840     7.7250     7.2270     7.4670    24.0270     2.4530 
  279.7500    -4.7790    63.3840     7.7250     7.2270     7.6480    24.0250     2.4580 
  279.8750    -4.7870    63.3840     7.7250     7.2270     7.8530    24.0230     2.4630 
