~V
VERS. 2.00: Ver 2.00
~W
STRT.M 52.0000:
STOP.M 271.0000:
STEP.M 0.1250:
NULL. -999.2500:
UWI. F11069:
~C
DEPT.M :
GR.API :
RML.OHMM :
RI. :
RXO.OHMM :
CALI.CM :
DEN.GM/CC :
SP.MV :
~A
# ...
  130.7500    95.2700     6.2280     5.7630     6.1140    24.2410     2.3100   -13.0270 
  130.8750    99.6730     6.7330     6.2730     6.5250    24.4230     2.3710   -12.9710 
  131.0000   104.5920     7.0530     6.7210     8.3090    24.6040     2.4260   -12.8770 
  131.1250   105.4130     6.9930     6.8450    10.8150    24.6750     2.4510   -12.7530 
  131.2500   103.6760     6.6410     6.6020     9.3560    24.6560     2.4470   -12.6670 
  131.3750   102.1740     6.1590     6.1130     6.5570    24.6250     2.4270   -12.5940 
  131.5000   101.3330     5.7360     5.5880     5.1430    24.6770     2.4030   -12.5010 
  131.6250    99.5120     5.5210     5.2280     5.0290    24.7180     2.3830   -12.4740 
  131.7500    95.3680     5.4650     5.0660     5.3260    24.6460     2.3690   -12.5040 
  131.8750    90.1470     5.4660     5.0520     6.0820    24.4790     2.3650   -12.5220 
  132.0000    87.4720     5.4110     5.0770     6.3620    24.3600     2.3720   -12.5340 
  132.1250    87.9350     5.2420     4.9990     6.1680    24.4220     2.3860   -12.6210 
  132.2500    88.1470     5.0760     4.8250     5.6440    24.6120     2.3950   -12.7550 
  132.3750    87.4270     5.1010     4.6800     5.2250    24.7330     2.3990   -12.8800 
  132.5000    87.0770     5.5280     4.7460     5.2260    24.7830     2.4070   -13.0080 
  132.6250    85.3680     6.6280     5.3100     5.7640    24.7340     2.4370   -13.0870 
  132.7500    80.5370     8.3470     6.4780     8.2030    24.6400     2.4820   -13.1310 
  132.8750    74.5770    10.5030     8.3040    15.1050    24.5660     2.5140   -13.2030 
  133.0000    69.0340    12.6480    10.5860    25.6250    24.5210     2.4980   -13.3190 
  133.1250    65.2580    13.9790    12.5220    26.6780    24.4100     2.4160   -13.4290 
  133.2500    63.8740    14.2120    13.3250    20.4000    24.1460     2.3140   -13.5200 
  133.3750    65.3670    13.5400    12.9700    14.4030    23.8190     2.2410   -13.6440 
  133.5000    68.4680    12.4950    12.0490    11.6350    23.6550     2.2220   -13.8310 
  133.6250    68.8680    11.6120    11.2010    11.0600    23.7940     2.2480   -14.0260 
  133.7500    66.8420    11.0110    10.6340    11.2150    24.0140     2.2690   -14.1610 
  133.8750    65.5520    10.5920    10.2870    11.2620    24.1490     2.2600   -14.2550 
  134.0000    65.9360    10.2370    10.0330    11.1430    24.1830     2.2260   -14.3330 
  134.1250    65.2340     9.8920     9.7580    10.8600    24.1760     2.1950   -14.3520 
  134.2500    63.8830     9.5410     9.4390    10.3170    24.2220     2.1850   -14.3240 
  134.3750    66.4970     9.1620     9.0990     9.9400    24.3110     2.1960   -14.2360 
  134.5000    73.1010     8.7340     8.7640     9.5310    24.3980     2.2180   -14.0710 
  134.6250    78.0680     8.2800     8.4610     9.0490    24.4020     2.2370   -13.9520 
  134.7500    78.5730     7.8960     8.2140     8.8780    24.3640     2.2480   -13.9130 
  134.8750    76.9840     7.6680     8.0320     8.8080    24.3280     2.2520   -13.8610 
  135.0000    76.7590     7.6270     7.9100     8.5780    24.2980     2.2550   -13.7870 
  135.1250    77.1610     7.7490     7.8320     8.2980    24.2750     2.2590   -13.7740 
  135.2500    76.0600     7.9220     7.7780     8.1240    24.2290     2.2600   -13.7980 
  135.3750    75.7200     8.0870     7.7480     8.0900    24.2030     2.2530   -13.8680 
  135.5000    76.8850     8.2240     7.7570     8.2170    24.1960     2.2390   -13.9840 
  135.6250    77.6270     8.3560     7.8330     8.4010    24.2040     2.2210   -14.0720 
  135.7500    77.9000     8.5310     7.9590     8.7350    24.2360     2.2110   -14.0950 
  135.8750    79.6220     8.7780     8.1100     9.1370    24.2990     2.2120   -14.1100 
  136.0000    79.5530     9.0830     8.2590     9.5600    24.3520     2.2210   -14.1250 
  136.1250    76.1530     9.3810     8.3680     9.8170    24.3330     2.2320   -14.0980 
  136.2500    73.6180     9.6010     8.4310     9.4210    24.2430     2.2380   -14.0350 
  136.3750    72.8370     9.7150     8.4650     8.7580    24.0650     2.2350   -13.9690 
  136.5000    71.6780     9.7360     8.4960     8.5140    23.7910     2.2220   -13.9290 
  136.6250    71.2390     9.6920     8.5480     8.5230    23.5870     2.1960   -13.8950 
  136.7500    73.5160     9.6140     8.6070     8.5230    23.5500     2.1660   -13.8670 
  136.8750    75.4550     9.5110     8.6520     8.6800    23.6930     2.1380   -13.8580 
  137.0000    75.4490     9.4010     8.6660     8.8400    23.8940     2.1180   -13.8530 
  137.1250    75.3040     9.3190     8.6430     8.9550    24.0810     2.1110   -13.8020 
  137.2500    75.4750     9.2760     8.6050     9.0780    24.2030     2.1140   -13.7380 
  137.3750    74.3970     9.2500     8.5710     9.2370    24.2140     2.1220   -13.6500 
  137.5000    72.3450     9.2060     8.5550     9.4230    24.1820     2.1340   -13.5200 
  137.6250    69.6180     9.1340     8.5680     9.5830    24.1660     2.1470   -13.3470 
  137.7500    65.5440     9.0660     8.6030     9.6790    24.1890     2.1610   -13.1720 
  137.8750    64.1570     9.0240     8.6520     9.8260    24.1920     2.1750   -13.0080 
  138.0000    68.1180     8.9900     8.6950     9.9300    24.1330     2.1870   -12.8340 
  138.1250    73.4770     8.8960     8.6640     9.9510    24.0810     2.2020   -12.6820 
  138.2500    76.1410     8.6830     8.4940     9.7610    24.0650     2.2200   -12.5580 
  138.3750    76.3170     8.3250     8.1500     9.3890    24.0700     2.2440   -12.4430 
  138.5000    78.0220     7.8470     7.6580     8.7510    24.1240     2.2690   -12.3160 
  138.6250    84.5170     7.3280     7.1150     8.0350    24.0590     2.2890   -12.2380 
  138.7500    93.4420     6.8800     6.6620     7.1600    23.9060     2.2970   -12.2040 
  138.8750    98.9730     6.5750     6.3830     6.7800    23.8660     2.2910   -12.1820 
  139.0000    96.4480     6.4490     6.3000     7.0120    24.0000     2.2740   -12.1910 
  139.1250    90.7230     6.5120     6.3870     7.3210    24.1270     2.2580   -12.1760 
  139.2500    87.6320     6.6850     6.5360     7.5270    24.1590     2.2510   -12.1250 
  139.3750    87.3560     6.9250     6.6940     7.5700    24.1430     2.2560   -12.0830 
  139.5000    87.8380     7.2020     6.8520     7.6920    24.1120     2.2680   -12.0760 
  139.6250    86.0050     7.5080     7.0530     7.7940    24.0760     2.2700   -12.0920 
  139.7500    83.5720     7.8270     7.3190     7.9030    24.0650     2.2510   -12.0840 
  139.8750    82.4420     8.1460     7.6300     8.3630    24.1270     2.2150   -12.0560 
  140.0000    83.1410     8.4280     7.9230     9.0140    24.1810     2.1770   -12.0270 
  140.1250    83.1400     8.5810     8.1040     9.2350    24.1790     2.1590   -12.0310 
  140.2500    83.0090     8.5470     8.1470     8.7600    24.1540     2.1660   -12.0000 
  140.3750    84.7050     8.3040     8.0500     7.9160    24.1580     2.1930   -11.9110 
  140.5000    87.6270     7.8870     7.8280     7.2940    24.1950     2.2250   -11.8040 
  140.6250    88.4580     7.3670     7.4920     7.3660    24.2110     2.2490   -11.6580 
  140.7500    87.3290     6.8350     7.0860     7.5250    24.1620     2.2590   -11.4660 
  140.8750    86.3870     6.3200     6.6450     7.1830    24.0760     2.2550   -11.2530 
  141.0000    86.3910     5.8360     6.2070     6.3220    24.0310     2.2430   -11.0190 
  141.1250    86.5140     5.4280     5.8280     5.6140    24.0640     2.2310   -10.7770 
  141.2500    86.6500     5.1440     5.5420     5.3960    24.1640     2.2270   -10.6130 
  141.3750    87.7760     5.0250     5.3750     5.4040    24.2390     2.2330   -10.5050 
  141.5000    89.9330     5.0650     5.3210     5.5360    24.2820     2.2380   -10.3860 
  141.6250    90.2750     5.2030     5.3370     5.5830    24.4320     2.2320   -10.2830 
  141.7500    89.8670     5.3340     5.3400     5.6540    24.6200     2.2150   -10.2580 
  141.8750    91.4590     5.4330     5.3080     5.6320    24.6860     2.2010   -10.3110 
