~V
VERS. 2.00: Ver 2.00
~W
STRT.M 7.0000:
STOP.M 259.0000:
STEP.M 0.1250:
NULL. -999.2500:
UWI. F11018:
~C
DEPT.M :
DEN.GM/CC :
SP.MV :
GR.API :
RML.OHMM :
RI. :
RXO.OHMM :
CALI.CM :
~A
# ...
  108.2500     2.2900   -12.0530    71.0420     8.6940     7.6190     8.0310    21.3890 
  108.3750     2.2830   -11.4360    74.8820     8.7020     7.4700     7.8060    21.6890 
  108.5000     2.2750   -10.8030    72.2680     8.8180     7.4220     8.2020    22.0530 
  108.6250     2.2540   -10.2000    68.0170     8.7060     7.2750     9.2140    22.5670 
  108.7500     2.2240    -9.6380    66.9980     8.1160     6.8470    10.3770    23.2130 
  108.8750     2.2020    -9.1400    70.9600     7.0980     6.1250    10.1650    23.8710 
  109.0000     2.2070    -8.8170    79.4940     6.0730     5.3320     7.4450    24.3420 
  109.1250     2.2330    -8.7250    90.3320     5.4550     4.7570     5.0750    24.5140 
  109.2500     2.2620    -8.8350    95.9860     5.4020     4.5430     4.5070    24.4710 
  109.3750     2.2750    -9.0850    92.5320     5.9040     4.7300     5.7920    24.3020 
  109.5000     2.2630    -9.4090    84.9300     6.8520     5.3230     8.3210    24.0820 
  109.6250     2.2410    -9.7710    77.3450     7.8500     6.0920     9.7630    23.9460 
  109.7500     2.2210   -10.1050    70.0630     8.5310     6.7860    10.2220    23.9240 
  109.8750     2.2140   -10.3780    64.4280     8.6620     7.1580    10.1310    23.9770 
  110.0000     2.2210   -10.4790    66.0890     8.2670     7.0830     9.6310    24.0720 
  110.1250     2.2320   -10.3650    71.8070     7.7470     6.7940     8.8970    24.1530 
  110.2500     2.2380   -10.0940    76.4960     7.3430     6.4870     8.3230    24.1890 
  110.3750     2.2370    -9.7480    78.0540     7.1730     6.2990     7.9850    24.2010 
  110.5000     2.2310    -9.3400    76.7450     7.2990     6.3190     8.0250    24.1940 
  110.6250     2.2230    -8.8500    75.9260     7.5840     6.4860     8.3950    24.1860 
  110.7500     2.2140    -8.2690    76.8610     7.8550     6.6910     9.0530    24.1640 
  110.8750     2.2120    -7.5620    78.9960     7.9160     6.7890     9.5110    24.1180 
  111.0000     2.2220    -6.7510    80.3170     7.6070     6.6200     9.4660    24.1250 
  111.1250     2.2400    -5.9260    82.9170     7.0600     6.2340     7.9690    24.2830 
  111.2500     2.2560    -5.1180    87.8910     6.4560     5.7510     6.0380    24.5290 
  111.3750     2.2660    -4.3200    92.0100     5.9500     5.3020     5.0660    24.6970 
  111.5000     2.2690    -3.5480    92.8580     5.6310     4.9870     4.9680    24.7380 
  111.6250     2.2730    -2.8550    91.8280     5.4440     4.7990     4.8910    24.7330 
  111.7500     2.2840    -2.2850    93.0600     5.3420     4.7110     4.7960    24.7240 
  111.8750     2.3020    -1.8770    96.3280     5.2970     4.7000     4.6660    24.6950 
  112.0000     2.3220    -1.6830    96.5010     5.3300     4.7780     4.3530    24.6580 
  112.1250     2.3310    -1.6150    92.3660     5.4590     4.9450     4.4330    24.5830 
  112.2500     2.3230    -1.5960    85.8560     5.6810     5.1870     4.8740    24.4220 
  112.3750     2.3060    -1.5900    79.3470     5.9290     5.4450     5.6770    24.1530 
  112.5000     2.3010    -1.6000    79.1220     6.0520     5.5930     6.2300    23.9010 
  112.6250     2.3140    -1.6100    87.3730     5.9480     5.5490     6.0870    23.8000 
  112.7500     2.3340    -1.6300    98.2850     5.6150     5.3040     5.1400    23.7960 
  112.8750     2.3500    -1.6500   103.9490     5.1620     4.9330     4.3280    23.8080 
  113.0000     2.3560    -1.6430   104.7730     4.7730     4.5630     3.8190    23.7830 
  113.1250     2.3580    -1.6340   106.7570     4.5470     4.2880     3.5220    23.7440 
  113.2500     2.3570    -1.6470   108.7840     4.4950     4.1410     3.3620    23.8190 
  113.3750     2.3490    -1.7160   109.9060     4.5710     4.1130     3.3630    24.1250 
  113.5000     2.3320    -1.8300   108.5280     4.7130     4.1730     3.5270    24.4700 
  113.6250     2.3120    -1.9720   106.5650     4.8480     4.2540     3.6630    24.5680 
  113.7500     2.2890    -2.1550   103.8700     4.9480     4.3160     3.7740    24.4740 
  113.8750     2.2650    -2.4290   101.0280     5.0160     4.3450     3.9580    24.3670 
  114.0000     2.2410    -2.8350    99.8340     5.0720     4.3600     4.0170    24.4880 
  114.1250     2.2190    -3.3040    98.8170     5.1590     4.4040     4.3280    24.7010 
  114.2500     2.2090    -3.7920    95.7950     5.3370     4.5260     4.7020    24.6810 
  114.3750     2.2200    -4.2900    89.6360     5.7040     4.7970     5.1360    24.3350 
  114.5000     2.2580    -4.8190    83.3530     6.6470     5.3570     5.9950    23.8350 
  114.6250     2.3100    -5.3970    80.5670     8.4700     6.2560     7.1250    23.4270 
  114.7500     2.3720    -6.0300    77.4380    10.2240     7.5170     8.4440    23.2210 
  114.8750     2.4360    -6.7120    71.5630    12.1930     9.0390    11.0760    23.2160 
  115.0000     2.4750    -7.3980    63.5900    13.6510    10.3880    16.3400    23.3270 
  115.1250     2.4690    -8.0660    58.3580    13.9280    11.0030    18.1720    23.3500 
  115.2500     2.4140    -8.7160    58.1930    12.9540    10.6600    15.3360    23.1960 
  115.3750     2.3350    -9.3530    61.9370    11.3530     9.6410    11.4970    23.0160 
  115.5000     2.2700    -9.9800    66.9440     9.9550     8.4890     9.9690    22.9660 
  115.6250     2.2330   -10.5950    69.3920     9.0800     7.5930     9.5680    23.0440 
  115.7500     2.2200   -11.1690    69.0470     8.6940     7.0400     9.4480    23.1810 
  115.8750     2.2190   -11.6530    68.7710     8.6500     6.7880     9.3170    23.3280 
  116.0000     2.2150   -12.0320    68.5270     8.8010     6.7720     9.1550    23.4590 
  116.1250     2.2080   -12.3460    67.5630     8.9920     6.8570     9.1790    23.5570 
  116.2500     2.2010   -12.6420    66.8220     9.1620     6.9820     9.2870    23.6180 
  116.3750     2.1960   -12.9100    68.5050     9.2900     7.1040     9.4540    23.6380 
  116.5000     2.1950   -13.1540    71.0340     9.3530     7.1910     9.7060    23.6270 
  116.6250     2.1960   -13.3670    71.6570     9.3490     7.2310     9.8350    23.5950 
  116.7500     2.1990   -13.5260    71.4810     9.2760     7.2200     9.5570    23.5770 
  116.8750     2.2040   -13.6290    70.6580     9.1480     7.1650     9.3290    23.5650 
  117.0000     2.2090   -13.6930    68.3730     9.0080     7.0860     9.2960    23.5340 
  117.1250     2.2100   -13.7480    66.5130     8.8950     7.0120     9.3060    23.4870 
  117.2500     2.2060   -13.7750    68.0270     8.8250     6.9600     9.2710    23.4550 
  117.3750     2.2020   -13.7680    71.9740     8.7910     6.9350     9.3000    23.4440 
  117.5000     2.2030   -13.6810    73.5540     8.7790     6.9360     9.5370    23.4530 
  117.6250     2.2060   -13.5270    72.0630     8.7700     6.9470     9.8910    23.4740 
  117.7500     2.2090   -13.3540    71.7190     8.7580     6.9550    10.1690    23.4900 
  117.8750     2.2070   -13.1820    74.5170     8.7330     6.9480    10.0950    23.4730 
  118.0000     2.2000   -13.0060    76.9850     8.6640     6.8980     9.7140    23.3640 
  118.1250     2.1930   -12.8120    75.6050     8.5280     6.7950     9.3740    23.1920 
  118.2500     2.1880   -12.5860    72.2500     8.3220     6.6400     9.0800    23.1190 
  118.3750     2.1880   -12.3320    69.3910     8.0720     6.4510     8.7120    23.3220 
  118.5000     2.1910   -12.1060    68.3690     7.8340     6.2660     8.3610    23.7080 
  118.6250     2.1940   -11.9260    70.2520     7.6710     6.1270     8.2460    23.7460 
  118.7500     2.1910   -11.7820    74.4800     7.6200     6.0640     8.3550    23.5750 
  118.8750     2.1840   -11.6720    77.3300     7.6900     6.0920     8.6030    23.4050 
  119.0000     2.1770   -11.6210    77.2850     7.8690     6.2160     8.7520    23.3400 
  119.1250     2.1740   -11.6200    76.4920     8.0920     6.3900     8.9840    23.3120 
  119.2500     2.1750   -11.6770    75.8270     8.3060     6.5770     9.1990    23.2850 
  119.3750     2.1800   -11.7630    75.4330     8.4690     6.7420     9.3850    23.2650 
