~V
VERS. 2.00: Ver 2.00
~W
STRT.M 60.0000:
STOP.M 279.0000:
STEP.M 0.1250:
NULL. -999.2500:
UWI. F11060:
~C
DEPT.M :
GR.API :
RML.OHMM :
RI. :
RXO.OHMM :
CALI.CM :
DEN.GM/CC :
SP.MV :
~A
# ...
  172.5000    56.5060   138.9220   130.3400   109.4760    24.4640     2.2200    -8.0210 
  172.6250    57.1980   158.5020   148.1390   134.3780    24.7070     2.1920    -7.9560 
  172.7500    57.4000   178.7210   166.7770   149.8490    24.9300     2.1670    -7.9680 
  172.8750    55.8580   195.1980   182.2840   161.9960    25.0000     2.1520    -8.0110 
  173.0000    54.0970   203.6210   190.7250   168.9310    24.9550     2.1490    -7.9320 
  173.1250    54.4530   201.8350   189.5510   173.1060    24.8750     2.1560    -7.8610 
  173.2500    54.7310   196.0640   183.6970   164.1270    24.6940     2.1710    -7.8570 
  173.3750    55.6300   192.2590   178.5530   144.7250    24.4200     2.1910    -7.7940 
  173.5000    59.3500   194.8860   178.8480   132.8410    24.2110     2.2080    -7.6360 
  173.6250    63.2520   206.9210   188.2000   136.2490    24.1340     2.2140    -7.5050 
  173.7500    62.9840   224.5350   203.5470   167.0900    24.1160     2.2100    -7.4110 
  173.8750    59.3400   241.3300   219.5120   258.5160    24.1210     2.2060    -7.2670 
  174.0000    56.3770   247.7980   228.0870   384.0810    24.1370     2.2110    -7.1320 
  174.1250    56.7970   233.4190   219.5140   329.0870    24.1530     2.2250    -7.1400 
  174.2500    58.5110   205.6380   197.7190   207.2960    24.1570     2.2370    -7.1210 
  174.3750    60.0410   175.5580   171.1090   151.0060    24.1570     2.2420    -7.0010 
  174.5000    60.2230   151.5170   147.8300   132.8920    24.1440     2.2420    -6.9510 
  174.6250    59.3650   137.3710   133.0300   114.1570    24.1640     2.2440    -7.0570 
  174.7500    59.5630   129.6250   124.7420    97.9540    24.2200     2.2460    -7.0930 
  174.8750    60.7400   124.8200   120.0540   102.2090    24.2640     2.2430    -7.1010 
  175.0000    61.4810   119.7090   115.7410   114.2590    24.2820     2.2290    -7.2530 
  175.1250    61.5020   112.6270   109.7290   119.3460    24.3080     2.2100    -7.3080 
  175.2500    62.0430   105.2690   103.0690    97.5740    24.3390     2.1980    -7.2850 
  175.3750    63.4190    99.8670    97.6760    73.9210    24.3300     2.2000    -7.3430 
  175.5000    64.9400    98.2810    95.4050    63.4220    24.2570     2.2150    -7.4690 
  175.6250    65.4750   102.5990    98.5740    69.6930    24.1420     2.2290    -7.5280 
  175.7500    63.8420   112.3520   107.1400    92.9130    24.0590     2.2310    -7.5250 
  175.8750    60.5310   127.0100   120.7280   134.6290    24.0470     2.2240    -7.5960 
  176.0000    58.4230   145.0900   137.8330   167.8350    24.2120     2.2170    -7.6120 
  176.1250    57.8950   163.0870   155.0400   165.7720    24.5540     2.2080    -7.5410 
  176.2500    57.3040   175.4450   167.2030   170.7250    24.8710     2.1890    -7.4970 
  176.3750    57.0190   177.0370   169.7560   189.2200    25.0270     2.1660    -7.5130 
  176.5000    57.7380   165.8800   160.7050   197.8010    25.0670     2.1490    -7.4860 
  176.6250    59.4740   144.4920   141.4710   160.5330    25.0680     2.1540    -7.3180 
  176.7500    60.4800   121.4130   119.5300   107.6300    25.0360     2.1740    -7.2250 
  176.8750    60.4310   101.6810    99.8110    74.0390    24.9530     2.2010    -7.1330 
  177.0000    60.1150    87.8190    85.2270    62.1670    24.8270     2.2280    -6.9520 
  177.1250    61.3150    81.2120    77.5500    58.0540    24.5840     2.2490    -6.8180 
  177.2500    63.9180    80.0470    75.2220    58.3310    24.3330     2.2600    -6.7580 
  177.3750    64.4100    83.3560    77.4190    61.9930    24.2160     2.2550    -6.6880 
  177.5000    61.6610    89.9320    83.0940    66.6110    24.2890     2.2410    -6.5270 
  177.6250    58.9520    98.2350    90.9220    76.1080    24.3850     2.2290    -6.4220 
  177.7500    58.1530   105.9780    98.6120    78.6500    24.3660     2.2240    -6.3270 
  177.8750    58.2510   111.5030   104.4300    75.1360    24.3520     2.2240    -6.1120 
  178.0000    57.6390   113.5750   107.0040    71.9280    24.3370     2.2300    -5.9250 
  178.1250    56.9360   111.2160   105.1410    72.2060    24.2970     2.2390    -5.8510 
  178.2500    57.7840   105.9970   100.2250    77.2720    24.2360     2.2480    -5.7160 
  178.3750    61.7530    99.3330    93.5880    81.7560    24.1340     2.2540    -5.4530 
  178.5000    67.6540    92.5640    86.5660    76.0050    23.9390     2.2570    -5.2750 
  178.6250    69.7110    87.0290    80.5870    61.6900    23.6790     2.2570    -5.1920 
  178.7500    67.6540    83.2460    76.3510    59.6880    23.5190     2.2560    -5.0170 
  178.8750    66.4400    81.2420    73.9940    66.3590    23.4840     2.2580    -4.8510 
  179.0000    67.9180    80.5530    73.1240    72.9360    23.4830     2.2610    -4.7460 
  179.1250    66.2610    80.3530    72.9830    78.1710    23.4650     2.2640    -4.5840 
  179.2500    62.8080    79.6720    72.5650    79.2610    23.4660     2.2700    -4.3780 
  179.3750    62.1240    78.1500    71.4200    74.5220    23.4630     2.2810    -4.2420 
  179.5000    63.5620    76.0680    69.6490    68.7020    23.4700     2.2970    -4.1510 
  179.6250    62.9510    74.2160    67.8220    63.0750    23.5040     2.3110    -4.0190 
  179.7500    61.3800    73.1820    66.4910    61.8570    23.5180     2.3170    -3.8870 
  179.8750    61.3130    73.2300    65.9360    63.1430    23.5100     2.3160    -3.8460 
  180.0000    62.4080    74.5390    66.3600    64.5350    23.4900     2.3070    -3.7930 
  180.1250    63.5670    77.6050    68.2370    64.9350    23.4570     2.2920    -3.6750 
  180.2500    66.3770    82.4750    71.6300    66.8890    23.4170     2.2720    -3.6690 
  180.3750    68.9760    89.4010    76.7020    73.1590    23.4680     2.2520    -3.7650 
  180.5000    69.0610    98.5150    83.4690    84.6120    23.6390     2.2330    -3.8080 
  180.6250    65.3180   109.9520    91.9410    99.8990    23.7690     2.2190    -3.7860 
  180.7500    61.5660   122.7010   101.3460   113.8540    23.8120     2.2160    -3.8770 
  180.8750    60.2720   135.9200   111.0620   116.8980    23.8530     2.2190    -3.9580 
  181.0000    59.2890   148.9670   120.6440   118.0310    23.9510     2.2200    -3.9570 
  181.1250    56.9010   161.9080   130.1730   127.1940    24.1130     2.2140    -4.0050 
  181.2500    56.9780   175.5550   140.2900   137.0390    24.1340     2.2090    -4.0620 
  181.3750    59.5370   190.5960   151.5580   136.0390    23.9760     2.2040    -4.0510 
  181.5000    60.8960   206.7230   163.7390   133.7960    23.7110     2.2010    -3.9540 
  181.6250    58.4930   220.4520   174.1970   177.7690    23.5690     2.2010    -3.8570 
  181.7500    57.0040   226.3110   179.0700   219.9100    23.5350     2.2020    -3.7570 
  181.8750    56.7790   218.7760   174.7230   219.2220    23.5850     2.2040    -3.5880 
  182.0000    55.8870   195.1240   159.2100   192.6060    23.7820     2.2110    -3.4430 
  182.1250    54.7380   158.2920   133.3450   141.1680    24.2220     2.2260    -3.3690 
  182.2500    55.5050   120.7830   105.1340    98.4360    24.6760     2.2520    -3.2520 
  182.3750    56.6050    89.9980    80.4070    74.3910    24.8590     2.2890    -3.0440 
  182.5000    56.4480    68.6120    62.3100    59.0910    24.7570     2.3230    -2.8850 
  182.6250    55.4860    57.2230    52.3380    46.0490    24.6670     2.3360    -2.8390 
  182.7500    55.2140    52.3070    48.0210    43.6040    24.6570     2.3310    -2.7270 
  182.8750    55.5170    52.0690    47.8820    48.2900    24.7450     2.3160    -2.6010 
  183.0000    55.6440    54.8480    50.5350    55.9270    24.9650     2.2950    -2.5330 
  183.1250    55.6300    58.1890    54.0260    61.4770    25.0770     2.2750    -2.4270 
  183.2500    55.7980    58.4760    55.0120    61.9100    25.1200     2.2620    -2.2350 
  183.3750    56.9090    53.2260    50.8170    56.2870    25.1220     2.2610    -2.0530 
  183.5000    60.3720    42.9670    41.5840    48.2480    25.1190     2.2710    -1.9250 
  183.6250    65.7090    31.5410    30.9720    30.0270    25.1060     2.2950    -1.7470 
