~V
VERS. 2.00: Ver 2.00
~W
STRT.M 47.0000:
STOP.M 272.0000:
STEP.M 0.1250:
NULL. -999.2500:
UWI. F11040:
~C
DEPT.M :
DEN.GM/CC :
GR.API :
RML.OHMM :
RI. :
RXO.OHMM :
CALI.CM :
SP.MV :
~A
# ...
  103.2500     2.1980    58.3710     8.6290     7.1900     7.2400    21.1060   -17.4000 
  103.3750     2.2000    58.3680     8.5940     7.1620     7.1930    21.1060   -17.3330 
  103.5000     2.1990    57.1960     8.5770     7.1490     7.2420    21.1060   -17.1970 
  103.6250     2.1940    55.1000     8.5680     7.1480     7.3150    21.1060   -17.0370 
  103.7500     2.1900    56.2520     8.5590     7.1520     7.3250    21.1050   -16.8740 
  103.8750     2.1870    59.2000     8.5560     7.1640     7.3020    21.1020   -16.7350 
  104.0000     2.1860    58.2070     8.5780     7.1930     7.2820    21.0990   -16.5890 
  104.1250     2.1850    54.9200     8.6490     7.2540     7.2540    21.0940   -16.4230 
  104.2500     2.1860    54.7210     8.7640     7.3460     7.2910    21.0970   -16.2420 
  104.3750     2.1860    55.7130     8.9030     7.4570     7.4740    21.1210   -16.0610 
  104.5000     2.1870    55.0690     9.0370     7.5680     7.6790    21.1510   -15.9440 
  104.6250     2.1890    54.0830     9.1320     7.6540     7.7940    21.1630   -15.8680 
  104.7500     2.1890    54.9450     9.1830     7.7070     7.8260    21.1690   -15.8170 
  104.8750     2.1890    55.9350     9.1950     7.7280     7.8260    21.1840   -15.7790 
  105.0000     2.1880    55.3560     9.1790     7.7250     7.8170    21.2180   -15.7630 
  105.1250     2.1860    54.6440     9.1450     7.7040     7.7950    21.2790   -15.7780 
  105.2500     2.1860    53.5570     9.1020     7.6710     7.7750    21.3470   -15.8040 
  105.3750     2.1860    51.7050     9.0540     7.6290     7.8480    21.3850   -15.8440 
  105.5000     2.1860    50.6500     9.0010     7.5780     7.8980    21.3710   -15.9060 
  105.6250     2.1870    52.9690     8.9360     7.5150     7.7980    21.3030   -15.9710 
  105.7500     2.1870    57.4030     8.8450     7.4350     7.6430    21.2120   -16.0350 
  105.8750     2.1880    60.8410     8.7110     7.3270     7.6140    21.1540   -16.0860 
  106.0000     2.1900    62.1640     8.5220     7.1840     7.6980    21.1550   -16.1160 
  106.1250     2.1940    61.3750     8.2880     7.0060     7.7480    21.2150   -16.1680 
  106.2500     2.2010    60.4710     8.0610     6.8280     7.6630    21.3160   -16.2480 
  106.3750     2.2100    61.2080     7.8930     6.6840     7.4300    21.4190   -16.3470 
  106.5000     2.2160    62.0300     7.8290     6.6080     7.1190    21.4780   -16.4050 
  106.6250     2.2200    62.1990     7.9050     6.6370     6.9550    21.4880   -16.4040 
  106.7500     2.2200    61.4920     8.0820     6.7530     7.1690    21.4770   -16.3480 
  106.8750     2.2180    60.0980     8.3170     6.9310     7.5060    21.4590   -16.2830 
  107.0000     2.2170    59.8340     8.5530     7.1300     7.6850    21.4490   -16.1820 
  107.1250     2.2170    63.2230     8.6980     7.2740     7.6660    21.4560   -16.0330 
  107.2500     2.2200    67.3890     8.6810     7.2970     7.6730    21.4690   -15.8620 
  107.3750     2.2280    68.6550     8.4540     7.1510     7.7540    21.4730   -15.6280 
  107.5000     2.2400    66.7440     8.0190     6.8250     7.8230    21.4720   -15.3840 
  107.6250     2.2550    66.3880     7.4400     6.3570     7.6930    21.4640   -15.2080 
  107.7500     2.2680    70.2210     6.8910     5.8780     7.3050    21.5190   -15.1350 
  107.8750     2.2730    75.7590     6.5100     5.5020     6.6540    21.7530   -15.1540 
  108.0000     2.2680    78.4080     6.3920     5.3120     6.1080    22.1160   -15.2830 
  108.1250     2.2580    75.0520     6.6070     5.3840     5.9190    22.1570   -15.5570 
  108.2500     2.2490    69.3260     7.0490     5.6590     6.1900    21.9200   -15.8790 
  108.3750     2.2410    64.2780     7.6160     6.0730     6.6910    21.5400   -16.2160 
  108.5000     2.2320    59.7710     8.1820     6.5390     7.2690    21.1680   -16.5240 
  108.6250     2.2210    56.3090     8.5970     6.9410     7.6430    21.0180   -16.8090 
  108.7500     2.2070    55.4350     8.8160     7.2130     7.8930    21.0060   -17.0870 
  108.8750     2.1960    57.4260     8.8570     7.3400     8.2140    21.0150   -17.3930 
  109.0000     2.1930    59.2530     8.7870     7.3510     8.4590    20.9970   -17.7350 
  109.1250     2.2000    58.8340     8.6870     7.2940     8.3890    20.9530   -18.0170 
  109.2500     2.2150    58.1290     8.6120     7.2200     8.0110    20.9020   -18.2430 
  109.3750     2.2340    58.7910     8.5620     7.1440     7.7630    20.8430   -18.4560 
  109.5000     2.2510    61.4800     8.5200     7.0640     7.9090    20.8120   -18.6530 
  109.6250     2.2580    64.5850     8.4650     6.9750     7.9250    20.8740   -18.8120 
  109.7500     2.2550    65.4820     8.3960     6.8810     7.7490    20.9840   -18.8980 
  109.8750     2.2450    64.3430     8.3310     6.7960     7.4970    21.0520   -18.8980 
  110.0000     2.2350    63.7680     8.2970     6.7450     7.3720    21.0490   -18.7900 
  110.1250     2.2280    65.6810     8.3360     6.7600     7.3580    21.0430   -18.5950 
  110.2500     2.2250    67.4350     8.4470     6.8430     7.3410    21.0200   -18.3610 
  110.3750     2.2210    66.8140     8.6180     6.9840     7.3340    20.9540   -18.1260 
  110.5000     2.2160    64.2000     8.8160     7.1620     7.4530    20.8500   -17.9380 
  110.6250     2.2090    59.5100     8.9940     7.3450     7.6490    20.7490   -17.7920 
  110.7500     2.2040    56.6990     9.1190     7.4990     7.8080    20.6810   -17.6980 
  110.8750     2.1990    57.5200     9.1780     7.6120     7.8610    20.6460   -17.6270 
  111.0000     2.1950    59.4280     9.1770     7.6800     7.8410    20.6250   -17.6100 
  111.1250     2.1930    59.8860     9.1350     7.7100     7.8760    20.5980   -17.6400 
  111.2500     2.1970    59.6260     9.0640     7.7070     7.8980    20.5710   -17.6850 
  111.3750     2.2130    59.7840     8.9310     7.6440     7.9080    20.5800   -17.6890 
  111.5000     2.2420    61.5620     8.6770     7.4760     7.8620    20.6420   -17.5520 
  111.6250     2.2800    67.4840     8.2250     7.1370     7.7610    20.7860   -17.2990 
  111.7500     2.3130    75.3010     7.6310     6.6650     7.4940    20.9740   -16.9880 
  111.8750     2.3280    80.3620     6.9970     6.1390     7.0910    21.1810   -16.6870 
  112.0000     2.3180    82.4420     6.4520     5.6590     6.7620    21.3580   -16.3940 
  112.1250     2.2900    84.4610     6.1330     5.3390     5.9440    21.5510   -16.1270 
  112.2500     2.2630    84.1740     6.0150     5.1780     5.4720    21.7080   -15.9170 
  112.3750     2.2460    81.2470     6.0320     5.1420     5.5830    21.7840   -15.7940 
  112.5000     2.2440    79.7660     6.0940     5.1710     6.0800    21.8460   -15.8540 
  112.6250     2.2520    83.7040     6.1250     5.2070     6.3200    22.0850   -16.0500 
  112.7500     2.2570    88.3860     6.1240     5.2320     6.1240    22.4350   -16.2880 
  112.8750     2.2500    89.8900     6.1360     5.2660     5.8120    22.6190   -16.5040 
  113.0000     2.2310    87.0770     6.2100     5.3370     5.7010    22.5220   -16.6860 
  113.1250     2.2090    80.7250     6.3700     5.4690     5.7090    22.1770   -16.8640 
  113.2500     2.1980    73.2430     6.5640     5.6310     5.9120    21.7400   -17.0470 
  113.3750     2.2010    68.4240     6.7430     5.7890     6.2370    21.2570   -17.2360 
  113.5000     2.2140    67.7310     6.8770     5.9140     6.4690    20.8870   -17.3600 
  113.6250     2.2240    68.8030     6.9770     5.9990     6.4650    20.7820   -17.4410 
  113.7500     2.2220    68.4270     7.0970     6.0780     6.2320    20.7920   -17.5260 
  113.8750     2.2120    68.5630     7.2810     6.1870     6.0680    20.8210   -17.6100 
  114.0000     2.2000    69.2950     7.5400     6.3470     6.2300    20.7470   -17.7160 
  114.1250     2.1950    68.2070     7.8420     6.5540     6.6560    20.6270   -17.8080 
  114.2500     2.1970    66.0490     8.1090     6.7550     6.8600    20.4830   -17.8790 
  114.3750     2.2050    65.6700     8.2850     6.9040     6.9490    20.4000   -17.9540 
