~V
VERS. 2.00: Ver 2.00
~W
STRT.M 51.0000:
STOP.M 282.0000:
STEP.M 0.1250:
NULL. -999.2500:
UWI. F11065:
~C
DEPT.M :
GR.API :
RML.OHMM :
RI. :
RXO.OHMM :
CALI.CM :
DEN.GM/CC :
SP.MV :
~A
# ...
  242.2500   124.0040     6.7960     6.4330     8.5040    26.8350     2.3300    -4.0520 
  242.3750   123.4930     6.8980     6.4790     8.9820    26.9990     2.3450    -3.7480 
  242.5000   122.6010     7.1040     6.5700     8.7120    27.1270     2.3870    -3.4540 
  242.6250   119.0160     7.4470     6.7550     8.2370    27.1680     2.4360    -3.1730 
  242.7500   114.7380     7.8990     7.0620     8.2190    26.9260     2.4670    -2.9610 
  242.8750   113.0680     8.3440     7.4650     9.4210    26.2800     2.4610    -2.8080 
  243.0000   110.5800     8.6240     7.8380    11.2400    25.5950     2.4300    -2.7110 
  243.1250   106.5150     8.6430     8.0620    12.1490    25.2750     2.3890    -2.6550 
  243.2500   104.2240     8.4120     8.0530    11.0770    25.3070     2.3580    -2.6650 
  243.3750   107.4290     8.0530     7.8010     9.6800    25.4980     2.3510    -2.7560 
  243.5000   114.0990     7.7590     7.4750     8.8530    25.5580     2.3640    -2.8930 
  243.6250   119.5350     7.6170     7.1970     9.0390    25.4430     2.3870    -3.0480 
  243.7500   120.5080     7.6240     7.0190     9.2730    25.3040     2.4050    -3.1890 
  243.8750   115.7720     7.7340     6.9400     9.0880    25.2120     2.4070    -3.3010 
  244.0000   108.5020     7.8960     6.9190    10.0290    25.0170     2.3940    -3.3950 
  244.1250   104.9060     8.1230     6.9550    11.5620    24.7630     2.3750    -3.4340 
  244.2500   106.6620     8.4620     7.0750    10.2080    24.5900     2.3560    -3.3980 
  244.3750   107.2680     9.0210     7.3650     9.6870    24.4900     2.3400    -3.3030 
  244.5000   102.5070     9.8830     7.8890    10.5240    24.4080     2.3260    -3.2560 
  244.6250    98.2280    11.1700     8.7620    12.4530    24.3610     2.3130    -3.2930 
  244.7500    99.4490    12.9730    10.1240    14.2280    24.3420     2.3010    -3.3670 
  244.8750   101.9670    15.2690    12.1660    15.3080    24.3030     2.2920    -3.4290 
  245.0000   100.6440    17.5440    14.6080    18.5390    24.2200     2.2890    -3.4570 
  245.1250    95.3940    19.1280    16.8330    25.5180    24.1350     2.2920    -3.5030 
  245.2500    87.5990    19.3880    17.9040    32.9990    24.1190     2.3020    -3.5280 
  245.3750    80.4360    17.9460    16.9220    28.0020    24.2180     2.3180    -3.5290 
  245.5000    77.4190    15.6470    14.7430    20.5230    24.2990     2.3350    -3.4570 
  245.6250    78.5790    13.3040    12.3640    14.2960    24.3600     2.3490    -3.2690 
  245.7500    81.2460    11.5300    10.4780    10.9920    24.4470     2.3540    -3.0280 
  245.8750    83.5510    10.6990     9.4540    10.1750    24.5540     2.3440    -2.8140 
  246.0000    83.8220    10.6050     9.1210    10.4920    24.6030     2.3260    -2.6490 
  246.1250    81.1040    11.0970     9.3540    11.6590    24.5810     2.3070    -2.5260 
  246.2500    78.2430    12.0440    10.0170    12.7340    24.5760     2.2950    -2.4920 
  246.3750    77.8210    13.3900    11.0310    13.0770    24.6630     2.2940    -2.5350 
  246.5000    77.2600    14.9510    12.2500    14.5650    24.7330     2.3000    -2.6120 
  246.6250    75.8510    16.4900    13.5600    15.9940    24.7770     2.3100    -2.7170 
  246.7500    75.3790    17.5760    14.6700    18.8530    24.7950     2.3230    -2.8620 
  246.8750    73.8870    17.4710    14.8740    19.2140    24.7910     2.3350    -2.9810 
  247.0000    70.9640    16.1410    13.9650    18.0120    24.7790     2.3420    -3.0680 
  247.1250    69.8370    13.9950    12.2920    15.9130    24.7840     2.3420    -3.1010 
  247.2500    73.4240    11.8210    10.5490    12.2880    24.8040     2.3380    -3.0900 
  247.3750    78.8620    10.5910     9.4340     8.8430    24.8340     2.3350    -2.9610 
  247.5000    80.9380    10.5560     9.1160     9.0120    24.8650     2.3380    -2.7660 
  247.6250    79.3490    11.5960     9.6130    13.3700    24.8990     2.3440    -2.5440 
  247.7500    74.6730    13.2750    10.8110    20.2450    24.9130     2.3480    -2.3070 
  247.8750    69.6910    14.8510    12.3580    22.3990    24.8990     2.3460    -2.1070 
  248.0000    67.8900    15.6780    13.5330    19.0060    24.8700     2.3410    -1.9900 
  248.1250    68.9910    15.7260    13.8650    15.4560    24.8550     2.3350    -1.8960 
  248.2500    70.5730    15.3860    13.3910    14.2170    24.8560     2.3300    -1.7890 
  248.3750    70.9840    14.9710    12.5410    13.7240    24.8580     2.3250    -1.7690 
  248.5000    71.9640    14.4570    11.7390    12.9610    24.8590     2.3230    -1.8140 
  248.6250    73.4720    13.7970    11.0600    11.9010    24.8590     2.3250    -1.9000 
  248.7500    73.4400    13.0660    10.4540    11.5280    24.8590     2.3290    -1.9430 
  248.8750    74.8220    12.2710     9.8630    11.7650    24.8650     2.3340    -1.9540 
  249.0000    78.6050    11.4080     9.2750    11.6570    24.8830     2.3390    -1.8910 
  249.1250    82.2190    10.5850     8.7400    10.6230    24.9030     2.3440    -1.7950 
  249.2500    83.0400     9.9340     8.3450     8.8290    24.9030     2.3500    -1.7030 
  249.3750    82.6730     9.6350     8.1990     8.7460    24.8760     2.3530    -1.5630 
  249.5000    83.3700     9.6680     8.2380     9.2450    24.8620     2.3530    -1.4160 
  249.6250    83.9840     9.9320     8.3320     9.2780    24.8580     2.3490    -1.3120 
  249.7500    84.7490    10.2290     8.3200     9.3330    24.8500     2.3430    -1.3270 
  249.8750    85.2650    10.3130     8.0920     9.8800    24.8180     2.3350    -1.3720 
  250.0000    84.2390    10.1830     7.7990    10.2260    24.7680     2.3250    -1.4470 
  250.1250    83.4970    10.0280     7.6550     9.6160    24.7210     2.3120    -1.5780 
  250.2500    85.5530    10.1320     7.8700     8.7930    24.6910     2.2940    -1.7890 
  250.3750    86.6450    10.8290     8.7050    10.4330    24.6840     2.2740    -2.0390 
  250.5000    80.0490    12.0490    10.1420    16.0600    24.7000     2.2620    -2.3190 
  250.6250    68.4630    13.5550    12.0590    22.5660    24.7550     2.2620    -2.5400 
  250.7500    61.1170    14.9430    14.0440    25.4810    24.8410     2.2760    -2.6520 
  250.8750    63.0570    15.6890    15.2730    23.4530    24.8890     2.2980    -2.7390 
  251.0000    67.4550    15.7480    15.4730    19.3900    24.8840     2.3150    -2.8620 
  251.1250    71.3350    15.3140    14.9170    16.5780    24.8550     2.3220    -2.9760 
  251.2500    74.0300    14.6920    14.1100    15.5350    24.8140     2.3150    -3.0470 
  251.3750    75.2670    14.1060    13.4030    15.1840    24.7570     2.2970    -3.0500 
  251.5000    76.0190    13.5630    12.7820    14.7640    24.7520     2.2720    -3.0380 
  251.6250    76.2310    13.0270    12.1560    13.8650    24.8300     2.2470    -3.0580 
  251.7500    77.4360    12.5700    11.5000    12.7220    24.9700     2.2320    -3.1580 
  251.8750    80.0500    12.5440    11.0070    11.8920    25.0770     2.2400    -3.2950 
  252.0000    80.3980    13.2670    10.9700    11.6940    25.1250     2.2690    -3.4380 
  252.1250    76.1680    15.0020    11.6960    13.0620    25.1520     2.3050    -3.6230 
  252.2500    70.8060    17.8730    13.4840    16.9860    25.1670     2.3310    -3.8670 
  252.3750    70.9350    22.0190    16.8100    25.1800    25.1500     2.3390    -4.2580 
  252.5000    72.0530    27.0430    21.4800    34.0090    25.0330     2.3480    -4.7360 
  252.6250    70.4610    32.5870    27.1330    46.3600    24.8750     2.3800    -5.3010 
  252.7500    67.5550    38.0520    33.0600    51.5710    24.7760     2.4420    -5.9010 
  252.8750    65.7850    42.1640    38.0590    48.0120    24.7640     2.5170    -6.5500 
  253.0000    65.6240    43.9030    41.0000    47.6760    24.7360     2.5740    -7.1680 
  253.1250    66.6640    42.7320    40.9980    64.1260    24.6950     2.5960    -7.7400 
  253.2500    66.5440    39.1050    38.1150    73.6110    24.6760     2.5840    -8.2370 
  253.3750    63.1860    34.4950    33.6140    54.5580    24.6780     2.5520    -8.6630 
