~V
VERS. 2.00: Ver 2.00
~W
STRT.M 58.0000:
STOP.M 271.0000:
STEP.M 0.1250:
NULL. -999.2500:
UWI. F11072:
~C
DEPT.M :
DEN.GM/CC :
GR.API :
RML.OHMM :
RI. :
RXO.OHMM :
CALI.CM :
SP.MV :
~A
# ...
   80.5000     2.1550    55.7100     9.6200     7.7160     8.8580    23.3010   -13.3840 
   80.6250     2.1550    55.4240     9.6200     7.8030    10.0100    23.3570   -13.3530 
   80.7500     2.1560    54.6490     9.4420     7.7620    10.0270    23.3780   -13.3070 
   80.8750     2.1570    54.8190     9.1850     7.6380     9.0770    23.4110   -13.2340 
   81.0000     2.1600    55.9820     8.9570     7.5000     8.3710    23.4880   -13.1160 
   81.1250     2.1680    56.6640     8.8440     7.4130     8.2550    23.6340   -12.9320 
   81.2500     2.1820    56.7720     8.8160     7.3770     8.2770    23.8460   -12.7000 
   81.3750     2.2020    57.0690     8.8090     7.3600     8.3420    24.0380   -12.4350 
   81.5000     2.2240    58.6240     8.7440     7.3120     8.4060    24.1300   -12.1510 
   81.6250     2.2420    62.3790     8.5500     7.1820     8.3430    24.1510   -11.8780 
   81.7500     2.2520    66.1420     8.2620     6.9820     8.1050    24.1310   -11.6580 
   81.8750     2.2510    69.1790     7.9520     6.7510     7.6890    24.0570   -11.5120 
   82.0000     2.2370    71.6510     7.7080     6.5490     7.3470    24.0250   -11.4530 
   82.1250     2.2140    72.2810     7.6300     6.4470     7.2810    24.0080   -11.5010 
   82.2500     2.1940    69.9020     7.7140     6.4550     7.1250    23.9100   -11.6220 
   82.3750     2.1850    66.6710     7.9200     6.5590     7.1040    23.7660   -11.7800 
   82.5000     2.1880    64.5970     8.1750     6.7170     7.3840    23.6110   -11.9580 
   82.6250     2.1990    63.5210     8.3810     6.8720     7.5160    23.3800   -12.1320 
   82.7500     2.2060    64.1860     8.4920     6.9800     7.5420    23.1100   -12.2800 
   82.8750     2.2070    66.6220     8.5110     7.0330     7.6850    22.8740   -12.3980 
   83.0000     2.2030    67.2340     8.4850     7.0510     7.9940    22.7410   -12.4840 
   83.1250     2.2000    64.2460     8.4870     7.0730     8.1020    22.7410   -12.5250 
   83.2500     2.1960    59.9470     8.5550     7.1290     8.2150    22.7720   -12.5330 
   83.3750     2.1900    58.6850     8.6820     7.2200     8.5520    22.7800   -12.5250 
   83.5000     2.1800    61.6090     8.8360     7.3330     8.8260    22.7940   -12.4970 
   83.6250     2.1690    64.7990     8.9690     7.4380     9.0300    22.8170   -12.4260 
   83.7500     2.1590    64.4350     9.0480     7.5120     9.2860    22.8260   -12.2980 
   83.8750     2.1540    61.4020     9.0550     7.5390     9.4050    22.8480   -12.0950 
   84.0000     2.1530    60.3800     9.0000     7.5190     8.9460    22.8730   -11.8020 
   84.1250     2.1550    61.3420     8.9370     7.4790     8.3660    22.8730   -11.4060 
   84.2500     2.1610    59.2730     8.9900     7.4950     7.9280    22.8790   -10.9120 
   84.3750     2.1740    54.9660     9.3050     7.6630     7.6770    22.8970   -10.3230 
   84.5000     2.2010    52.3780    10.0040     8.0790     7.5890    22.9090    -9.6520 
   84.6250     2.2540    53.4610    11.0900     8.7950     7.8590    22.9160    -8.9200 
   84.7500     2.3250    53.7680    12.1710     9.5880     8.7070    22.9270    -8.1730 
   84.8750     2.3990    53.3060    12.7870    10.1510    10.1780    22.9290    -7.4530 
   85.0000     2.4500    55.5790    12.5310    10.1620    12.2620    22.9840    -6.8020 
   85.1250     2.4540    65.1660    11.1590     9.3400    14.6760    23.1810    -6.2840 
   85.2500     2.4250    77.2320     9.2700     8.0370    14.4520    23.4750    -5.9120 
   85.3750     2.3830    85.9610     7.5010     6.6980     9.8140    23.7230    -5.6910 
   85.5000     2.3450    89.8460     6.3220     5.6930     6.2960    23.8290    -5.6160 
   85.6250     2.3180    87.8040     5.9310     5.2250     5.4280    23.8380    -5.6870 
   85.7500     2.2980    81.9980     6.0000     5.1280     5.4700    23.8550    -5.8650 
   85.8750     2.2830    76.6030     6.2600     5.2500     5.8650    23.8770    -6.1370 
   86.0000     2.2710    75.3630     6.4850     5.4350     6.3680    23.8920    -6.4870 
   86.1250     2.2600    79.0440     6.5290     5.5560     6.4510    23.9150    -6.9050 
   86.2500     2.2470    83.3500     6.4660     5.6120     6.1150    23.9100    -7.3640 
   86.3750     2.2290    85.7490     6.4220     5.6670     5.7940    23.8610    -7.8380 
   86.5000     2.2090    83.4570     6.5070     5.7940     5.6900    23.7850    -8.2920 
   86.6250     2.1930    75.6510     6.7850     6.0540     6.1830    23.6250    -8.6830 
   86.7500     2.1840    69.1710     7.1830     6.4060     7.0230    23.4220    -8.9910 
   86.8750     2.1790    67.0170     7.6280     6.7940     7.7420    23.2600    -9.1990 
   87.0000     2.1770    67.9250     8.0380     7.1460     8.0330    23.1500    -9.2810 
   87.1250     2.1730    67.1830     8.3120     7.3630     7.9720    23.0810    -9.1770 
   87.2500     2.1710    63.3170     8.3920     7.3980     7.9550    23.0620    -8.9000 
   87.3750     2.1780    59.4870     8.2220     7.2120     8.0100    23.0520    -8.4840 
   87.5000     2.1980    59.9790     7.7790     6.8000     7.9270    23.0280    -7.9930 
   87.6250     2.2320    67.5750     7.0790     6.1840     7.5710    23.0210    -7.5160 
   87.7500     2.2730    79.4340     6.3100     5.5080     6.8770    23.0230    -7.1350 
   87.8750     2.3110    91.5170     5.6530     4.9050     5.9060    23.0650    -6.8920 
   88.0000     2.3420    99.7320     5.2680     4.4910     5.0090    23.2270    -6.8260 
   88.1250     2.3560   101.7060     5.3170     4.3830     4.7350    23.4570    -7.0020 
   88.2500     2.3540    99.7140     5.7310     4.5520     4.8400    23.5530    -7.3910 
   88.3750     2.3310    95.3050     6.4280     4.9630     5.3490    23.6130    -7.9670 
   88.5000     2.2900    89.5640     7.2750     5.5460     6.2010    23.6540    -8.6780 
   88.6250     2.2400    83.8360     8.0820     6.1960     7.2010    23.6410    -9.4640 
   88.7500     2.1960    75.7970     8.7070     6.7810     7.7710    23.6500   -10.2290 
   88.8750     2.1690    67.3140     9.0990     7.2260     8.2150    23.7220   -10.9150 
   89.0000     2.1630    61.8820     9.2830     7.5050     8.3880    23.8390   -11.4800 
   89.1250     2.1740    61.3480     9.3250     7.6300     8.4860    23.9430   -11.8880 
   89.2500     2.1920    63.4030     9.3340     7.6790     8.6260    23.9820   -12.1700 
   89.3750     2.2070    66.1620     9.3500     7.6920     8.9020    23.9760   -12.3460 
   89.5000     2.2160    68.2210     9.3860     7.6900     9.2790    23.9790   -12.4460 
   89.6250     2.2200    67.8850     9.4410     7.6840     9.5650    23.9720   -12.4950 
   89.7500     2.2220    66.2550     9.4960     7.6780     9.7280    23.9610   -12.5330 
   89.8750     2.2230    63.1850     9.5280     7.6650     9.9280    23.9610   -12.5750 
   90.0000     2.2220    57.8040     9.5210     7.6350    10.2180    23.9320   -12.6320 
   90.1250     2.2190    54.0270     9.4670     7.5750     9.1260    23.8670   -12.7140 
   90.2500     2.2140    55.4490     9.3900     7.4990     8.5410    23.8560   -12.8080 
   90.3750     2.2100    59.6650     9.3160     7.4210     8.3160    23.8750   -12.9130 
   90.5000     2.2080    61.0690     9.2670     7.3610     8.2990    23.8840   -13.0290 
   90.6250     2.2090    55.6820     9.2560     7.3320     8.3600    23.9240   -13.1470 
   90.7500     2.2110    50.4760     9.2680     7.3240     8.5940    23.9360   -13.2650 
   90.8750     2.2110    52.1050     9.2880     7.3250     8.7480    23.8940   -13.3870 
   91.0000     2.2060    58.6040     9.3020     7.3310     8.8070    23.8450   -13.5100 
   91.1250     2.1930    60.5690     9.3060     7.3440     8.8410    23.8150   -13.6250 
   91.2500     2.1750    56.5070     9.3110     7.3710     8.8500    23.8050   -13.7280 
   91.3750     2.1570    52.6150     9.3310     7.4190     8.9190    23.8600   -13.8140 
   91.5000     2.1460    54.9560     9.3690     7.4890     9.2330    23.9700   -13.8730 
   91.6250     2.1480    60.7870     9.4190     7.5790     9.2810    24.0620   -13.8970 
