~V
VERS. 2.00: Ver 2.00
~W
STRT.M 63.0000:
STOP.M 273.0000:
STEP.M 0.1250:
NULL. -999.2500:
UWI. F11030:
~C
DEPT.M :
DEN.GM/CC :
GR.API :
RML.OHMM :
RI. :
RXO.OHMM :
CALI.CM :
SP.MV :
~A
# ...
  119.2500     2.2750    92.9820     6.2550     5.5500     6.7870    23.1220    -8.2400 
  119.3750     2.2800    96.4050     6.0950     5.4290     6.6260    23.1920    -8.3290 
  119.5000     2.3010    96.2420     5.8600     5.2440     6.4280    23.3890    -8.3630 
  119.6250     2.3320    90.2360     5.6460     5.0270     6.2300    23.7460    -8.4320 
  119.7500     2.3600    84.5080     5.6410     4.9000     6.5900    24.1460    -8.5620 
  119.8750     2.3770    82.2460     6.0530     5.0190     6.2770    24.4450    -8.7370 
  120.0000     2.3930    81.6490     7.0370     5.5400     5.4470    24.5750    -8.9680 
  120.1250     2.4280    76.6260     8.6660     6.6650     6.7560    24.4890    -9.4450 
  120.2500     2.4790    69.5550    10.4970     8.2450    11.2170    24.2540   -10.1990 
  120.3750     2.5240    65.4220    11.9460     9.8910    16.3790    24.0660   -11.1470 
  120.5000     2.5320    65.1090    12.4490    10.9230    17.6020    24.0000   -12.3810 
  120.6250     2.4800    64.6120    11.6550    10.6740    13.3470    24.0180   -13.8830 
  120.7500     2.3930    60.5850    10.3190     9.6720     9.7240    24.0280   -15.3910 
  120.8750     2.3040    56.1530     9.2060     8.5490     8.2170    24.1330   -16.8500 
  121.0000     2.2390    55.7250     8.6890     7.7150     7.9800    24.1860   -18.2150 
  121.1250     2.2150    59.9450     8.6580     7.3510     8.0950    24.2810   -19.2620 
  121.2500     2.2180    63.8350     8.7590     7.3030     8.1130    24.1910   -19.8650 
  121.3750     2.2360    65.4300     8.9190     7.4380     8.2550    24.1660   -20.1450 
  121.5000     2.2580    66.1670     9.0950     7.6270     8.5210    24.2310   -20.1910 
  121.6250     2.2720    66.4550     9.1770     7.7690     8.8150    24.3510   -19.9450 
  121.7500     2.2760    65.5750     9.1720     7.8370     9.0900    24.4510   -19.5630 
  121.8750     2.2720    65.4960     9.1060     7.8420     9.2150    24.4940   -19.1600 
  122.0000     2.2640    68.2940     9.0130     7.8030     9.0950    24.4410   -18.7680 
  122.1250     2.2520    72.1600     8.9280     7.7440     8.8920    24.3850   -18.4230 
  122.2500     2.2390    71.7860     8.8750     7.6890     8.7150    24.3060   -18.1790 
  122.3750     2.2290    67.5120     8.8650     7.6500     8.6180    24.2520   -18.0540 
  122.5000     2.2260    63.1310     8.9030     7.6370     8.6070    24.1880   -17.9690 
  122.6250     2.2340    62.9860     8.9840     7.6560     8.4400    24.0290   -17.9210 
  122.7500     2.2470    65.5980     9.0820     7.6950     8.3590    23.7680   -17.9190 
  122.8750     2.2580    67.7460     9.1760     7.7380     8.5320    23.4790   -17.8930 
  123.0000     2.2610    67.6440     9.2650     7.7750     9.0430    23.4850   -17.7030 
  123.1250     2.2540    67.1830     9.4000     7.8280     9.3930    23.8090   -17.2660 
  123.2500     2.2500    67.0220     9.6770     7.9540     9.2960    23.9840   -16.7450 
  123.3750     2.2640    66.7050    10.2280     8.2430     9.3660    24.0070   -16.0550 
  123.5000     2.3050    66.1270    11.2020     8.8080    10.1800    23.9940   -15.1220 
  123.6250     2.3750    66.9520    12.8200     9.8610    12.2030    24.0270   -13.9930 
  123.7500     2.4560    66.9820    15.0160    11.4430    15.5360    24.1590   -12.7040 
  123.8750     2.5330    62.0550    17.6550    13.5600    19.7960    24.3780   -11.2550 
  124.0000     2.5950    53.8560    20.4340    16.0610    22.8550    24.4880    -9.8730 
  124.1250     2.6330    49.3350    22.8170    18.5210    23.3370    24.3340    -8.7850 
  124.2500     2.6490    50.7330    24.4480    20.4480    21.7890    24.0590    -7.8200 
  124.3750     2.6440    53.2590    25.2190    21.6010    19.8060    23.8060    -6.9610 
  124.5000     2.6230    52.6100    25.2920    22.0440    18.6570    23.6630    -6.3140 
  124.6250     2.5970    50.5030    24.9690    22.0030    17.9270    23.5800    -5.8660 
  124.7500     2.5800    51.0140    24.6070    21.8220    17.2170    23.4510    -5.5420 
  124.8750     2.5790    53.5810    24.3130    21.6140    16.8900    23.2910    -5.3720 
  125.0000     2.5880    54.5210    24.0840    21.3980    17.3800    23.2040    -5.3220 
  125.1250     2.5970    51.9530    23.9000    21.1770    18.1700    23.4690    -5.2820 
  125.2500     2.6020    49.8290    23.7730    21.0020    18.9030    23.9550    -5.1930 
  125.3750     2.6070    50.4270    23.7410    20.9340    18.5580    24.3430    -5.1980 
  125.5000     2.6180    52.1320    23.8140    21.0090    17.7470    24.4230    -5.3090 
  125.6250     2.6360    52.6950    23.9230    21.1930    18.6890    24.3040    -5.4340 
  125.7500     2.6530    52.9230    23.9360    21.3370    20.5440    24.2320    -5.5750 
  125.8750     2.6570    52.5040    23.7740    21.3330    21.0920    24.2150    -5.7760 
  126.0000     2.6410    50.6030    23.4540    21.1540    20.2140    24.1990    -5.9610 
  126.1250     2.6050    50.0050    23.1000    20.8890    19.2040    24.1400    -5.9360 
  126.2500     2.5650    52.2190    22.8750    20.7070    18.5940    24.1090    -5.8710 
  126.3750     2.5380    53.8020    22.8490    20.7010    18.4860    24.1550    -5.8360 
  126.5000     2.5360    51.9820    22.9970    20.8770    18.8210    24.2210    -5.7150 
  126.6250     2.5610    49.7800    23.2170    21.1590    19.8810    24.2130    -5.6150 
  126.7500     2.5970    50.9130    23.3780    21.4160    19.8770    24.1970    -5.6320 
  126.8750     2.6300    53.6180    23.4060    21.5740    20.0660    24.2070    -5.6230 
  127.0000     2.6520    54.3170    23.2690    21.5850    19.8620    24.1830    -5.5420 
  127.1250     2.6610    52.4790    22.9560    21.3950    21.0530    24.1210    -5.5650 
  127.2500     2.6600    51.2930    22.5640    21.0770    21.6280    24.0150    -5.6480 
  127.3750     2.6450    50.9890    22.1960    20.7360    21.2380    23.8680    -5.6020 
  127.5000     2.6160    50.1120    21.9480    20.4910    17.6390    23.7170    -5.5220 
  127.6250     2.5810    49.2320    21.8750    20.4380    15.9710    23.6680    -5.4640 
  127.7500     2.5600    49.8830    21.8650    20.4960    16.1970    23.7090    -5.2960 
  127.8750     2.5600    51.7550    21.7730    20.5290    17.4650    23.7810    -5.0630 
  128.0000     2.5790    53.1000    21.4760    20.3900    19.3130    23.8770    -4.8960 
  128.1250     2.6020    54.1130    20.9200    19.9760    18.5540    23.9440    -4.7800 
  128.2500     2.6150    54.7640    20.2700    19.4150    17.4730    23.9870    -4.6500 
  128.3750     2.6140    54.3330    19.7040    18.8680    16.3300    24.0320    -4.6600 
  128.5000     2.6030    54.4930    19.3460    18.4910    16.9150    24.1470    -4.8170 
  128.6250     2.5880    55.5610    19.3590    18.4210    18.1530    24.3260    -4.9600 
  128.7500     2.5740    55.1820    19.8120    18.6070    18.2360    24.4040    -5.1430 
  128.8750     2.5630    52.5060    20.6050    18.9830    16.8940    24.3640    -5.4300 
  129.0000     2.5580    49.8570    21.4190    19.4650    16.7680    24.2910    -5.7610 
  129.1250     2.5660    50.7800    21.9530    19.9690    17.7840    24.2580    -5.9890 
  129.2500     2.5860    51.8320    22.2840    20.4140    18.8500    24.2970    -6.1040 
  129.3750     2.6100    52.0010    22.5300    20.7530    19.1310    24.3760    -6.1190 
  129.5000     2.6280    52.5560    22.7000    20.9710    18.8610    24.4220    -5.9610 
  129.6250     2.6330    53.2960    22.8320    21.0910    17.7020    24.4290    -5.6960 
  129.7500     2.6270    53.0540    22.9850    21.2020    17.4050    24.3750    -5.4990 
  129.8750     2.6180    51.6910    23.1840    21.3600    17.1770    24.3110    -5.3060 
  130.0000     2.6160    50.4850    23.4060    21.5820    17.1160    24.2870    -5.0360 
  130.1250     2.6260    49.6500    23.5830    21.8180    17.8480    24.3000    -4.9110 
  130.2500     2.6420    50.2790    23.6720    21.9800    18.5690    24.2780    -4.9660 
  130.3750     2.6560    52.4930    23.6850    22.0490    19.7050    24.2690    -4.9910 
