~V
VERS. 2.00: Ver 2.00
~W
STRT.M 51.0000:
STOP.M 252.0000:
STEP.M 0.1250:
NULL. -999.2500:
UWI. F11020:
~C
DEPT.M :
DEN.GM/CC :
GR.API :
RML.OHMM :
RI. :
RXO.OHMM :
CALI.CM :
SP.MV :
~A
# ...
  174.7500     2.3020    65.8110    59.1600    53.1700    38.2440    24.6130   -33.7430 
  174.8750     2.3030    65.9610    60.4550    55.3500    40.9310    24.5970   -33.6740 
  175.0000     2.2950    66.5770    64.7780    60.2600    44.9400    24.5880   -33.6230 
  175.1250     2.2830    66.2850    71.9630    67.5850    46.5730    24.5960   -33.5840 
  175.2500     2.2710    62.8170    81.4220    76.6440    48.7020    24.6200   -33.5660 
  175.3750     2.2610    59.6980    91.5410    85.9460    52.9590    24.6470   -33.5560 
  175.5000     2.2510    59.2760   100.8760    94.1650    58.8100    24.6580   -33.5450 
  175.6250     2.2440    60.0430   108.0670   100.1070    61.7080    24.6600   -33.5140 
  175.7500     2.2420    58.7080   112.0570   102.9540    61.1720    24.6600   -33.4820 
  175.8750     2.2440    55.6450   113.0890   103.1830    62.0200    24.6610   -33.4400 
  176.0000     2.2480    53.2990   111.5780   101.3390    64.9700    24.6750   -33.4040 
  176.1250     2.2530    52.9810   108.3230    98.2110    70.0990    24.7260   -33.3640 
  176.2500     2.2570    54.8520   104.1450    94.4680    77.2380    24.8260   -33.3140 
  176.3750     2.2610    57.6470    99.5210    90.3340    81.9860    24.9160   -33.2590 
  176.5000     2.2650    60.3320    94.1740    85.4570    80.7680    24.9500   -33.2090 
  176.6250     2.2690    62.5000    87.7150    79.5050    74.0460    24.9520   -33.1780 
  176.7500     2.2760    62.9770    80.3760    72.8270    63.3030    24.9360   -33.1450 
  176.8750     2.2850    62.8630    73.6630    66.9550    52.1620    24.9060   -33.1190 
  177.0000     2.2950    63.1840    69.3150    63.5590    43.7900    24.8720   -33.0950 
  177.1250     2.2990    63.1030    68.9880    64.0780    38.5370    24.8500   -33.0820 
  177.2500     2.2880    60.8170    73.8890    69.3580    39.7780    24.8520   -33.0930 
  177.3750     2.2650    57.4930    82.7730    77.9450    51.4070    24.8660   -33.1330 
  177.5000     2.2440    56.2200    93.3990    87.5510    75.8670    24.8560   -33.1860 
  177.6250     2.2330    56.7520   101.9750    94.5820    95.2110    24.7930   -33.2280 
  177.7500     2.2340    57.3550   104.6020    95.6900    76.4300    24.6760   -33.2970 
  177.8750     2.2380    59.1940   101.8550    92.1440    54.9640    24.5560   -33.3730 
  178.0000     2.2420    62.2550    96.3230    86.7670    49.4450    24.4700   -33.4610 
  178.1250     2.2430    63.4650    90.5850    81.8560    51.1280    24.3790   -33.5530 
  178.2500     2.2380    61.4050    85.8500    78.1470    49.9690    24.2910   -33.6480 
  178.3750     2.2340    58.8850    81.9100    75.1250    46.1120    24.2460   -33.7280 
  178.5000     2.2410    58.1010    78.7230    72.7110    41.2630    24.2120   -33.8280 
  178.6250     2.2560    58.5610    76.9860    71.6490    36.7850    24.1310   -33.9720 
  178.7500     2.2640    58.6170    78.1510    73.4070    34.2750    24.0400   -34.1270 
  178.8750     2.2560    57.7300    83.0010    78.6840    37.7500    24.0370   -34.3010 
  179.0000     2.2420    56.5890    91.9360    87.7320    48.1810    24.1760   -34.4880 
  179.1250     2.2340    56.7850   104.3640    99.8480    60.8000    24.4210   -34.6940 
  179.2500     2.2370    58.6300   118.0110   112.8000    68.7820    24.6640   -34.9220 
  179.3750     2.2410    60.4990   128.8970   122.8950    72.0860    24.7890   -35.1810 
  179.5000     2.2410    62.1770   134.1000   127.4890    70.6290    24.7840   -35.4600 
  179.6250     2.2320    63.0760   132.8860   126.1410    70.2860    24.7990   -35.7470 
  179.7500     2.2190    62.6210   126.9890   120.7230    69.6830    25.0130   -36.0460 
  179.8750     2.2070    61.0190   120.1600   114.6650    69.8640    25.3680   -36.3290 
  180.0000     2.2020    58.3090   114.5590   109.8050    69.7190    25.6590   -36.5870 
  180.1250     2.2070    56.0450   111.4030   107.1360    68.1950    25.7520   -36.8090 
  180.2500     2.2170    56.2320   111.1430   106.9450    67.8890    25.6450   -36.9770 
  180.3750     2.2280    58.3840   112.8290   108.2420    77.4780    25.5300   -37.0940 
  180.5000     2.2360    60.0790   115.5080   110.0360    88.4680    25.4920   -37.1420 
  180.6250     2.2460    59.9220   118.1290   111.2940    97.8940    25.5220   -37.1170 
  180.7500     2.2530    59.1170   119.5350   110.9610   103.4430    25.5750   -37.0250 
  180.8750     2.2560    58.2960   118.6930   108.3120   103.4730    25.6030   -36.9080 
  181.0000     2.2540    58.7890   114.5400   102.6590    97.1630    25.6410   -36.7670 
  181.1250     2.2500    61.2640   106.6050    93.9690    91.4860    25.7080   -36.5960 
  181.2500     2.2500    64.1450    95.8730    83.5330    81.7610    25.7290   -36.4080 
  181.3750     2.2530    64.9570    85.3360    73.9770    69.2110    25.5930   -36.1980 
  181.5000     2.2590    63.5670    77.0260    66.8390    56.5540    25.3360   -35.9910 
  181.6250     2.2620    62.7680    71.6310    62.4030    48.0230    25.1050   -35.8070 
  181.7500     2.2570    64.5960    68.6220    59.9600    45.3250    24.9360   -35.6420 
  181.8750     2.2460    66.3440    66.5640    58.1870    46.8610    24.8160   -35.4860 
  182.0000     2.2380    64.6490    64.9260    56.6620    48.9340    24.7690   -35.3810 
  182.1250     2.2370    60.4000    63.9740    55.7340    47.3490    24.8090   -35.3430 
  182.2500     2.2420    59.1500    64.7720    56.4780    40.9350    24.9310   -35.3790 
  182.3750     2.2420    60.8220    68.1460    59.5890    41.7170    25.0690   -35.4950 
  182.5000     2.2320    62.3060    74.3880    65.1490    54.3190    25.1750   -35.6550 
  182.6250     2.2180    63.1380    82.5870    72.1640    73.9340    25.1860   -35.8550 
  182.7500     2.2150    65.1510    90.2010    78.3210    76.7610    25.0930   -36.0950 
  182.8750     2.2220    67.4180    94.3000    81.2930    67.7430    25.0080   -36.3680 
  183.0000     2.2340    67.4630    93.9580    80.6400    60.3660    24.9830   -36.6410 
  183.1250     2.2510    64.8960    90.9380    78.2480    59.0160    25.0250   -36.8910 
  183.2500     2.2750    61.4910    88.6740    77.1860    62.7010    25.0780   -37.1020 
  183.3750     2.2930    59.1850    89.5860    79.1810    65.4700    25.0740   -37.2750 
  183.5000     2.2870    59.4490    94.1990    84.4100    73.3000    25.0490   -37.4280 
  183.6250     2.2670    62.3270   101.5920    91.9230    85.6950    25.0140   -37.5750 
  183.7500     2.2560    65.3160   109.5030    99.7220   100.3510    24.9370   -37.7040 
  183.8750     2.2560    65.8550   115.2350   105.5550   109.9260    24.8450   -37.8380 
  184.0000     2.2570    64.3750   117.7770   108.6870   103.7930    24.7540   -37.9760 
  184.1250     2.2510    63.2270   118.2810   110.4040    80.6120    24.5830   -38.1320 
  184.2500     2.2390    63.2020   119.9880   113.8670    56.0110    24.2930   -38.2970 
  184.3750     2.2230    62.9440   126.4640   122.1930    47.2570    24.0350   -38.4460 
  184.5000     2.2040    61.5910   139.9330   137.8300    53.5530    23.9890   -38.5530 
  184.6250     2.1890    59.7860   161.6940   162.1270    75.7090    24.1550   -38.5980 
  184.7500     2.1860    59.8090   194.9010   191.6220   112.3670    24.4200   -38.5850 
  184.8750     2.1890    60.0870   232.8860   223.7360   156.1080    24.6520   -38.5180 
  185.0000     2.1910    56.7260   270.3720   253.9060   201.0990    24.8640   -38.3740 
  185.1250     2.1880    51.3330   303.1000   279.2750   226.7920    25.0420   -38.1640 
  185.2500     2.1820    51.3290   331.6620   300.8210   230.3250    25.0590   -37.9050 
  185.3750     2.1750    56.1590   361.4540   323.0400   240.8450    24.9850   -37.6190 
  185.5000     2.1680    59.5650   394.9510   348.0700   263.8210    24.9330   -37.3270 
  185.6250     2.1600    59.8360   429.1250   373.7850   305.5060    24.9530   -37.0230 
  185.7500     2.1480    60.2590   453.2680   392.2680   377.8260    25.0000   -36.7080 
  185.8750     2.1390    61.4150   455.0910   394.3540   456.9180    25.0180   -36.3610 
