~V
VERS. 2.00: Ver 2.00
~W
STRT.M 65.0000:
STOP.M 225.0000:
STEP.M 0.1250:
NULL. -999.2500:
UWI. F11012:
~C
DEPT.M :
SP.MV :
GR.API :
RML.OHMM :
RI. :
RXO.OHMM :
CALI.CM :
DEN.GM/CC :
~A
# ...
   76.2500   -16.9380    68.3010     8.6600     7.2570     8.7250    22.9610     2.3570 
   76.3750   -16.7770    71.5170     8.7400     7.4100    12.4520    23.2490     2.4290 
   76.5000   -16.5570    75.4460     8.2670     7.1010    15.6860    23.5540     2.4730 
   76.6250   -16.3300    80.6370     7.3930     6.4240    12.5900    23.8560     2.4640 
   76.7500   -16.1430    88.7200     6.5330     5.6830     7.1300    24.0940     2.4140 
   76.8750   -16.0600    99.3290     6.0490     5.1770     5.4420    24.2050     2.3730 
   77.0000   -16.1090   106.0570     6.0670     5.0230     5.3480    24.2100     2.3530 
   77.1250   -16.3200   101.3940     6.5650     5.2420     5.8360    24.0750     2.3500 
   77.2500   -16.7180    88.8250     7.4060     5.7970     6.3000    23.6590     2.3610 
   77.3750   -17.2130    81.2760     8.2370     6.4490     6.9220    23.1330     2.3650 
   77.5000   -17.7490    79.6870     8.8100     6.9950     7.0950    22.7420     2.3390 
   77.6250   -18.2820    77.3170     9.0190     7.2980     6.9700    22.5910     2.2860 
   77.7500   -18.7420    73.1190     8.8970     7.3170     6.8900    22.5500     2.2430 
   77.8750   -19.0890    70.9950     8.6550     7.1950     6.9720    22.5060     2.2230 
   78.0000   -19.3030    71.2870     8.3960     7.0230     7.0650    22.4540     2.2180 
   78.1250   -19.3830    74.8190     8.1640     6.8570     7.1070    22.4290     2.2180 
   78.2500   -19.3200    78.8530     7.9620     6.7130     7.0940    22.4260     2.2180 
   78.3750   -19.1890    77.3800     7.7870     6.5850     6.9890    22.4090     2.2150 
   78.5000   -19.0220    70.5200     7.6580     6.4850     6.9160    22.3540     2.2100 
   78.6250   -18.8240    65.5650     7.5890     6.4220     6.9950    22.2410     2.2060 
   78.7500   -18.6230    68.2820     7.5820     6.4080     7.1750    22.1060     2.2070 
   78.8750   -18.4350    72.4890     7.6090     6.4250     7.1940    21.9580     2.2080 
   79.0000   -18.2600    72.5640     7.6510     6.4600     7.1230    21.8840     2.2080 
   79.1250   -18.1000    69.8170     7.7040     6.5040     7.0440    21.9160     2.2080 
   79.2500   -17.9670    72.2390     7.7740     6.5510     6.8390    22.0400     2.2120 
   79.3750   -17.8300    76.6930     7.8400     6.5910     6.5750    22.0450     2.2170 
   79.5000   -17.6930    77.5760     7.8630     6.6020     6.5760    21.9250     2.2220 
   79.6250   -17.5720    74.8640     7.8020     6.5580     6.7190    21.7900     2.2260 
   79.7500   -17.4870    74.9460     7.6470     6.4470     6.7860    21.6650     2.2320 
   79.8750   -17.4210    77.7250     7.4860     6.3130     6.5560    21.6180     2.2420 
   80.0000   -17.3860    80.8330     7.4050     6.2140     6.1700    21.7350     2.2550 
   80.1250   -17.3970    82.4780     7.4700     6.2010     5.8200    22.0290     2.2660 
   80.2500   -17.4740    78.9930     7.6980     6.3140     6.0110    21.9840     2.2630 
   80.3750   -17.6240    73.6730     7.9870     6.5040     6.4970    21.8310     2.2530 
   80.5000   -17.8390    71.2600     8.2420     6.7100     6.8070    21.7400     2.2460 
   80.6250   -18.0900    71.7320     8.3970     6.8660     6.8880    21.7280     2.2430 
   80.7500   -18.3500    70.2930     8.4300     6.9320     6.9430    21.7190     2.2400 
   80.8750   -18.6370    68.0060     8.4140     6.9440     7.1050    21.6760     2.2380 
   81.0000   -18.9430    68.5660     8.4000     6.9410     7.3510    21.6350     2.2390 
   81.1250   -19.2330    70.8450     8.4040     6.9480     7.6190    21.6100     2.2420 
   81.2500   -19.4600    68.9790     8.4180     6.9660     7.9730    21.6660     2.2390 
   81.3750   -19.6530    63.1160     8.4600     7.0030     8.4300    21.6430     2.2330 
   81.5000   -19.8180    58.2970     8.6160     7.1110     8.7980    21.7030     2.2300 
   81.6250   -19.9810    58.0890     8.9960     7.3680     8.8560    21.9580     2.2360 
   81.7500   -20.1600    60.7420     9.6880     7.8570     8.8370    22.3290     2.2550 
   81.8750   -20.3330    60.9210    10.5310     8.4920     8.6240    22.6050     2.2890 
   82.0000   -20.4830    58.9950    11.2780     9.1040     8.4520    22.7740     2.3350 
   82.1250   -20.6240    57.7520    11.6370     9.4660     8.4600    22.8110     2.3780 
   82.2500   -20.7790    60.8720    11.3370     9.3320     8.3110    22.5820     2.3800 
   82.3750   -20.9150    65.9580    10.5910     8.8220     7.9330    22.2770     2.3410 
   82.5000   -21.0150    69.8160     9.6970     8.1430     7.6380    21.9910     2.2860 
   82.6250   -21.0660    69.1930     8.9430     7.5120     7.5250    21.8740     2.2400 
   82.7500   -21.0280    64.5690     8.5400     7.1050     7.3980    21.9520     2.2110 
   82.8750   -20.9390    59.4730     8.4240     6.9150     7.2330    22.0740     2.1930 
   83.0000   -20.8310    56.7250     8.4930     6.8980     7.0700    22.1280     2.1870 
   83.1250   -20.7210    56.4250     8.6420     6.9900     7.0000    22.0720     2.1900 
   83.2500   -20.5950    55.4460     8.7960     7.1300     6.9440    21.9260     2.1950 
   83.3750   -20.4780    54.2760     8.9200     7.2670     6.9520    21.7750     2.1990 
   83.5000   -20.3700    54.4860     8.9840     7.3590     6.9380    21.6290     2.2030 
   83.6250   -20.2470    57.0650     8.9320     7.3510     6.8880    21.6090     2.2090 
   83.7500   -20.1210    59.8110     8.6960     7.1850     6.9300    21.7660     2.2190 
   83.8750   -19.9920    61.6530     8.3300     6.9060     7.1290    21.9350     2.2320 
   84.0000   -19.8490    64.2720     7.9320     6.5840     7.2880    22.1370     2.2460 
   84.1250   -19.6940    67.7420     7.6270     6.3100     7.2160    22.3560     2.2550 
   84.2500   -19.5530    69.0440     7.5530     6.1860     7.0060    22.4740     2.2490 
   84.3750   -19.4050    67.8320     7.6960     6.2250     6.9540    22.4900     2.2310 
   84.5000   -19.2630    65.4680     8.0010     6.4090     7.2310    22.5110     2.2140 
   84.6250   -19.1530    64.9040     8.3750     6.6910     7.5390    22.5510     2.2040 
   84.7500   -19.1140    68.2330     8.7000     6.9930     7.7190    22.5590     2.2040 
   84.8750   -19.1270    70.4980     8.9020     7.2330     7.7710    22.5360     2.2090 
   85.0000   -19.1670    68.5200     8.9670     7.3670     7.8060    22.5090     2.2150 
   85.1250   -19.2230    63.9280     8.9210     7.3930     7.7760    22.5010     2.2190 
   85.2500   -19.2710    60.3590     8.8070     7.3260     7.7270    22.5160     2.2180 
   85.3750   -19.3160    57.1440     8.6790     7.2170     7.6600    22.5390     2.2130 
   85.5000   -19.3520    55.2180     8.5680     7.1010     7.5800    22.5410     2.2060 
   85.6250   -19.3410    56.7950     8.4880     7.0020     7.5210    22.5130     2.2000 
   85.7500   -19.2610    59.1500     8.4560     6.9370     7.5580    22.4780     2.1970 
   85.8750   -19.1470    58.8220     8.4650     6.9020     7.6040    22.4560     2.1980 
   86.0000   -19.0200    56.6410     8.5060     6.8910     7.6290    22.4340     2.2010 
   86.1250   -18.8740    56.0040     8.5630     6.9000     7.6130    22.4240     2.2050 
   86.2500   -18.6960    58.5010     8.6160     6.9200     7.5460    22.4250     2.2070 
   86.3750   -18.4850    62.0790     8.6520     6.9480     7.4850    22.4370     2.2080 
   86.5000   -18.2690    64.4020     8.6740     6.9820     7.5130    22.4650     2.2100 
   86.6250   -18.0890    64.9590     8.6890     7.0220     7.6510    22.4770     2.2110 
   86.7500   -17.9460    63.2420     8.6930     7.0700     7.9590    22.4440     2.2080 
   86.8750   -17.7820    59.9540     8.6800     7.1230     8.2850    22.4090     2.2070 
   87.0000   -17.5720    57.7640     8.6420     7.1720     8.5030    22.4180     2.2090 
   87.1250   -17.3230    59.1280     8.5750     7.2060     8.2850    22.4040     2.2100 
   87.2500   -17.0290    61.1450     8.4750     7.2060     7.7520    22.3890     2.2060 
   87.3750   -16.6860    61.9430     8.3350     7.1540     7.3990    22.3940     2.2040 
