~V
VERS. 2.00: Ver 2.00
~W
STRT.M 58.0000:
STOP.M 277.0000:
STEP.M 0.1250:
NULL. -999.2500:
UWI. F11038:
~C
DEPT.M :
GR.API :
RML.OHMM :
RI. :
RXO.OHMM :
CALI.CM :
DEN.GM/CC :
SP.MV :
~A
# ...
  181.7500    77.4700   171.4220   170.5090   209.2190    24.9920     2.1860   -34.3220 
  181.8750    78.1100   149.3960   148.6180   211.2570    24.9150     2.1950   -33.0450 
  182.0000    73.2970   122.1020   120.5230   186.9140    24.8850     2.2210   -31.7490 
  182.1250    68.1820    97.4330    95.4360   126.3870    24.9390     2.2570   -30.5560 
  182.2500    70.8350    79.1830    77.2460    93.7050    25.0610     2.2890   -29.4900 
  182.3750    79.2160    67.8330    66.1360    85.2620    25.1330     2.3080   -28.5020 
  182.5000    83.8000    62.5970    61.2010    77.9000    25.0950     2.3140   -27.6330 
  182.6250    79.7650    63.0890    62.2380    71.7480    25.0480     2.3080   -26.8100 
  182.7500    74.2720    67.1990    67.3500    71.4960    25.0620     2.2950   -26.1390 
  182.8750    72.1470    73.4500    75.2720    70.7210    25.1150     2.2750   -25.5800 
  183.0000    71.7950    79.7250    84.0120    76.0850    25.1680     2.2530   -25.1700 
  183.1250    70.3870    82.2720    89.4850    93.6490    25.3900     2.2420   -24.8460 
  183.2500    70.2340    78.7670    87.9300   107.9180    25.8410     2.2530   -24.5250 
  183.3750    70.9060    68.7470    77.4970   106.5980    26.1460     2.2910   -24.2190 
  183.5000    71.2150    54.2940    60.5500    95.9650    25.5020     2.3450   -23.9380 
  183.6250    73.4610    39.4060    43.1850    84.9100    24.9680     2.4000   -23.6610 
  183.7500    80.1650    27.3290    29.8200    63.1810    24.8790     2.4400   -23.3910 
  183.8750    90.5520    18.9740    21.0490    34.4430    24.9640     2.4640   -23.1640 
  184.0000    99.5960    13.9830    15.9550    16.9130    24.9560     2.4760   -23.0570 
  184.1250   103.1120    11.8210    13.6670    10.7950    24.8480     2.4750   -23.1520 
  184.2500   103.3010    11.2510    12.9280     9.6890    24.7640     2.4660   -23.4680 
  184.3750    99.9000    11.7660    13.3410     9.9300    24.7630     2.4480   -23.9980 
  184.5000    93.3960    12.9890    14.6420    10.8620    24.8300     2.4250   -24.6120 
  184.6250    86.1960    14.5990    16.5660    13.1260    24.9210     2.4050   -25.3610 
  184.7500    81.5140    16.1860    18.5550    15.0120    24.9830     2.3900   -26.1100 
  184.8750    80.6370    17.5010    20.2020    15.8250    25.0310     2.3800   -26.8490 
  185.0000    83.3930    18.4300    21.2480    16.6170    25.0480     2.3730   -27.5420 
  185.1250    90.2650    19.0840    21.6720    17.4890    25.0620     2.3640   -28.1260 
  185.2500    96.3170    19.9650    22.0200    18.3380    25.0620     2.3510   -28.6440 
  185.3750    97.8500    21.6930    22.8880    20.4760    25.0800     2.3330   -29.0950 
  185.5000    94.7850    24.9690    24.9050    24.1620    25.1220     2.3100   -29.5450 
  185.6250    88.9040    30.8520    29.0590    31.0180    25.1380     2.2870   -29.9420 
  185.7500    84.2450    39.2380    35.5070    46.6520    25.1610     2.2690   -30.3390 
  185.8750    82.7590    49.6930    44.1180    64.9640    25.1490     2.2570   -30.6970 
  186.0000    82.1700    61.0590    53.9730    78.1360    25.1230     2.2490   -30.9840 
  186.1250    79.6480    71.4430    63.1950    82.9280    25.1350     2.2440   -31.2130 
  186.2500    75.7960    79.7880    70.4690    83.7870    25.1420     2.2390   -31.3470 
  186.3750    72.3450    86.1570    75.7820    82.6600    25.1350     2.2350   -31.4190 
  186.5000    70.8550    91.3740    79.9960    85.9290    25.0910     2.2310   -31.4770 
  186.6250    70.3500    96.2150    84.0050    94.4160    24.9600     2.2290   -31.4980 
  186.7500    69.1860   100.5760    87.9110   106.9680    24.7690     2.2270   -31.5250 
  186.8750    68.3870   103.3620    90.9340   116.0760    24.5900     2.2280   -31.5820 
  187.0000    69.7210   103.1950    91.8430   119.4130    24.4590     2.2300   -31.7040 
  187.1250    73.6810    98.6640    89.1230   114.2510    24.3810     2.2370   -32.0020 
  187.2500    77.1220    91.1330    83.6120   111.1550    24.3190     2.2480   -32.3320 
  187.3750    78.6230    82.3610    76.7260   104.2900    24.2670     2.2620   -32.6680 
  187.5000    79.4170    74.3070    70.1920    82.6660    24.2840     2.2790   -32.9480 
  187.6250    81.6130    68.9770    65.8460    58.9370    24.4290     2.2940   -33.1850 
  187.7500    84.2770    66.6890    64.1260    50.5930    24.5470     2.3030   -33.4050 
  187.8750    84.8200    67.2860    65.0740    49.9550    24.5510     2.3030   -33.5670 
  188.0000    84.0270    69.8000    68.1520    50.8450    24.5260     2.2950   -33.6610 
  188.1250    84.3470    71.8050    71.4240    52.4860    24.5930     2.2800   -33.5330 
  188.2500    83.0350    70.5010    71.4660    58.0130    24.7010     2.2680   -33.2890 
  188.3750    78.6320    64.5950    65.9990    62.0780    24.7210     2.2690   -32.9170 
  188.5000    75.5600    55.0600    55.9250    57.7960    24.6650     2.2860   -32.4490 
  188.6250    79.4380    45.0300    45.2370    44.2080    24.6300     2.3140   -32.0100 
  188.7500    86.9940    37.6960    37.3790    28.4610    24.6150     2.3370   -31.6520 
  188.8750    92.8160    34.5020    33.4390    17.3980    24.5880     2.3430   -31.4540 
  189.0000    92.2800    35.8770    33.6280    15.3820    24.5600     2.3290   -31.3800 
  189.1250    86.6730    42.4460    38.7340    22.9440    24.6610     2.2990   -31.4620 
  189.2500    83.4580    52.9400    48.1170    35.0440    24.8660     2.2660   -31.7100 
  189.3750    84.5050    66.3200    61.1930    47.2080    25.0350     2.2410   -32.1480 
  189.5000    85.3030    80.9900    76.1840    50.6720    25.1190     2.2250   -32.7600 
  189.6250    82.2040    95.0710    90.2050    58.3430    25.1170     2.2200   -33.5140 
  189.7500    77.6650   107.8260   102.0690    66.1140    25.1460     2.2180   -34.1800 
  189.8750    73.4380   119.4800   112.3110    83.2480    25.1570     2.2190   -34.7680 
  190.0000    70.2170   130.4830   121.6240   107.6850    25.1290     2.2190   -35.3270 
  190.1250    69.9570   140.8890   129.9240   133.2920    25.1270     2.2190   -35.8620 
  190.2500    72.2670   150.4920   137.1170   139.8570    25.1390     2.2180   -36.3970 
  190.3750    73.7860   158.7080   142.9500   136.7800    25.1310     2.2160   -36.8200 
  190.5000    71.6790   164.5350   146.9090   138.3180    25.1260     2.2130   -37.1360 
  190.6250    67.1980   165.8480   147.5470   159.2000    25.1350     2.2120   -37.3150 
  190.7500    66.6070   162.3560   144.5540   178.1500    25.1380     2.2130   -37.4990 
  190.8750    68.8540   154.5990   138.1300   176.2210    25.1250     2.2140   -37.7060 
  191.0000    67.9690   144.4180   129.5830   154.1130    25.0950     2.2140   -37.8870 
  191.1250    63.6660   134.5770   121.1740   126.7550    25.0790     2.2120   -38.1060 
  191.2500    63.8690   127.0570   114.7200   119.2070    25.0710     2.2090   -38.3220 
  191.3750    70.2200   122.4970   110.8840   116.6700    25.0530     2.2080   -38.6830 
  191.5000    75.1460   120.6900   109.5590   115.4490    25.0110     2.2100   -39.2160 
  191.6250    73.3930   121.2140   110.4420   113.2640    24.9290     2.2160   -39.9390 
  191.7500    70.5480   122.9440   112.5120   111.1210    24.7930     2.2250   -40.8010 
  191.8750    70.6930   125.4020   115.3060   108.2390    24.6230     2.2340   -41.7020 
  192.0000    73.8600   128.3600   118.5970   102.6550    24.5070     2.2420   -42.5610 
  192.1250    75.6350   131.8210   122.3910   105.9790    24.6230     2.2470   -43.3180 
  192.2500    75.0400   135.6380   126.5340   113.1980    24.8730     2.2480   -43.8990 
  192.3750    73.5160   139.6230   130.8450   118.5800    25.0760     2.2460   -44.3160 
  192.5000    72.8870   143.4800   135.0410   120.3310    25.1460     2.2390   -44.5120 
  192.6250    74.0650   146.7550   138.6580   127.3280    25.1380     2.2310   -44.3680 
  192.7500    74.6410   149.3140   141.4970   139.4700    25.1230     2.2250   -43.9510 
  192.8750    72.9620   151.2180   143.6270   146.1440    25.1120     2.2220   -43.2040 
