~V
VERS. 2.00: Ver 2.00
~W
STRT.M 50.0000:
STOP.M 229.0000:
STEP.M 0.1250:
NULL. -999.2500:
UWI. F11009:
~C
DEPT.M :
DEN.GM/CC :
GR.API :
RML.OHMM :
RI. :
RXO.OHMM :
CALI.CM :
SP.MV :
~A
# ...
  207.5000     2.4000   102.9990     5.0230     4.9890     5.6520    24.0250     0.7460 
  207.6250     2.4000   103.1390     4.9800     4.9110     5.6500    23.9620     0.7240 
  207.7500     2.3970   103.3770     4.9440     4.8270     5.6270    23.9180     0.7110 
  207.8750     2.3930   103.7920     4.9130     4.7380     5.5250    23.9110     0.6940 
  208.0000     2.3910   105.2970     4.8880     4.6510     5.4150    23.9980     0.6580 
  208.1250     2.3950   108.2570     4.8810     4.5860     5.3650    24.0690     0.5920 
  208.2500     2.4040   110.0720     4.9050     4.5580     5.4290    24.1000     0.5290 
  208.3750     2.4150   111.3150     4.9670     4.5750     5.5620    24.1060     0.5270 
  208.5000     2.4260   113.6610     5.0640     4.6320     5.7570    24.1330     0.5760 
  208.6250     2.4330   115.6480     5.1780     4.7200     6.0660    24.1670     0.6340 
  208.7500     2.4380   113.6730     5.2820     4.8140     6.3150    24.1820     0.6800 
  208.8750     2.4410   107.9880     5.3630     4.8980     6.2910    24.1220     0.7630 
  209.0000     2.4430   103.2990     5.4170     4.9590     6.2060    23.9920     0.8900 
  209.1250     2.4430   102.4780     5.4430     4.9870     6.1970    23.9400     1.0570 
  209.2500     2.4400   104.0360     5.4510     4.9870     6.2280    24.0290     1.2140 
  209.3750     2.4340   104.6890     5.4480     4.9650     6.2070    24.0810     1.3050 
  209.5000     2.4270   104.2120     5.4380     4.9270     6.1320    24.0060     1.3050 
  209.6250     2.4220   104.9480     5.4240     4.8810     6.0000    23.9300     1.2160 
  209.7500     2.4210   107.1860     5.4050     4.8330     5.9210    23.9670     1.1040 
  209.8750     2.4230   107.9760     5.3750     4.7780     5.8820    24.0240     0.9590 
  210.0000     2.4260   107.6770     5.3300     4.7130     5.8800    24.0150     0.7960 
  210.1250     2.4260   108.3730     5.2810     4.6430     5.8580    24.0220     0.6470 
  210.2500     2.4240   110.9340     5.2670     4.5930     5.7980    23.9680     0.5480 
  210.3750     2.4220   114.1980     5.3280     4.5990     5.6610    23.8300     0.4910 
  210.5000     2.4210   115.4840     5.5010     4.6940     5.5820    23.7030     0.4630 
  210.6250     2.4180   112.2900     5.8110     4.9110     5.6450    23.6480     0.4830 
  210.7500     2.4120   106.6290     6.2010     5.2200     5.9570    23.6400     0.5350 
  210.8750     2.4050   101.2580     6.6120     5.5780     6.4540    23.6210     0.6290 
  211.0000     2.4010    95.9670     6.9840     5.9340     6.6980    23.5840     0.7640 
  211.1250     2.4020    90.3960     7.2670     6.2320     6.9050    23.5690     0.9480 
  211.2500     2.4100    86.9350     7.4790     6.4630     7.3280    23.5260     1.1350 
  211.3750     2.4220    84.8760     7.6440     6.6390     8.1010    23.6170     1.3370 
  211.5000     2.4340    83.3080     7.7840     6.7760     8.5600    23.7980     1.5880 
  211.6250     2.4400    80.6480     7.9050     6.8820     8.5520    24.0560     1.8600 
  211.7500     2.4360    77.5400     8.0060     6.9630     8.7360    24.2010     2.1320 
  211.8750     2.4240    76.0420     8.0910     7.0220     9.3460    24.2870     2.3710 
  212.0000     2.4090    77.6240     8.1770     7.0700     9.8000    24.3400     2.6190 
  212.1250     2.3980    80.3640     8.2870     7.1300     9.8350    24.3520     2.8640 
  212.2500     2.3970    81.9270     8.4170     7.2070     9.4960    24.3100     3.0750 
  212.3750     2.4030    82.8230     8.5440     7.2920     9.1630    24.2050     3.2150 
  212.5000     2.4140    82.9450     8.6370     7.3630     8.5770    24.0740     3.2600 
  212.6250     2.4250    80.9230     8.6740     7.3950     7.9890    24.0640     3.2490 
  212.7500     2.4360    78.4760     8.6910     7.4050     7.5950    24.0690     3.2070 
  212.8750     2.4470    78.4850     8.7460     7.4330     7.4580    24.0500     3.1550 
  213.0000     2.4560    79.6030     8.8840     7.5230     7.2480    24.0690     3.0590 
  213.1250     2.4600    79.7990     9.1280     7.7120     6.9530    24.0800     2.8600 
  213.2500     2.4600    79.0980     9.4040     7.9580     7.3290    24.1450     2.6250 
  213.3750     2.4610    77.4910     9.6290     8.1990     7.8860    24.1770     2.4480 
  213.5000     2.4650    74.6920     9.7360     8.3710     8.2060    24.1200     2.4050 
  213.6250     2.4760    72.3620     9.6880     8.4120     7.9920    23.9790     2.4460 
  213.7500     2.4900    73.6400     9.5560     8.3560     7.8720    23.8450     2.4370 
  213.8750     2.5020    75.4840     9.4110     8.2510     7.7860    23.8180     2.4180 
  214.0000     2.5090    73.9060     9.3040     8.1490     7.1650    23.8760     2.4050 
  214.1250     2.5080    70.6750     9.2580     8.0860     6.8360    23.9920     2.3800 
  214.2500     2.5020    70.8830     9.2370     8.0550     6.8370    24.0920     2.3800 
  214.3750     2.4930    74.1550     9.2110     8.0330     7.0290    24.1430     2.3470 
  214.5000     2.4830    75.4230     9.1650     8.0000     7.2890    24.1550     2.1790 
  214.6250     2.4750    71.2830     9.1120     7.9570     7.5230    24.1490     1.9640 
  214.7500     2.4720    67.5260     9.0950     7.9330     7.5700    24.1080     1.8580 
  214.8750     2.4710    68.9690     9.1590     7.9670     7.2940    24.0360     1.7620 
  215.0000     2.4700    74.2110     9.3420     8.1000     6.9470    23.9420     1.6450 
  215.1250     2.4700    78.5070     9.6750     8.3710     7.0160    23.8740     1.5970 
  215.2500     2.4740    82.3020    10.0970     8.7410     7.7070    23.8660     1.5410 
  215.3750     2.4850    86.0910    10.5410     9.1620     8.9250    23.8910     1.4890 
  215.5000     2.5000    86.3160    10.9370     9.5740    10.2990    23.8960     1.4810 
  215.6250     2.5080    84.0470    11.2340     9.9270    11.9880    23.9080     1.4320 
  215.7500     2.5020    84.8350    11.4750    10.2360    13.6450    24.0730     1.2990 
  215.8750     2.4860    86.7450    11.7240    10.5380    14.2520    24.1380     1.1750 
  216.0000     2.4660    86.2710    12.0270    10.8770    15.1350    24.0870     1.1100 
  216.1250     2.4530    86.2110    12.3880    11.2730    17.8340    24.1510     1.0730 
  216.2500     2.4500    90.4580    12.7230    11.6740    21.2210    24.2320     1.0290 
  216.3750     2.4540    95.0680    12.9340    11.9990    22.8290    24.2630     0.9370 
  216.5000     2.4660    95.1540    12.9310    12.1530    20.9790    24.1720     0.8340 
  216.6250     2.4830    92.4580    12.6240    12.0170    15.2480    24.0490     0.7930 
  216.7500     2.4950    93.7280    12.0760    11.6150    12.4990    23.8810     0.7740 
  216.8750     2.4900    98.3950    11.3530    10.9910    11.5380    23.7520     0.7410 
  217.0000     2.4610   100.6920    10.5460    10.2280    10.8970    23.6930     0.6640 
  217.1250     2.4170    97.2930     9.7800     9.4440    10.3200    23.8360     0.5570 
  217.2500     2.3800    93.2020     9.1570     8.7620    10.1720    23.9710     0.5260 
  217.3750     2.3600    92.1250     8.7400     8.2590     9.7430    24.0500     0.5510 
  217.5000     2.3550    92.2100     8.5530     7.9760     8.8870    24.0810     0.5880 
  217.6250     2.3510    90.8600     8.6040     7.9450     8.0890    24.0860     0.6280 
  217.7500     2.3440    88.5060     8.7940     8.0860     8.0120    24.1990     0.6920 
  217.8750     2.3440    87.9450     9.0570     8.3400     8.2220    24.3300     0.8230 
  218.0000     2.3610    90.0980     9.3400     8.6510     8.5910    24.3570     0.9850 
  218.1250     2.3950    90.0980     9.6150     8.9760     8.9930    24.3020     1.1670 
  218.2500     2.4340    90.0980     9.8880     9.2980     9.9900    24.3320     1.3620 
  218.3750     2.4670    90.0980    10.1750     9.6220    11.1410    24.4120     1.5690 
  218.5000     2.4930    90.0980    10.4860     9.9530    11.7830    24.4610     1.8270 
  218.6250     2.5110    90.0980    10.8030    10.2830    12.4500    24.3700     2.0850 
