~V
VERS. 2.00: Ver 2.00
~W
STRT.M 55.0000:
STOP.M 236.0000:
STEP.M 0.1250:
NULL. -999.2500:
UWI. F11015:
~C
DEPT.M :
GR.API :
RML.OHMM :
RI. :
RXO.OHMM :
CALI.CM :
DEN.GM/CC :
SP.MV :
~A
# ...
  145.0000    53.2430    18.1720    17.3800    18.0430    24.6680     2.5230    -7.2540 
  145.1250    55.7090    18.0910    17.3270    18.2650    24.6820     2.5230    -7.3290 
  145.2500    57.8830    17.6240    16.9360    18.6600    24.6840     2.5250    -7.3790 
  145.3750    59.3660    16.8560    16.2660    16.8530    24.6730     2.5300    -7.3890 
  145.5000    60.0330    15.9590    15.4490    14.1680    24.6410     2.5350    -7.3520 
  145.6250    59.6460    15.1550    14.6560    13.9900    24.6070     2.5350    -7.3110 
  145.7500    59.6910    14.5770    14.0200    14.5350    24.5810     2.5300    -7.3330 
  145.8750    61.1280    14.2760    13.6130    14.5930    24.5590     2.5260    -7.3790 
  146.0000    61.1470    14.2520    13.4690    14.3450    24.5460     2.5240    -7.3640 
  146.1250    56.5170    14.4820    13.5950    13.9050    24.5420     2.5170    -7.2860 
  146.2500    52.4720    14.8400    13.8690    13.9620    24.5450     2.4980    -7.2020 
  146.3750    52.8270    15.2470    14.2080    14.3410    24.5520     2.4700    -7.1730 
  146.5000    56.2800    15.6210    14.5390    15.1640    24.5660     2.4440    -7.2600 
  146.6250    58.5540    15.8660    14.7820    15.7960    24.5600     2.4350    -7.4030 
  146.7500    58.5930    15.9920    14.9290    15.9300    24.5490     2.4410    -7.4700 
  146.8750    57.4350    16.0730    15.0170    15.5440    24.5410     2.4540    -7.4780 
  147.0000    57.0460    16.2180    15.1170    15.1560    24.5380     2.4650    -7.5340 
  147.1250    58.6610    16.5570    15.3310    15.3850    24.5390     2.4680    -7.6910 
  147.2500    60.0720    17.0900    15.6880    15.8780    24.5410     2.4650    -7.8940 
  147.3750    60.0160    17.7660    16.1780    16.7470    24.5410     2.4620    -8.0560 
  147.5000    59.4190    18.4800    16.7320    17.5730    24.5410     2.4660    -8.1070 
  147.6250    60.5710    19.0530    17.2080    18.1020    24.5310     2.4820    -8.1360 
  147.7500    62.4630    19.3700    17.4840    18.3160    24.4970     2.4980    -8.2450 
  147.8750    63.8180    19.3680    17.4930    18.2470    24.4450     2.5080    -8.4120 
  148.0000    63.5030    19.0710    17.2460    17.6370    24.3790     2.5110    -8.5400 
  148.1250    61.8740    18.5720    16.8130    16.8690    24.3620     2.5130    -8.5570 
  148.2500    61.0140    18.0500    16.3370    16.1810    24.4010     2.5190    -8.5010 
  148.3750    60.4100    17.6060    15.8950    16.0290    24.4640     2.5260    -8.4620 
  148.5000    59.4550    17.2940    15.5260    16.3260    24.4760     2.5300    -8.5220 
  148.6250    59.3040    17.1460    15.2680    16.1250    24.4710     2.5290    -8.5510 
  148.7500    60.6070    17.1190    15.1200    15.6750    24.4350     2.5240    -8.5060 
  148.8750    61.2020    17.1990    15.0960    14.9070    24.3400     2.5190    -8.4800 
  149.0000    59.6530    17.3840    15.2000    15.0660    24.2410     2.5090    -8.4660 
  149.1250    57.8890    17.6670    15.4280    15.9180    24.1960     2.4890    -8.4480 
  149.2500    56.1950    17.9840    15.7100    16.2780    24.1770     2.4650    -8.4570 
  149.3750    54.8060    18.2790    15.9940    15.4860    24.1350     2.4440    -8.4980 
  149.5000    55.2520    18.4970    16.2300    14.2130    24.0290     2.4320    -8.5210 
  149.6250    57.1160    18.5630    16.3550    14.6800    23.9210     2.4330    -8.5440 
  149.7500    57.7370    18.4880    16.3520    16.6440    23.8900     2.4450    -8.5940 
  149.8750    56.5820    18.3230    16.2460    16.6620    23.9240     2.4700    -8.6490 
  150.0000    55.8160    18.1520    16.1050    15.6770    23.9580     2.5040    -8.7100 
  150.1250    54.9530    18.0900    16.0310    15.2660    23.9750     2.5350    -8.7720 
  150.2500    53.2140    18.1640    16.0660    15.3280    24.0160     2.5490    -8.8320 
  150.3750    52.4030    18.3180    16.1850    15.2730    24.0410     2.5510    -8.8820 
  150.5000    52.3630    18.4160    16.2970    15.4640    24.0600     2.5490    -8.9540 
  150.6250    52.0870    18.2640    16.2570    15.0910    24.1050     2.5470    -9.0740 
  150.7500    52.7020    17.8610    16.0390    14.4380    24.1290     2.5430    -9.1430 
  150.8750    54.8400    17.3260    15.7080    14.0140    24.1010     2.5340    -9.1290 
  151.0000    56.7440    16.8480    15.3860    13.5840    24.0360     2.5180    -9.1550 
  151.1250    56.7630    16.6270    15.2280    13.9480    24.0970     2.4980    -9.2860 
  151.2500    56.8200    16.6540    15.2650    14.3780    24.2920     2.4780    -9.4200 
  151.3750    57.7910    16.8620    15.4790    15.2720    24.4770     2.4630    -9.4450 
  151.5000    59.0640    17.1710    15.8170    16.2400    24.5640     2.4520    -9.3740 
  151.6250    60.5960    17.4900    16.1940    16.0030    24.5890     2.4460    -9.3330 
  151.7500    61.4650    17.6640    16.4530    15.1180    24.5990     2.4400    -9.3800 
  151.8750    60.8720    17.5070    16.4100    14.7300    24.5720     2.4320    -9.4050 
  152.0000    60.3610    16.8620    15.9150    15.8690    24.5220     2.4250    -9.3370 
  152.1250    62.3570    15.6630    14.8910    15.6440    24.4560     2.4240    -9.2300 
  152.2500    62.9480    14.2350    13.6270    13.8460    24.3960     2.4250    -9.1480 
  152.3750    60.6040    12.8850    12.3970    10.7720    24.3800     2.4220    -9.1570 
  152.5000    58.5000    11.8690    11.4330     9.0230    24.3860     2.4150    -9.1720 
  152.6250    61.5890    11.4220    10.9630     8.6800    24.4230     2.4120    -9.1030 
  152.7500    65.6970    11.5090    10.9920     8.7450    24.4790     2.4200    -9.0230 
  152.8750    66.8430    12.0970    11.5290     9.6320    24.4450     2.4370    -9.0420 
  153.0000    65.0360    13.0910    12.5170    10.3830    24.3320     2.4590    -9.1290 
  153.1250    61.9020    14.3460    13.8500    11.4540    24.2750     2.4770    -9.1730 
  153.2500    59.1320    15.5840    15.2410    13.0990    24.2760     2.4870    -9.1600 
  153.3750    57.9440    16.5970    16.4520    14.9810    24.3140     2.4870    -9.1370 
  153.5000    58.2650    17.2430    17.2880    15.4640    24.3150     2.4810    -9.2200 
  153.6250    57.6080    17.4150    17.5730    14.9920    24.3260     2.4740    -9.4170 
  153.7500    55.9280    17.2260    17.4070    13.0520    24.2980     2.4710    -9.5710 
  153.8750    54.7030    16.7160    16.8360    11.6690    24.3100     2.4650    -9.6610 
  154.0000    55.7660    15.8860    15.8970    11.7320    24.3920     2.4520    -9.8060 
  154.1250    59.4750    14.7830    14.6760    11.7140    24.4850     2.4330   -10.1130 
  154.2500    61.9430    13.7780    13.5230    10.7130    24.5250     2.4130   -10.5230 
  154.3750    61.3790    13.3700    12.8290     9.2070    24.5240     2.3940   -10.9290 
  154.5000    59.7100    14.1550    13.0000     8.2520    24.5080     2.3770   -11.3010 
  154.6250    61.3320    17.1830    14.4180     9.4750    24.5020     2.3610   -11.7600 
  154.7500    65.0040    22.8420    17.0180    15.4620    24.5720     2.3390   -12.3290 
  154.8750    66.5210    31.5160    23.4300    30.6140    24.6430     2.3060   -12.9120 
  155.0000    65.1300    43.0120    32.9960    50.4390    24.6730     2.2670   -13.4310 
  155.1250    62.9990    55.9220    45.0900    59.5160    24.6790     2.2410   -13.8790 
  155.2500    63.0360    67.2530    56.6040    63.1530    24.6840     2.2320   -14.3310 
  155.3750    65.2720    75.1780    65.2700    67.1850    24.6880     2.2350   -14.8150 
  155.5000    67.8980    79.8200    70.7140    71.4500    24.6850     2.2390   -15.2310 
  155.6250    68.7900    82.3830    73.7620    78.5630    24.6670     2.2400   -15.4890 
  155.7500    68.2400    84.0160    75.5900    82.1600    24.6130     2.2380   -15.7160 
  155.8750    67.5730    84.6740    76.2390    81.2530    24.5080     2.2390   -15.9750 
  156.0000    68.5600    84.4130    75.7990    78.8570    24.3540     2.2430   -16.2130 
  156.1250    70.1860    83.6650    74.7110    78.2200    24.3240     2.2490   -16.3510 
