~V
VERS. 2.00: Ver 2.00
~W
STRT.M 57.0000:
STOP.M 280.0000:
STEP.M 0.1250:
NULL. -999.2500:
UWI. F11041:
~C
DEPT.M :
SP.MV :
GR.API :
RML.OHMM :
RI. :
RXO.OHMM :
CALI.CM :
DEN.GM/CC :
~A
# ...
  147.0000    -0.0700    44.5250    27.0800    23.0700    17.9570    24.2970     2.6490 
  147.1250    -0.0520    46.0660    27.1980    23.3720    19.0040    24.3400     2.6280 
  147.2500    -0.0250    50.2370    26.9160    23.3500    18.8280    24.3800     2.6070 
  147.3750     0.0210    54.6900    26.3730    23.0430    17.8620    24.4260     2.5840 
  147.5000     0.0810    56.2280    25.7930    22.5880    16.3710    24.4460     2.5590 
  147.6250     0.1530    53.4740    25.4330    22.1880    16.2090    24.4360     2.5460 
  147.7500     0.2240    50.4180    25.3170    21.9310    17.0680    24.4050     2.5510 
  147.8750     0.2770    50.7900    25.3100    21.7700    17.6460    24.3520     2.5690 
  148.0000     0.3060    54.3650    25.1580    21.5560    17.2740    24.2650     2.5930 
  148.1250     0.3010    56.9320    24.5620    21.0810    16.5730    24.2440     2.6060 
  148.2500     0.2530    58.9170    23.6330    20.3790    15.8240    24.2840     2.6020 
  148.3750     0.1600    61.6760    22.6610    19.6220    14.9670    24.3420     2.5840 
  148.5000     0.0600    64.0300    21.9490    19.0200    14.3460    24.3740     2.5610 
  148.6250    -0.0120    63.2240    21.6990    18.7310    14.5070    24.3800     2.5460 
  148.7500    -0.0720    61.7040    21.7450    18.6690    14.9790    24.3780     2.5430 
  148.8750    -0.1360    62.0110    21.8480    18.6920    15.5580    24.3470     2.5500 
  149.0000    -0.1980    62.5360    21.7660    18.6270    15.9130    24.2680     2.5580 
  149.1250    -0.2380    61.7590    21.3910    18.3520    15.8870    24.2530     2.5600 
  149.2500    -0.2470    60.7240    20.9410    17.9830    15.6950    24.2890     2.5600 
  149.3750    -0.2110    59.6440    20.6050    17.6500    15.5650    24.3070     2.5590 
  149.5000    -0.1320    58.6060    20.4500    17.4190    17.3920    24.2730     2.5610 
  149.6250    -0.0590    57.9410    20.3760    17.2630    15.8020    24.2710     2.5650 
  149.7500    -0.0080    58.6080    20.1610    17.0500    14.8420    24.2960     2.5690 
  149.8750     0.0440    59.9150    19.6840    16.6740    14.2430    24.2970     2.5680 
  150.0000     0.0920    60.0600    18.9850    16.1240    13.3990    24.3240     2.5610 
  150.1250     0.1300    58.0310    18.2140    15.4770    12.7830    24.3300     2.5510 
  150.2500     0.1560    54.3660    17.5000    14.8530    12.3040    24.3290     2.5410 
  150.3750     0.1400    51.6440    16.8760    14.3100    11.7940    24.3310     2.5340 
  150.5000     0.0480    51.4570    16.3480    13.8880    11.3970    24.3970     2.5300 
  150.6250    -0.0850    52.2300    15.9790    13.6510    11.3200    24.3680     2.5290 
  150.7500    -0.2000    51.7800    15.8460    13.6200    11.1380    24.3010     2.5280 
  150.8750    -0.2960    51.5430    16.0740    13.8550    11.1230    24.2150     2.5260 
  151.0000    -0.3750    53.8040    16.7580    14.4220    12.3730    24.1450     2.5270 
  151.1250    -0.4660    58.0150    17.8180    15.3180    12.4240    24.1670     2.5340 
  151.2500    -0.5610    60.3070    18.6450    16.1400    13.2740    24.2010     2.5410 
  151.3750    -0.6470    60.7050    18.4990    16.2860    12.7580    24.2160     2.5410 
  151.5000    -0.7300    62.4550    16.8600    15.2110    12.1490    24.2210     2.5270 
  151.6250    -0.8540    69.1530    13.8220    12.8310    10.4070    24.2280     2.4940 
  151.7500    -1.0270    79.2180    10.5660    10.1130     7.5920    24.2390     2.4510 
  151.8750    -1.2180    89.0570     7.8640     7.7120     5.0630    24.2550     2.4150 
  152.0000    -1.3970    94.5970     6.0300     5.9300     3.9770    24.3140     2.3990 
  152.1250    -1.4750    94.7490     5.0950     4.8700     4.1550    24.3650     2.4010 
  152.2500    -1.4830    94.1540     4.6820     4.2990     4.8480    24.3920     2.4090 
  152.3750    -1.4310    94.2690     4.5820     4.0860     5.3090    24.3910     2.4140 
  152.5000    -1.4110    92.5770     4.6270     4.0960     5.4040    24.3800     2.4170 
  152.6250    -1.4740    90.2200     4.7010     4.2110     5.5050    24.3330     2.4170 
  152.7500    -1.5530    90.6830     4.7630     4.3350     5.6840    24.2920     2.4120 
  152.8750    -1.4740    93.6610     4.8100     4.4390     5.6020    24.3230     2.4050 
  153.0000    -1.4360    96.3220     4.8340     4.5150     5.2910    24.3680     2.4010 
  153.1250    -1.4380    97.9350     4.8040     4.5370     5.1940    24.3640     2.3980 
  153.2500    -1.4610    97.5830     4.7180     4.4940     5.2880    24.3810     2.3980 
  153.3750    -1.5640    93.8220     4.5990     4.3930     5.7280    24.4180     2.4000 
  153.5000    -1.6190    90.3180     4.4940     4.2700     6.0980    24.4840     2.4010 
  153.6250    -1.6350    89.9780     4.4890     4.1900     5.5050    24.5230     2.4010 
  153.7500    -1.6430    87.8870     4.6410     4.2100     5.5120    24.5490     2.3980 
  153.8750    -1.6570    82.5860     4.9960     4.3760     5.6300    24.5660     2.3920 
  154.0000    -1.6860    78.8940     5.5510     4.7060     5.6020    24.5680     2.3810 
  154.1250    -1.8270    80.0320     6.2070     5.1620     6.0230    24.5490     2.3690 
  154.2500    -1.9430    81.0550     6.7360     5.5830     6.1650    24.5380     2.3590 
  154.3750    -2.1370    80.2750     6.9640     5.8210     5.8070    24.5240     2.3540 
  154.5000    -2.3320    80.1810     6.8780     5.8270     5.6330    24.4800     2.3590 
  154.6250    -2.4150    81.7220     6.7630     5.7600     5.5840    24.4390     2.3680 
  154.7500    -2.5230    83.6710     7.1040     5.9520     5.5360    24.4110     2.3690 
  154.8750    -2.5470    83.8630     8.3380     6.7050     6.3400    24.4040     2.3550 
  155.0000    -2.5570    80.0080    10.9170     8.3740    16.6920    24.3590     2.3280 
  155.1250    -2.5650    74.2410    15.6320    11.7620    19.3020    24.2800     2.2940 
  155.2500    -2.5730    70.5530    22.3050    17.1410    23.5560    24.2600     2.2640 
  155.3750    -2.5810    69.0360    30.1710    24.3200    31.2220    24.2630     2.2460 
  155.5000    -2.5890    68.0430    37.3260    31.8120    35.9730    24.2440     2.2420 
  155.6250    -2.5970    68.6180    40.7350    36.5510    36.5800    24.1720     2.2450 
  155.7500    -2.6050    70.7940    40.3050    37.6440    44.6880    24.0480     2.2500 
  155.8750    -2.6130    72.1900    37.3630    35.8950    45.9570    23.9090     2.2580 
  156.0000    -2.6220    73.0160    33.4440    32.6340    37.2250    23.7940     2.2720 
  156.1250    -2.6300    73.6500    29.3890    28.7480    31.7720    23.7730     2.2860 
  156.2500    -2.6360    73.4570    25.4600    24.7930    28.9830    23.7980     2.2950 
  156.3750    -2.6360    73.1140    21.7770    21.0280    23.5470    23.8680     2.3060 
  156.5000    -2.5950    76.4000    18.5170    17.6990    16.1160    23.9410     2.3300 
  156.6250    -2.5360    82.0390    16.0550    15.1770    12.8790    23.9540     2.3720 
  156.7500    -2.4710    84.3040    14.5810    13.5400    11.8870    23.7810     2.4130 
  156.8750    -2.3860    83.4600    14.3910    12.9450    11.0170    23.6110     2.4360 
  157.0000    -2.3500    81.4160    15.8090    13.6180    10.0890    23.5620     2.4350 
  157.1250    -2.2930    78.3850    19.6630    16.3180    10.1690    23.5520     2.4130 
  157.2500    -2.1360    76.2260    26.1600    21.4440    11.8260    23.5280     2.3820 
  157.3750    -2.0520    75.8270    35.6750    29.5670    13.8760    23.5230     2.3490 
  157.5000    -2.0250    75.5900    48.1160    40.7570    17.6860    23.5690     2.3210 
  157.6250    -1.9000    72.8540    62.4300    53.9960    24.4890    23.5890     2.3060 
  157.7500    -1.8000    71.5600    75.8250    66.4140    39.3740    23.4890     2.3000 
  157.8750    -1.6220    73.3880    86.2820    75.9950    41.3180    23.3810     2.2950 
  158.0000    -1.4520    74.2600    93.2270    82.1510    40.5070    23.3980     2.2920 
  158.1250    -1.4060    72.2940    96.8910    85.0730    44.4000    23.5940     2.2950 
