~V
VERS. 2.00: Ver 2.00
~W
STRT.M 52.0000:
STOP.M 279.0000:
STEP.M 0.1250:
NULL. -999.2500:
UWI. F11031:
~C
DEPT.M :
DEN.GM/CC :
GR.API :
RML.OHMM :
RI. :
RXO.OHMM :
CALI.CM :
SP.MV :
~A
# ...
   63.2500     2.2110    84.6280     5.9470     6.8290     6.0740    22.3770   -27.0270 
   63.3750     2.1940    85.9010     5.8870     6.6550     5.9900    22.6690   -28.0200 
   63.5000     2.1760    82.3860     6.0680     6.6370     6.5250    22.8300   -28.9920 
   63.6250     2.1690    75.9430     6.4620     6.7620     7.3900    22.9660   -29.8940 
   63.7500     2.1820    72.6020     6.8460     6.8950     8.4160    23.1630   -30.7310 
   63.8750     2.2180    73.0300     7.1570     7.0150     9.9080    23.3350   -31.5600 
   64.0000     2.2740    74.2010     7.6070     7.2880    11.7550    23.4460   -32.4280 
   64.1250     2.3390    75.0760     8.8140     8.2850    12.0060    23.8750   -33.3310 
   64.2500     2.4000    73.7420    11.2670    10.6130    11.4450    24.3530   -34.3260 
   64.3750     2.4480    69.7970    15.5160    14.9290    18.0780    24.2810   -35.4440 
   64.5000     2.4800    65.0880    21.8140    21.4390    44.4390    23.9600   -36.6690 
   64.6250     2.4830    61.9960    27.9500    28.0950   106.9890    23.7380   -38.0530 
   64.7500     2.4540    60.8840    28.5400    29.9730   116.6240    23.5800   -39.5990 
   64.8750     2.3920    61.1480    22.9480    25.5190    60.2090    23.3450   -41.2630 
   65.0000     2.3110    62.5750    16.1180    18.5720    25.1780    23.0060   -42.9250 
   65.1250     2.2340    63.4290    11.6410    13.3270    14.7860    22.6910   -44.4710 
   65.2500     2.1760    64.1630     9.1680    10.1690    11.6110    22.7040   -45.8420 
   65.3750     2.1420    65.6270     8.1240     8.5050    10.8890    22.7980   -46.9850 
   65.5000     2.1240    66.6160     8.0430     7.7990    10.9090    22.8470   -47.8990 
   65.6250     2.1120    64.7240     8.5250     7.7460    11.0710    22.8000   -48.5410 
   65.7500     2.0980    61.1570     9.0400     7.9450    10.9950    22.9280   -48.9790 
   65.8750     2.0870    58.0170     9.3240     8.1930    10.9760    23.8370   -49.2380 
   66.0000     2.0830    55.5310     9.3310     8.3760    10.9720    25.1680   -49.3570 
   66.1250     2.0900    54.7070     9.1760     8.4340    11.2870    25.7020   -49.3210 
   66.2500     2.1010    54.8400     9.0230     8.3980    10.9960    25.6240   -49.1800 
   66.3750     2.1100    54.6620     8.9190     8.3000    10.6020    25.4410   -48.9710 
   66.5000     2.1120    53.3120     8.8600     8.1740     9.9310    25.3780   -48.6980 
   66.6250     2.1090    51.4490     8.8290     8.0560     9.6110    25.4300   -48.3590 
   66.7500     2.1040    51.9270     8.8120     7.9630     9.5310    25.4660   -48.0170 
   66.8750     2.0990    53.5630     8.8080     7.8940     9.4240    25.6010   -47.6800 
   67.0000     2.0930    53.6790     8.8210     7.8410     9.2410    25.7520   -47.3610 
   67.1250     2.0840    51.7090     8.8400     7.7910     9.0860    25.8160   -47.1260 
   67.2500     2.0770    51.0190     8.8460     7.7330     9.0460    25.8060   -46.9790 
   67.3750     2.0720    52.3960     8.8320     7.6630     9.0300    25.7770   -46.8320 
   67.5000     2.0730    53.9860     8.8110     7.5870     9.0950    25.7720   -46.6640 
   67.6250     2.0770    55.2380     8.8170     7.5100     9.1900    25.7440   -46.5510 
   67.7500     2.0810    56.5200     8.8680     7.4330     9.1930    25.5600   -46.4350 
   67.8750     2.0820    56.8680     8.9720     7.3520     9.0590    25.0510   -46.2690 
   68.0000     2.0830    57.2710     9.1130     7.2680     8.8650    24.4290   -46.0660 
   68.1250     2.0880    59.6710     9.2530     7.1930     8.8210    24.4040   -45.8430 
   68.2500     2.1000    62.6740     9.3550     7.1390     8.7050    24.6060   -45.5710 
   68.3750     2.1170    63.7180     9.4020     7.1090     8.4860    24.2870   -45.2630 
   68.5000     2.1310    63.1080     9.3940     7.0940     8.3530    23.6550   -44.9610 
   68.6250     2.1350    62.0870     9.3390     7.0760     8.1770    23.0350   -44.6660 
   68.7500     2.1290    60.4270     9.2500     7.0410     8.0010    23.0480   -44.3500 
   68.8750     2.1210    58.5990     9.1320     6.9880     7.9200    23.3200   -44.0250 
   69.0000     2.1180    59.6570     8.9930     6.9210     8.1600    23.3430   -43.7270 
   69.1250     2.1230    65.4370     8.8550     6.8470     8.4000    23.1940   -43.4390 
   69.2500     2.1330    69.9950     8.7450     6.7730     8.4130    22.8500   -43.1140 
   69.3750     2.1450    69.4760     8.6830     6.7050     8.1980    22.3900   -42.7480 
   69.5000     2.1570    66.6090     8.6870     6.6490     7.7410    21.9160   -42.3720 
   69.6250     2.1680    65.6850     8.7580     6.6120     7.3520    21.5380   -41.9460 
   69.7500     2.1760    66.7060     8.8500     6.5880     7.0720    21.1710   -41.4620 
   69.8750     2.1820    67.5550     8.9210     6.5700     6.9580    20.9720   -40.9790 
   70.0000     2.1850    67.4000     8.9380     6.5560     6.9900    20.8400   -40.5220 
   70.1250     2.1860    65.3880     8.8990     6.5460     7.0840    20.5870   -40.0540 
   70.2500     2.1860    63.3960     8.8730     6.5420     6.9950    20.4250   -39.6070 
   70.3750     2.1860    64.2670     8.9200     6.5530     6.8260    20.2910   -39.2600 
   70.5000     2.1860    67.7500     9.0590     6.5840     6.7250    20.0890   -38.9900 
   70.6250     2.1880    68.7270     9.2660     6.6420     6.7910    19.8990   -38.7580 
   70.7500     2.1950    66.7070     9.4810     6.7150     6.9230    19.8400   -38.5660 
   70.8750     2.2040    65.3350     9.6710     6.7990     7.0670    19.8890   -38.4010 
   71.0000     2.2120    68.7770     9.8000     6.8770     7.2150    20.0060   -38.2210 
   71.1250     2.2140    74.3850     9.8090     6.9140     7.1970    20.0620   -38.0190 
   71.2500     2.2080    74.7790     9.6760     6.8800     7.1280    20.1730   -37.8020 
   71.3750     2.1960    71.5170     9.3990     6.7550     7.1700    20.3620   -37.5490 
   71.5000     2.1810    71.1870     9.0290     6.5490     7.2390    20.7820   -37.2560 
   71.6250     2.1660    76.5010     8.6850     6.3210     7.1640    21.3460   -36.9980 
   71.7500     2.1510    80.7180     8.4750     6.1560     6.9380    21.9810   -36.8650 
   71.8750     2.1380    80.9570     8.4550     6.1140     6.8120    22.5510   -36.9110 
   72.0000     2.1310    78.1440     8.6350     6.2230     6.7110    23.1040   -37.1580 
   72.1250     2.1340    72.7940     8.9880     6.4860     7.1910    23.4550   -37.5700 
   72.2500     2.1480    66.7550     9.3860     6.8090     8.0160    23.1460   -38.0850 
   72.3750     2.1680    62.5220     9.7240     7.0980     8.8170    22.4090   -38.6700 
   72.5000     2.1920    61.3900     9.9370     7.2780     9.0840    21.8960   -39.2200 
   72.6250     2.2130    62.7490    10.0100     7.3060     9.0460    21.7740   -39.6810 
   72.7500     2.2270    63.6210    10.0170     7.2420     9.0790    21.8010   -40.0010 
   72.8750     2.2310    62.3380    10.0060     7.1410     9.2850    21.8700   -40.0650 
   73.0000     2.2260    60.0400     9.9980     7.0330     9.4240    21.8310   -39.8060 
   73.1250     2.2120    60.6270     9.9540     6.9110     9.3280    21.6790   -39.3050 
   73.2500     2.1960    63.5220     9.8100     6.7490     9.1300    21.5950   -38.6830 
   73.3750     2.1800    65.4170     9.5310     6.5290     8.9850    21.7190   -37.9230 
   73.5000     2.1690    63.2100     9.1780     6.2650     8.8560    21.6390   -37.0590 
   73.6250     2.1640    59.7790     9.0520     6.0910     8.6410    21.4550   -36.0880 
   73.7500     2.1690    59.0770     9.5470     6.2210     8.5870    21.4670   -35.0810 
   73.8750     2.1910    60.4680    11.0110     6.8810     8.8100    21.6170   -34.0740 
   74.0000     2.2330    61.4360    13.6160     8.2760     9.8760    21.7190   -33.1340 
   74.1250     2.2890    60.9390    17.2540    10.6220    14.2250    21.6950   -32.3240 
   74.2500     2.3340    58.3800    20.6580    13.3440    26.1620    22.1990   -31.6020 
   74.3750     2.3480    54.4960    22.0280    15.2420    39.9510    23.2840   -30.9580 
