~V
VERS. 2.00: Ver 2.00
~W
STRT.M 53.0000:
STOP.M 257.0000:
STEP.M 0.1250:
NULL. -999.2500:
UWI. F11022:
~C
DEPT.M :
GR.API :
RML.OHMM :
RI. :
RXO.OHMM :
CALI.CM :
SP.MV :
DEN.GM/CC :
~A
# ...
  165.5000    84.7560     9.2190     8.3960     7.8110    25.0920   -29.6120     2.2950 
  165.6250    81.1470    10.9620     9.6570     9.9810    25.0600   -29.6180     2.2860 
  165.7500    75.3580    13.3650    11.6100    14.3030    25.0500   -29.7560     2.2690 
  165.8750    69.6330    16.0870    14.0450    18.7290    25.0770   -29.9440     2.2470 
  166.0000    66.7150    18.6490    16.5570    21.1000    25.1240   -29.9680     2.2300 
  166.1250    67.3650    20.4530    18.5130    21.3490    25.1300   -30.0340     2.2270 
  166.2500    67.0920    21.4550    19.7000    21.0800    25.1140   -30.2160     2.2350 
  166.3750    65.0570    21.8330    20.2120    20.9280    25.0850   -30.3110     2.2460 
  166.5000    63.6770    21.8590    20.2900    21.1000    25.0670   -30.3170     2.2550 
  166.6250    65.1060    21.6950    20.0940    21.4130    25.0590   -30.4410     2.2540 
  166.7500    67.4040    21.3870    19.7130    21.4210    25.0390   -30.5770     2.2440 
  166.8750    70.6020    20.9150    19.1490    20.4920    24.9960   -30.6310     2.2320 
  167.0000    73.3190    20.3200    18.4620    18.5810    24.9630   -30.7030     2.2220 
  167.1250    72.5160    19.7240    17.7880    17.6360    24.9550   -30.8720     2.2160 
  167.2500    69.9480    19.2590    17.2560    17.1300    24.9370   -30.9330     2.2120 
  167.3750    68.5320    18.9790    16.9310    16.8240    24.9170   -30.9530     2.2110 
  167.5000    69.1540    18.8650    16.8180    16.7510    24.8970   -31.1260     2.2130 
  167.6250    69.9890    18.8520    16.8860    17.2430    24.9280   -31.3050     2.2150 
  167.7500    69.6360    18.8430    17.0230    17.6670    25.0590   -31.3290     2.2130 
  167.8750    67.8170    18.8030    17.1660    17.2440    25.2220   -31.4250     2.2070 
  168.0000    65.5830    18.7110    17.2750    16.2570    25.3450   -31.6650     2.2000 
  168.1250    64.4390    18.5260    17.3010    15.4970    25.4050   -31.7600     2.2010 
  168.2500    63.4570    18.2000    17.1930    15.2430    25.4270   -31.8730     2.2080 
  168.3750    63.1910    17.6730    16.8850    15.5300    25.4300   -32.1200     2.2170 
  168.5000    63.7530    16.9320    16.3550    15.7110    25.4300   -32.2830     2.2280 
  168.6250    65.2590    16.0400    15.6480    14.9730    25.4300   -32.3780     2.2410 
  168.7500    68.0250    15.1810    14.9300    13.7480    25.4300   -32.6530     2.2540 
  168.8750    72.2090    14.5240    14.3450    12.7120    25.4290   -32.8960     2.2650 
  169.0000    75.7380    14.2010    14.0150    12.5250    25.4190   -33.0230     2.2710 
  169.1250    76.1310    14.3340    14.0650    12.9680    25.3950   -33.3090     2.2720 
  169.2500    76.3690    14.8040    14.4310    13.6250    25.3650   -33.5800     2.2710 
  169.3750    78.0690    15.4990    15.0450    14.1240    25.3590   -33.7130     2.2700 
  169.5000    79.1550    16.2790    15.8010    15.4030    25.3850   -33.9230     2.2660 
  169.6250    76.0540    16.9990    16.5680    16.5500    25.4450   -34.2240     2.2530 
  169.7500    71.7710    17.6170    17.2580    16.7370    25.4830   -34.3630     2.2340 
  169.8750    68.6770    18.1660    17.8520    16.6280    25.4970   -34.4790     2.2140 
  170.0000    67.2180    18.7020    18.3710    16.9440    25.4990   -34.7230     2.1930 
  170.1250    68.1820    19.3050    18.8640    17.7940    25.5000   -34.9330     2.1770 
  170.2500    70.2930    20.0440    19.4270    18.4720    25.5000   -35.0830     2.1710 
  170.3750    72.9710    21.0130    20.1670    19.0520    25.4900   -35.3100     2.1800 
  170.5000    74.6170    22.3790    21.2210    19.8760    25.4600   -35.5900     2.1980 
  170.6250    74.2760    24.5870    22.9320    21.5440    25.4120   -35.7820     2.2150 
  170.7500    71.6970    27.8980    25.5420    25.5330    25.4480   -35.9980     2.2240 
  170.8750    68.8390    32.5710    29.3620    32.0730    25.6110   -36.3300     2.2210 
  171.0000    68.1940    38.7150    34.6390    38.6860    25.8400   -36.5600     2.2070 
  171.1250    68.0140    46.4630    41.7330    47.3220    26.0470   -36.6680     2.1950 
  171.2500    67.5040    55.2580    50.1980    62.6830    26.2230   -36.9570     2.1940 
  171.3750    67.8100    64.7070    59.6320    71.8640    26.4000   -37.2310     2.2030 
  171.5000    69.6510    74.5500    69.6520    70.9220    26.5040   -37.3170     2.2140 
  171.6250    68.5390    84.9910    80.3270    74.0880    26.5650   -37.4820     2.2140 
  171.7500    62.9170    96.2720    91.8760    96.1420    26.6200   -37.7200     2.1980 
  171.8750    57.3940   108.2890   104.2990   131.1090    26.6770   -37.7970     2.1750 
  172.0000    55.0270   120.1940   116.9010   148.3940    26.7470   -37.8540     2.1620 
  172.1250    55.1620   129.7650   128.2790   138.2160    26.8670   -38.0540     2.1660 
  172.2500    55.6410   136.5850   137.2290   138.8540    26.9760   -38.0950     2.1730 
  172.3750    56.4480   143.2650   142.5510   136.7400    27.0690   -38.0630     2.1810 
  172.5000    57.2660   149.9730   148.2890   135.8830    27.1040   -38.1650     2.1920 
  172.6250    57.6220   159.8530   157.5060   137.8750    27.1260   -38.2600     2.2060 
  172.7500    57.1350   174.0280   170.9170   148.3710    27.2280   -38.2170     2.2100 
  172.8750    54.4910   192.2440   188.0320   174.4960    27.4540   -38.2060     2.1970 
  173.0000    50.4360   212.8110   206.9560   210.7690    27.6870   -38.3180     2.1720 
  173.1250    50.0680   232.0400   223.5600   239.0440    27.8680   -38.3190     2.1500 
  173.2500    53.2790   246.2220   234.1530   256.5850    27.9710   -38.2660     2.1410 
  173.3750    56.0700   253.4620   237.3500   266.3240    28.0250   -38.3220     2.1420 
  173.5000    56.3570   254.3370   234.7040   260.0760    28.0680   -38.3790     2.1450 
  173.6250    53.1040   251.5660   229.8670   240.0890    28.1340   -38.2550     2.1420 
  173.7500    48.6410   249.9130   227.1460   217.6260    28.2350   -38.1960     2.1350 
  173.8750    46.5720   252.9240   229.2270   207.2870    28.3340   -38.2690     2.1280 
  174.0000    49.0640   263.0220   237.4920   209.6190    28.3500   -38.2080     2.1220 
  174.1250    52.8070   279.1620   249.8450   213.2610    28.2280   -38.0350     2.1210 
  174.2500    53.6940   291.3820   256.7380   266.2100    28.1230   -38.0770     2.1230 
  174.3750    52.1810   288.9180   248.9630   394.6870    28.0540   -38.0580     2.1240 
  174.5000    49.4080   267.5920   225.4840   534.2770    27.9910   -37.8540     2.1180 
  174.6250    47.0460   235.0190   196.6220   408.0810    27.8570   -37.8710     2.1110 
  174.7500    47.7030   207.0080   174.8020   191.3370    27.7060   -37.8970     2.1150 
  174.8750    51.0030   191.5870   164.6260    92.1800    27.6280   -37.7260     2.1240 
  175.0000    53.1380   191.6020   166.9480    73.1610    27.6700   -37.6830     2.1200 
  175.1250    51.3930   207.8260   182.0890   119.9920    27.7060   -37.7270     2.0960 
  175.2500    49.1100   232.6400   204.2600   178.8580    27.6890   -37.5400     2.0740 
  175.3750    48.7310   258.3220   226.9270   187.9810    27.6760   -37.4300     2.0700 
  175.5000    49.1890   276.7000   242.5800   214.6190    27.7290   -37.4630     2.0750 
  175.6250    47.8530   283.2260   247.4160   286.4430    27.8750   -37.2240     2.0770 
  175.7500    45.6910   286.1130   249.4940   293.1170    28.0390   -37.0480     2.0760 
  175.8750    45.6230   293.6240   255.6810   243.2340    28.1320   -37.0560     2.0740 
  176.0000    47.4070   308.4090   267.1610   236.6800    28.1120   -36.9080     2.0660 
  176.1250    48.4580   321.1160   274.6120   302.0070    27.9830   -36.6500     2.0520 
  176.2500    48.3730   316.0890   265.2280   416.6830    27.8350   -36.5360     2.0460 
  176.3750    48.9260   286.4930   235.7830   500.5630    27.7320   -36.4530     2.0580 
  176.5000    51.5870   240.2530   196.0040   424.1380    27.5780   -36.2980     2.0860 
  176.6250    55.9890   194.9340   160.8220   280.3890    27.2240   -36.1660     2.1220 
