~V
VERS. 2.00: Ver 2.00
~W
STRT.M 52.0000:
STOP.M 282.0000:
STEP.M 0.1250:
NULL. -999.2500:
UWI. F11052:
~C
DEPT.M :
SP.MV :
GR.API :
RML.OHMM :
RI. :
RXO.OHMM :
CALI.CM :
DEN.GM/CC :
~A
# ...
  254.5000    -5.2300    64.3000     6.2280     5.0840     5.3880    24.9500     2.3650 
  254.6250    -5.0960    62.2810     6.1450     5.0740     5.3180    24.9570     2.3630 
  254.7500    -4.9210    61.6020     6.1570     5.0670     5.2990    24.9930     2.3600 
  254.8750    -4.8070    62.5130     6.2480     5.0600     5.3180    25.0170     2.3550 
  255.0000    -4.7730    63.3780     6.3730     5.0510     5.2970    25.0130     2.3510 
  255.1250    -4.7890    63.7250     6.4850     5.0430     5.2550    24.9850     2.3520 
  255.2500    -4.8470    62.6410     6.5630     5.0400     5.2120    24.9850     2.3640 
  255.3750    -4.9250    60.5710     6.6070     5.0440     5.1600    25.0080     2.3910 
  255.5000    -4.9650    59.0640     6.6160     5.0500     5.1160    25.0140     2.4250 
  255.6250    -4.9970    58.5670     6.5900     5.0540     5.1190    24.9920     2.4500 
  255.7500    -5.0050    58.4220     6.5590     5.0540     5.1530    24.9700     2.4570 
  255.8750    -4.9340    58.8920     6.5480     5.0500     5.2020    24.9870     2.4460 
  256.0000    -4.8780    60.1170     6.5600     5.0470     5.2680    25.0020     2.4260 
  256.1250    -4.8460    59.6480     6.5620     5.0480     5.3180    25.0140     2.4100 
  256.2500    -4.7920    58.8130     6.5210     5.0550     5.3420    24.9870     2.4020 
  256.3750    -4.8300    60.4720     6.4520     5.0670     5.3690    24.9390     2.4000 
  256.5000    -4.9770    63.7630     6.4110     5.0830     5.4170    24.9110     2.3980 
  256.6250    -5.1500    64.2550     6.4750     5.1040     5.4590    24.9050     2.3910 
  256.7500    -5.3620    62.3950     6.6280     5.1290     5.4960    24.9160     2.3810 
  256.8750    -5.6440    60.4660     6.8100     5.1630     5.6220    24.9520     2.3760 
  257.0000    -5.9020    59.0120     6.9560     5.2090     5.9260    25.0210     2.3850 
  257.1250    -6.0480    58.6640     7.0200     5.2650     6.0390    25.0770     2.4120 
  257.2500    -6.2010    59.5220     7.0220     5.3180     5.9920    25.1100     2.4410 
  257.3750    -6.3070    59.3460     6.9740     5.3560     5.8850    25.1250     2.4590 
  257.5000    -6.2780    57.0820     6.8850     5.3730     5.8440    25.1170     2.4570 
  257.6250    -6.2080    54.9140     6.7640     5.3670     5.8380    25.1130     2.4360 
  257.7500    -6.1570    54.5010     6.6520     5.3510     5.7980    25.1110     2.4110 
  257.8750    -6.0560    55.9310     6.5830     5.3390     5.7260    25.1050     2.3910 
  258.0000    -5.9820    58.8380     6.5790     5.3380     5.7110    25.0940     2.3810 
  258.1250    -6.0130    62.1870     6.6410     5.3460     5.7610    25.0610     2.3840 
  258.2500    -5.9970    63.3330     6.7180     5.3580     5.8520    25.0140     2.3950 
  258.3750    -5.9720    62.6350     6.7690     5.3750     5.8020    24.9760     2.4080 
  258.5000    -5.9450    61.8360     6.7700     5.3990     5.7200    24.9590     2.4120 
  258.6250    -5.8770    61.7040     6.7290     5.4300     5.7050    24.9480     2.3930 
  258.7500    -5.8280    61.6930     6.6970     5.4570     5.6840    24.9190     2.3580 
  258.8750    -5.7600    60.9620     6.7020     5.4670     5.6960    24.8130     2.3260 
  259.0000    -5.5500    60.7980     6.7510     5.4510     5.7390    24.6410     2.3170 
  259.1250    -5.2670    62.1270     6.8310     5.4210     5.9090    24.5310     2.3370 
  259.2500    -5.0540    62.2690     6.9270     5.4140     6.0980    24.5850     2.3670 
  259.3750    -4.8180    60.5170     7.0620     5.4690     6.3280    24.7410     2.3900 
  259.5000    -4.6010    58.3360     7.2790     5.6220     6.4750    24.9050     2.4030 
  259.6250    -4.4270    57.4410     7.6300     5.9080     7.3140    25.0160     2.4220 
  259.7500    -4.2130    56.7850     8.0720     6.2890     9.8950    25.0450     2.4570 
  259.8750    -3.9610    55.7270     8.5350     6.7150    14.1450    25.0150     2.5050 
  260.0000    -3.7750    54.5740     8.9230     7.1070    18.6750    25.0330     2.5490 
  260.1250    -3.6350    54.6090     9.1150     7.3530    18.2800    25.0610     2.5650 
  260.2500    -3.4020    57.3260     9.1040     7.4170    14.2920    25.0790     2.5550 
  260.3750    -3.1600    61.4860     8.9260     7.3080     9.7490    25.0890     2.5260 
  260.5000    -2.9860    64.4710     8.6700     7.0850     7.3590    25.0870     2.4900 
  260.6250    -2.8020    64.0420     8.4600     6.8290     6.6790    25.0670     2.4580 
  260.7500    -2.5730    61.9140     8.3560     6.6140     6.5280    25.0490     2.4360 
  260.8750    -2.4170    60.0710     8.3420     6.4670     6.3620    25.0240     2.4260 
  261.0000    -2.2950    59.6460     8.3550     6.3860     6.2020    24.9920     2.4280 
  261.1250    -2.1380    62.7400     8.3270     6.3560     6.1420    24.9350     2.4380 
  261.2500    -2.0580    66.7300     8.2610     6.3460     6.2330    24.9110     2.4480 
  261.3750    -2.0060    68.2800     8.2020     6.3490     6.3120    24.9100     2.4540 
  261.5000    -1.9380    65.6400     8.1940     6.3690     6.3450    24.9130     2.4570 
  261.6250    -1.9380    62.2370     8.2480     6.4270     6.4520    24.8990     2.4610 
  261.7500    -1.9620    61.3810     8.3270     6.5220     6.6890    24.9660     2.4700 
  261.8750    -1.9780    62.0190     8.4040     6.6450     7.0150    25.1360     2.4820 
  262.0000    -2.0240    62.6680     8.4670     6.7740     7.3750    25.2660     2.4920 
  262.1250    -2.0550    61.2730     8.4940     6.8760     7.6710    25.2700     2.4920 
  262.2500    -2.0090    58.2350     8.4690     6.9370     7.6510    25.2620     2.4860 
  262.3750    -1.9620    56.3130     8.3850     6.9570     7.3260    25.2370     2.4760 
  262.5000    -1.9190    57.2090     8.2580     6.9510     7.0780    25.1910     2.4710 
  262.6250    -1.8070    58.9770     8.1220     6.9360     7.1350    25.2510     2.4740 
  262.7500    -1.7340    58.0890     8.0000     6.9250     7.2500    25.3830     2.4830 
  262.8750    -1.7130    56.1000     7.8910     6.9210     7.3170    25.5020     2.4900 
  263.0000    -1.6670    56.0820     7.7910     6.9190     7.2940    25.5940     2.4920 
  263.1250    -1.6470    58.5630     7.7150     6.9110     7.2800    25.6780     2.4880 
  263.2500    -1.7310    60.5910     7.6760     6.8970     7.2790    25.7310     2.4810 
  263.3750    -1.8620    60.0480     7.6750     6.8780     7.4040    25.8090     2.4790 
  263.5000    -1.9870    58.0200     7.6930     6.8570     7.5690    25.9310     2.4840 
  263.6250    -2.1910    56.8920     7.7040     6.8350     7.8570    26.1500     2.4970 
  263.7500    -2.4120    56.7670     7.7030     6.8180     8.1500    26.4540     2.5110 
  263.8750    -2.5560    56.8170     7.6980     6.8160     8.4090    26.8660     2.5200 
  264.0000    -2.7150    56.2450     7.7010     6.8400     8.4390    27.3260     2.5210 
  264.1250    -2.9130    56.0440     7.7100     6.8980     8.3190    27.7160     2.5060 
  264.2500    -3.0100    57.4050     7.7240     6.9830     8.3320    27.8910     2.4770 
  264.3750    -3.0750    58.6330     7.7540     7.0860     8.4200    27.9280     2.4410 
  264.5000    -3.1580    58.4000     7.8140     7.1870     8.3760    27.9060     2.4140 
  264.6250    -3.1540    57.9880     7.9060     7.2470     8.4860    27.6860     2.4110 
  264.7500    -3.1550    58.5330     7.9870     7.2510     8.3510    27.2070     2.4270 
  264.8750    -3.1980    58.7570     8.0080     7.2030     8.3200    26.6940     2.4460 
  265.0000    -3.2020    57.2050     7.9440     7.1230     8.4130    26.4170     2.4550 
  265.1250    -3.2150    56.5240     7.8100     7.0400     8.4480    26.4060     2.4520 
  265.2500    -3.2910    57.4930     7.6860     6.9860     8.7650    26.3670     2.4520 
  265.3750    -3.3390    59.0680     7.6350     6.9740     9.4430    26.2630     2.4620 
  265.5000    -3.3800    60.3920     7.6870     7.0040    10.2580    26.0990     2.4780 
  265.6250    -3.5280    59.7450     7.8390     7.0830     9.9280    26.0060     2.4880 
