~V
VERS. 2.00: Ver 2.00
~W
STRT.M 53.0000:
STOP.M 287.0000:
STEP.M 0.1250:
NULL. -999.2500:
UWI. F11059:
~C
DEPT.M :
GR.API :
RML.OHMM :
RI. :
RXO.OHMM :
CALI.CM :
DEN.GM/CC :
SP.MV :
~A
# ...
  143.0000    54.8480    26.8470    23.6830    32.8760    24.7640     2.6150    -8.3330 
  143.1250    56.0110    23.6680    20.2130    25.2100    24.7700     2.5780    -8.3880 
  143.2500    57.9630    20.0320    17.0550    20.5130    24.7700     2.5310    -8.4970 
  143.3750    60.9020    17.1040    14.8750    17.9480    24.7670     2.4880    -8.5990 
  143.5000    63.0350    15.1500    13.6460    14.7950    24.7610     2.4640    -8.7110 
  143.6250    63.4910    14.1500    13.3050    14.9490    24.7520     2.4640    -8.8300 
  143.7500    63.4110    13.9560    13.6750    20.4800    24.7330     2.4830    -8.9640 
  143.8750    63.5500    14.4060    14.5510    20.1510    24.6950     2.5050    -9.0850 
  144.0000    63.6620    15.1270    15.5990    18.9790    24.6610     2.5170    -9.1920 
  144.1250    63.6270    15.8800    16.5610    19.4520    24.6350     2.5230    -9.2770 
  144.2500    63.3800    16.4330    17.1200    18.9340    24.6220     2.5300    -9.3520 
  144.3750    63.1040    16.4910    16.9200    18.1610    24.6140     2.5390    -9.4370 
  144.5000    63.8600    16.0250    16.1030    22.7070    24.6160     2.5420    -9.5070 
  144.6250    65.4440    15.1030    14.8750    26.5990    24.6320     2.5330    -9.5560 
  144.7500    67.7460    13.9140    13.4960    19.0360    24.6600     2.5130    -9.5750 
  144.8750    69.6830    12.7280    12.2330    12.1940    24.6700     2.4910    -9.5860 
  145.0000    69.4080    11.7390    11.1590    11.1210    24.6690     2.4680    -9.5880 
  145.1250    67.9640    10.9960    10.2800    13.7000    24.6660     2.4350    -9.5900 
  145.2500    68.4830    10.4930     9.6590    14.3520    24.6660     2.3900    -9.5920 
  145.3750    70.8120    10.3060     9.5200    11.7650    24.6710     2.3490    -9.5770 
  145.5000    72.1840    10.5320     9.9710    10.3560    24.6790     2.3420    -9.5370 
  145.6250    71.7470    11.3720    11.1860    11.3330    24.6840     2.3850    -9.4750 
  145.7500    68.5270    13.0350    13.3490    15.4700    24.6840     2.4670    -9.3750 
  145.8750    62.2670    15.7530    16.6310    24.0610    24.6770     2.5560    -9.2150 
  146.0000    57.4750    19.0850    20.3610    32.0850    24.6760     2.6230    -9.0460 
  146.1250    56.4320    22.3900    23.6060    33.6750    24.6820     2.6580    -8.8770 
  146.2500    56.4680    24.9520    25.5890    29.3670    24.6880     2.6680    -8.7180 
  146.3750    55.0990    26.2410    26.1870    27.2840    24.6880     2.6620    -8.5610 
  146.5000    53.4420    26.7640    26.3180    28.2430    24.6840     2.6530    -8.4140 
  146.6250    51.5010    27.0680    26.5020    31.9310    24.6790     2.6460    -8.3040 
  146.7500    50.2030    27.4990    26.8680    35.7460    24.6770     2.6400    -8.2270 
  146.8750    51.4660    28.0240    27.1830    36.0210    24.6810     2.6380    -8.2120 
  147.0000    52.9230    28.3380    27.1870    35.3290    24.6960     2.6380    -8.2260 
  147.1250    53.7620    28.2420    26.8210    33.4360    24.7120     2.6380    -8.2400 
  147.2500    55.7400    27.7230    26.1930    29.7360    24.7030     2.6380    -8.2540 
  147.3750    59.5520    26.8950    25.4460    28.4170    24.6920     2.6370    -8.2710 
  147.5000    61.0650    25.9620    24.6620    29.3390    24.6830     2.6350    -8.2970 
  147.6250    59.2570    24.9750    23.8090    30.9810    24.6840     2.6310    -8.3160 
  147.7500    56.2310    23.9250    22.8560    29.8540    24.6900     2.6240    -8.3300 
  147.8750    54.3460    22.8070    21.8370    25.7430    24.6940     2.6120    -8.3150 
  148.0000    54.3650    21.6970    20.8440    22.7700    24.6910     2.5950    -8.2850 
  148.1250    56.7180    20.6720    19.9230    20.8100    24.6840     2.5760    -8.2630 
  148.2500    59.3040    19.7780    19.0890    19.9590    24.6790     2.5600    -8.2300 
  148.3750    57.7440    19.0370    18.3460    20.7930    24.6780     2.5520    -8.1980 
  148.5000    54.8120    18.4010    17.6810    21.2100    24.6800     2.5540    -8.1800 
  148.6250    53.4010    17.8710    17.1370    19.9070    24.6790     2.5610    -8.1700 
  148.7500    53.8310    17.4950    16.8080    18.1480    24.6770     2.5720    -8.1600 
  148.8750    53.6230    17.4120    16.8530    18.7860    24.6700     2.5810    -8.1490 
  149.0000    51.7760    17.6460    17.2450    20.2770    24.6540     2.5880    -8.1340 
  149.1250    48.0550    18.1740    17.8910    21.5560    24.6220     2.5960    -8.1120 
  149.2500    43.3480    18.8760    18.6220    23.7530    24.5870     2.6030    -8.0990 
  149.3750    41.0930    19.5490    19.2170    23.5460    24.5420     2.6090    -8.0980 
  149.5000    42.6590    20.0280    19.5830    23.7770    24.5180     2.6140    -8.0780 
  149.6250    46.4170    20.2500    19.7100    23.2830    24.4980     2.6180    -8.0650 
  149.7500    50.1990    20.2390    19.6440    22.7160    24.4880     2.6180    -8.0870 
  149.8750    52.9510    20.0640    19.4460    23.9790    24.5120     2.6100    -8.1300 
  150.0000    56.1800    19.8540    19.2030    24.3970    24.5880     2.5920    -8.1930 
  150.1250    60.0190    19.6850    18.9610    22.9280    24.6910     2.5670    -8.2560 
  150.2500    62.4050    19.5970    18.7500    22.4180    24.7500     2.5410    -8.3190 
  150.3750    61.6460    19.5950    18.5730    22.1280    24.7640     2.5250    -8.3670 
  150.5000    60.2900    19.6090    18.4010    21.7360    24.7800     2.5200    -8.4100 
  150.6250    60.4340    19.5830    18.2410    20.8810    24.8150     2.5240    -8.4470 
  150.7500    62.4790    19.5240    18.1250    19.9970    24.8320     2.5340    -8.4530 
  150.8750    64.8960    19.3910    18.0840    19.3650    24.8200     2.5510    -8.4530 
  151.0000    66.1630    19.0420    18.0840    18.8530    24.8110     2.5710    -8.4420 
  151.1250    66.0080    18.5040    18.0650    19.5390    24.8140     2.5890    -8.4250 
  151.2500    64.6830    17.9890    17.9240    21.8810    24.8190     2.5980    -8.3920 
  151.3750    64.5200    17.6190    17.5010    24.2530    24.8200     2.5970    -8.3650 
  151.5000    65.8720    17.1780    16.8240    22.1180    24.8170     2.5890    -8.3720 
  151.6250    65.7460    16.5390    16.0070    18.2020    24.8120     2.5830    -8.3860 
  151.7500    62.3750    15.8230    15.2110    16.3970    24.8050     2.5780    -8.4190 
  151.8750    60.6760    15.2320    14.6090    17.0060    24.8020     2.5700    -8.4580 
  152.0000    64.0900    14.8560    14.2380    17.4850    24.8060     2.5560    -8.4960 
  152.1250    68.8130    14.6980    14.0860    17.2020    24.8070     2.5370    -8.5420 
  152.2500    69.1880    14.7010    14.1080    16.1390    24.8130     2.5170    -8.6030 
  152.3750    65.4160    14.7900    14.2580    15.4840    24.8090     2.5060    -8.6780 
  152.5000    63.4650    14.8750    14.4220    15.4620    24.7970     2.5040    -8.7530 
  152.6250    63.4340    14.8950    14.4900    16.5480    24.7750     2.5070    -8.8280 
  152.7500    61.3540    14.7900    14.3650    18.8140    24.7610     2.5100    -8.9030 
  152.8750    57.8760    14.4880    13.9780    19.5380    24.7610     2.5110    -8.9930 
  153.0000    56.7910    14.0290    13.4390    17.2880    24.7530     2.5110    -9.0970 
  153.1250    57.1040    13.4910    12.8720    16.0730    24.7130     2.5110    -9.2160 
  153.2500    57.4550    12.9880    12.4070    16.3810    24.6360     2.5050    -9.3500 
  153.3750    61.0050    12.7040    12.1960    15.4960    24.4820     2.4910    -9.5030 
  153.5000    65.2980    12.7170    12.2540    15.0050    24.3610     2.4760    -9.6810 
  153.6250    64.9030    13.0300    12.5250    14.8650    24.2920     2.4670    -9.8810 
  153.7500    60.1320    13.5070    12.8230    15.4480    24.2270     2.4690   -10.1090 
  153.8750    56.7650    13.8040    12.7800    16.4660    24.1210     2.4710   -10.3430 
  154.0000    57.7470    13.6200    12.2150    17.6840    24.1030     2.4570   -10.5770 
  154.1250    63.1250    12.8530    11.1840    16.9790    24.1260     2.4210   -10.8110 
