~V
VERS. 2.00: Ver 2.00
~W
STRT.M 65.0000:
STOP.M 225.0000:
STEP.M 0.1250:
NULL. -999.2500:
UWI. F11012:
~C
DEPT.M :
SP.MV :
GR.API :
RML.OHMM :
RI. :
RXO.OHMM :
CALI.CM :
DEN.GM/CC :
~A
# ...
   98.7500   -10.8520    91.7610     6.7780     5.5920     6.3850    22.7880     2.1940 
   98.8750   -11.1900    91.7850     6.5210     5.3940     6.1420    22.8380     2.1920 
   99.0000   -11.5600    95.9620     6.1750     5.1160     5.4200    23.0550     2.2050 
   99.1250   -11.9570   102.7250     5.9110     4.8700     4.9840    23.2630     2.2210 
   99.2500   -12.3510   103.7520     6.0120     4.8500     5.1850    23.2650     2.2390 
   99.3750   -12.7550    98.3410     6.6320     5.1810     5.7100    23.1790     2.2650 
   99.5000   -13.1540    91.8490     7.8580     5.9540     6.5080    23.1610     2.2970 
   99.6250   -13.5520    87.6320     9.6110     7.1730     8.5810    23.2720     2.3250 
   99.7500   -13.9770    83.1710    11.4980     8.6640    13.6540    23.4390     2.3440 
   99.8750   -14.4110    77.6100    12.8080     9.8970    21.9170    23.5530     2.3480 
  100.0000   -14.8410    74.0810    13.0250    10.3830    24.0120    23.4990     2.3260 
  100.1250   -15.2580    74.9500    12.1280     9.9680    16.8620    23.2170     2.2760 
  100.2500   -15.6610    76.7780    10.6450     8.9520    10.3470    22.7750     2.2290 
  100.3750   -16.0430    75.2940     9.3540     7.9510     8.0960    22.4450     2.2030 
  100.5000   -16.4210    72.6320     8.5400     7.2230     7.3840    22.3090     2.1880 
  100.6250   -16.7860    73.1090     8.2050     6.8300     7.0530    22.3160     2.1740 
  100.7500   -17.1420    76.9930     8.2330     6.7490     6.9360    22.2230     2.1600 
  100.8750   -17.4990    79.7520     8.3840     6.8150     6.9800    22.0230     2.1530 
  101.0000   -17.8410    79.1220     8.5410     6.9360     7.1210    21.8460     2.1520 
  101.1250   -18.1800    75.4050     8.6370     7.0510     7.1910    21.7930     2.1550 
  101.2500   -18.5000    70.2960     8.6340     7.1250     7.1910    21.8170     2.1600 
  101.3750   -18.7830    65.5440     8.5670     7.1540     7.1690    21.8390     2.1610 
  101.5000   -19.0150    62.5810     8.4780     7.1380     7.0880    21.8710     2.1580 
  101.6250   -19.2140    62.4600     8.4050     7.0830     6.9550    21.9890     2.1510 
  101.7500   -19.3600    63.0850     8.3750     6.9960     6.8660    22.1720     2.1450 
  101.8750   -19.4440    63.3120     8.3720     6.9000     6.8310    22.2260     2.1450 
  102.0000   -19.4920    65.5410     8.3680     6.8120     6.8150    22.2120     2.1520 
  102.1250   -19.5040    70.2420     8.3460     6.7430     6.8280    22.3940     2.1620 
  102.2500   -19.4690    73.0940     8.3150     6.7010     6.8720    22.4850     2.1720 
  102.3750   -19.4320    71.6130     8.3080     6.6800     6.8760    22.3980     2.1810 
  102.5000   -19.3800    67.8840     8.3610     6.6850     6.8120    22.1500     2.1900 
  102.6250   -19.3170    65.2830     8.4980     6.7330     6.7440    21.8760     2.1980 
  102.7500   -19.2630    64.9030     8.7110     6.8510     6.7250    21.7830     2.2020 
  102.8750   -19.2270    65.3070     8.9290     7.0150     6.9010    21.8650     2.1990 
  103.0000   -19.1910    64.6970     9.0960     7.1850     7.7700    22.0220     2.1870 
  103.1250   -19.1430    63.9590     9.1720     7.3100    10.5560    22.1530     2.1680 
  103.2500   -19.0880    65.8510     9.1180     7.3250    14.3770    22.3180     2.1480 
  103.3750   -19.0160    67.7540     8.9670     7.2340    13.1430    22.3760     2.1380 
  103.5000   -18.9520    65.7610     8.7660     7.0720     9.7940    22.3160     2.1390 
  103.6250   -18.9010    61.9550     8.5700     6.8890     8.4350    22.2120     2.1490 
  103.7500   -18.8510    61.4280     8.4380     6.7380     8.4220    22.1750     2.1590 
  103.8750   -18.8040    63.0950     8.3770     6.6420     8.4820    22.1590     2.1670 
  104.0000   -18.7670    63.4610     8.3750     6.6020     8.5890    22.1580     2.1680 
  104.1250   -18.7390    62.6290     8.4110     6.6080     8.7970    22.1750     2.1660 
  104.2500   -18.7380    64.2060     8.4860     6.6520     8.7020    22.1750     2.1630 
  104.3750   -18.7490    67.0090     8.6100     6.7310     8.1480    22.1580     2.1620 
  104.5000   -18.7600    68.7580     8.7850     6.8520     7.4110    22.1600     2.1640 
  104.6250   -18.7720    68.8430     8.9950     7.0100     7.0020    22.2130     2.1770 
  104.7500   -18.7540    67.2310     9.2060     7.1990     7.0050    22.2920     2.2060 
  104.8750   -18.7030    64.5680     9.3780     7.3940     7.1750    22.4010     2.2430 
  105.0000   -18.6060    61.6830     9.4750     7.5620     7.2500    22.5700     2.2790 
  105.1250   -18.4200    59.5490     9.4670     7.6590     7.2420    22.7550     2.3110 
  105.2500   -18.1380    60.3860     9.3090     7.6270     7.1720    22.8360     2.3360 
  105.3750   -17.7900    61.4920     9.0330     7.4780     7.0990    22.7930     2.3370 
  105.5000   -17.3680    59.4160     8.6880     7.2470     6.9900    22.6630     2.2990 
  105.6250   -16.8720    56.5510     8.3470     6.9990     6.8990    22.6160     2.2390 
  105.7500   -16.3020    59.1810     8.0750     6.7940     6.7750    22.8130     2.2000 
  105.8750   -15.6710    64.8400     7.8580     6.6270     6.7390    23.0750     2.1900 
  106.0000   -14.9810    68.6250     7.6370     6.4570     6.8030    23.1750     2.1980 
  106.1250   -14.2690    70.6300     7.3380     6.2300     6.8380    23.0370     2.2150 
  106.2500   -13.5280    76.5950     6.8980     5.8930     6.2780    22.8820     2.2400 
  106.3750   -12.7750    84.5220     6.3720     5.4780     5.6880    23.0050     2.2750 
  106.5000   -12.0490    92.5420     5.8430     5.0420     5.3900    23.4470     2.3120 
  106.6250   -11.3600   100.8700     5.3940     4.6480     5.2210    23.7720     2.3400 
  106.7500   -10.7580   106.6900     5.1000     4.3600     4.9720    23.8300     2.3440 
  106.8750   -10.2350   105.3820     4.9490     4.1830     4.7060    23.7820     2.3290 
  107.0000    -9.8220    99.2810     4.9270     4.1160     4.6390    23.6970     2.3060 
  107.1250    -9.5310    95.5090     5.0050     4.1450     4.6850    23.5770     2.2860 
  107.2500    -9.4100    96.8530     5.1540     4.2580     4.7140    23.3940     2.2790 
  107.3750    -9.4380    97.3510     5.3240     4.4150     4.8100    23.2360     2.2870 
  107.5000    -9.5710    93.1120     5.4850     4.5860     5.0320    23.0340     2.3040 
  107.6250    -9.7960    85.1100     5.6210     4.7440     5.0370    22.8320     2.3160 
  107.7500   -10.0900    78.3970     5.7680     4.8940     5.0060    22.6180     2.3180 
  107.8750   -10.4170    73.5130     6.0060     5.0900     4.9320    22.2940     2.3200 
  108.0000   -10.7350    67.0700     6.3990     5.3870     5.2320    21.9110     2.3250 
  108.1250   -11.0130    60.8720     6.9420     5.7960     5.8560    21.8230     2.3300 
  108.2500   -11.2090    62.5120     7.5210     6.2530     6.8460    22.0100     2.3380 
  108.3750   -11.3230    68.4150     7.9300     6.6100     8.3540    22.4080     2.3540 
  108.5000   -11.3630    70.7790     8.0160     6.7420     9.6130    22.8110     2.3710 
  108.6250   -11.3390    68.5340     7.7530     6.6100     9.3930    23.0190     2.3720 
  108.7500   -11.2530    69.1130     7.3060     6.2960     7.2000    23.0000     2.3510 
  108.8750   -11.1300    72.1730     7.0250     6.0370     6.1130    22.8840     2.3440 
  109.0000   -10.9840    72.3240     7.1640     6.0190     6.0000    22.8870     2.3690 
  109.1250   -10.8600    68.7340     7.8380     6.3620     6.4300    23.1540     2.4110 
  109.2500   -10.7670    64.2510     8.9720     7.1030     6.6630    23.4310     2.4460 
  109.3750   -10.7050    61.5560    10.0530     7.9300     8.0110    23.5300     2.4830 
  109.5000   -10.6940    60.8360    10.5220     8.4170    12.0040    23.5150     2.5300 
  109.6250   -10.7280    63.3600     9.9770     8.1760    18.8840    23.4670     2.5580 
  109.7500   -10.8160    69.7210     8.4590     7.1360    15.6050    23.3340     2.5190 
  109.8750   -10.9640    75.5630     6.8040     5.9000     8.6080    23.2010     2.4460 
