~V
VERS. 2.00: Ver 2.00
~W
STRT.M 57.0000:
STOP.M 272.0000:
STEP.M 0.1250:
NULL. -999.2500:
UWI. F11045:
~C
DEPT.M :
DEN.GM/CC :
GR.API :
RML.OHMM :
RI. :
RXO.OHMM :
CALI.CM :
SP.MV :
~A
# ...
  147.0000     2.3460    96.1280     4.9190     3.7590     4.8260    24.2150     4.0120 
  147.1250     2.3500    92.5710     4.9570     3.7970     5.0050    24.1610     4.5370 
  147.2500     2.3520    93.6540     4.9700     3.8470     5.1440    24.1370     4.8920 
  147.3750     2.3530    95.7710     4.9510     3.8930     5.2110    24.1200     5.0860 
  147.5000     2.3550    96.0930     4.9170     3.9230     5.3660    24.0460     5.0950 
  147.6250     2.3580    95.0160     4.8870     3.9250     5.4890    23.8810     5.0400 
  147.7500     2.3600    94.4070     4.8650     3.9030     5.5560    23.7790     5.0080 
  147.8750     2.3610    92.0480     4.8480     3.8600     5.5450    23.7950     5.0340 
  148.0000     2.3620    87.4680     4.8310     3.8050     5.4180    23.8490     5.0790 
  148.1250     2.3610    86.7390     4.8220     3.7510     5.2320    23.8590     5.1470 
  148.2500     2.3570    91.4020     4.8410     3.7150     5.1100    23.8300     5.1940 
  148.3750     2.3500    98.4090     4.9040     3.7080     5.0790    23.7840     5.1990 
  148.5000     2.3430   102.8340     5.0090     3.7390     5.1510    23.7600     5.1980 
  148.6250     2.3420   100.7980     5.1470     3.8150     5.3150    23.8280     5.1610 
  148.7500     2.3480    94.2640     5.2990     3.9080     5.5010    24.0080     5.1170 
  148.8750     2.3560    89.3130     5.4420     3.9890     5.5720    24.2130     5.0690 
  149.0000     2.3640    90.3800     5.5500     4.0370     5.5500    24.3150     5.0540 
  149.1250     2.3700    95.7040     5.5840     4.0330     5.4600    24.2570     5.0020 
  149.2500     2.3730    98.9850     5.5530     3.9920     5.3910    24.0260     4.9760 
  149.3750     2.3740    98.5650     5.4820     3.9250     5.3280    23.6780     5.0010 
  149.5000     2.3730    95.4060     5.4010     3.8430     5.2550    23.4420     5.0570 
  149.6250     2.3730    92.8020     5.3200     3.7510     5.1830    23.5550     5.1130 
  149.7500     2.3700    95.4760     5.2170     3.6610     5.0930    23.8490     5.1040 
  149.8750     2.3610   101.1730     5.0710     3.5860     5.0320    24.1530     5.0590 
  150.0000     2.3510   102.3810     4.9080     3.5300     4.9850    24.3040     4.9990 
  150.1250     2.3490    98.9990     4.8010     3.4940     4.9940    24.3170     4.9510 
  150.2500     2.3550    99.2100     4.7720     3.4660     5.0290    24.2900     4.8960 
  150.3750     2.3680   101.0380     4.7920     3.4460     5.0680    24.2890     4.8510 
  150.5000     2.3830    97.0330     4.8120     3.4360     5.0390    24.2980     4.8310 
  150.6250     2.3960    90.5050     4.8030     3.4390     5.0150    24.2450     4.8070 
  150.7500     2.4020    89.8810     4.7880     3.4530     5.0050    24.1460     4.7740 
  150.8750     2.4030    92.9320     4.7960     3.4740     4.9580    24.0700     4.6950 
  151.0000     2.3990    94.0660     4.8320     3.5020     4.8600    24.0520     4.5590 
  151.1250     2.3950    95.0560     4.8800     3.5400     4.7900    24.0320     4.4040 
  151.2500     2.3900    98.4080     4.9170     3.5880     4.8260    24.0070     4.2430 
  151.3750     2.3810    99.9010     4.9520     3.6310     4.8570    23.9980     4.0590 
  151.5000     2.3690    97.3310     4.9880     3.6540     4.8470    24.0040     3.8600 
  151.6250     2.3600    95.9140     5.0030     3.6470     4.8510    24.0020     3.7290 
  151.7500     2.3580    97.9740     4.9710     3.6300     4.9740    23.9980     3.6630 
  151.8750     2.3610    97.9170     4.8880     3.6320     5.2330    24.0070     3.6420 
  152.0000     2.3610    93.3660     4.8060     3.6840     5.4870    24.0430     3.6060 
  152.1250     2.3530    91.4450     4.8560     3.8340     5.5170    24.0490     3.5700 
  152.2500     2.3440    94.5710     5.1060     4.0800     5.4990    24.0330     3.5430 
  152.3750     2.3380    96.8320     5.5440     4.4040     5.6250    24.0330     3.5030 
  152.5000     2.3410    92.7550     6.0750     4.7650     6.0640    24.0870     3.4500 
  152.6250     2.3570    86.6910     6.5040     5.0820     6.9630    24.0950     3.4190 
  152.7500     2.3760    83.3120     6.6840     5.2660     7.9440    24.0320     3.4030 
  152.8750     2.3810    81.9900     6.5840     5.2560     7.5270    23.9320     3.3870 
  153.0000     2.3650    81.4980     6.3110     5.0780     6.5290    23.8550     3.3920 
  153.1250     2.3450    84.8630     6.0970     4.8620     5.8700    23.7000     3.3960 
  153.2500     2.3370    90.4180     6.1300     4.7810     5.4270    23.5200     3.3840 
  153.3750     2.3400    91.5620     6.5080     4.9490     5.5100    23.5090     3.3820 
  153.5000     2.3440    86.7160     7.2490     5.4190     6.5040    23.7270     3.3770 
  153.6250     2.3430    82.2840     8.3000     6.1910    10.0920    24.0240     3.2980 
  153.7500     2.3340    80.7200     9.4350     7.0970    13.1810    24.1800     3.1580 
  153.8750     2.3190    80.4580    10.5380     8.0320    13.3090    24.1840     3.0460 
  154.0000     2.3050    80.4900    11.6440     8.9830    12.3840    24.1610     2.9890 
  154.1250     2.3060    80.8860    13.0820    10.1450    12.3200    24.1360     2.9740 
  154.2500     2.3190    77.7670    15.2030    11.7990    13.7670    24.1000     2.9630 
  154.3750     2.3280    71.4120    18.2590    14.2250    17.9310    24.1120     2.9330 
  154.5000     2.3150    67.5080    22.2080    17.5440    23.5050    24.1710     2.8450 
  154.6250     2.2780    68.9170    26.4000    21.4570    29.0340    24.2550     2.7100 
  154.7500     2.2430    70.5430    29.5430    24.8340    33.0520    24.2720     2.6110 
  154.8750     2.2240    69.7280    30.7670    26.7040    33.9540    24.2790     2.5040 
  155.0000     2.2200    69.5860    30.2330    26.9100    31.1370    24.2790     2.3900 
  155.1250     2.2250    72.2800    29.0650    26.1840    27.8600    24.2260     2.2500 
  155.2500     2.2320    73.1340    28.4130    25.5880    24.7650    24.1860     2.1050 
  155.3750     2.2370    71.5660    28.5360    25.4660    25.1020    24.2180     1.9860 
  155.5000     2.2390    69.1290    29.2080    25.7850    28.2450    24.2660     1.9230 
  155.6250     2.2380    65.9720    29.7760    26.1830    32.8720    24.2750     1.8820 
  155.7500     2.2400    64.2850    29.6440    26.1960    32.8620    24.2510     1.7960 
  155.8750     2.2460    65.3660    28.7320    25.6820    29.0390    24.2240     1.6640 
  156.0000     2.2530    68.2580    27.4310    24.8460    26.0590    24.2580     1.4740 
  156.1250     2.2590    68.3580    26.3480    24.0660    25.3180    24.2810     1.2810 
  156.2500     2.2650    66.8810    25.7960    23.6120    26.4670    24.2910     1.1150 
  156.3750     2.2700    66.3820    25.9200    23.6540    27.0920    24.2930     0.9360 
  156.5000     2.2740    67.6810    26.8730    24.3760    27.7480    24.3100     0.7570 
  156.6250     2.2820    70.3390    29.0590    26.1580    27.2500    24.3010     0.6280 
  156.7500     2.2950    71.8480    35.2290    28.9790    26.8100    24.2630     0.5110 
  156.8750     2.3100    70.2810    42.5370    32.5610    29.5480    24.2380     0.3250 
  157.0000     2.3170    66.4540    46.5670    35.9000    42.9910    24.2830     0.1120 
  157.1250     2.3110    62.3430    46.9290    36.8830    53.9060    24.2970    -0.1490 
  157.2500     2.3030    60.0770    43.4790    35.0970    45.7800    24.3000    -0.4510 
  157.3750     2.3000    59.2030    38.2390    31.7210    29.8490    24.3350    -0.7570 
  157.5000     2.2980    60.2190    33.8170    28.5380    20.9080    24.3930    -1.0440 
  157.6250     2.2850    64.5680    32.0980    27.0010    20.3990    24.4150    -1.3000 
  157.7500     2.2630    67.7960    32.5610    27.0460    24.9970    24.4250    -1.4920 
  157.8750     2.2460    67.6740    34.1100    28.1220    34.0400    24.4110    -1.5690 
  158.0000     2.2420    66.5080    35.2120    29.2150    42.6660    24.3680    -1.5910 
  158.1250     2.2510    69.3410    34.2920    29.0150    37.6310    24.2960    -1.6150 
