~V
VERS. 2.00: Ver 2.00
~W
STRT.M 50.0000:
STOP.M 283.0000:
STEP.M 0.1250:
NULL. -999.2500:
UWI. F11058:
~C
DEPT.M :
DEN.GM/CC :
GR.API :
RML.OHMM :
RI. :
RXO.OHMM :
CALI.CM :
SP.MV :
~A
# ...
  196.2500     2.1900    63.3000   284.4660   254.2360   260.0760    24.8340   -30.2510 
  196.3750     2.1950    59.9450   273.8050   249.7330   266.4300    24.7550   -30.6180 
  196.5000     2.2080    56.8050   250.5260   230.4280   249.4890    24.6770   -30.8610 
  196.6250     2.2250    56.7780   225.0520   206.3390   208.0560    24.6380   -30.9430 
  196.7500     2.2360    56.4680   207.1190   188.5120   161.6630    24.6010   -31.0650 
  196.8750     2.2390    56.5610   200.2990   181.2780   124.5110    24.5540   -31.1050 
  197.0000     2.2350    59.2050   204.3860   185.2710   107.1660    24.4830   -30.9530 
  197.1250     2.2280    62.8510   217.1390   199.5530   125.8260    24.3230   -30.8950 
  197.2500     2.2220    63.9590   231.3690   217.3400   199.0800    24.1350   -30.8790 
  197.3750     2.2200    63.7310   241.0150   231.9530   238.0960    24.1440   -30.8230 
  197.5000     2.2190    63.4980   241.7230   237.4730   213.1920    24.3680   -30.8550 
  197.6250     2.2210    61.2590   231.7000   230.6050   208.2850    24.6110   -30.8850 
  197.7500     2.2260    57.9390   216.1510   216.8250   197.2710    24.8330   -30.9250 
  197.8750     2.2330    56.4010   198.9980   200.3770   184.7040    24.9100   -31.1110 
  198.0000     2.2400    58.2300   183.0120   184.0460   174.1120    24.8530   -31.3310 
  198.1250     2.2440    61.3510   170.5840   169.9670   151.3230    24.7550   -31.3920 
  198.2500     2.2420    62.0350   162.8150   159.6430   129.3910    24.7160   -31.4650 
  198.3750     2.2340    60.0460   161.2830   155.0090   115.7610    24.7120   -31.4650 
  198.5000     2.2230    58.3260   167.6540   158.0590   110.1620    24.7080   -31.3370 
  198.6250     2.2100    60.2650   185.4470   172.5550   114.4130    24.6980   -31.3660 
  198.7500     2.1960    62.1970   214.7390   198.5120   134.7750    24.6940   -31.3740 
  198.8750     2.1860    60.6830   256.3050   236.4720   183.1110    24.7060   -31.1660 
  199.0000     2.1790    57.7280   309.2540   285.3020   253.5080    24.7150   -30.9890 
  199.1250     2.1780    56.2280   370.5780   341.8580   302.2550    24.7130   -31.0460 
  199.2500     2.1800    54.4840   432.1080   398.8880   336.7290    24.7010   -31.0010 
  199.3750     2.1830    52.4640   485.5960   451.1860   374.4020    24.6750   -30.9160 
  199.5000     2.1860    52.9810   519.1890   492.4050   406.2890    24.6620   -30.9340 
  199.6250     2.1870    55.1920   510.2370   502.7130   453.8530    24.6680   -30.8460 
  199.7500     2.1860    55.7980   457.5170   468.5900   496.7330    24.6210   -30.6140 
  199.8750     2.1860    55.4520   373.2540   393.1980   557.6070    24.4400   -30.5420 
  200.0000     2.1920    56.8370   281.4720   301.2840   499.1280    24.1880   -30.3970 
  200.1250     2.2070    61.0900   206.9020   221.9360   255.2690    24.0690   -29.9030 
  200.2500     2.2300    64.8490   153.7440   163.2830   126.3750    24.0860   -29.5090 
  200.3750     2.2550    66.7190   118.7580   123.5810    81.6230    24.2820   -29.1570 
  200.5000     2.2790    66.7000    97.4140    98.5990    77.4950    24.6530   -28.6210 
  200.6250     2.2960    64.6990    87.7870    86.1530    74.5850    24.8870   -28.1170 
  200.7500     2.3030    62.9940    86.3460    82.4410    59.6520    24.9610   -27.6690 
  200.8750     2.2990    63.6520    92.5720    87.0820    53.7570    24.9580   -27.1560 
  201.0000     2.2860    64.7900   106.4340   100.2250    72.0660    24.9670   -26.8080 
  201.1250     2.2690    62.5130   128.4620   122.5680   131.6240    24.9740   -26.5820 
  201.2500     2.2550    58.5610   154.3230   149.4160   195.7210    24.9780   -26.3410 
  201.3750     2.2470    55.4830   178.2750   174.2830   209.7380    24.9620   -26.2880 
  201.5000     2.2440    53.2350   194.0820   189.6960   180.4550    24.8810   -26.3690 
  201.6250     2.2450    52.4910   197.0820   190.7140   163.3090    24.7180   -26.3030 
  201.7500     2.2440    54.7500   191.8470   183.8190   148.1130    24.6470   -26.3110 
  201.8750     2.2410    57.3590   182.4010   173.7750   144.8800    24.7740   -26.3960 
  202.0000     2.2350    56.9140   171.0640   162.4680   148.5770    24.9480   -26.3930 
  202.1250     2.2300    55.5500   158.1720   149.6360   160.3310    25.0000   -26.4370 
  202.2500     2.2290    55.7130   144.5450   135.7630   166.2790    24.9900   -26.4510 
  202.3750     2.2330    56.3910   131.7520   122.2880   148.0840    24.9800   -26.2860 
  202.5000     2.2430    57.8370   121.8970   111.5020   123.5640    24.9720   -26.0330 
  202.6250     2.2560    60.7020   117.5500   106.6800   112.5430    24.9630   -25.9060 
  202.7500     2.2670    62.3980   117.9580   107.5780   128.9900    24.9720   -25.7550 
  202.8750     2.2690    60.7780   121.0490   112.3640   113.7880    25.0160   -25.3890 
  203.0000     2.2610    56.4300   122.9080   117.2590   122.3260    25.0750   -24.9650 
  203.1250     2.2490    53.4400   117.3220   115.4830   194.0220    25.1620   -24.5450 
  203.2500     2.2520    52.5410   102.8560   103.5030   225.1670    25.2290   -24.0070 
  203.3750     2.2830    53.7030    81.7090    82.3850   144.7410    25.2060   -23.4270 
  203.5000     2.3460    57.4810    58.8660    58.1340    77.1540    25.0720   -22.7980 
  203.6250     2.4260    60.9050    39.9990    38.2710    54.6200    24.9320   -21.9180 
  203.7500     2.4920    60.7980    26.5600    24.5190    32.7930    24.7910   -20.9890 
  203.8750     2.5250    59.2300    18.0210    15.9820    15.0190    24.7250   -20.2240 
  204.0000     2.5240    60.8150    12.8490    11.0990     8.6220    24.7360   -19.5150 
  204.1250     2.4990    65.4640     9.8320     8.7360     7.1080    24.6700   -18.8370 
  204.2500     2.4720    68.1470     8.1220     7.6280     7.0590    24.6300   -18.2450 
  204.3750     2.4530    67.7650     7.6880     7.3820     7.3210    24.7060   -17.7350 
  204.5000     2.4480    65.9210     8.2120     7.7600     7.8840    24.8810   -17.4330 
  204.6250     2.4640    63.1540     9.0920     8.6150     7.8490    24.9700   -17.4350 
  204.7500     2.4980    60.4570     9.9180     9.6340     8.1810    24.9720   -17.4820 
  204.8750     2.5350    58.8080    10.5380    10.5580     9.6460    24.9410   -17.5290 
  205.0000     2.5520    58.5410    10.7870    11.1190    12.1470    24.8980   -17.6710 
  205.1250     2.5270    59.0360    10.5670    11.0750    14.4950    24.8700   -17.8590 
  205.2500     2.4810    59.2760    10.1010    10.6360    13.8130    24.9020   -18.1050 
  205.3750     2.4480    59.6410     9.6300    10.0810    10.7770    24.9430   -18.4830 
  205.5000     2.4550    60.0280     9.3710     9.6680     8.4660    24.9470   -18.9590 
  205.6250     2.5120    59.0020     9.4750     9.5710     9.3040    24.8970   -19.4540 
  205.7500     2.5810    58.0600     9.8030     9.7040    12.3960    24.7900   -20.0120 
  205.8750     2.6300    58.5500    10.1660     9.9090    15.3530    24.7250   -20.6300 
  206.0000     2.6390    60.4370    10.3590     9.9780    15.3370    24.7110   -21.1200 
  206.1250     2.6050    61.3780    10.2110     9.7030    15.0370    24.7620   -21.3850 
  206.2500     2.5490    60.7720     9.8150     9.1620    13.5050    24.8180   -21.4830 
  206.3750     2.4850    58.9950     9.3130     8.5110    12.2500    24.7930   -21.3380 
  206.5000     2.4270    56.9320     8.8620     7.9160     9.8670    24.5980   -20.9790 
  206.6250     2.3880    56.6510     8.5930     7.5130     7.9560    24.5750   -20.5610 
  206.7500     2.3710    57.1150     8.5020     7.3000     7.0430    24.6360   -20.0520 
  206.8750     2.3720    56.4260     8.5500     7.2400     6.8290    24.7560   -19.3960 
  207.0000     2.3820    54.3820     8.6710     7.2620     6.8550    24.8130   -18.8130 
  207.1250     2.3930    54.9600     8.7960     7.2930     7.1170    24.7790   -18.3700 
  207.2500     2.4020    58.3440     8.9000     7.3080     7.1580    24.6610   -18.0530 
  207.3750     2.4130    63.4320     9.0210     7.3390     6.9860    24.4060   -17.9410 
