~V
VERS. 2.00: Ver 2.00
~W
STRT.M 52.0000:
STOP.M 269.0000:
STEP.M 0.1250:
NULL. -999.2500:
UWI. F11071:
~C
DEPT.M :
GR.API :
RML.OHMM :
RI. :
RXO.OHMM :
CALI.CM :
DEN.GM/CC :
SP.MV :
~A
# ...
  142.0000    69.3080    12.2900    10.2150    10.1540    25.3040     2.1540   -10.2530 
  142.1250    68.6120    12.1940    10.1740    10.1510    25.3250     2.1710   -10.2940 
  142.2500    70.4850    12.0950    10.1430    10.1040    25.3530     2.1970   -10.2950 
  142.3750    74.0610    11.9690    10.0990     9.9780    25.3300     2.2220   -10.2420 
  142.5000    75.6920    11.8040    10.0200    10.0850    25.3020     2.2350   -10.1670 
  142.6250    73.4450    11.6070     9.8990    10.2410    25.3470     2.2250   -10.1210 
  142.7500    70.3040    11.4160     9.7710    10.2140    25.4650     2.2000   -10.1150 
  142.8750    69.0510    11.2760     9.6780    10.0880    25.5830     2.1720   -10.1230 
  143.0000    69.4770    11.2320     9.6710    10.3540    25.6620     2.1490   -10.1000 
  143.1250    70.3920    11.3400     9.8230    10.3600    25.6980     2.1360    -9.9980 
  143.2500    70.2850    11.5500    10.1220    10.1860    25.6990     2.1270    -9.8470 
  143.3750    67.5600    11.7690    10.5010    10.3130    25.6690     2.1180    -9.6770 
  143.5000    63.2230    11.8410    10.8030    11.1170    25.6270     2.1160    -9.4780 
  143.6250    63.0220    11.5160    10.7180    11.9590    25.5910     2.1320    -9.2230 
  143.7500    67.6120    10.7450    10.1220    12.1560    25.4700     2.1700    -8.9040 
  143.8750    74.0100     9.5930     9.0540    11.8660    25.2280     2.2260    -8.5210 
  144.0000    80.5470     8.2580     7.7360     9.9440    25.1050     2.2850    -8.1100 
  144.1250    86.9060     7.0480     6.4920     7.0200    25.1010     2.3280    -7.7580 
  144.2500    91.8950     6.1710     5.5340     5.2550    25.1240     2.3440    -7.4880 
  144.3750    95.1960     5.7170     4.9370     4.5220    25.1090     2.3310    -7.3180 
  144.5000    96.8710     5.6870     4.7100     4.2330    25.0510     2.2990    -7.2680 
  144.6250    94.5000     6.0860     4.8840     4.7100    24.9420     2.2620    -7.3060 
  144.7500    88.4130     6.7650     5.3530     5.8670    24.9040     2.2370    -7.3750 
  144.8750    83.1110     7.6390     6.0610     6.9680    24.9200     2.2280    -7.4480 
  145.0000    81.1580     8.6100     6.9390     7.6620    24.9380     2.2290    -7.5610 
  145.1250    79.1630     9.5600     7.9010     8.6730    24.9460     2.2270    -7.7460 
  145.2500    74.1780    10.3880     8.8160    10.5310    24.9990     2.2100    -7.9760 
  145.3750    69.0490    11.0170     9.5790    13.0000    25.1510     2.1790    -8.1840 
  145.5000    66.4290    11.4020    10.1000    15.9170    25.3640     2.1430    -8.3180 
  145.6250    65.3860    11.5050    10.2800    15.0520    25.5460     2.1160    -8.4540 
  145.7500    63.8490    11.4340    10.2070    12.5750    25.6680     2.1020    -8.6470 
  145.8750    62.5500    11.2890     9.9900    11.2860    25.7380     2.1010    -8.9370 
  146.0000    62.6780    11.1710     9.7550    10.9110    25.7610     2.1090    -9.2520 
  146.1250    63.6970    11.1670     9.6140    10.9950    25.7680     2.1240    -9.4790 
  146.2500    65.2080    11.2670     9.5880    10.8770    25.7440     2.1420    -9.6150 
  146.3750    66.1910    11.4230     9.6510    10.6280    25.7000     2.1600    -9.7190 
  146.5000    66.1060    11.5640     9.7450    10.5530    25.6700     2.1700    -9.8560 
  146.6250    65.6220    11.6150     9.7920    10.8720    25.6590     2.1650    -9.9980 
  146.7500    64.5510    11.5940     9.7700    11.1220    25.6440     2.1470   -10.1120 
  146.8750    63.4660    11.5830     9.7300    10.8970    25.6180     2.1300   -10.1860 
  147.0000    64.7180    11.6950     9.7760    10.4360    25.5930     2.1390   -10.2400 
  147.1250    67.8210    12.0500    10.0400    10.0060    25.5640     2.1930   -10.3180 
  147.2500    68.6200    12.5790    10.4980    10.5820    25.5130     2.2690   -10.4480 
  147.3750    66.5640    13.1390    11.0460    13.8670    25.4380     2.3290   -10.6190 
  147.5000    64.8410    13.5400    11.5080    22.4440    25.3760     2.3390   -10.8020 
  147.6250    63.4980    13.5730    11.6320    24.8780    25.3770     2.2910   -10.9480 
  147.7500    61.3790    13.2930    11.4060    17.0600    25.4630     2.2210   -11.0580 
  147.8750    60.4430    12.8400    10.9400    11.9220    25.5210     2.1620   -11.1270 
  148.0000    62.7750    12.3900    10.4030    10.3840    25.5330     2.1270   -11.1560 
  148.1250    66.4530    12.0950     9.9600    10.2760    25.5230     2.1160   -11.1740 
  148.2500    68.6040    11.9460     9.6670    10.1750    25.4960     2.1120   -11.1620 
  148.3750    70.4750    11.8990     9.5260    10.3050    25.4260     2.1140   -11.1130 
  148.5000    73.1890    11.9360     9.5210    10.4260    25.3570     2.1230   -11.0160 
  148.6250    73.7350    12.1290     9.6930    10.4030    25.3420     2.1510   -10.8830 
  148.7500    72.7860    12.5350    10.0580    10.4730    25.3660     2.1950   -10.7410 
  148.8750    73.3360    13.1810    10.6330    10.8010    25.3120     2.2490   -10.6310 
  149.0000    75.1260    14.0240    11.3990    11.8710    25.1230     2.3010   -10.5820 
  149.1250    76.3920    14.9410    12.2930    13.2220    24.8760     2.3400   -10.5070 
  149.2500    77.8710    15.7470    13.1610    14.8610    24.7710     2.3610   -10.3690 
  149.3750    78.5490    16.3180    13.8610    14.9990    24.7620     2.3660   -10.2160 
  149.5000    78.0710    16.6220    14.2960    14.9710    24.8140     2.3590   -10.0630 
  149.6250    78.2260    16.7590    14.4660    15.8770    24.9520     2.3460    -9.9290 
  149.7500    77.5560    16.9460    14.6030    16.6440    25.1430     2.3380    -9.8010 
  149.8750    75.1580    17.2260    14.8690    16.2200    25.2720     2.3470    -9.6450 
  150.0000    73.5920    17.4020    15.2180    15.1270    25.2550     2.3740    -9.4470 
  150.1250    75.0720    16.9350    15.1810    16.4240    25.2130     2.4080    -9.2620 
  150.2500    74.8420    15.5970    14.3310    20.9030    25.1920     2.4300    -9.1540 
  150.3750    73.9190    13.5010    12.6260    23.3300    25.1800     2.4290    -9.1100 
  150.5000    76.9650    11.1050    10.4740    16.6910    25.1610     2.4050    -9.1420 
  150.6250    81.9140     9.0440     8.4970     8.3200    25.1680     2.3690    -9.2470 
  150.7500    85.6400     7.5860     7.0020     6.1030    25.1590     2.3360    -9.3740 
  150.8750    87.4960     6.7300     6.0240     6.2520    25.1020     2.3090    -9.4410 
  151.0000    89.5130     6.3590     5.4970     6.1460    25.0250     2.2880    -9.3370 
  151.1250    94.2660     6.3680     5.3750     5.6820    24.9240     2.2690    -8.9940 
  151.2500    99.4900     6.5540     5.4840     5.5030    24.8080     2.2530    -8.4700 
  151.3750   101.4330     6.8090     5.7290     5.8190    24.6850     2.2420    -7.7820 
  151.5000    98.2770     7.0440     6.0270     6.2590    24.5960     2.2360    -6.9750 
  151.6250    93.9400     7.1760     6.2940     6.2110    24.5050     2.2390    -6.0790 
  151.7500    91.3010     7.1950     6.4730     5.8430    24.4030     2.2530    -5.1350 
  151.8750    91.6690     7.1240     6.5480     5.5600    24.3250     2.2800    -4.2220 
  152.0000    96.4660     7.0110     6.5490     5.0960    24.3000     2.3160    -3.4590 
  152.1250   100.2840     6.9040     6.5300     4.6920    24.3500     2.3470    -2.9410 
  152.2500    98.2720     6.8160     6.5250     5.0080    24.4980     2.3570    -2.5870 
  152.3750    93.6450     6.7300     6.5140     6.2580    24.7300     2.3440    -2.3430 
  152.5000    91.7660     6.6240     6.4480     6.8350    24.9730     2.3170    -2.1840 
  152.6250    93.0150     6.4830     6.2700     6.1930    25.1040     2.2900    -2.1320 
  152.7500    92.0150     6.3230     6.0180     5.5950    25.1620     2.2740    -2.1620 
  152.8750    90.3340     6.1690     5.7490     5.2130    25.1870     2.2710    -2.2070 
  153.0000    90.8620     6.0490     5.5260     5.0600    25.1910     2.2770    -2.2080 
  153.1250    93.4230     5.9900     5.3920     5.1530    25.1760     2.2890    -2.1370 
