~V
VERS. 2.00: Ver 2.00
~W
STRT.M 62.0000:
STOP.M 236.0000:
STEP.M 0.1250:
NULL. -999.2500:
UWI. F11006:
~C
DEPT.M :
GR.API :
RML.OHMM :
RI. :
RXO.OHMM :
CALI.CM :
SP.MV :
DEN.GM/CC :
~A
# ...
  219.5000    81.6700    11.3230     9.8660     8.6710    24.1980    -7.6820     2.4110 
  219.6250    83.7130    11.6720    10.2600    10.2240    24.2170    -7.6210     2.4310 
  219.7500    86.0900    11.9470    10.5860    11.7700    24.1900    -7.5980     2.4510 
  219.8750    86.4930    12.1340    10.8190    12.9130    24.1950    -7.5950     2.4680 
  220.0000    84.2040    12.2480    10.9690    13.4770    24.2380    -7.6080     2.4830 
  220.1250    81.0340    12.2820    11.0410    13.7080    24.2810    -7.6110     2.4980 
  220.2500    81.2300    12.2270    11.0340    13.5890    24.2950    -7.6170     2.5120 
  220.3750    87.4290    12.0610    10.9400    12.6640    24.2850    -7.6050     2.5280 
  220.5000    93.1710    11.8200    10.7870    11.4700    24.2720    -7.5790     2.5420 
  220.6250    93.2520    11.5520    10.6070    10.3330    24.2190    -7.5440     2.5510 
  220.7500    88.5380    11.3170    10.4460     9.7570    24.1190    -7.4570     2.5490 
  220.8750    84.8640    11.1960    10.3700    10.2840    24.1300    -7.3030     2.5300 
  221.0000    83.0730    11.1960    10.3990    10.9220    24.2430    -7.1370     2.4980 
  221.1250    82.4620    11.2870    10.5180    11.2540    24.3000    -6.9650     2.4600 
  221.2500    84.1310    11.3930    10.6750    11.5530    24.2750    -6.8230     2.4290 
  221.3750    87.1530    11.3870    10.7580    11.4310    24.1650    -6.7330     2.4170 
  221.5000    88.5490    11.2070    10.6790    10.4940    24.0670    -6.7490     2.4220 
  221.6250    88.2330    10.8580    10.4090     9.1000    24.0300    -6.7990     2.4380 
  221.7500    87.5610    10.4120     9.9860     8.2530    24.0620    -6.8800     2.4520 
  221.8750    85.8160    10.0020     9.5190     7.6270    24.1010    -6.9990     2.4530 
  222.0000    85.4450     9.7410     9.1460     7.4490    24.0940    -7.1140     2.4410 
  222.1250    87.7920     9.6930     8.9600     7.8870    24.1270    -7.2490     2.4220 
  222.2500    90.3610     9.8920     9.0160     9.4160    24.1620    -7.3740     2.4060 
  222.3750    88.5470    10.3910     9.3820    11.3190    24.2340    -7.4330     2.3940 
  222.5000    84.1670    11.1320    10.0040    13.2260    24.2580    -7.4320     2.3860 
  222.6250    81.5940    12.0690    10.8450    15.1110    24.2460    -7.3960     2.3780 
  222.7500    83.3910    13.1250    11.8460    16.4220    24.1560    -7.3350     2.3750 
  222.8750    87.3620    14.1880    12.9210    17.8280    24.0040    -7.2330     2.3900 
  223.0000    89.8760    15.1450    13.9400    18.8650    23.9050    -7.1300     2.4290 
  223.1250    89.5830    15.9210    14.7980    18.6070    23.8860    -7.1000     2.4880 
  223.2500    87.9480    16.4660    15.4230    18.6490    23.8630    -7.1240     2.5500 
  223.3750    86.5590    16.7220    15.7470    19.3460    23.8870    -7.1620     2.5860 
  223.5000    86.3090    16.7450    15.8450    20.3030    23.8100    -7.1500     2.5860 
  223.6250    86.8520    16.5690    15.7600    20.0810    23.7580    -7.1180     2.5570 
  223.7500    87.2080    16.2410    15.5320    20.0220    23.9190    -7.1240     2.5190 
  223.8750    87.6180    15.8120    15.1870    19.1240    24.0990    -7.2040     2.4960 
  224.0000    87.8750    15.3770    14.8050    18.0750    24.1770    -7.2650     2.4940 
  224.1250    87.0850    15.0090    14.4590    16.5420    24.1550    -7.2630     2.5070 
  224.2500    86.1490    14.7610    14.2230    16.3290    24.0550    -7.1880     2.5210 
  224.3750    86.8410    14.6540    14.1570    17.5600    23.9710    -7.1190     2.5280 
  224.5000    89.3990    14.5880    14.1860    20.6060    23.9100    -7.0820     2.5320 
  224.6250    92.3150    14.4420    14.1870    20.3720    23.9280    -7.0070     2.5390 
  224.7500    93.0120    14.1090    14.0200    18.1950    23.9960    -6.9000     2.5500 
  224.8750    90.9420    13.5270    13.5660    16.4760    24.0750    -6.7780     2.5560 
  225.0000    89.8610    12.8460    12.9370    15.6280    24.1250    -6.6720     2.5530 
  225.1250    89.8610    12.2480    12.3070    14.3590    24.1440    -6.5420     2.5410 
  225.2500    89.8610    11.9220    11.8720    13.1090    24.1480    -6.4570     2.5320 
  225.3750    89.8610    12.0660    11.8490    14.1670    24.1560    -6.3900     2.5340 
  225.5000    89.8610    12.6050    12.2320    17.3470    24.1830    -6.3360     2.5420 
  225.6250    89.8610    13.4020    12.9520    20.3520    24.1620    -6.3680     2.5450 
  225.7500    89.8610    14.2260    13.8320    22.6430    24.1250    -6.4510     2.5360 
  225.8750    89.8610    14.7550    14.5650    21.5370    24.1690    -6.4770     2.5120 
  226.0000    89.8610    14.8680    14.9310    18.7170    24.1580    -6.4960     2.4870 
  226.1250    89.8610    14.5960    14.8770    16.5280    24.0910    -6.5540     2.4730 
  226.2500    89.8610    14.0870    14.4970    15.4960    24.0400    -6.5920     2.4750 
  226.3750    89.8610    13.5380    13.9640    14.2320    24.0080    -6.6000     2.4920 
  226.5000    89.8610    13.0910    13.4640    14.1180    23.9980    -6.5980     2.5080 
  226.6250    89.8610    12.7950    13.0800    16.2400    24.0350    -6.5390     2.5180 
  226.7500    89.8610    12.6600    12.8500    16.6270    24.1190    -6.4190     2.5230 
  226.8750    89.8610    12.7120    12.8250    14.0980    24.1060    -6.3520     2.5270 
  227.0000    89.8610    12.9170    12.9810    11.6200    24.0620    -6.3200     2.5350 
  227.1250    89.8610    13.2530    13.3060    12.5970    24.0260    -6.2440     2.5450 
  227.2500    89.8610    13.6680    13.7580    17.5610    24.0400    -6.1820     2.5530 
  227.3750    89.8610    14.0520    14.2420    22.5490    24.0600    -6.1630     2.5560 
  227.5000    89.8610    14.2860    14.6130    21.8310    24.0220    -6.1630     2.5550 
  227.6250    89.8610    14.2920    14.7600    19.4380    23.9790    -6.1870     2.5540 
  227.7500    89.8610    14.0660    14.6380    16.9240    23.9530    -6.2520     2.5560 
  227.8750    89.8610    13.6790    14.2800    13.6740    23.9500    -6.2910     2.5690 
  228.0000    89.8610    13.2870    13.8520    10.4730    23.9450    -6.2970     2.5900 
  228.1250    89.8610    12.9760    13.4570     8.6970    23.9010    -6.3370     2.6050 
  228.2500    89.8610    12.7880    13.1630     9.1170    23.9530    -6.4000     2.5970 
  228.3750    89.8610    12.7540    13.0270    13.7560    24.0490    -6.4640     2.5570 
  228.5000    89.8610    12.8570    13.0460    21.7600    24.1230    -6.5380     2.5090 
  228.6250    89.8610    13.1100    13.2380    28.1380    24.0900    -6.6310     2.4750 
  228.7500    89.8610    13.5330    13.6250    32.8350    24.0310    -6.7270     2.4680 
  228.8750    89.8610    14.1720    14.2560    37.4660    23.9930    -6.8200     2.4820 
  229.0000    89.8610    14.9770    15.0870    48.3890    23.9890    -6.9030     2.4980 
  229.1250    89.8610    15.8900    16.0670    43.0070    23.9930    -6.9960     2.5090 
  229.2500    89.8610    16.8150    17.1070    29.0350    24.0160    -7.0280     2.5190 
  229.3750    89.8610    17.6150    18.0520    25.0180    24.0040    -7.0090     2.5340 
  229.5000    89.8610    18.2230    18.7920    24.6840    24.0030    -7.0090     2.5530 
  229.6250    89.8610    18.6230    19.2790    25.8870    24.0560    -6.9890     2.5740 
  229.7500    89.8610    18.8460    19.5380    27.1570    24.0710    -6.9640     2.5930 
  229.8750    89.8610    18.9340    19.6230    26.8310    24.0580    -6.9960     2.6040 
  230.0000    89.8610    18.9640    19.6440    26.4910    24.0180    -7.0630     2.6010 
  230.1250    89.8610    18.9680    19.6470    26.7160    24.0010    -7.1160     2.5840 
  230.2500    89.8610    18.9680    19.6500    26.9570    23.9770    -7.2270     2.5590 
  230.3750    89.8610    18.9770    19.6580    26.9880    23.9750    -7.4060     2.5370 
  230.5000    89.8610    18.9910    19.6670    29.8350    23.9830    -7.5530     2.5270 
  230.6250    89.8610    19.0020    19.6740    35.6040    23.9850    -7.6570     2.5290 
