~V
VERS. 2.00: Ver 2.00
~W
STRT.M 49.0000:
STOP.M 284.0000:
STEP.M 0.1250:
NULL. -999.2500:
UWI. F11034:
~C
DEPT.M :
GR.API :
RML.OHMM :
RI. :
RXO.OHMM :
CALI.CM :
DEN.GM/CC :
SP.MV :
~A
# ...
  139.0000    76.0310     8.2270     7.8320     9.5020    24.8580     2.3380    -9.8360 
  139.1250    83.9610     7.4330     7.0890     7.8290    24.8190     2.3020    -9.6010 
  139.2500    84.5900     6.9050     6.5250     7.1890    24.8080     2.2780    -9.4100 
  139.3750    81.7200     6.6340     6.1670     6.9320    24.8470     2.2690    -9.2960 
  139.5000    81.1050     6.5550     5.9930     6.7310    24.8470     2.2690    -9.2930 
  139.6250    82.6120     6.5680     5.9280     6.5560    24.7300     2.2740    -9.3510 
  139.7500    85.5140     6.6230     5.9280     6.4460    24.5680     2.2850    -9.4060 
  139.8750    87.1240     6.6950     5.9690     6.4810    24.5040     2.3020    -9.4430 
  140.0000    82.7480     6.7580     6.0340     6.7780    24.5070     2.3280    -9.5030 
  140.1250    76.5230     6.8150     6.1160     7.3370    24.4720     2.3510    -9.6130 
  140.2500    73.7140     6.9420     6.2590     7.9850    24.4390     2.3620    -9.7560 
  140.3750    74.4750     7.3070     6.5710     8.4450    24.5190     2.3520    -9.8910 
  140.5000    76.0610     8.2380     7.2910     9.1980    24.7280     2.3190   -10.0000 
  140.6250    77.3420     9.8940     8.5770    11.0610    24.9610     2.2760   -10.1070 
  140.7500    77.1250    12.2420    10.4910    14.6680    25.1970     2.2330   -10.2280 
  140.8750    73.4480    14.9560    12.8730    19.4790    25.4000     2.1960   -10.3480 
  141.0000    69.3710    17.2370    15.1550    23.1060    25.5230     2.1700   -10.4250 
  141.1250    69.1610    18.2840    16.5610    24.0840    25.5180     2.1520   -10.4220 
  141.2500    70.3320    17.6400    16.4830    22.3510    25.3260     2.1440   -10.3560 
  141.3750    69.7630    15.5250    14.8650    19.0810    24.9680     2.1490   -10.2660 
  141.5000    70.3100    12.7750    12.3970    15.3460    24.5920     2.1680   -10.1450 
  141.6250    75.2490    10.4590    10.0990    12.0680    24.3500     2.1990    -9.9630 
  141.7500    82.0080     9.1580     8.5020     9.7940    24.3160     2.2390    -9.7100 
  141.8750    84.5430     8.8450     7.7690     8.8490    24.4240     2.2850    -9.4160 
  142.0000    79.4830     9.6870     8.0310     9.5200    24.4660     2.3360    -9.1350 
  142.1250    70.8860    11.4670     9.1420    11.5260    24.3960     2.3920    -8.8910 
  142.2500    62.5240    13.8600    10.9350    14.5340    24.3380     2.4490    -8.6730 
  142.3750    55.6230    16.4390    13.1520    18.0330    24.3810     2.4970    -8.4640 
  142.5000    50.9200    18.6300    15.3600    20.8470    24.4940     2.5280    -8.2920 
  142.6250    48.7240    20.1130    17.1430    22.0590    24.6210     2.5450    -8.1750 
  142.7500    48.8200    20.8850    18.3160    22.2520    24.7100     2.5550    -8.1020 
  142.8750    48.5720    21.1930    18.9610    22.6160    24.7420     2.5660    -8.0470 
  143.0000    46.3320    21.3380    19.2780    23.7190    24.7240     2.5770    -7.9990 
  143.1250    44.1380    21.4700    19.4480    24.6230    24.6840     2.5850    -7.9870 
  143.2500    43.4740    21.5490    19.4930    24.6750    24.6620     2.5850    -8.0210 
  143.3750    43.9000    21.4920    19.3760    23.8170    24.7150     2.5780    -8.0730 
  143.5000    44.7250    21.2680    19.0870    22.8670    24.7790     2.5690    -8.0870 
  143.6250    45.4790    20.9840    18.7310    22.0840    24.8210     2.5630    -8.0760 
  143.7500    44.3970    20.7520    18.4210    21.5730    24.8530     2.5640    -8.0830 
  143.8750    41.8910    20.6450    18.2400    21.6920    24.8760     2.5680    -8.1380 
  144.0000    41.9550    20.6880    18.2340    21.8940    24.8870     2.5710    -8.2200 
  144.1250    45.7530    20.8240    18.3580    22.0150    24.8990     2.5690    -8.2710 
  144.2500    49.7390    20.9800    18.5470    21.9860    24.9230     2.5620    -8.2830 
  144.3750    49.9360    21.0780    18.7270    21.9340    24.9460     2.5550    -8.2970 
  144.5000    47.1650    20.9980    18.7860    21.8420    24.9560     2.5480    -8.3440 
  144.6250    46.2460    20.6850    18.6550    21.8830    24.9570     2.5450    -8.3910 
  144.7500    48.1790    20.1400    18.3150    21.8380    24.9550     2.5460    -8.3940 
  144.8750    50.6860    19.4360    17.8090    21.4550    24.9480     2.5480    -8.3410 
  145.0000    52.3950    18.7260    17.2480    20.5700    24.9270     2.5460    -8.2580 
  145.1250    54.8320    18.1640    16.7690    19.3270    24.8990     2.5420    -8.2030 
  145.2500    57.4400    17.8340    16.4580    18.4550    24.8610     2.5360    -8.1810 
  145.3750    58.5380    17.7280    16.3280    17.9670    24.7840     2.5300    -8.1540 
  145.5000    58.3060    17.7620    16.3320    17.6970    24.6650     2.5270    -8.1000 
  145.6250    58.0900    17.7790    16.3490    17.4470    24.5970     2.5240    -8.0500 
  145.7500    57.1340    17.6550    16.2720    17.0910    24.6410     2.5200    -8.0470 
  145.8750    54.7290    17.3260    16.0330    16.6250    24.7250     2.5150    -8.0910 
  146.0000    52.9720    16.7770    15.5960    16.3200    24.8020     2.5100    -8.1360 
  146.1250    53.8540    16.1120    15.0300    16.0140    24.8470     2.5050    -8.1550 
  146.2500    56.1370    15.4540    14.4320    15.3840    24.8600     2.5000    -8.1810 
  146.3750    56.5120    14.9260    13.9030    14.6080    24.8730     2.4930    -8.2260 
  146.5000    53.9580    14.6600    13.5630    14.0880    24.9070     2.4860    -8.2660 
  146.6250    51.9110    14.6760    13.4510    14.1530    24.9140     2.4800    -8.2890 
  146.7500    51.7090    14.9350    13.5630    14.9280    24.8910     2.4780    -8.2870 
  146.8750    51.4990    15.3550    13.8540    15.9830    24.8790     2.4800    -8.2880 
  147.0000    49.8470    15.8270    14.2540    16.8160    24.8730     2.4840    -8.3260 
  147.1250    48.5990    16.2600    14.6700    17.0600    24.8620     2.4880    -8.3730 
  147.2500    48.9430    16.6230    15.0480    17.1630    24.8530     2.4930    -8.3870 
  147.3750    49.8490    16.9230    15.3660    17.3300    24.8350     2.4990    -8.3640 
  147.5000    50.5180    17.1600    15.6030    17.6650    24.8150     2.5040    -8.3490 
  147.6250    51.5960    17.3060    15.7450    18.1130    24.7930     2.5070    -8.3640 
  147.7500    52.7540    17.3050    15.7530    18.6740    24.7860     2.5060    -8.4090 
  147.8750    53.7050    17.1140    15.5990    18.9840    24.7990     2.5040    -8.4360 
  148.0000    54.9770    16.7360    15.2820    18.7690    24.8030     2.5040    -8.4140 
  148.1250    55.8130    16.2860    14.8900    18.3630    24.7910     2.5060    -8.3960 
  148.2500    56.3500    15.8980    14.5310    17.8930    24.7860     2.5110    -8.4150 
  148.3750    58.1920    15.6940    14.3040    17.5770    24.8140     2.5140    -8.4610 
  148.5000    59.8070    15.7920    14.3220    17.4850    24.8530     2.5150    -8.5010 
  148.6250    58.7110    16.1680    14.5860    17.6820    24.8630     2.5130    -8.5310 
  148.7500    55.4800    16.7520    15.0580    18.0840    24.8460     2.5110    -8.5610 
  148.8750    52.3560    17.4440    15.6660    18.6840    24.8320     2.5110    -8.6130 
  149.0000    51.4370    18.0950    16.2990    19.2520    24.8480     2.5130    -8.6920 
  149.1250    52.6360    18.5850    16.8370    19.6080    24.8860     2.5140    -8.7530 
  149.2500    55.6550    18.8590    17.2100    20.1120    24.9040     2.5140    -8.7950 
  149.3750    57.9600    18.9250    17.4030    20.9700    24.8730     2.5110    -8.8650 
  149.5000    57.6340    18.8360    17.4450    21.4340    24.8170     2.5060    -8.9740 
  149.6250    56.9290    18.6820    17.4190    21.4030    24.7950     2.5050    -9.0930 
  149.7500    57.3610    18.4900    17.3630    21.3630    24.8030     2.5100    -9.1840 
  149.8750    58.5450    18.2260    17.2610    21.5020    24.8060     2.5210    -9.2570 
  150.0000    60.9070    17.8030    17.0430    21.8800    24.7780     2.5330    -9.3530 
  150.1250    63.7670    17.2020    16.6760    21.6290    24.7340     2.5410    -9.4880 
