~V
VERS. 2.00: Ver 2.00
~W
STRT.M 49.0000:
STOP.M 284.0000:
STEP.M 0.1250:
NULL. -999.2500:
UWI. F11034:
~C
DEPT.M :
GR.API :
RML.OHMM :
RI. :
RXO.OHMM :
CALI.CM :
DEN.GM/CC :
SP.MV :
~A
# ...
  127.7500    58.8210    11.6780     9.6430    18.8050    23.4060     2.3480   -12.4080 
  127.8750    59.8170    11.6820     9.9260    16.2270    22.8630     2.3020   -13.0220 
  128.0000    60.9130    11.3030     9.7870    14.5260    22.5770     2.2640   -13.5540 
  128.1250    60.4890    10.8230     9.4510    14.8620    22.4810     2.2390   -13.9970 
  128.2500    58.9010    10.3920     9.0690    16.4980    22.4620     2.2240   -14.3040 
  128.3750    56.2960    10.0300     8.7020    18.3940    22.4610     2.2160   -14.4720 
  128.5000    53.6300     9.7040     8.3580    18.2290    22.4520     2.2080   -14.5380 
  128.6250    54.4040     9.3900     8.0330    16.0790    22.4280     2.2010   -14.5510 
  128.7500    58.7080     9.1080     7.7450    13.0350    22.3930     2.1940   -14.5490 
  128.8750    62.1340     8.9010     7.5240    10.8950    22.3520     2.1890   -14.5470 
  129.0000    62.7760     8.8210     7.4110    10.4360    22.3210     2.1860   -14.5290 
  129.1250    61.9280     8.8680     7.4070    10.1090    22.2930     2.1890   -14.5230 
  129.2500    60.3830     9.0250     7.5010     9.5840    22.3030     2.1980   -14.5690 
  129.3750    59.6070     9.2440     7.6630     9.3140    22.4020     2.2140   -14.6490 
  129.5000    61.9390     9.4410     7.8360     9.4040    22.6020     2.2310   -14.7150 
  129.6250    64.6080     9.5350     7.9580     9.5920    22.7440     2.2450   -14.7420 
  129.7500    64.9540     9.4810     7.9880     9.6660    22.7500     2.2490   -14.7440 
  129.8750    63.6480     9.2940     7.9240     9.6070    22.6950     2.2420   -14.7330 
  130.0000    62.3670     9.0730     7.8230     9.5020    22.6840     2.2290   -14.6770 
  130.1250    60.9390     8.9880     7.8020     9.4590    22.7040     2.2170   -14.5240 
  130.2500    59.1010     9.2060     7.9880     9.5290    22.7900     2.2120   -14.2660 
  130.3750    57.9750     9.8410     8.4850     9.8070    22.9890     2.2170   -13.9280 
  130.5000    57.9400    10.9140     9.3560    10.7540    23.2440     2.2380   -13.4990 
  130.6250    59.2060    12.1370    10.4220    12.5100    23.5350     2.2700   -12.9810 
  130.7500    61.4010    13.1090    11.3810    14.6560    23.8990     2.3080   -12.3810 
  130.8750    61.5710    13.4220    11.8770    16.2810    24.3320     2.3420   -11.7320 
  131.0000    59.0250    12.7210    11.5250    15.8610    24.6430     2.3580   -11.1220 
  131.1250    57.6300    11.2710    10.4510    12.6410    24.7840     2.3530   -10.6200 
  131.2500    60.3050     9.5700     9.0390     9.0610    24.8480     2.3340   -10.2410 
  131.3750    65.3800     8.0990     7.7120     7.1670    24.8810     2.3110    -9.9810 
  131.5000    68.7190     7.2010     6.7920     6.6890    24.8810     2.2890    -9.8600 
  131.6250    70.1630     6.8160     6.2910     6.7540    24.8260     2.2710    -9.8710 
  131.7500    70.4570     6.7850     6.1250     6.9440    24.6650     2.2550   -10.0000 
  131.8750    69.4060     6.9560     6.1970     7.2060    24.3780     2.2380   -10.2020 
  132.0000    66.6470     7.2450     6.4450     7.5570    24.0900     2.2240   -10.3780 
  132.1250    63.8630     7.6610     6.8350     7.9490    23.9960     2.2150   -10.4360 
  132.2500    62.8000     8.3200     7.4190     8.4260    24.0810     2.2210   -10.3420 
  132.3750    63.3460     9.3710     8.2970     9.1760    24.2380     2.2490   -10.1130 
  132.5000    62.5740    10.9580     9.6020    10.6080    24.3950     2.3050    -9.7850 
  132.6250    59.6190    12.8640    11.2190    12.8960    24.5240     2.3830    -9.3980 
  132.7500    56.5050    14.6410    12.8350    15.9040    24.5940     2.4620    -8.9630 
  132.8750    55.1390    15.7140    13.9860    19.0240    24.6190     2.5240    -8.5050 
  133.0000    55.5860    15.4350    14.0460    20.8000    24.6400     2.5420    -8.1000 
  133.1250    57.1160    14.0100    13.0390    20.2260    24.6830     2.5200    -7.8120 
  133.2500    58.9320    12.1660    11.4970    17.0420    24.7270     2.4730    -7.6420 
  133.3750    59.4820    10.8020    10.1620    12.7940    24.7530     2.4290    -7.5550 
  133.5000    58.5920    10.7260     9.7170    11.2720    24.7600     2.4160    -7.5280 
  133.6250    58.5310    11.8990    10.2500    13.3890    24.7590     2.4400    -7.5600 
  133.7500    58.7880    13.9250    11.5910    17.6610    24.7490     2.4880    -7.6560 
  133.8750    56.4830    16.1800    13.3800    22.4160    24.7210     2.5390    -7.7950 
  134.0000    51.6010    17.8050    15.0110    24.0570    24.6850     2.5630    -7.9300 
  134.1250    48.5010    18.3420    15.9570    22.4740    24.6020     2.5560    -8.0360 
  134.2500    48.9320    17.8870    16.0770    18.8630    24.4630     2.5300    -8.1400 
  134.3750    51.5050    17.0250    15.6980    15.7550    24.2720     2.5010    -8.2690 
  134.5000    52.5360    16.5250    15.4060    15.0350    24.0690     2.4840    -8.4240 
  134.6250    50.9210    16.6850    15.5350    15.9500    23.9540     2.4830    -8.5620 
  134.7500    48.0980    17.4630    16.1430    17.7400    23.9910     2.4970    -8.6630 
  134.8750    46.5030    18.6540    17.1330    19.8680    24.1910     2.5210    -8.7620 
  135.0000    47.3390    19.9310    18.2830    21.8890    24.4470     2.5500    -8.9210 
  135.1250    48.3960    20.9030    19.2520    23.3740    24.6390     2.5780    -9.1510 
  135.2500    48.6680    21.2200    19.6970    24.8790    24.7180     2.5990    -9.4260 
  135.3750    50.6750    20.6210    19.3390    26.1610    24.7370     2.6050    -9.7320 
  135.5000    55.9130    18.9220    17.9530    24.2700    24.7210     2.5800   -10.0960 
  135.6250    61.3080    16.5030    15.8440    19.6460    24.6210     2.5260   -10.5460 
  135.7500    64.7470    13.8690    13.4630    14.7560    24.3430     2.4520   -11.0800 
  135.8750    66.3180    11.4930    11.2390    11.1420    23.8600     2.3730   -11.6320 
  136.0000    65.9360     9.7740     9.5340     9.2890    23.1730     2.3070   -12.1270 
  136.1250    64.5310     8.7050     8.3780     8.4960    22.5690     2.2610   -12.5730 
  136.2500    63.8400     8.1530     7.6900     8.2270    22.2200     2.2340   -12.9780 
  136.3750    63.6130     7.9510     7.3560     8.1810    22.1310     2.2200   -13.3310 
  136.5000    64.0110     7.9600     7.2760     8.2120    22.2510     2.2140   -13.5870 
  136.6250    66.2360     8.0420     7.3180     8.2020    22.4750     2.2110   -13.7560 
  136.7500    68.4920     8.1260     7.4000     8.1790    22.7380     2.2090   -13.8650 
  136.8750    67.8520     8.1780     7.4730     8.2270    22.9810     2.2070   -13.9430 
  137.0000    65.6290     8.1820     7.5050     8.3220    23.1660     2.2040   -13.9920 
  137.1250    64.4970     8.1450     7.4910     8.3820    23.2900     2.2000   -13.9930 
  137.2500    64.0740     8.0740     7.4320     8.3350    23.3720     2.1960   -13.9440 
  137.3750    64.2830     7.9810     7.3370     8.1830    23.4080     2.1930   -13.8600 
  137.5000    66.1420     7.8670     7.2160     7.9180    23.4030     2.1940   -13.7720 
  137.6250    68.1940     7.7490     7.0870     7.5750    23.3780     2.1970   -13.6730 
  137.7500    68.4410     7.6560     6.9790     7.1900    23.3720     2.2000   -13.5410 
  137.8750    67.0600     7.6480     6.9370     6.7980    23.4140     2.2040   -13.3380 
  138.0000    65.6070     7.8440     7.0550     6.7220    23.5300     2.2100   -13.0500 
  138.1250    66.8720     8.2940     7.3820     7.2460    23.6960     2.2230   -12.7110 
  138.2500    70.5310     8.9670     7.9140     8.3950    23.9230     2.2500   -12.3400 
  138.3750    72.2500     9.7190     8.5650     9.9830    24.2260     2.2920   -11.9300 
  138.5000    67.6200    10.2610     9.1220    11.6920    24.5330     2.3430   -11.4650 
  138.6250    60.4030    10.3710     9.3730    13.0960    24.7520     2.3830   -10.9760 
  138.7500    57.7800     9.9710     9.1950    13.5470    24.8550     2.3960   -10.5110 
  138.8750    64.1510     9.1660     8.6200    12.1240    24.8780     2.3770   -10.1250 
