~V
VERS. 2.00: Ver 2.00
~W
STRT.M 45.0000:
STOP.M 277.0000:
STEP.M 0.1250:
NULL. -999.2500:
UWI. F11056:
~C
DEPT.M :
GR.API :
RML.OHMM :
RI. :
RXO.OHMM :
CALI.CM :
DEN.GM/CC :
SP.MV :
~A
# ...
   90.0000    65.9080    10.5030     8.2180     9.9700    24.1880     2.1600    -5.3270 
   90.1250    65.6310    10.4580     8.2010     9.9290    24.1360     2.1520    -5.1530 
   90.2500    68.1390    10.3850     8.1540    10.0410    24.0750     2.1450    -5.0020 
   90.3750    70.4420    10.3020     8.0910     9.9410    24.0150     2.1430    -4.8000 
   90.5000    70.8290    10.2170     8.0270     9.5540    23.9520     2.1470    -4.6550 
   90.6250    70.3220    10.1270     7.9650     9.3840    23.9050     2.1560    -4.5610 
   90.7500    68.0140    10.0190     7.8940     9.5250    23.8860     2.1640    -4.4400 
   90.8750    65.3810     9.8770     7.7970     9.6870    23.9130     2.1680    -4.3340 
   91.0000    64.4760     9.6740     7.6580     9.4560    24.0220     2.1670    -4.2770 
   91.1250    66.8280     9.4240     7.4860     9.1000    24.2460     2.1650    -4.1290 
   91.2500    72.4980     9.1440     7.2870     8.6470    24.4910     2.1610    -3.8900 
   91.3750    77.9080     8.8600     7.0700     8.3690    24.5740     2.1560    -3.6270 
   91.5000    80.8510     8.6110     6.8580     8.7300    24.5790     2.1480    -3.3450 
   91.6250    82.0780     8.4410     6.6940     8.5610    24.6390     2.1440    -3.0470 
   91.7500    82.2840     8.3970     6.6300     7.9440    24.8200     2.1520    -2.7450 
   91.8750    81.6550     8.5120     6.7040     7.5330    25.0840     2.1820    -2.4670 
   92.0000    80.9570     8.7780     6.9400     8.9040    25.3820     2.2300    -2.2440 
   92.1250    80.5060     9.0540     7.2460    11.3340    25.5480     2.2740    -2.0530 
   92.2500    78.5960     9.1760     7.4970    11.9910    25.5680     2.2960    -1.9440 
   92.3750    77.0830     9.0090     7.5500    10.0680    25.5220     2.2900    -1.8870 
   92.5000    80.2780     8.4990     7.2700     8.5240    25.5110     2.2690    -1.7680 
   92.6250    87.0810     7.8580     6.7740     7.5810    25.5040     2.2590    -1.5910 
   92.7500    94.6960     7.2730     6.2260     6.8960    25.4620     2.2700    -1.4230 
   92.8750   101.1450     6.8690     5.7790     6.3370    25.4290     2.2950    -1.2100 
   93.0000   104.5430     6.7000     5.5410     6.2280    25.4230     2.3160    -0.8960 
   93.1250   102.7260     6.6510     5.4520     6.7310    25.4300     2.3200    -0.6570 
   93.2500    97.1980     6.6060     5.4230     7.5870    25.4330     2.3050    -0.4550 
   93.3750    92.8860     6.4850     5.3610     7.7690    25.4090     2.2820    -0.2070 
   93.5000    92.9580     6.3070     5.2480     6.9350    25.3490     2.2620     0.0010 
   93.6250    96.2090     6.2220     5.2030     5.8800    25.2860     2.2580     0.1250 
   93.7500   100.4900     6.3760     5.3640     5.6100    25.1190     2.2820     0.2310 
   93.8750   102.0860     6.8530     5.8060     6.1490    24.6230     2.3360     0.2580 
   94.0000    99.3570     7.5810     6.5000     8.5000    24.1160     2.4130     0.1360 
   94.1250    95.8880     8.1520     7.1390    11.7880    23.8370     2.4830     0.0250 
   94.2500    94.3910     8.1900     7.3720    12.4090    23.7460     2.5210    -0.0710 
   94.3750    93.6610     7.5820     6.9900     9.7230    23.7560     2.5120    -0.2440 
   94.5000    93.2650     6.5900     6.1130     6.7360    23.9030     2.4560    -0.4850 
   94.6250    94.0180     5.7170     5.2130     5.4690    24.4610     2.3820    -0.7330 
   94.7500    94.9690     5.1790     4.5440     4.9420    25.4970     2.3120    -1.0030 
   94.8750    94.3530     5.0190     4.2090     4.8050    26.5530     2.2640    -1.3190 
   95.0000    93.0310     5.2530     4.2640     4.9880    26.6210     2.2470    -1.7100 
   95.1250    90.3240     5.7420     4.5830     5.6360    26.1480     2.2480    -2.1350 
   95.2500    87.2390     6.3450     5.0530     6.6960    25.6720     2.2520    -2.6000 
   95.3750    84.7680     6.8580     5.5160     7.2520    25.4600     2.2460    -3.1080 
   95.5000    85.4700     7.0290     5.7590     7.2920    25.4470     2.2290    -3.5960 
   95.6250    87.4620     6.8790     5.7390     7.3120    25.4940     2.2120    -4.0350 
   95.7500    89.4530     6.5750     5.5480     7.3920    25.5480     2.2030    -4.4790 
   95.8750    91.0450     6.3610     5.3800     6.8760    25.6000     2.2020    -4.8720 
   96.0000    89.2440     6.5590     5.5430     6.6050    25.6310     2.2070    -5.1060 
   96.1250    83.2530     7.3470     6.2450     7.3630    25.6550     2.2230    -5.2770 
   96.2500    77.8880     8.9910     7.7060     9.5660    25.6420     2.2620    -5.4390 
   96.3750    76.1130    11.7300    10.0910    14.1950    25.6070     2.3320    -5.5250 
   96.5000    76.0220    15.2450    13.2950    23.1160    25.6200     2.4170    -5.5610 
   96.6250    74.0620    17.9220    16.0590    30.4250    25.6810     2.4790    -5.6640 
   96.7500    73.0910    18.4400    16.9360    30.6090    25.6840     2.4870    -5.7750 
   96.8750    73.8280    16.7350    15.5630    23.8280    25.6010     2.4350    -5.9050 
   97.0000    74.1240    14.0760    13.0610    14.2350    25.4950     2.3370    -6.1230 
   97.1250    73.2420    11.9480    10.8730    10.5370    25.4750     2.2400    -6.3920 
   97.2500    71.2120    10.6960     9.3990     9.4240    25.5080     2.1690    -6.6200 
   97.3750    68.8560    10.2100     8.6390     9.6630    25.5310     2.1330    -6.8600 
   97.5000    69.6540    10.3310     8.5060     9.7300    25.5220     2.1310    -7.1560 
   97.6250    71.3420    10.6890     8.6730     9.5170    25.4580     2.1440    -7.4130 
   97.7500    71.2600    11.0200     8.9160     9.4210    25.2780     2.1630    -7.6150 
   97.8750    69.9060    11.1340     9.0560     9.5300    25.0380     2.1820    -7.7480 
   98.0000    69.8700    10.9810     9.0170     9.6190    24.8480     2.1990    -7.8460 
   98.1250    68.7730    10.7560     8.9100     9.7330    24.6650     2.2150    -7.9450 
   98.2500    65.9090    10.6150     8.8460     9.7810    24.5380     2.2310    -8.0700 
   98.3750    65.3970    10.6490     8.8970     9.7970    24.5180     2.2450    -8.2260 
   98.5000    69.3030    10.8630     9.0870     9.9910    24.6320     2.2450    -8.3370 
   98.6250    73.4000    11.1240     9.3220    10.6690    24.8750     2.2300    -8.4460 
   98.7500    77.0840    11.3110     9.5030    11.5570    25.1210     2.2040    -8.5690 
   98.8750    78.6910    11.3360     9.5530    10.9460    25.1510     2.1770    -8.7330 
   99.0000    74.2810    11.1580     9.4300    10.5040    24.9020     2.1630    -8.8490 
   99.1250    65.6480    10.8690     9.2000    10.3100    24.5460     2.1590    -8.9330 
   99.2500    58.1580    10.5460     8.9200    10.2730    24.1480     2.1600    -9.0250 
   99.3750    56.3210    10.2450     8.6500    10.1750    23.8440     2.1550    -9.0470 
   99.5000    59.8700    10.0100     8.4390    10.1700    24.1370     2.1360    -9.0430 
   99.6250    64.7470     9.8450     8.2910     9.9960    24.7530     2.1100    -9.0590 
   99.7500    67.1390     9.7630     8.2020     9.7760    25.2630     2.0830    -9.0850 
   99.8750    65.6650     9.7700     8.1690     9.9220    25.4390     2.0650    -9.0720 
  100.0000    65.1430     9.8540     8.1930    10.3010    25.3640     2.0640    -9.0820 
  100.1250    66.2710     9.9510     8.2420    10.4130    25.2240     2.0770    -9.0780 
  100.2500    67.1710    10.0130     8.2920    10.3920    25.1200     2.0980    -9.0320 
  100.3750    66.6030    10.0230     8.3270    10.2140    25.0940     2.1230    -9.0470 
  100.5000    65.0540    10.0110     8.3550     9.8140    25.0230     2.1480    -9.1500 
  100.6250    63.1100    10.0240     8.3980     9.5040    24.8430     2.1730    -9.2230 
  100.7500    61.8720    10.0800     8.4650     9.7270    24.5480     2.1970    -9.2820 
  100.8750    63.8220    10.1600     8.5520    10.0760    24.3150     2.2130    -9.3860 
  101.0000    67.2220    10.2140     8.6270    10.1700    24.3680     2.2170    -9.4930 
  101.1250    68.7510    10.2020     8.6590    10.1590    24.7610     2.2090    -9.5730 
