~V
VERS. 2.00: Ver 2.00
~W
STRT.M 50.0000:
STOP.M 278.0000:
STEP.M 0.1250:
NULL. -999.2500:
UWI. F11029:
~C
DEPT.M :
SP.MV :
DEN.GM/CC :
GR.API :
RML.OHMM :
RI. :
RXO.OHMM :
CALI.CM :
~A
# ...
  241.2500    -6.0820     2.3310    76.0630    35.1680    31.1070    37.4930    24.1690 
  241.3750    -6.2700     2.3830    76.5720    35.7770    31.7570    37.9640    24.0610 
  241.5000    -6.3870     2.4200    79.6740    35.9610    31.8480    37.2280    24.1810 
  241.6250    -6.5430     2.4280    80.9590    36.1630    31.8860    37.2680    24.3310 
  241.7500    -6.6740     2.4160    80.5250    36.6490    32.2560    36.3730    24.3670 
  241.8750    -6.7420     2.3980    82.2950    37.4080    32.9970    36.3330    24.3030 
  242.0000    -6.8450     2.3850    86.9050    38.2920    33.9480    35.4740    24.2080 
  242.1250    -6.9880     2.3820    86.6180    39.1080    34.8880    37.6290    24.0290 
  242.2500    -7.0520     2.3800    83.0140    39.7130    35.7030    38.7090    23.7930 
  242.3750    -7.0540     2.3720    80.3390    39.9200    36.3020    38.9520    23.6170 
  242.5000    -7.0690     2.3550    76.5510    39.4340    36.4210    35.7050    23.6860 
  242.6250    -7.0280     2.3330    71.6270    37.7270    35.3990    34.0470    23.8870 
  242.7500    -6.8690     2.3120    68.7430    34.8820    33.0700    34.9740    24.0690 
  242.8750    -6.6350     2.2950    69.7220    31.2140    29.6410    35.0530    24.1530 
  243.0000    -6.3650     2.2830    72.6540    27.3300    25.7640    28.8450    24.2130 
  243.1250    -6.0180     2.2840    73.3970    24.0510    22.3340    21.5110    24.2910 
  243.2500    -5.6480     2.3070    73.6660    21.7740    19.7920    18.2380    24.3670 
  243.3750    -5.3410     2.3540    75.3870    20.6370    18.2660    15.7560    24.4060 
  243.5000    -5.0390     2.4100    76.8610    20.5860    17.7430    14.1200    24.4150 
  243.6250    -4.7130     2.4430    75.1830    21.5840    18.2680    14.3830    24.4100 
  243.7500    -4.5100     2.4360    71.7360    23.2660    19.5280    17.0150    24.3900 
  243.8750    -4.3880     2.3870    69.1060    25.4630    21.3670    21.6570    24.3520 
  244.0000    -4.2660     2.3150    67.9750    28.0300    23.6390    26.2950    24.2660 
  244.1250    -4.1980     2.2510    68.5990    30.8390    26.2360    26.9680    24.1360 
  244.2500    -4.1240     2.2150    67.9440    33.6370    28.9400    26.3390    24.0700 
  244.3750    -3.8680     2.2130    62.5400    36.1460    31.5310    28.9810    24.2520 
  244.5000    -3.4540     2.2410    55.4540    38.0190    33.6460    35.9990    24.2620 
  244.6250    -3.1150     2.2800    55.4340    38.7700    34.6460    41.5490    24.1330 
  244.7500    -2.8550     2.3090    61.0440    38.5030    34.5120    41.6550    24.0730 
  244.8750    -2.7050     2.3190    66.2360    37.4380    33.4770    38.2360    24.0800 
  245.0000    -2.7000     2.3180    68.3970    35.9200    31.9350    33.7420    24.0870 
  245.1250    -2.7610     2.3170    69.4440    34.4710    30.3150    29.9740    24.0850 
  245.2500    -2.8470     2.3270    69.9630    33.4570    28.9700    29.7450    24.1020 
  245.3750    -3.0280     2.3460    69.5250    32.7290    28.0280    31.3730    24.3430 
  245.5000    -3.3230     2.3690    67.9490    31.8730    27.4350    30.1350    24.6200 
  245.6250    -3.5770     2.3900    66.0960    30.8260    27.0550    24.7760    25.0230 
  245.7500    -3.7430     2.4090    64.5350    29.9870    26.7210    26.0070    24.6130 
  245.8750    -3.9080     2.4270    62.7060    29.4690    26.3740    32.8660    24.5040 
  246.0000    -4.1430     2.4370    61.0970    29.1460    26.0320    34.6420    24.2840 
  246.1250    -4.4890     2.4280    61.6100    28.9940    25.8270    27.2100    24.1550 
  246.2500    -4.9780     2.3980    63.4670    29.0470    25.8680    19.6970    23.9900 
  246.3750    -5.7480     2.3640    64.8720    29.2430    26.2140    17.6700    23.8080 
  246.5000    -6.8230     2.3500    65.5500    29.5600    26.8930    17.0670    23.6430 
  246.6250    -8.0370     2.3850    66.2000    30.0300    27.8150    20.1550    23.6060 
  246.7500    -9.0610     2.4560    68.0470    30.3360    28.4090    23.2780    23.5020 
  246.8750    -9.5470     2.5310    70.1440    30.1980    27.9070    25.4650    23.4150 
  247.0000    -9.5340     2.5770    70.2290    28.6490    25.7860    25.4050    23.3730 
  247.1250    -9.2470     2.5730    67.2740    24.5210    22.1220    23.4620    23.3850 
  247.2500    -8.7700     2.5400    63.9310    19.2230    18.0840    17.6240    23.4590 
  247.3750    -8.0210     2.5000    61.0890    14.6820    14.4650    10.5950    23.5610 
  247.5000    -6.9710     2.4660    58.2170    11.8530    11.6760     7.6660    23.6790 
  247.6250    -5.7250     2.4390    58.9990    10.2820     9.8810     7.2400    23.8980 
  247.7500    -4.5810     2.4170    62.2580     9.2570     8.7620     7.1490    24.2030 
  247.8750    -3.8850     2.3960    64.8010     8.7330     8.1400     6.7830    24.2030 
  248.0000    -3.5820     2.3810    65.4840     8.5190     7.8540     6.2390    24.1940 
  248.1250    -3.4410     2.3740    67.0780     8.4910     7.7910     6.0450    24.1350 
  248.2500    -3.3670     2.3780    70.0470     8.5370     7.8280     6.6360    24.2040 
  248.3750    -3.3020     2.3900    71.7450     8.6200     7.9270     7.9050    24.2240 
  248.5000    -3.2400     2.4060    71.6460     8.7200     8.0700     9.1650    24.2710 
  248.6250    -3.2900     2.4170    70.5060     8.8220     8.2350     8.7550    24.1750 
  248.7500    -3.4920     2.4190    68.3470     8.9050     8.3820     7.5470    24.1270 
  248.8750    -3.7080     2.4130    65.1270     8.9570     8.4740     6.7320    24.1050 
  249.0000    -3.8440     2.4020    62.8210     8.9730     8.4840     6.7580    24.1140 
  249.1250    -3.9810     2.3940    64.5150     8.9590     8.4050     7.0370    24.0960 
  249.2500    -4.1500     2.3910    67.9960     8.9400     8.2830     7.2350    24.0360 
  249.3750    -4.3280     2.3960    68.9540     8.9320     8.1580     7.4750    23.9250 
  249.5000    -4.5120     2.4080    66.0740     8.9390     8.0530     7.8250    23.9250 
  249.6250    -4.6870     2.4220    62.4170     8.9490     7.9720     7.9130    23.9490 
  249.7500    -4.7880     2.4300    60.4910     8.9490     7.9000     7.7750    23.9650 
  249.8750    -4.8520     2.4300    59.7310     8.9430     7.8290     7.4750    23.9570 
  250.0000    -4.9570     2.4210    57.7570     8.9580     7.7720     7.3580    23.9730 
  250.1250    -4.9860     2.4060    57.6910     9.0540     7.7760     8.2600    24.0500 
  250.2500    -4.9040     2.3950    61.9770     9.2550     7.8790     9.6930    24.0960 
  250.3750    -4.7930     2.3910    67.2020     9.5530     8.0950    10.5430    24.1200 
  250.5000    -4.7040     2.3950    68.3180     9.9010     8.4000    10.6480    24.1130 
  250.6250    -4.5430     2.4040    66.7300    10.2000     8.7300    11.0720    24.0780 
  250.7500    -4.3300     2.4120    66.2870    10.3730     8.9880    11.5000    24.0400 
  250.8750    -4.1420     2.4170    66.3590    10.3880     9.1040    10.0920    24.0230 
  251.0000    -3.9560     2.4200    65.6100    10.2590     9.0540     7.9830    23.9550 
  251.1250    -3.7610     2.4230    64.6040    10.0350     8.8540     7.2570    23.9970 
  251.2500    -3.5760     2.4280    66.1960     9.8040     8.6040     7.1290    24.0370 
  251.3750    -3.4100     2.4290    69.6700     9.6160     8.3680     7.0680    24.0890 
  251.5000    -3.2020     2.4260    72.0550     9.5000     8.1920     7.1040    24.1280 
  251.6250    -2.9700     2.4200    70.0690     9.4870     8.1150     7.1820    24.0730 
  251.7500    -2.8120     2.4170    67.6630     9.5700     8.1310     7.3850    24.0080 
  251.8750    -2.7250     2.4220    67.5010     9.7450     8.2410     7.6040    23.9810 
  252.0000    -2.6570     2.4360    68.0910     9.9970     8.4370     7.6180    23.9750 
  252.1250    -2.5800     2.4560    67.9340    10.3000     8.7050     8.2530    24.0250 
  252.2500    -2.5460     2.4740    67.1520    10.6180     9.0070     9.9730    24.0140 
  252.3750    -2.5420     2.4830    65.1190    10.9470     9.3340    12.4920    23.9940 
