~V
VERS. 2.00: Ver 2.00
~W
STRT.M 55.0000:
STOP.M 280.0000:
STEP.M 0.1250:
NULL. -999.2500:
UWI. F11032:
~C
DEPT.M :
DEN.GM/CC :
GR.API :
RML.OHMM :
RI. :
RXO.OHMM :
CALI.CM :
SP.MV :
~A
# ...
  257.5000     2.4220    56.5810    16.0860    13.9870    16.7530    23.8150   -15.4590 
  257.6250     2.4220    56.9370    15.7730    13.7150    14.6630    24.0210   -15.4860 
  257.7500     2.4180    56.0480    15.4190    13.4070    14.4920    24.1480   -15.5190 
  257.8750     2.4110    53.3800    15.1100    13.1390    16.3740    24.2540   -15.5570 
  258.0000     2.4050    51.0570    14.8780    12.9370    19.2300    24.3040   -15.5430 
  258.1250     2.4020    52.3240    14.7030    12.7850    20.6620    24.3670   -15.5190 
  258.2500     2.4030    54.6490    14.5400    12.6430    19.3070    24.4090   -15.5050 
  258.3750     2.4060    54.9710    14.3920    12.5140    17.9470    24.4540   -15.4810 
  258.5000     2.4090    52.9820    14.2910    12.4270    15.5820    24.4900   -15.4180 
  258.6250     2.4100    52.0830    14.2860    12.4230    14.1440    24.5440   -15.2990 
  258.7500     2.4120    52.5400    14.3600    12.4870    14.2540    24.5860   -15.1820 
  258.8750     2.4130    52.5970    14.4750    12.5870    15.1420    24.6160   -15.0980 
  259.0000     2.4150    51.1780    14.5800    12.6790    15.6950    24.6370   -15.0070 
  259.1250     2.4160    49.3980    14.6150    12.7090    14.7980    24.6830   -14.9110 
  259.2500     2.4170    49.1830    14.5610    12.6620    12.8820    24.6690   -14.7930 
  259.3750     2.4190    50.0800    14.4350    12.5520    10.8820    24.5530   -14.6790 
  259.5000     2.4220    51.8240    14.2830    12.4200     9.9480    24.3440   -14.6150 
  259.6250     2.4260    54.2790    14.1660    12.3180    10.6300    24.3080   -14.6310 
  259.7500     2.4310    54.9580    14.1060    12.2660    12.2630    24.2990   -14.6810 
  259.8750     2.4370    52.8640    14.1060    12.2660    13.2190    24.3040   -14.7080 
  260.0000     2.4400    51.2020    14.1650    12.3180    14.4700    24.3350   -14.7590 
  260.1250     2.4400    53.8230    14.2850    12.4220    16.1410    24.4700   -14.8230 
  260.2500     2.4350    55.9510    14.4280    12.5460    16.8340    24.5940   -14.8830 
  260.3750     2.4260    54.4140    14.5550    12.6570    16.2400    24.6150   -14.9660 
  260.5000     2.4180    52.8300    14.6230    12.7160    16.4330    24.6090   -15.0440 
  260.6250     2.4140    55.2650    14.5930    12.6900    20.1170    24.5580   -15.0680 
  260.7500     2.4120    57.8760    14.4950    12.6050    24.2180    24.4310   -15.0300 
  260.8750     2.4110    58.6170    14.3640    12.4900    21.6430    24.3610   -14.9800 
  261.0000     2.4090    58.9820    14.2530    12.3940    16.3450    24.2590   -14.9380 
  261.1250     2.4030    59.1250    14.2690    12.4080    13.8510    24.3060   -14.9010 
  261.2500     2.3940    57.0430    14.4450    12.5610    13.0720    24.3870   -14.8700 
  261.3750     2.3850    53.3410    14.7350    12.8130    13.3840    24.4810   -14.8070 
  261.5000     2.3800    51.8910    14.9940    13.0390    14.2900    24.5420   -14.7100 
  261.6250     2.3840    54.5710    14.9680    13.0160    15.0110    24.6060   -14.6130 
  261.7500     2.3970    57.7150    14.5670    12.6670    15.1480    24.6090   -14.5720 
  261.8750     2.4120    59.6500    13.8510    12.0450    15.0990    24.5800   -14.5300 
  262.0000     2.4250    60.0340    13.0060    11.3100    15.3530    24.6150   -14.4940 
  262.1250     2.4270    59.7850    12.2060    10.6490    16.3590    24.7110   -14.4390 
  262.2500     2.4220    58.1170    11.5260    10.1300    17.9060    24.6160   -14.3860 
  262.3750     2.4150    55.2120    11.1900     9.7390    19.9900    24.5460   -14.3520 
  262.5000     2.4100    54.2290    10.9600     9.4330    24.2040    24.5350   -14.3460 
  262.6250     2.4070    57.5020    10.7610     9.1710    26.3090    24.5690   -14.3420 
  262.7500     2.4040    61.6560    10.5460     8.9350    25.2410    24.6450   -14.3350 
  262.8750     2.3990    62.0130    10.3320     8.7490    20.4550    24.7030   -14.3520 
  263.0000     2.3940    57.3900    10.1610     8.6380    14.1120    24.7960   -14.3620 
  263.1250     2.3920    53.2300    10.0810     8.6160    10.9560    24.9030   -14.3660 
  263.2500     2.3930    53.6260    10.0620     8.6380     9.2520    24.9300   -14.3940 
  263.3750     2.3950    55.8420    10.0480     8.6490     8.4650    25.0550   -14.4230 
  263.5000     2.3960    54.9000     9.9750     8.5920     7.9690    25.1700   -14.4510 
  263.6250     2.3950    52.3900     9.7980     8.4250     7.6350    25.3120   -14.4630 
  263.7500     2.3930    53.8320     9.5610     8.1970     7.3880    25.5780   -14.4650 
  263.8750     2.3900    58.5700     9.3200     7.9650     6.9690    25.6640   -14.4590 
  264.0000     2.3860    62.4620     9.1280     7.7770     6.5360    25.6460   -14.4670 
  264.1250     2.3790    64.1760     9.0190     7.6590     6.3100    25.5300   -14.4780 
  264.2500     2.3720    63.7200     8.9660     7.5790     6.2270    25.5550   -14.4880 
  264.3750     2.3660    60.4480     8.9550     7.5180     6.1930    25.4990   -14.4980 
  264.5000     2.3630    56.0520     8.9780     7.4730     6.1690    25.3430   -14.4960 
  264.6250     2.3640    55.0160     9.0280     7.4600     6.2020    25.7100   -14.5230 
  264.7500     2.3650    56.5970     9.0870     7.4710     6.1280    26.0970   -14.5590 
  264.8750     2.3630    57.5060     9.1440     7.4940     6.0570    26.0070   -14.6130 
  265.0000     2.3560    57.8050     9.2000     7.5110     6.0430    26.0330   -14.6710 
  265.1250     2.3490    57.7270     9.2640     7.5040     6.0780    26.3990   -14.7940 
  265.2500     2.3480    57.4590     9.3390     7.4770     6.1100    26.6500   -14.9230 
  265.3750     2.3570    57.3000     9.4120     7.4470     6.0780    26.5930   -15.0570 
  265.5000     2.3760    57.2560     9.4560     7.4330     5.8860    26.3040   -15.2180 
  265.6250     2.3990    56.5980     9.4610     7.4420     5.6910    25.9400   -15.3980 
  265.7500     2.4160    56.0550     9.4510     7.4640     5.5800    25.9140   -15.6010 
  265.8750     2.4230    57.1220     9.4590     7.4800     5.5250    25.9930   -15.8050 
  266.0000     2.4240    57.5290     9.5130     7.4780     5.4450    25.7770   -16.0340 
  266.1250     2.4280    55.7370     9.6290     7.4590     5.4840    25.4520   -16.2740 
  266.2500     2.4350    54.2510     9.7710     7.4490     5.7150    25.4050   -16.5150 
  266.3750     2.4350    53.7730     9.8990     7.4690     6.0330    25.6830   -16.7690 
  266.5000     2.4160    54.2670     9.9860     7.5210     6.5710    26.1450   -17.0390 
  266.6250     2.3650    55.1740    10.0260     7.5850     7.6670    26.4850   -17.3680 
  266.7500     2.2980    55.1990    10.0580     7.6360     8.7520    27.1300   -17.6760 
  266.8750     2.2380    53.5290    10.1090     7.6720     8.9170    27.3310   -18.0060 
  267.0000     2.2070    50.9550    10.1860     7.7030     8.3750    26.0670   -18.3240 
  267.1250     2.2200    49.2600    10.2570     7.7340     7.9910    25.5630   -18.5890 
  267.2500     2.2650    48.6300    10.2780     7.7440     7.9900    25.2970   -18.8090 
  267.3750     2.3210    49.9140    10.2250     7.7040     8.0060    24.8880   -18.9820 
  267.5000     2.3710    52.6470    10.1020     7.5970     8.0780    24.7210   -19.0670 
  267.6250     2.4000    54.6940     9.9400     7.4390     8.0500    24.7040   -19.0500 
  267.7500     2.4140    55.7560     9.7970     7.2920     7.3950    24.7610   -18.9710 
  267.8750     2.4150    57.1310     9.7140     7.1960     6.5150    24.8740   -18.8150 
  268.0000     2.4060    59.3490     9.7190     7.1660     5.9170    24.9220   -18.6440 
  268.1250     2.3880    60.5910     9.8250     7.2050     5.9580    24.9540   -18.5010 
  268.2500     2.3690    59.4250     9.9990     7.2930     6.3380    25.0480   -18.3920 
  268.3750     2.3550    55.7710    10.2110     7.4240     6.8550    24.9800   -18.3480 
  268.5000     2.3480    52.0930    10.4290     7.5900     7.6360    24.5130   -18.3850 
  268.6250     2.3510    51.5990    10.6020     7.7590     9.3260    24.4770   -18.4490 
