~V
VERS. 2.00: Ver 2.00
~W
STRT.M 60.0000:
STOP.M 276.0000:
STEP.M 0.1250:
NULL. -999.2500:
UWI. F11026:
~C
DEPT.M :
DEN.GM/CC :
GR.API :
RML.OHMM :
RI. :
RXO.OHMM :
CALI.CM :
SP.MV :
~A
# ...
  217.5000     2.1370    62.3490   129.8380   130.0150   144.7400    24.9060   -12.6930 
  217.6250     2.1610    62.0380   123.3100   123.0880   125.6140    24.8680   -12.4470 
  217.7500     2.1780    61.0750   117.3140   116.3590   108.3780    24.9740   -12.2710 
  217.8750     2.1860    60.6180   112.8310   111.0310   105.3490    25.0550   -12.2920 
  218.0000     2.1890    61.0320   110.3030   107.7570   108.1670    25.0230   -12.5150 
  218.1250     2.1890    61.3570   109.9990   106.8950   113.7760    24.9380   -12.7260 
  218.2500     2.1870    61.8620   111.3560   107.8080   111.1580    24.8530   -12.9530 
  218.3750     2.1840    60.7640   114.2130   110.3230   106.1340    24.8640   -13.3040 
  218.5000     2.1790    58.5060   118.3860   114.3440   102.9030    24.9470   -13.7080 
  218.6250     2.1720    57.6020   123.4440   119.6110   105.1860    24.8890   -14.0110 
  218.7500     2.1660    57.8320   128.2200   124.8210   118.3800    24.4370   -14.2780 
  218.8750     2.1630    58.3720   131.6640   128.6680   135.9890    23.8300   -14.3870 
  219.0000     2.1660    59.0740   133.0900   130.2020   136.9900    23.4210   -14.3870 
  219.1250     2.1720    58.7390   132.3130   128.9730   129.0790    23.2890   -14.5270 
  219.2500     2.1810    57.2840   130.6180   126.4050   123.2770    23.3110   -14.6700 
  219.3750     2.1920    56.5470   129.1220   123.9330   118.9840    23.4950   -14.7540 
  219.5000     2.2030    57.2730   128.6600   122.7580   119.5650    23.8260   -14.8420 
  219.6250     2.2040    57.9150   129.6880   123.5840   126.7070    24.3880   -14.9780 
  219.7500     2.1900    58.2650   131.5610   125.7460   128.0940    24.6350   -15.1380 
  219.8750     2.1630    60.2110   133.4820   128.5170   133.4720    24.7340   -15.2540 
  220.0000     2.1340    61.7720   134.4360   130.8520   145.4400    24.8700   -15.1970 
  220.1250     2.1180    60.4380   132.9240   131.0360   128.8860    25.0100   -14.9190 
  220.2500     2.1160    59.6190   128.5490   128.2950   120.5560    25.1040   -14.6930 
  220.3750     2.1250    61.4810   121.2950   122.3350   125.2400    25.1930   -14.5370 
  220.5000     2.1380    63.7710   111.7850   113.5720   134.8020    25.2910   -14.3600 
  220.6250     2.1520    62.3920   101.1600   103.0780   127.1190    25.3320   -14.1690 
  220.7500     2.1690    60.8650    91.0170    92.7440   107.0980    25.2210   -13.9910 
  220.8750     2.1870    61.9120    82.3590    83.7140    84.6150    25.0300   -13.9620 
  221.0000     2.2010    62.8620    75.8080    76.6720    71.9970    24.9060   -14.1360 
  221.1250     2.2070    61.4560    72.0380    72.3260    67.1240    24.8570   -14.5280 
  221.2500     2.2060    60.8820    70.6290    70.3270    66.0750    24.8090   -15.0890 
  221.3750     2.2020    62.9920    71.3820    70.5560    64.6020    24.7450   -15.6340 
  221.5000     2.1990    66.1620    73.9460    72.8250    62.8660    24.6940   -16.1470 
  221.6250     2.1980    66.7290    77.8110    76.8740    66.9440    24.6380   -16.6410 
  221.7500     2.1980    65.4720    81.7870    81.3810    73.3050    24.5500   -17.0930 
  221.8750     2.2010    63.7650    84.9180    85.0890    85.2260    24.4650   -17.5000 
  222.0000     2.2070    62.0590    86.5390    86.9470    98.3310    24.3820   -17.9070 
  222.1250     2.2160    61.7680    86.4110    86.4090    98.5570    24.2350   -18.2740 
  222.2500     2.2230    63.5760    85.5620    84.6690    83.0030    24.0660   -18.5130 
  222.3750     2.2230    66.1600    84.9480    82.9070    69.6660    23.9700   -18.7770 
  222.5000     2.2130    66.5160    85.2960    82.0970    65.9540    24.0130   -18.9810 
  222.6250     2.1970    64.1950    86.9500    82.7660    76.9370    24.3200   -19.0190 
  222.7500     2.1830    62.0430    89.2150    84.2510    77.1540    24.6760   -19.1590 
  222.8750     2.1760    60.0210    91.3360    85.7860    76.3390    24.8990   -19.4080 
  223.0000     2.1790    58.0090    92.6530    86.5930    75.0350    25.0150   -19.6470 
  223.1250     2.1900    57.3740    92.7510    86.1070    69.1670    25.2240   -19.7990 
  223.2500     2.2020    58.1540    92.1360    84.8570    64.4600    25.4360   -19.8250 
  223.3750     2.2130    60.1680    91.3450    83.4660    66.5960    25.5500   -19.7230 
  223.5000     2.2190    61.1290    90.8390    82.4300    71.9350    25.6310   -19.5740 
  223.6250     2.2180    59.0020    90.9760    82.1050    73.3830    25.6830   -19.5170 
  223.7500     2.2100    56.5880    91.6480    82.4280    71.4210    25.6830   -19.3730 
  223.8750     2.1990    56.3490    92.5840    83.1840    69.5930    25.6500   -19.0920 
  224.0000     2.1890    59.6140    93.2960    83.8890    72.0040    25.6020   -18.7700 
  224.1250     2.1850    63.2980    92.9980    83.7020    74.4230    25.5450   -18.5510 
  224.2500     2.1870    64.5400    91.4510    82.2550    77.7300    25.4910   -18.4770 
  224.3750     2.1940    62.8040    88.7720    79.6030    79.9960    25.4580   -18.5110 
  224.5000     2.2040    61.0670    85.4600    76.2520    77.1750    25.4030   -18.7040 
  224.6250     2.2150    63.2340    82.2600    72.9970    71.5220    25.3040   -18.9600 
  224.7500     2.2250    66.1150    79.6890    70.3880    67.8390    25.1740   -19.1100 
  224.8750     2.2350    66.8640    77.9050    68.5820    65.6850    25.0320   -19.1210 
  225.0000     2.2450    65.2410    76.8460    67.5120    61.7600    24.9010   -18.9810 
  225.1250     2.2580    63.8690    76.4320    67.1030    57.5930    24.8700   -18.6650 
  225.2500     2.2690    63.6930    76.4200    67.1150    54.4880    24.8570   -18.2430 
  225.3750     2.2750    63.4290    76.7260    67.4530    53.7980    24.8470   -17.8560 
  225.5000     2.2720    62.9670    77.2920    68.0410    55.5370    24.8520   -17.4850 
  225.6250     2.2600    63.8910    78.0630    68.8590    59.0520    24.8730   -17.1850 
  225.7500     2.2470    66.4800    78.8220    69.7710    62.6430    24.8680   -17.0400 
  225.8750     2.2380    68.8520    79.2430    70.5040    64.9740    24.8070   -17.0140 
  226.0000     2.2350    69.4240    78.8850    70.5970    63.4140    24.7250   -17.1550 
  226.1250     2.2410    66.2720    77.1030    69.3380    64.6440    24.6750   -17.4210 
  226.2500     2.2530    61.1600    74.0120    66.7360    64.6440    24.6230   -17.7250 
  226.3750     2.2660    57.4740    70.0150    63.1050    58.5600    24.5570   -18.0300 
  226.5000     2.2760    59.0440    65.8930    59.1760    49.5790    24.4880   -18.2760 
  226.6250     2.2840    64.2660    62.8130    56.1050    45.1710    24.3080   -18.3420 
  226.7500     2.2950    65.5680    61.3640    54.5450    41.3890    23.8460   -18.2460 
  226.8750     2.3120    61.7500    61.7620    54.7690    41.3950    23.1950   -18.0570 
  227.0000     2.3260    57.8360    63.8910    56.7130    54.9580    22.6250   -17.7420 
  227.1250     2.3170    59.7580    67.6330    60.3220    81.3400    22.4440   -17.4160 
  227.2500     2.2810    62.7460    72.1820    65.0750    80.6390    22.4350   -17.0930 
  227.3750     2.2380    63.0130    76.3340    70.5460    61.3910    22.6310   -16.7400 
  227.5000     2.2260    62.1380    77.6980    75.0290    50.4360    22.8550   -16.3510 
  227.6250     2.2830    63.5800    72.0470    72.9020    47.7490    22.9370   -16.0480 
  227.7500     2.3780    66.4320    59.5990    61.3710    49.4200    22.7670   -15.9490 
  227.8750     2.4590    67.3390    43.3630    43.8090    52.9970    22.4310   -16.1020 
  228.0000     2.4810    68.2360    27.9740    27.3590    35.5110    22.0950   -16.5360 
  228.1250     2.4270    72.2900    17.5800    16.9470    16.9950    21.9160   -17.0760 
  228.2500     2.3490    77.0480    11.6510    11.1080     8.2640    21.7610   -17.6830 
  228.3750     2.2840    78.2510     8.8200     8.2110     6.0240    21.6070   -18.2350 
  228.5000     2.2440    75.7680     7.7820     7.0200     5.9320    21.4850   -18.6380 
  228.6250     2.2140    75.2520     7.7940     6.9490     6.9000    21.3870   -18.9070 
