~V
VERS. 2.00: Ver 2.00
~W
STRT.M 59.0000:
STOP.M 230.0000:
STEP.M 0.1250:
NULL. -999.2500:
UWI. F11001:
~C
DEPT.M :
GR.API :
RML.OHMM :
RI. :
RXO.OHMM :
CALI.CM :
SP.MV :
DEN.GM/CC :
~A
# ...
  137.7500    83.4160    17.4870    16.5910    17.2140    23.5130    -2.6710     2.4390 
  137.8750    79.6000    16.2060    15.3260    15.7760    23.4230    -2.4850     2.4490 
  138.0000    77.7690    15.0510    14.1640    14.7220    23.4620    -2.3090     2.4610 
  138.1250    75.5260    14.1750    13.2670    13.0880    23.7110    -2.1800     2.4770 
  138.2500    71.6620    13.6760    12.7470    12.3900    24.0090    -2.2160     2.4920 
  138.3750    68.0360    13.4730    12.5350    11.9020    24.2150    -2.2990     2.5020 
  138.5000    65.9720    13.5210    12.5960    11.8240    24.1930    -2.3770     2.5030 
  138.6250    66.8660    13.7740    12.8970    12.3660    23.9850    -2.5180     2.5010 
  138.7500    70.5190    14.1980    13.4260    12.4770    23.8080    -2.6850     2.4980 
  138.8750    73.3550    14.7080    14.0920    12.8570    23.7600    -2.7760     2.4950 
  139.0000    73.1380    15.2460    14.8360    13.5320    23.8100    -2.8230     2.4890 
  139.1250    70.8650    15.7470    15.5820    14.0250    23.8600    -2.8430     2.4790 
  139.2500    70.9820    16.0880    16.1820    14.2590    23.8170    -2.8190     2.4630 
  139.3750    74.0480    16.1700    16.4900    14.5330    23.7690    -2.8180     2.4440 
  139.5000    78.7790    15.9000    16.3690    15.0520    23.8590    -2.8410     2.4290 
  139.6250    83.3800    15.2380    15.7470    14.9730    24.1080    -2.8450     2.4240 
  139.7500    85.6840    14.1930    14.6170    13.1710    24.5330    -2.9100     2.4300 
  139.8750    85.0620    12.9930    13.2670    10.6050    24.9550    -3.0470     2.4420 
  140.0000    85.6650    11.8320    11.9350     8.7930    25.1570    -3.1840     2.4510 
  140.1250    91.6260    10.8840    10.8130     7.9130    25.1740    -3.3020     2.4540 
  140.2500   100.3450    10.3180    10.0760     7.6040    24.9600    -3.3920     2.4520 
  140.3750   103.1520    10.1400     9.7110     7.6170    24.7060    -3.4350     2.4530 
  140.5000    98.6350    10.4100     9.7470     8.2190    24.5180    -3.4880     2.4590 
  140.6250    91.4440    11.2480    10.2590     9.5280    24.4490    -3.6210     2.4650 
  140.7500    84.5330    12.9670    11.5180    10.2500    24.4140    -3.7810     2.4570 
  140.8750    78.5840    15.6010    13.6160    11.3980    24.3920    -4.0140     2.4310 
  141.0000    75.3810    19.1610    16.6940    13.7570    24.2580    -4.3950     2.3920 
  141.1250    75.0830    23.4770    20.7600    20.0970    23.9570    -4.8360     2.3510 
  141.2500    74.3730    28.1850    25.5860    35.2500    23.7570    -5.3010     2.3240 
  141.3750    71.7670    32.7730    30.4200    46.6210    23.7230    -5.8420     2.3110 
  141.5000    69.8650    37.0080    34.8060    48.2290    23.7370    -6.3980     2.3060 
  141.6250    70.1510    40.8000    38.6160    44.3980    23.6080    -6.8750     2.3000 
  141.7500    71.5550    43.7780    41.6520    48.2460    23.5850    -7.2660     2.2890 
  141.8750    72.8580    45.4090    43.4800    63.1160    23.7050    -7.5740     2.2760 
  142.0000    74.4800    45.0840    43.3520    76.6290    23.8870    -7.7890     2.2640 
  142.1250    75.2210    42.7510    41.0330    68.4850    24.0900    -7.9710     2.2590 
  142.2500    75.6720    39.2890    37.3610    45.2890    24.3340    -8.1430     2.2650 
  142.3750    77.2300    36.5020    34.2340    27.6070    24.3850    -8.2780     2.2800 
  142.5000    78.3640    35.6140    32.8220    21.2310    24.3130    -8.4590     2.3010 
  142.6250    77.3090    37.5190    33.7070    24.2580    24.2430    -8.7380     2.3180 
  142.7500    76.5840    42.8010    37.3480    40.6030    24.1710    -9.0860     2.3200 
  142.8750    78.7530    49.8630    42.9170    53.2170    24.0390    -9.5130     2.3100 
  143.0000    80.3070    57.3200    49.6570    62.4900    23.8820   -10.0250     2.2940 
  143.1250    78.6470    64.4180    56.7010    61.6320    23.7760   -10.5660     2.2830 
  143.2500    76.7020    71.4020    63.5710    60.0490    23.8300   -11.1480     2.2790 
  143.3750    75.8790    78.9530    70.7260    64.9200    24.1170   -11.7990     2.2750 
  143.5000    75.2400    87.5530    78.8250    85.4410    24.6050   -12.4310     2.2680 
  143.6250    73.8660    97.2640    88.0180   115.1420    25.0930   -13.0270     2.2570 
  143.7500    72.7600   107.4190    97.6610   119.2480    25.2460   -13.6620     2.2510 
  143.8750    72.9370   116.7960   106.5310   112.8530    25.2080   -14.2210     2.2550 
  144.0000    72.3630   124.5240   113.7310   114.1540    25.1410   -14.6660     2.2670 
  144.1250    71.3990   130.2600   118.8680   116.7300    25.1310   -15.0990     2.2800 
  144.2500    71.5220   134.2060   122.1740   126.4640    25.1720   -15.4670     2.2860 
  144.3750    73.8260   137.7050   125.0480   118.8510    25.1920   -15.6860     2.2850 
  144.5000    76.2680   141.8910   128.6130   110.2950    25.1780   -15.8220     2.2820 
  144.6250    76.2290   147.6990   133.8250   115.9180    25.1180   -15.9180     2.2800 
  144.7500    73.5130   155.7660   141.5480   124.9360    24.9780   -15.8560     2.2760 
  144.8750    69.9850   164.8990   150.8040   160.2320    24.8590   -15.6590     2.2700 
  145.0000    67.2140   173.3510   159.9150   200.0170    24.7450   -15.3970     2.2640 
  145.1250    67.4870   178.7710   166.7360   234.6810    24.5230   -15.0430     2.2630 
  145.2500    69.6100   179.4770   168.7370   239.3410    24.1800   -14.6530     2.2700 
  145.3750    71.4750   177.9100   166.2110   220.9950    23.9570   -14.2830     2.2770 
  145.5000    72.3110   174.8860   160.1300   208.0770    23.8790   -13.8830     2.2780 
  145.6250    72.3310   169.4360   152.1020   207.7050    23.8710   -13.4770     2.2720 
  145.7500    71.8270   161.1060   144.0450   193.9220    23.8600   -13.1330     2.2650 
  145.8750    72.6140   152.9420   137.4600   162.1950    23.8500   -12.8380     2.2640 
  146.0000    76.8670   146.9510   132.9930   133.9020    23.8610   -12.5740     2.2690 
  146.1250    81.9050   142.6950   130.4640   126.8590    23.9290   -12.3910     2.2750 
  146.2500    81.2910   138.8310   128.7940   143.8530    24.1270   -12.1940     2.2770 
  146.3750    76.6130   133.9750   126.3320   138.4350    24.4030   -12.0100     2.2770 
  146.5000    71.7400   127.7160   122.3410   106.7090    24.6710   -11.9350     2.2840 
  146.6250    68.7370   120.5380   117.1460    69.8990    24.8810   -11.8330     2.3020 
  146.7500    69.6350   113.3900   111.8560    67.3620    24.9430   -11.6900     2.3280 
  146.8750    74.6030   106.5950   106.9240    70.9890    24.9110   -11.6430     2.3520 
  147.0000    79.9440    99.6340   101.6990    83.3150    24.8520   -11.6300     2.3650 
  147.1250    80.9500    91.7350    95.1740   103.6900    24.7960   -11.5450     2.3620 
  147.2500    77.8930    82.3250    86.4030   119.2080    24.6470   -11.5240     2.3440 
  147.3750    75.1270    72.1600    76.1780    98.4620    24.3870   -11.5300     2.3210 
  147.5000    74.4910    62.2810    65.7900    67.5790    24.2240   -11.4260     2.3020 
  147.6250    75.9800    53.7610    56.6720    56.2540    24.2620   -11.2640     2.2920 
  147.7500    79.1550    47.7330    50.1610    52.5650    24.4700   -11.1030     2.2930 
  147.8750    82.5570    44.0620    46.1310    36.3300    24.6820   -10.9290     2.2950 
  148.0000    85.5040    42.5700    44.4300    26.3010    24.8040   -10.8140     2.2930 
  148.1250    86.1650    42.9160    44.7000    25.7440    24.7750   -10.8240     2.2810 
  148.2500    83.2230    44.9530    46.7300    33.8300    24.6700   -10.8200     2.2640 
  148.3750    80.3700    48.2030    49.9970    43.0400    24.6420   -10.8520     2.2470 
  148.5000    79.8120    52.6230    54.4550    48.3280    24.5280   -11.0570     2.2330 
  148.6250    81.9670    58.2560    60.1080    49.3440    24.3230   -11.4060     2.2220 
  148.7500    84.3380    65.3250    67.1520    51.7180    24.2790   -11.8630     2.2130 
  148.8750    83.3200    73.4070    75.2310    63.0060    24.4250   -12.3760     2.2060 
