~V
VERS. 2.00: Ver 2.00
~W
STRT.M 54.0000:
STOP.M 281.0000:
STEP.M 0.1250:
NULL. -999.2500:
UWI. F11055:
~C
DEPT.M :
SP.MV :
GR.API :
RML.OHMM :
RI. :
RXO.OHMM :
CALI.CM :
DEN.GM/CC :
~A
# ...
  200.2500   -10.0540    56.1680    94.5120    93.9670   119.0830    24.9320     2.2370 
  200.3750    -9.9450    63.3440    69.1330    68.1950    73.8560    24.9390     2.2540 
  200.5000    -9.8050    69.6620    52.8590    50.8590    47.8340    24.9240     2.2730 
  200.6250    -9.6780    72.8980    44.6280    41.7580    37.9380    24.8700     2.2940 
  200.7500    -9.5380    73.6850    40.8240    37.2000    40.0670    24.8130     2.3130 
  200.8750    -9.4310    72.6650    39.9350    35.5310    45.9520    24.7980     2.3220 
  201.0000    -9.3260    70.4370    40.8900    35.7260    48.4170    24.8010     2.3210 
  201.1250    -9.2720    68.0680    42.7860    37.0670    42.5110    24.7800     2.3140 
  201.2500    -9.2110    68.3360    44.6060    38.5810    40.5740    24.7760     2.3030 
  201.3750    -9.1420    71.3740    45.8630    39.7480    48.3920    24.7880     2.2980 
  201.5000    -9.0480    75.2040    46.3260    40.2780    55.6740    24.7770     2.3120 
  201.6250    -8.9220    75.2260    45.8260    39.9510    50.1140    24.7220     2.3560 
  201.7500    -8.7710    70.8740    44.6980    39.0060    41.9840    24.6560     2.4230 
  201.8750    -8.5800    65.4920    43.2380    37.6760    37.2830    24.6410     2.5020 
  202.0000    -8.3730    63.6630    41.5390    36.0480    35.6770    24.6450     2.5740 
  202.1250    -8.1100    65.7660    39.1220    33.7330    34.4770    24.6650     2.6100 
  202.2500    -7.8510    69.6940    35.5820    30.4490    33.0480    24.7320     2.6070 
  202.3750    -7.6140    75.8170    30.9250    26.2740    31.4430    24.8430     2.5800 
  202.5000    -7.3960    83.0210    25.7330    21.7340    25.8870    24.9190     2.5420 
  202.6250    -7.2260    88.3300    20.9950    17.6320    18.6710    24.9520     2.5090 
  202.7500    -7.0600    90.3850    17.2740    14.3690    14.8660    24.9570     2.4960 
  202.8750    -6.9350    91.0010    14.7120    12.0390    14.2380    24.9610     2.4950 
  203.0000    -6.8090    93.0700    13.2480    10.5820    13.2570    25.0070     2.4920 
  203.1250    -6.7390    97.0290    12.9290    10.0300    11.5570    25.0510     2.4880 
  203.2500    -6.7020    99.7840    13.3860    10.1210    11.0340    25.0300     2.4970 
  203.3750    -6.6970    97.2570    14.2890    10.6570    12.8860    24.9650     2.5130 
  203.5000    -6.6560    89.9390    15.1870    11.3230    16.4530    24.9330     2.5200 
  203.6250    -6.6310    83.0260    15.4910    11.6580    17.7660    24.9450     2.5100 
  203.7500    -6.6220    80.9730    15.0530    11.4630    14.8600    24.9580     2.4950 
  203.8750    -6.5850    84.2250    14.0580    10.8100    12.2930    24.9450     2.4860 
  204.0000    -6.5330    89.3020    12.9180     9.9540    11.1420    24.9480     2.4790 
  204.1250    -6.4160    92.8920    12.0680     9.1860    10.6180    25.0020     2.4730 
  204.2500    -6.2460    94.5770    11.5780     8.6100    10.3820    25.0430     2.4670 
  204.3750    -6.0220    94.4630    11.3500     8.2080    10.1620    25.0730     2.4550 
  204.5000    -5.7700    94.1800    11.2570     7.9370    10.0670    25.1040     2.4310 
  204.6250    -5.5090    96.4670    11.2950     7.8130     9.9530    25.1570     2.4050 
  204.7500    -5.2450    98.7450    11.5460     7.8700    10.0400    25.1980     2.3960 
  204.8750    -5.0030    98.7470    12.1010     8.1560    11.1580    25.1610     2.4140 
  205.0000    -4.7870    97.6800    12.9880     8.7040    12.6450    25.0110     2.4500 
  205.1250    -4.5990    95.4440    14.1870     9.5470    14.4260    24.8560     2.4840 
  205.2500    -4.4470    91.9640    15.5330    10.5780    16.3750    24.7800     2.5080 
  205.3750    -4.3100    89.0900    16.9190    11.6980    18.1890    24.7510     2.5250 
  205.5000    -4.1940    89.0170    18.2620    12.8070    18.1090    24.7100     2.5410 
  205.6250    -4.0340    89.5130    19.3450    13.7290    18.3510    24.6630     2.5440 
  205.7500    -3.8950    88.2910    19.8150    14.2120    18.1330    24.6250     2.5210 
  205.8750    -3.7050    89.3410    19.2410    13.9330    18.1280    24.6480     2.4620 
  206.0000    -3.5040    95.0860    17.4360    12.7420    18.3760    24.7120     2.3560 
  206.1250    -3.2760    99.4410    14.6290    10.8070    17.4230    24.8440     2.1610 
  206.2500    -3.0670    95.2210    11.7310     8.7840    13.7970    25.3650     1.9180 
  206.3750    -2.8670    83.3240     9.3430     7.0620     8.5720    26.6990     1.7120 
  206.5000    -2.6850    70.8860     7.7380     5.8130     6.0200    28.6750     1.5840 
  206.6250    -2.5020    62.4250     6.9640     5.0970     5.7450    30.2380     1.5280 
  206.7500    -2.3310    56.6800     6.6680     4.7350     5.8470    30.7950     1.4960 
  206.8750    -2.1690    54.5360     6.6240     4.6190     5.7100    30.8940     1.4710 
  207.0000    -2.0310    57.6330     6.6420     4.6360     5.5120    30.8850     1.4580 
  207.1250    -1.9280    63.8590     6.5920     4.6850     5.5980    30.8610     1.4700 
  207.2500    -1.8480    67.6810     6.5000     4.7220     5.7300    30.8740     1.5060 
  207.3750    -1.7820    68.5380     6.4580     4.7800     5.7030    30.8280     1.5690 
  207.5000    -1.7380    68.6480     6.5560     4.9150     5.3020    30.3420     1.6620 
  207.6250    -1.7100    70.1390     6.8700     5.1900     5.0500    28.8830     1.7930 
  207.7500    -1.7100    74.2360     7.3300     5.5650     5.1430    26.9310     1.9500 
  207.8750    -1.7280    78.8100     7.8180     5.9590     5.8780    25.5480     2.1100 
  208.0000    -1.7800    80.1870     8.1690     6.2460     6.9290    25.1070     2.2270 
  208.1250    -1.8270    77.9580     8.1860     6.2560     7.4590    25.4170     2.2430 
  208.2500    -1.8470    77.1290     7.9330     6.0220     6.3490    25.8180     2.1910 
  208.3750    -1.8300    79.2170     7.5700     5.6630     5.5890    25.8780     2.1340 
  208.5000    -1.8280    83.0680     7.2800     5.3230     5.5560    25.5850     2.1220 
  208.6250    -1.8040    88.2820     7.2280     5.1340     5.8790    25.0950     2.1750 
  208.7500    -1.7760    92.8960     7.4000     5.1090     6.3830    24.7640     2.2560 
  208.8750    -1.7710    93.3590     7.7320     5.2270     6.9950    24.6470     2.3270 
  209.0000    -1.7420    90.8510     8.1460     5.4510     7.5280    24.6250     2.3670 
  209.1250    -1.7240    90.9970     8.6190     5.7620     7.5210    24.6150     2.3860 
  209.2500    -1.7170    94.1910     9.1710     6.1400     7.9390    24.6130     2.4020 
  209.3750    -1.7390    93.9480     9.8560     6.5950     9.2160    24.6130     2.4160 
  209.5000    -1.7840    86.9770    10.7400     7.1520    10.3600    24.6160     2.4260 
  209.6250    -1.8560    79.5610    11.9230     7.8840    11.7740    24.6130     2.4210 
  209.7500    -1.9060    78.1840    13.3890     8.8130    12.9090    24.6120     2.4000 
  209.8750    -1.9520    80.3970    15.1830     9.9750    14.3550    24.6120     2.3710 
  210.0000    -2.0030    81.9790    17.3930    11.4170    16.6740    24.6120     2.3480 
  210.1250    -2.0580    82.9470    20.2430    13.2720    19.2980    24.6120     2.3390 
  210.2500    -2.1100    85.1100    23.8370    15.5890    20.9150    24.6120     2.3350 
  210.3750    -2.1200    84.8330    28.4320    18.5380    22.5740    24.6120     2.3330 
  210.5000    -2.1070    80.1380    34.1900    22.3030    26.4860    24.6120     2.3300 
  210.6250    -2.0870    74.2880    40.7410    26.8590    33.2330    24.6120     2.3170 
  210.7500    -2.0210    71.4110    46.5310    31.2510    31.5370    24.6140     2.3000 
  210.8750    -1.9460    69.9050    50.0880    34.4190    31.5640    24.6170     2.2880 
  211.0000    -1.8560    66.8760    50.9340    35.8080    46.5840    24.6180     2.2930 
  211.1250    -1.7610    64.2220    50.2090    35.8490    58.8320    24.6140     2.3230 
  211.2500    -1.6420    64.6250    50.5020    36.1990    48.5650    24.6140     2.3620 
  211.3750    -1.5450    65.6530    53.5970    38.2080    42.4680    24.6150     2.3880 
