~V
VERS. 2.00: Ver 2.00
~W
STRT.M 49.0000:
STOP.M 284.0000:
STEP.M 0.1250:
NULL. -999.2500:
UWI. F11034:
~C
DEPT.M :
GR.API :
RML.OHMM :
RI. :
RXO.OHMM :
CALI.CM :
DEN.GM/CC :
SP.MV :
~A
# ...
  195.2500    53.6350   140.1030   130.1170   135.0450    25.4270     2.2520   -24.4300 
  195.3750    56.1740   136.5630   127.0410   127.7580    25.4240     2.2450   -24.3600 
  195.5000    57.5150   134.2430   124.8260   122.3210    25.4270     2.2380   -24.2960 
  195.6250    58.2980   133.3090   123.7140   119.9680    25.4390     2.2350   -24.2290 
  195.7500    58.3980   133.6400   123.6790   119.6880    25.4630     2.2360   -24.1480 
  195.8750    57.5320   134.9600   124.5120   120.6040    25.4850     2.2400   -24.0320 
  196.0000    56.5930   136.9640   125.9460   122.5640    25.4980     2.2440   -23.8890 
  196.1250    55.4140   139.2420   127.5970   125.0930    25.5040     2.2470   -23.7580 
  196.2500    55.5380   141.4980   129.1900   127.1550    25.5090     2.2460   -23.6250 
  196.3750    57.4120   143.4730   130.5160   128.7580    25.5130     2.2450   -23.4570 
  196.5000    57.2900   144.7510   131.3030   129.7520    25.5160     2.2450   -23.2160 
  196.6250    55.0320   145.0430   131.4300   131.0650    25.5180     2.2470   -22.8980 
  196.7500    54.2420   144.1080   130.8430   132.5960    25.5250     2.2490   -22.5390 
  196.8750    56.3310   141.8750   129.6000   133.1920    25.5400     2.2510   -22.1960 
  197.0000    58.6680   138.5410   127.9400   131.9990    25.5490     2.2530   -21.8880 
  197.1250    60.2000   134.9350   126.3920   129.5280    25.5520     2.2540   -21.5780 
  197.2500    60.1260   131.9800   125.5380   125.9640    25.5450     2.2550   -21.2520 
  197.3750    57.3070   130.4840   125.9200   121.4330    25.5130     2.2570   -20.9270 
  197.5000    54.9330   131.1270   128.0560   117.1570    25.4240     2.2580   -20.6360 
  197.6250    56.2940   133.2170   131.3680   114.3400    25.3070     2.2580   -20.3940 
  197.7500    58.8580   135.0180   134.2950   114.5460    25.2050     2.2550   -20.1680 
  197.8750    58.3650   133.7910   134.1720   118.1890    25.1520     2.2500   -19.9100 
  198.0000    55.1560   125.2780   126.6280   121.1320    25.1120     2.2490   -19.6170 
  198.1250    52.9560   108.4580   110.3710   119.5450    25.0240     2.2550   -19.3410 
  198.2500    54.0320    85.5130    87.2440   111.3410    24.8720     2.2690   -19.0990 
  198.3750    58.0620    61.7100    62.6060    95.5960    24.7260     2.2910   -18.8700 
  198.5000    65.2670    43.6270    43.6220    69.4620    24.6750     2.3180   -18.6540 
  198.6250    73.0450    33.1670    32.2760    40.4050    24.7080     2.3400   -18.4390 
  198.7500    75.9100    30.1000    27.9360    26.7500    24.7400     2.3480   -18.2530 
  198.8750    71.2900    34.2190    30.1050    33.8010    24.7290     2.3390   -18.1460 
  199.0000    63.5870    47.3730    40.7010    61.3530    24.7420     2.3140   -18.1300 
  199.1250    59.4550    69.7210    60.3130   103.1290    24.8420     2.2870   -18.1400 
  199.2500    59.6360    99.9710    88.0530   152.1570    24.9760     2.2630   -18.1640 
  199.3750    61.0620   133.9810   120.0970   189.5890    25.0330     2.2460   -18.2010 
  199.5000    60.4840   162.6760   147.5320   194.5790    25.0210     2.2390   -18.2320 
  199.6250    57.0360   177.4700   162.0800   188.9710    25.0170     2.2390   -18.2790 
  199.7500    54.0060   176.3760   162.0960   183.3220    25.0540     2.2450   -18.3130 
  199.8750    54.1170   165.4700   152.8210   179.3580    25.1010     2.2530   -18.3030 
  200.0000    56.0310   151.8640   140.2990   173.5170    25.1270     2.2620   -18.2230 
  200.1250    57.5490   138.5200   127.5850   161.6180    25.1340     2.2710   -18.1090 
  200.2500    57.9820   125.8610   115.3890   145.3190    25.1160     2.2820   -17.9830 
  200.3750    58.6950   113.8070   103.7950   128.2440    25.0440     2.3020   -17.8620 
  200.5000    59.6440   101.8720    92.4560   111.1840    24.8930     2.3370   -17.7240 
  200.6250    58.3610    89.3050    80.6610    95.2920    24.7850     2.3900   -17.5290 
  200.7500    53.6990    75.7240    67.9880    84.0520    24.7280     2.4550   -17.3100 
  200.8750    48.4290    61.4220    54.6490    74.8650    24.6430     2.5180   -17.0930 
  201.0000    47.1840    47.4500    41.8170    61.7850    24.5270     2.5570   -16.9070 
  201.1250    50.1750    35.1860    30.8150    41.2030    24.5020     2.5620   -16.7270 
  201.2500    56.1170    25.4070    22.3570    23.2730    24.5250     2.5330   -16.5280 
  201.3750    64.6680    18.0980    16.4260    13.2420    24.5670     2.4800   -16.3420 
  201.5000    72.9140    13.9940    12.7720     9.6430    24.7220     2.4210   -16.2380 
  201.6250    78.7480    11.7920    10.6200     8.7310    24.9260     2.3730   -16.2420 
  201.7500    82.3420    10.7250     9.4700     8.8300    25.0500     2.3460   -16.3440 
  201.8750    85.2670    10.3390     8.9940     9.1800    25.1020     2.3420   -16.5200 
  202.0000    87.1470    10.3040     8.9520     9.4330    25.1060     2.3560   -16.7630 
  202.1250    87.4000    10.3270     9.0810     9.6490    25.0760     2.3760   -17.0840 
  202.2500    86.9290    10.2370     9.2210     9.8030    25.0440     2.3940   -17.5140 
  202.3750    85.5290    10.0830     9.2820     9.7970    25.0170     2.4070   -18.0340 
  202.5000    82.7150     9.9480     9.2350     9.5820    24.9950     2.4150   -18.6220 
  202.6250    81.4010     9.8400     9.1190     9.3240    24.9710     2.4180   -19.2440 
  202.7500    84.7320     9.7370     8.9750     9.0650    24.9750     2.4170   -19.8770 
  202.8750    90.4420     9.6580     8.8310     8.9180    25.0410     2.4110   -20.5340 
  203.0000    91.0400     9.5170     8.6840     9.0120    25.1110     2.4020   -21.2130 
  203.1250    85.8480     9.3070     8.5150     9.0400    25.1470     2.3910   -21.8690 
  203.2500    79.5010     9.0300     8.3100     8.8920    25.1520     2.3790   -22.4390 
  203.3750    76.1640     8.6490     8.0780     8.6640    25.1430     2.3660   -22.8670 
  203.5000    75.6180     8.5040     7.8790     8.5410    25.1420     2.3560   -23.0910 
  203.6250    74.5820     8.5900     7.8130     8.5390    25.1620     2.3480   -23.1310 
  203.7500    71.6150     9.0270     8.0040     8.7150    25.1830     2.3470   -22.9940 
  203.8750    67.4290     9.9650     8.5690     9.3380    25.1890     2.3570   -22.6670 
  204.0000    63.7570    11.4950     9.6110    10.8020    25.1720     2.3850   -22.0920 
  204.1250    61.0520    13.3270    10.9690    13.2720    25.1160     2.4340   -21.3110 
  204.2500    59.5100    14.9920    12.3300    16.5490    25.0190     2.4930   -20.3890 
  204.3750    60.2820    15.9600    13.2860    19.6890    24.9090     2.5500   -19.3990 
  204.5000    64.2910    15.7080    13.3420    20.6370    24.8290     2.5830   -18.3840 
  204.6250    68.5760    14.4470    12.5420    19.2060    24.7920     2.5860   -17.3410 
  204.7500    71.5210    12.7110    11.2480    15.9660    24.7800     2.5670   -16.2900 
  204.8750    74.1400    11.0780     9.9170    12.2640    24.7740     2.5360   -15.2560 
  205.0000    75.7690     9.9930     8.9240    10.7630    24.7670     2.5070   -14.2950 
  205.1250    75.5100     9.4470     8.3310    10.5860    24.7890     2.4900   -13.4250 
  205.2500    74.8310     9.2970     8.0760    10.3540    24.8750     2.4860   -12.6200 
  205.3750    75.3970     9.3870     8.0700     9.7490    24.9650     2.4970   -11.8510 
  205.5000    75.8840     9.5950     8.2290     9.6940    24.9880     2.5190   -11.1000 
  205.6250    74.5450     9.8300     8.4550    10.2800    24.9640     2.5420   -10.3620 
  205.7500    73.6870    10.0400     8.6840    10.8550    24.9320     2.5570    -9.6440 
  205.8750    74.6780    10.1680     8.8590    11.0410    24.9080     2.5620    -8.9490 
  206.0000    76.1250    10.0970     8.8750    10.8290    24.8770     2.5580    -8.2860 
  206.1250    75.2630     9.7680     8.6730    10.5490    24.7800     2.5490    -7.6260 
  206.2500    73.3400     9.1860     8.2430    10.3310    24.4710     2.5340    -6.9700 
  206.3750    73.9090     8.4280     7.6380     9.6990    23.8390     2.5110    -6.3550 
