~V
VERS. 2.00: Ver 2.00
~W
STRT.M 55.0000:
STOP.M 277.0000:
STEP.M 0.1250:
NULL. -999.2500:
UWI. F11037:
~C
DEPT.M :
SP.MV :
GR.API :
RML.OHMM :
RI. :
RXO.OHMM :
CALI.CM :
DEN.GM/CC :
~A
# ...
  201.2500   -17.6150    83.7000    13.1790    12.2070    14.9510    25.2380     2.4490 
  201.3750   -17.7720    86.4220    12.0350    11.0080    13.5480    25.2360     2.4660 
  201.5000   -17.7370    87.2650    10.8830     9.7060    10.3590    25.2280     2.4730 
  201.6250   -17.6700    86.6590    10.0450     8.7030     8.6870    25.2330     2.4680 
  201.7500   -17.6150    86.4850     9.5530     8.0490     8.6210    25.3320     2.4590 
  201.8750   -17.5230    86.2850     9.3390     7.6930     9.2300    25.4320     2.4510 
  202.0000   -17.5870    85.3800     9.2950     7.5460     9.4530    25.4920     2.4410 
  202.1250   -17.8300    84.1360     9.4020     7.5580     9.4990    25.4800     2.4290 
  202.2500   -18.0820    83.2750     9.8050     7.7300     9.9140    25.4250     2.4230 
  202.3750   -18.3480    83.0710    10.8450     8.2100    10.7260    25.3880     2.4330 
  202.5000   -18.4960    82.4920    12.9470     9.2700    12.1830    25.4220     2.4650 
  202.6250   -18.3090    79.7220    16.7130    11.5790    15.5000    25.4430     2.5190 
  202.7500   -17.9140    75.0750    21.7210    15.4370    23.0230    25.3770     2.5830 
  202.8750   -17.3460    70.7400    26.7440    20.6370    35.5290    25.2730     2.6500 
  203.0000   -16.5720    70.5030    29.5560    25.3370    50.8570    25.1910     2.7170 
  203.1250   -15.5480    73.7510    27.4410    25.0560    55.9110    25.1750     2.7720 
  203.2500   -14.4430    74.2010    21.7310    20.0380    47.5280    25.1840     2.7950 
  203.3750   -13.3290    69.5130    15.0130    13.7900    26.3420    25.1690     2.7650 
  203.5000   -12.2270    63.4200     9.6640     8.9290    10.0920    25.1260     2.6810 
  203.6250   -11.1660    59.2880     6.8290     6.1990     5.8690    25.1490     2.5650 
  203.7500   -10.2320    56.8610     5.5750     4.7550     5.1080    25.2310     2.4610 
  203.8750    -9.5130    56.1480     5.2120     4.1310     5.3250    25.3020     2.3930 
  204.0000    -8.8650    57.6210     5.2560     4.0360     5.4690    25.2960     2.3630 
  204.1250    -8.3450    59.9390     5.4080     4.2640     5.3650    25.2390     2.3610 
  204.2500    -8.1240    62.3560     5.5070     4.5270     5.2420    25.1880     2.3690 
  204.3750    -8.0530    65.4330     5.5210     4.6830     5.0370    25.1240     2.3820 
  204.5000    -8.1180    70.1480     5.4680     4.7030     4.8520    25.0520     2.3980 
  204.6250    -8.4400    77.1420     5.3940     4.6510     4.6650    25.1410     2.4120 
  204.7500    -8.8030    83.7280     5.3590     4.6290     4.5530    25.1720     2.4220 
  204.8750    -9.0770    86.1570     5.4090     4.6790     4.6100    24.8500     2.4250 
  205.0000    -9.3820    85.3030     5.5570     4.7920     4.7820    24.5670     2.4180 
  205.1250    -9.6560    84.5390     5.7620     4.9120     4.9940    24.5960     2.3950 
  205.2500    -9.6870    84.7230     5.9160     4.9970     5.1710    24.8540     2.3600 
  205.3750    -9.6340    84.4280     5.9480     5.0410     5.3040    25.1120     2.3220 
  205.5000    -9.5750    82.6270     5.8560     5.0520     5.4760    25.2730     2.2960 
  205.6250    -9.4010    80.0280     5.7170     5.0560     5.7340    25.3040     2.3000 
  205.7500    -9.2640    79.5440     5.6440     5.0940     6.0640    25.2910     2.3290 
  205.8750    -9.2340    81.1550     5.6760     5.1770     6.3820    25.2730     2.3680 
  206.0000    -9.2640    82.1170     5.7920     5.2830     6.8060    25.2640     2.4030 
  206.1250    -9.4850    80.4520     5.9780     5.3730     7.1910    25.2600     2.4200 
  206.2500    -9.7680    79.4770     6.2890     5.4740     7.7310    25.2660     2.4220 
  206.3750   -10.0180    80.0630     6.8600     5.6720     8.2480    25.2870     2.4110 
  206.5000   -10.2220    79.7290     7.8070     6.0780     8.2560    25.2980     2.3920 
  206.6250   -10.2690    78.6700     9.1700     6.8360     9.2820    25.3240     2.3680 
  206.7500   -10.1790    76.9530    10.6660     7.8680    12.1730    25.3550     2.3440 
  206.8750   -10.1070    74.8910    11.9950     8.9870    15.3890    25.3950     2.3270 
  207.0000    -9.9860    74.5910    12.9050     9.9090    18.1140    25.4290     2.3190 
  207.1250    -9.7010    76.8750    13.2440    10.3250    16.8870    25.4230     2.3220 
  207.2500    -9.5030    78.8840    13.2710    10.3290    15.5950    25.3990     2.3300 
  207.3750    -9.3800    78.5760    13.2810    10.1650    15.5120    25.3900     2.3360 
  207.5000    -9.3380    75.8570    13.6030    10.1430    16.7620    25.3960     2.3370 
  207.6250    -9.6140    73.2910    14.6910    10.6360    20.5810    25.4060     2.3360 
  207.7500   -10.0980    73.5990    16.7380    11.8110    20.4960    25.4090     2.3380 
  207.8750   -10.4650    75.5820    19.9760    13.9150    21.2420    25.4130     2.3470 
  208.0000   -10.5960    75.5180    24.5820    17.2430    28.7900    25.4070     2.3570 
  208.1250   -10.6990    72.8990    30.8060    22.2770    47.7860    25.4100     2.3600 
  208.2500   -10.7300    69.7200    38.0660    28.6660    59.8720    25.4130     2.3500 
  208.3750   -10.6820    67.5990    45.6220    35.8380    61.8250    25.4470     2.3260 
  208.5000   -10.6150    66.8790    52.5030    42.8240    66.3880    25.4930     2.2940 
  208.6250   -10.3270    67.4010    57.6740    48.3760    69.3300    25.5240     2.2620 
  208.7500    -9.8710    67.9000    61.4090    52.5030    72.6520    25.5520     2.2360 
  208.8750    -9.4660    65.9170    64.3220    55.7630    76.6260    25.5760     2.2170 
  209.0000    -9.2080    61.6570    67.0190    58.6940    80.7400    25.5860     2.2040 
  209.1250    -8.9880    59.6920    69.6530    61.3770    81.0770    25.5850     2.1970 
  209.2500    -8.8090    61.3090    71.7750    63.5350    82.8350    25.5830     2.1940 
  209.3750    -8.6120    62.6030    72.6640    64.6230    93.5030    25.5890     2.1970 
  209.5000    -8.3610    60.0540    71.6920    64.0880    97.6050    25.5990     2.2030 
  209.6250    -8.2710    59.2340    68.4470    61.5430    84.0600    25.5700     2.2070 
  209.7500    -8.2270    65.3070    63.9550    57.8650    68.9810    25.5210     2.2040 
  209.8750    -8.1370    73.4830    59.2020    53.8640    62.3760    25.4740     2.2000 
  210.0000    -8.0990    77.7510    55.0670    50.2910    56.7740    25.3770     2.1990 
  210.1250    -8.0900    75.8250    52.3160    47.9030    51.9900    25.0450     2.2050 
  210.2500    -8.1060    72.6330    50.8950    46.7910    49.2060    24.4880     2.2130 
  210.3750    -8.2150    71.1380    50.6980    46.9280    51.3870    23.9640     2.2180 
  210.5000    -8.2920    71.0140    51.5030    48.1310    47.9360    23.6550     2.2160 
  210.6250    -8.1200    68.7390    53.0360    50.0990    47.8110    23.5740     2.2090 
  210.7500    -8.0560    66.1400    54.7010    52.0920    49.7640    23.5460     2.2030 
  210.8750    -8.1460    64.9980    56.0890    53.5720    52.0610    23.5780     2.2000 
  211.0000    -8.2550    65.8380    56.9450    54.3550    49.8500    23.7240     2.2020 
  211.1250    -8.2240    67.0140    57.6470    54.7820    48.7770    23.8360     2.2080 
  211.2500    -7.9410    68.0710    59.3350    55.6610    54.1010    23.8780     2.2140 
  211.3750    -7.3350    68.6430    62.6330    57.6330    61.1060    24.0170     2.2170 
  211.5000    -6.4190    67.2840    67.3590    61.1040    67.7210    24.3820     2.2120 
  211.6250    -6.0650    65.3460    72.9990    66.2690    74.7350    24.8690     2.2010 
  211.7500    -5.9670    65.7780    78.7920    72.2310    86.1630    25.3400     2.1910 
  211.8750    -5.8040    67.4590    84.0080    77.9890    97.0130    25.6450     2.1900 
  212.0000    -5.7770    68.2040    87.7640    82.5050   106.4740    25.7110     2.2040 
  212.1250    -5.8960    67.3860    89.4040    84.7830   113.8340    25.5920     2.2300 
  212.2500    -6.1600    66.4940    89.4840    85.2030   111.8940    25.4800     2.2530 
  212.3750    -6.7380    65.8880    88.4100    84.2540    99.6350    25.4470     2.2630 
