~V
VERS. 2.00: Ver 2.00
~W
STRT.M 54.0000:
STOP.M 281.0000:
STEP.M 0.1250:
NULL. -999.2500:
UWI. F11055:
~C
DEPT.M :
SP.MV :
GR.API :
RML.OHMM :
RI. :
RXO.OHMM :
CALI.CM :
DEN.GM/CC :
~A
   54.0000   140.3410    42.9260     0.2690     0.3190     0.2180    24.7540     1.8010 
   54.1250   139.2600    42.9780     0.2660     0.2740     0.2220    24.7630     1.8000 
   54.2500   138.2310    43.2950     0.2730     0.2650     0.2220    24.7760     1.8030 
   54.3750   137.1600    43.9730     0.2850     0.2610     0.2200    24.7820     1.8090 
   54.5000   136.0780    45.4280     0.3080     0.2700     0.2150    24.7810     1.8180 
   54.6250   134.9450    46.8070     0.3130     0.3020     0.2200    24.7660     1.8280 
   54.7500   133.7790    47.9640     0.2940     0.3040     0.2320    24.7690     1.8350 
   54.8750   132.5890    48.9670     0.2750     0.2900     0.2380    24.7890     1.8410 
   55.0000   131.2410    49.5430     0.2730     0.3050     0.2440    24.7980     1.8480 
   55.1250   129.8540    50.4430     0.2960     0.3140     0.2470    24.7930     1.8560 
   55.2500   128.4450    52.9080     0.3040     0.3150     0.2470    24.7780     1.8630 
   55.3750   126.9670    55.2260     0.3100     0.3130     0.2430    24.7860     1.8660 
   55.5000   125.3490    55.5340     0.3260     0.3480     0.2410    24.7910     1.8640 
   55.6250   123.5980    52.5410     0.3410     0.3390     0.2400    24.8000     1.8580 
   55.7500   121.8040    49.0070     0.3720     0.2960     0.2380    24.7940     1.8570 
   55.8750   119.8780    47.6980     0.3780     0.2700     0.2310    24.7790     1.8630 
   56.0000   117.8690    47.7580     0.3640     0.2580     0.2240    24.7790     1.8740 
   56.1250   115.5600    45.8440     0.2390     0.2440     0.2200    24.7980     1.8930 
   56.2500   112.9730    43.1600     0.2160     0.2360     0.2180    24.7990     1.9260 
   56.3750   110.1300    42.7230     0.2110     0.2310     0.2100    24.7760     1.9750 
   56.5000   107.1370    43.6950     0.2140     0.2280     0.2010    24.7560     2.0390 
   56.6250   103.9060    42.7710     0.2340     0.2210     0.1980    24.7610     2.1190 
   56.7500   100.4460    41.5270     0.2490     0.2110     0.1980    24.7750     2.2080 
   56.8750    96.6840    41.1340     0.2470     0.2100     0.2040    24.7740     2.3040 
   57.0000    92.6260    40.4330     0.2260     0.2090     0.2100    24.7640     2.4030 
   57.1250    88.1160    39.1170     0.2140     0.2080     0.2100    24.7600     2.5090 
   57.2500    83.1340    38.0780     0.2080     0.2110     0.2100    24.7710     2.6110 
   57.3750    77.6200    38.1610     0.2060     0.2120     0.2090    24.7820     2.6790 
   57.5000    71.4930    38.7440     0.2040     0.2090     0.2070    24.7690     2.6890 
   57.6250    64.5420    38.9510     0.2030     0.1900     0.2060    24.7120     2.6500 
   57.7500    56.8560    41.3870     0.2120     0.1540     0.2430    24.6000     2.5880 
   57.8750    48.5370    47.3160     0.4670     0.2260     1.3660    24.4510     2.4970 
   58.0000    39.9170    55.3110     0.7620     0.4180     4.4460    24.3480     2.3850 
   58.1250    31.5170    62.5960     1.3130     0.8720     8.5310    24.3240     2.3000 
   58.2500    23.7230    67.8470     2.1590     1.6660    11.0630    24.3430     2.2670 
   58.3750    16.7810    72.0850     3.0780     2.7870    10.9580    24.3700     2.2740 
   58.5000    10.8010    74.5100     3.8460     4.1060    10.7280    24.3830     2.2990 
   58.6250     6.1510    74.5440     4.5930     5.6100    10.7070    24.3680     2.3410 
   58.7500     2.6480    73.8810     5.6430     7.4750    12.2090    24.3460     2.4020 
   58.8750     0.3630    71.5560     7.2670     9.9110    17.7630    24.3600     2.4790 
   59.0000    -1.0300    67.3600     9.5410    12.8220    31.1390    24.4210     2.5520 
   59.1250    -1.7730    63.9190    11.3140    14.9970    44.4300    24.4480     2.5810 
   59.2500    -2.2860    66.7870    10.7650    14.8950    37.6360    24.4390     2.5510 
   59.3750    -2.7310    75.8860     8.5300    12.5390    19.5900    24.4550     2.4760 
   59.5000    -3.1270    85.7390     6.4350     9.4850     8.1330    24.5100     2.3990 
   59.6250    -3.6170    91.1500     5.2610     7.1960     5.0760    24.5220     2.3550 
   59.7500    -4.1140    93.1330     4.7410     5.8440     4.4280    24.4850     2.3360 
   59.8750    -4.6190    92.9560     4.7130     5.2770     4.5770    24.4200     2.3240 
   60.0000    -5.1370    92.3820     5.0490     5.2860     5.2000    24.3650     2.3090 
   60.1250    -5.5930    93.0770     5.6000     5.6610     5.9190    24.3440     2.2980 
   60.2500    -6.0270    94.0100     6.0840     6.0730     6.4660    24.3450     2.2940 
   60.3750    -6.4150    93.9070     6.3380     6.3370     6.4780    24.3490     2.2920 
   60.5000    -6.7880    92.9010     6.3540     6.4010     6.0460    24.3430     2.2850 
   60.6250    -7.1160    92.6770     6.2530     6.3340     5.8090    24.3360     2.2700 
   60.7500    -7.4480    92.5300     6.1970     6.2830     5.7370    24.3350     2.2470 
   60.8750    -7.7570    90.8380     6.2590     6.3210     6.1180    24.3370     2.2220 
   61.0000    -8.0660    88.7190     6.4570     6.4620     6.9730    24.3260     2.2000 
   61.1250    -8.3210    88.6390     6.7450     6.6590     7.4860    24.3210     2.1890 
   61.2500    -8.5070    88.6850     7.0150     6.8050     7.6680    24.3110     2.1860 
   61.3750    -8.6460    86.8530     7.2050     6.8410     7.6840    24.2940     2.1910 
   61.5000    -8.7220    84.5840     7.3130     6.7900     7.7110    24.2990     2.2060 
   61.6250    -8.6900    84.4080     7.4230     6.7820     7.6490    24.3130     2.2290 
   61.7500    -8.5670    85.6990     7.6600     6.9250     7.4680    24.3280     2.2540 
   61.8750    -8.4120    85.1830     8.0600     7.2260     7.3040    24.3420     2.2710 
   62.0000    -8.1750    81.9300     8.4920     7.5910     7.7300    24.3550     2.2750 
   62.1250    -7.9610    79.4370     8.6120     7.7890     8.1770    24.3700     2.2680 
   62.2500    -7.7550    80.7880     8.2680     7.6550     7.8710    24.3730     2.2560 
   62.3750    -7.5680    86.0450     7.5880     7.1950     6.6890    24.3610     2.2460 
   62.5000    -7.4450    91.4040     6.8810     6.5760     5.8080    24.3390     2.2420 
   62.6250    -7.3220    94.2100     6.4510     6.0410     5.4570    24.3040     2.2440 
   62.7500    -7.2600    95.5980     6.3340     5.7130     5.8650    24.2860     2.2470 
   62.8750    -7.2530    96.6870     6.4310     5.5990     6.4770    24.2940     2.2500 
   63.0000    -7.2160    97.9740     6.5550     5.6170     6.4780    24.3290     2.2600 
   63.1250    -7.1750    97.5510     6.5440     5.6350     6.3140    24.3350     2.2820 
   63.2500    -7.1040    95.8600     6.4430     5.5970     5.8970    24.3180     2.3090 
   63.3750    -7.0200    94.9320     6.3830     5.5680     5.7420    24.3060     2.3380 
   63.5000    -6.9010    95.1890     6.4810     5.6360     5.9140    24.3290     2.3640 
   63.6250    -6.8260    96.8140     6.7940     5.8540     6.3500    24.3430     2.3810 
   63.7500    -6.7220    98.4150     7.1900     6.1390     6.7400    24.3380     2.3900 
   63.8750    -6.6150    98.1920     7.4950     6.3760     7.1310    24.3300     2.3910 
   64.0000    -6.5740    97.3150     7.5510     6.4500     7.4950    24.3510     2.3750 
   64.1250    -6.6240    98.2590     7.3180     6.3070     6.3690    24.3590     2.3350 
   64.2500    -6.7100   100.5330     7.0170     6.0730     5.7410    24.3400     2.2960 
   64.3750    -6.8600   102.6550     6.8120     5.8620     5.7820    24.2790     2.2780 
   64.5000    -7.0280   103.1970     6.7750     5.7490     6.7230    24.2050     2.2760 
   64.6250    -7.2470   101.2520     6.8930     5.7710     8.3900    24.1490     2.2760 
   64.7500    -7.4750    98.3370     7.0510     5.8700     8.9560    24.1310     2.2690 
   64.8750    -7.7030    96.6270     7.1950     5.9900     7.6700    24.1240     2.2630 
   65.0000    -7.9220    97.2930     7.3420     6.1070     6.6200    24.1240     2.2620 
   65.1250    -8.1180    97.3230     7.5630     6.2400     6.3890    24.1270     2.2610 
