~V
VERS. 2.00: Ver 2.00
~W
STRT.M 50.0000:
STOP.M 275.0000:
STEP.M 0.1250:
NULL. -999.2500:
UWI. F11033:
~C
DEPT.M :
DEN.GM/CC :
GR.API :
RML.OHMM :
RI. :
RXO.OHMM :
CALI.CM :
SP.MV :
~A
# ...
  207.5000     2.2980    58.5820     6.9360     5.7800     6.5100    23.3680   -34.6370 
  207.6250     2.3070    58.7120     7.0900     5.9550     6.5320    23.3340   -34.6210 
  207.7500     2.3110    61.1180     7.0860     6.0180     6.5870    23.5220   -34.6010 
  207.8750     2.3140    65.7870     6.9820     5.9840     6.4230    23.9270   -34.5810 
  208.0000     2.3200    71.6580     6.8600     5.8960     6.1670    24.4940   -34.5150 
  208.1250     2.3300    75.0850     6.7930     5.8000     5.8640    24.9610   -34.3730 
  208.2500     2.3420    76.5120     6.7900     5.7240     5.5730    25.1680   -34.2130 
  208.3750     2.3530    78.5210     6.8260     5.6660     5.2940    25.2140   -34.0530 
  208.5000     2.3560    81.8970     6.8480     5.6030     5.1530    25.2150   -33.8870 
  208.6250     2.3500    83.2790     6.7900     5.5060     5.1660    25.2140   -33.7100 
  208.7500     2.3440    79.8010     6.6510     5.3740     5.2930    25.2150   -33.5170 
  208.8750     2.3400    74.6410     6.4720     5.2260     5.3310    25.2160   -33.2930 
  209.0000     2.3380    72.3010     6.3260     5.0960     5.0760    25.2220   -33.0440 
  209.1250     2.3350    73.9150     6.2950     5.0210     4.9880    25.2440   -32.7900 
  209.2500     2.3310    76.8830     6.3730     5.0050     5.0050    25.2720   -32.5190 
  209.3750     2.3280    78.6820     6.5190     5.0380     5.1830    25.2840   -32.2400 
  209.5000     2.3260    78.9080     6.6720     5.0960     5.3680    25.2850   -31.9580 
  209.6250     2.3280    78.3580     6.7630     5.1480     5.3730    25.2860   -31.6830 
  209.7500     2.3300    76.8760     6.7840     5.1720     5.3200    25.2860   -31.4570 
  209.8750     2.3280    75.8430     6.7650     5.1690     5.3360    25.2900   -31.2960 
  210.0000     2.3170    77.3730     6.7640     5.1640     5.4980    25.3210   -31.2130 
  210.1250     2.3000    80.5620     6.8800     5.2150     5.7290    25.4050   -31.2100 
  210.2500     2.2850    80.4280     7.1720     5.3700     5.9600    25.4880   -31.2680 
  210.3750     2.2760    75.7100     7.6510     5.6540     6.0930    25.4840   -31.3580 
  210.5000     2.2690    70.4510     8.2610     6.0530     6.4490    25.4140   -31.4820 
  210.6250     2.2630    67.8930     8.9190     6.5310     7.3140    25.3700   -31.6240 
  210.7500     2.2600    66.7380     9.5840     7.0390     8.8430    25.3580   -31.7530 
  210.8750     2.2610    66.5690    10.3060     7.5910    10.0260    25.3570   -31.8790 
  211.0000     2.2590    66.8220    11.1590     8.2280     9.8650    25.3570   -31.9950 
  211.1250     2.2520    66.4720    12.1250     8.9630     9.8220    25.3570   -32.0950 
  211.2500     2.2460    67.1170    12.9150     9.6280    11.7290    25.3570   -32.1650 
  211.3750     2.2480    69.6500    13.1390     9.9550    14.0350    25.3510   -32.2170 
  211.5000     2.2620    74.6870    12.5220     9.7190    14.2060    25.3210   -32.2570 
  211.6250     2.2870    79.2930    11.1130     8.8780    11.5900    25.2450   -32.3040 
  211.7500     2.3140    79.0150     9.5800     7.8510     8.6760    25.1750   -32.3580 
  211.8750     2.3340    74.4470     8.3870     6.9530     6.8700    25.1470   -32.4020 
  212.0000     2.3430    70.7360     7.7360     6.3560     7.0480    25.1440   -32.4400 
  212.1250     2.3450    73.5220     7.6540     6.1410     7.9770    25.1440   -32.4690 
  212.2500     2.3430    77.9050     7.8600     6.1750     7.9460    25.1430   -32.4950 
  212.3750     2.3370    79.2370     8.1540     6.3490     7.2010    25.1350   -32.5260 
  212.5000     2.3270    80.5010     8.3750     6.5560     7.0340    25.1190   -32.5440 
  212.6250     2.3210    83.2580     8.4370     6.7140     7.1340    25.1040   -32.5330 
  212.7500     2.3230    82.6000     8.4160     6.8280     7.0920    25.1110   -32.5070 
  212.8750     2.3290    79.6500     8.3820     6.9220     6.9360    25.1110   -32.4860 
  213.0000     2.3350    80.2940     8.3720     7.0150     6.7980    25.0930   -32.4710 
  213.1250     2.3390    85.0670     8.4020     7.1090     6.9010    25.0840   -32.4980 
  213.2500     2.3420    85.5770     8.4570     7.1940     7.0470    25.0820   -32.5840 
  213.3750     2.3410    82.1010     8.5130     7.2510     7.1260    25.0830   -32.7100 
  213.5000     2.3390    81.1380     8.5420     7.2610     7.1630    25.0840   -32.8800 
  213.6250     2.3380    82.5240     8.5050     7.2040     7.1530    25.0830   -33.0660 
  213.7500     2.3370    82.5490     8.3840     7.0780     7.1390    25.0780   -33.2640 
  213.8750     2.3330    81.4120     8.1640     6.8830     7.1350    25.0740   -33.4580 
  214.0000     2.3260    80.6710     7.8610     6.6330     7.2680    25.0730   -33.6420 
  214.1250     2.3160    78.5810     7.5520     6.3840     7.4380    25.0710   -33.7970 
  214.2500     2.3010    74.4740     7.3890     6.2300     7.6100    25.0710   -33.9200 
  214.3750     2.2840    71.2120     7.5820     6.2900     7.6910    25.0700   -34.0160 
  214.5000     2.2670    71.3550     8.4000     6.7180     7.9740    25.0700   -34.0880 
  214.6250     2.2520    72.3370    10.3490     7.8610     8.8750    25.0700   -34.1720 
  214.7500     2.2350    71.7700    13.6640     9.9890    12.2110    25.0700   -34.2560 
  214.8750     2.2150    69.7430    19.3550    13.6010    22.4540    25.0700   -34.3310 
  215.0000     2.1910    68.1120    27.1120    19.3450    41.1490    25.0700   -34.3870 
  215.1250     2.1640    65.9700    37.5960    28.1620    46.7310    25.0720   -34.4120 
  215.2500     2.1400    61.9150    49.4910    38.9230    51.4450    25.0710   -34.4050 
  215.3750     2.1220    57.2860    60.2910    49.3960    56.6150    25.0680   -34.3810 
  215.5000     2.1120    55.2610    67.1390    56.8020    55.0840    25.0650   -34.3500 
  215.6250     2.1130    56.1360    68.3160    59.0430    63.2680    25.0640   -34.3110 
  215.7500     2.1220    56.4520    66.4450    57.9350    65.2250    25.0650   -34.2650 
  215.8750     2.1320    56.9610    63.6650    55.3360    61.3550    25.0660   -34.2420 
  216.0000     2.1390    59.5550    61.4870    52.8340    55.0840    25.0620   -34.2650 
  216.1250     2.1490    62.1860    61.0340    51.7020    55.0840    25.0530   -34.3720 
  216.2500     2.1610    62.0620    62.4860    52.3260    56.3820    25.0610   -34.5520 
  216.3750     2.1650    61.1830    66.0160    54.9920    61.8540    25.1150   -34.7690 
  216.5000     2.1510    62.0150    71.6420    59.8280    72.6150    25.1800   -34.9970 
  216.6250     2.1250    61.8620    79.4400    67.0540    76.0650    25.2080   -35.2570 
  216.7500     2.1070    60.8600    88.7150    76.0170    84.8230    25.2130   -35.5500 
  216.8750     2.1010    61.3970    99.2160    86.4930    92.1300    25.2130   -35.8430 
  217.0000     2.1010    63.7330   110.7630    98.3130   101.7870    25.2130   -36.1210 
  217.1250     2.1030    64.9950   122.8970   111.0920   109.0770    25.2130   -36.3370 
  217.2500     2.1060    63.4600   134.1290   123.3400   115.1420    25.2120   -36.4960 
  217.3750     2.1090    60.8510   142.0380   132.8050   127.2620    25.2120   -36.6230 
  217.5000     2.1120    59.1370   143.5130   136.5880   134.1820    25.2100   -36.7430 
  217.6250     2.1160    58.6060   135.4020   131.2350   132.1850    25.2120   -36.8420 
  217.7500     2.1210    58.1210   121.3730   119.1960   124.2830    25.2120   -36.9080 
  217.8750     2.1250    58.4800   105.9320   104.2320   119.6010    25.2130   -36.9510 
  218.0000     2.1260    60.4840    92.9530    90.4410   111.6080    25.2130   -36.9690 
  218.1250     2.1260    61.4640    85.1580    81.3810   101.9290    25.2130   -36.9750 
  218.2500     2.1250    59.0530    81.8960    77.1550    92.8310    25.2130   -36.9780 
  218.3750     2.1210    55.8930    82.4370    77.2500    86.7050    25.2130   -36.9900 
  218.5000     2.1130    54.2590    85.7210    80.6300    84.6630    25.2130   -36.9930 
  218.6250     2.1070    54.3430    90.4110    85.9890    90.0570    25.2130   -36.9810 
