~V
VERS. 2.00: Ver 2.00
~W
STRT.M 55.0000:
STOP.M 229.0000:
STEP.M 0.1250:
NULL. -999.2500:
UWI. F11013:
~C
DEPT.M :
DEN.GM/CC :
GR.API :
RML.OHMM :
RI. :
RXO.OHMM :
CALI.CM :
SP.MV :
~A
# ...
  201.2500     2.2560    63.9300   118.9440   110.1330    93.0220    23.7510   -16.8910 
  201.3750     2.2680    64.9220   115.8360   107.2550    81.5950    23.6570   -16.5380 
  201.5000     2.2750    63.7960   113.7350   105.3100    73.9350    23.5550   -16.1490 
  201.6250     2.2730    64.8030   112.6490   104.3040    73.1050    23.5100   -15.7090 
  201.7500     2.2660    65.7390   112.3840   104.0590    82.3680    23.5530   -15.2240 
  201.8750     2.2590    63.4040   112.9840   104.6150    98.6940    23.7140   -14.7320 
  202.0000     2.2580    62.5010   114.6880   106.1920    95.9490    23.8230   -14.2340 
  202.1250     2.2590    63.5590   118.1960   109.4410    94.3760    23.9270   -13.7230 
  202.2500     2.2550    62.7530   124.2120   115.0110    98.1750    24.0990   -13.2330 
  202.3750     2.2400    60.1550   133.1940   123.3280   112.7130    24.2860   -12.7640 
  202.5000     2.2210    60.9040   143.4070   132.7840   129.5360    24.3710   -12.3290 
  202.6250     2.2060    64.1960   152.5950   141.2920   142.5790    24.4190   -11.9630 
  202.7500     2.2000    65.8060   158.1270   146.4140   166.8020    24.4530   -11.6450 
  202.8750     2.2080    66.1690   157.0170   145.3860   173.6090    24.4730   -11.3890 
  203.0000     2.2210    67.0830   150.4980   139.3500   165.5480    24.4650   -11.2110 
  203.1250     2.2310    64.9500   140.8650   130.4300   151.3870    24.4320   -11.0850 
  203.2500     2.2340    60.1590   131.0530   121.3460   141.5380    24.4000   -11.0220 
  203.3750     2.2350    58.1820   124.0580   114.8690   131.4310    24.3990   -11.0460 
  203.5000     2.2330    61.2200   121.0300   112.0650   114.6960    24.4240   -11.0980 
  203.6250     2.2290    65.0570   122.8530   113.7530   106.6140    24.5240   -11.1680 
  203.7500     2.2230    65.3690   130.2470   120.5990   127.9490    24.7710   -11.2770 
  203.8750     2.2220    63.2030   144.8140   134.0870   149.6180    25.2430   -11.4390 
  204.0000     2.2540    60.4580   162.8400   150.7780    94.5490    25.6480   -11.6030 
  204.1250     2.3390    58.5260   172.6310   159.8440    51.9090    25.5510   -11.7910 
  204.2500     2.4670    59.4180   155.4190   143.9070    52.0910    24.9430   -11.9910 
  204.3750     2.5740    60.3640   108.2220   100.2060   140.8080    24.1250   -12.1640 
  204.5000     2.6050    58.7750    63.3190    58.6290   265.8610    23.6520   -12.3440 
  204.6250     2.5680    55.7440    34.0020    31.4830   152.3500    23.5140   -12.5200 
  204.7500     2.5030    56.4380    18.4230    17.0590    39.8890    23.5290   -12.7100 
  204.8750     2.4450    59.5840    11.8040    10.9300    14.2290    23.5640   -12.8730 
  205.0000     2.4110    58.1090     8.6490     8.0080     7.4420    23.5950   -13.0420 
  205.1250     2.3970    53.4220     7.1510     6.6220     5.7980    23.5990   -13.2340 
  205.2500     2.3910    52.3110     6.5320     6.0480     5.8040    23.5090   -13.4170 
  205.3750     2.3880    55.7670     6.4550     5.9760     5.6640    23.2820   -13.6080 
  205.5000     2.3860    57.9160     6.5890     6.1010     5.5590    23.0460   -13.8290 
  205.6250     2.3880    58.0220     6.8140     6.3090     5.6100    22.9560   -14.0730 
  205.7500     2.3910    57.4200     7.0750     6.5500     5.7640    22.9430   -14.3010 
  205.8750     2.3960    55.5180     7.3500     6.8060     6.1310    22.9240   -14.5360 
  206.0000     2.4020    53.5430     7.6270     7.0620     6.5450    22.8910   -14.7860 
  206.1250     2.4100    53.6250     7.8990     7.3140     6.7140    22.8760   -15.0230 
  206.2500     2.4160    56.1130     8.1610     7.5560     6.7460    22.8660   -15.2590 
  206.3750     2.4200    58.7540     8.4000     7.7780     6.8160    22.8440   -15.5210 
  206.5000     2.4260    63.8870     8.6000     7.9630     7.2360    22.8240   -15.7470 
  206.6250     2.4330    73.0700     8.7380     8.0900     7.7580    22.8180   -15.9630 
  206.7500     2.4380    82.8870     8.8040     8.1520     8.0360    22.8120   -16.1670 
  206.8750     2.4390    90.0810     8.7960     8.1440     8.0660    22.7840   -16.3470 
  207.0000     2.4350    94.4640     8.7420     8.0950     7.9940    22.7550   -16.4910 
  207.1250     2.4290    95.7910     8.6630     8.0210     7.9060    22.7030   -16.6150 
  207.2500     2.4240    93.9360     8.5660     7.9310     7.8420    22.6220   -16.7220 
  207.3750     2.4180    94.8690     8.4410     7.8160     7.7990    22.5450   -16.7770 
  207.5000     2.4090   101.8870     8.2920     7.6780     7.7080    22.4610   -16.8160 
  207.6250     2.4000   109.6480     8.1530     7.5490     7.5800    22.3850   -16.8190 
  207.7500     2.3950   112.4970     8.1030     7.5030     7.5350    22.3240   -16.8070 
  207.8750     2.3930   110.7570     8.2940     7.6790     7.6110    22.2970   -16.7770 
  208.0000     2.3880   110.6850     8.7980     8.1470     7.7650    22.2380   -16.7330 
  208.1250     2.3810   112.5010     9.6900     8.9720     8.1060    22.1140   -16.6700 
  208.2500     2.3730   113.3260    11.0160    10.2000     8.9940    21.9720   -16.5920 
  208.3750     2.3710   109.6590    12.8360    11.8850    10.8230    21.8550   -16.5130 
  208.5000     2.3710   101.1750    14.9810    13.8720    12.2330    21.8030   -16.4330 
  208.6250     2.3680    92.0470    17.3020    16.0210    12.0640    21.7390   -16.3350 
  208.7500     2.3610    84.8480    19.6080    18.1550    11.9150    21.5440   -16.2190 
  208.8750     2.3540    81.3530    21.6320    20.0300    12.6230    21.3500   -16.0800 
  209.0000     2.3540    80.4740    23.2390    21.5180    13.0200    21.1670   -15.9170 
  209.1250     2.3650    80.4830    24.3320    22.5290    11.6480    20.6790   -15.7210 
  209.2500     2.3860    80.6990    24.8820    23.0390     9.2860    19.7170   -15.4920 
  209.3750     2.4080    77.4810    24.9120    23.0670     7.8770    18.5200   -15.2290 
  209.5000     2.4220    71.8270    24.6890    22.8600     7.8350    17.8090   -14.9480 
  209.6250     2.4280    68.2010    24.3100    22.5090     7.7980    17.4850   -14.6810 
  209.7500     2.4330    67.4910    23.7140    21.9570     7.5530    17.1950   -14.4170 
  209.8750     2.4350    67.2840    22.6700    20.9900     7.6790    17.0160   -14.1570 
  210.0000     2.4280    65.8720    21.1760    19.6070     7.9760    17.2310   -13.9220 
  210.1250     2.4100    64.8210    19.3840    17.9480     8.6500    17.8680   -13.7050 
  210.2500     2.3890    64.5330    17.6140    16.3090     9.3040    18.8860   -13.5190 
  210.3750     2.3820    63.7240    16.3350    15.1250     9.8440    20.0210   -13.3540 
  210.5000     2.3930    64.8540    15.7250    14.5610    10.3450    20.8980   -13.1860 
  210.6250     2.4170    68.8510    15.8430    14.6700    10.7930    21.2890   -13.0270 
  210.7500     2.4360    70.6630    16.6260    15.3940    11.3620    21.3600   -12.8830 
  210.8750     2.4200    68.2150    17.8990    16.5730    12.5460    21.3190   -12.7640 
  211.0000     2.3700    65.2140    19.1370    17.7200    13.7130    21.2860   -12.6170 
  211.1250     2.3160    64.5810    19.8060    18.3390    13.9450    21.2660   -12.4710 
  211.2500     2.2910    65.1800    19.4620    18.0200    13.7720    21.2620   -12.2780 
  211.3750     2.3080    64.9180    17.8890    16.5630    13.3140    21.2370   -12.0770 
  211.5000     2.3420    66.5520    15.7220    14.5580    11.6550    21.1910   -11.8350 
  211.6250     2.3680    70.0300    13.5130    12.5120     9.0620    21.1890   -11.5710 
  211.7500     2.3740    72.9080    11.5840    10.7890     6.9250    21.2140   -11.2890 
  211.8750     2.3720    71.6750    10.3030     9.6190     6.0180    21.0900   -10.9830 
  212.0000     2.3710    68.8780     9.6020     8.9080     5.7770    20.7630   -10.6870 
  212.1250     2.3710    68.1480     9.3440     8.5710     5.4490    20.2220   -10.3950 
  212.2500     2.3670    69.8510     9.3630     8.5040     5.5440    19.9100   -10.1460 
  212.3750     2.3610    73.3710     9.5060     8.6140     5.9150    20.0870    -9.9080 
