~V
VERS. 2.00: Ver 2.00
~W
STRT.M 50.0000:
STOP.M 283.0000:
STEP.M 0.1250:
NULL. -999.2500:
UWI. F11066:
~C
DEPT.M :
GR.API :
RML.OHMM :
RI. :
RXO.OHMM :
CALI.CM :
DEN.GM/CC :
SP.MV :
~A
# ...
  106.2500    70.0010    11.0170     9.4630    12.4750    24.1030     2.1950   -16.7050 
  106.3750    66.0970    10.6910     9.0710    12.5350    24.1840     2.1930   -16.7250 
  106.5000    60.8500    10.3590     8.7260    12.2790    24.2550     2.1870   -16.6450 
  106.6250    58.7570    10.0780     8.4570    11.4240    24.2970     2.1830   -16.4680 
  106.7500    60.8030     9.9570     8.3250    10.7580    24.3500     2.1840   -16.2760 
  106.8750    64.4800    10.0740     8.3780    11.0940    24.4130     2.1850   -16.0710 
  107.0000    65.1940    10.4570     8.6330    11.9340    24.4710     2.1810   -15.9260 
  107.1250    63.5970    11.0970     9.1020    12.5980    24.4860     2.1760   -15.8070 
  107.2500    63.2660    11.8260     9.6860    12.6040    24.4690     2.1770   -15.7470 
  107.3750    64.6520    12.4690    10.2690    12.3670    24.5080     2.1840   -15.7460 
  107.5000    66.9820    12.8560    10.7120    12.2450    24.5880     2.1900   -15.8000 
  107.6250    67.3290    12.8210    10.8430    12.7690    24.6150     2.1990   -15.9130 
  107.7500    66.7630    12.4400    10.6670    13.2080    24.6030     2.2210   -16.0260 
  107.8750    67.9800    11.8480    10.2550    13.0200    24.5950     2.2520   -16.1580 
  108.0000    70.7840    11.2480     9.7600    12.5570    24.5800     2.2630   -16.3020 
  108.1250    70.9650    10.8570     9.3690    12.5670    24.5150     2.2310   -16.4530 
  108.2500    68.3590    10.7040     9.1610    12.6180    24.4220     2.1910   -16.5800 
  108.3750    65.8660    10.7360     9.1370    12.6540    24.3300     2.1670   -16.6800 
  108.5000    63.3770    10.8400     9.2250    12.8020    24.2790     2.1620   -16.7730 
  108.6250    61.7920    10.8830     9.3020    13.0900    24.2520     2.1650   -16.8470 
  108.7500    62.7330    10.8380     9.2930    13.0680    24.2740     2.1670   -16.9210 
  108.8750    63.1270    10.7590     9.2190    12.7540    24.2920     2.1640   -16.9670 
  109.0000    60.1580    10.7140     9.1400    12.5270    24.2210     2.1590   -16.9700 
  109.1250    57.5780    10.7550     9.1260    12.5580    24.1070     2.1570   -16.9320 
  109.2500    58.0700    10.8620     9.1880    12.6820    24.0720     2.1590   -16.8490 
  109.3750    59.3360    10.9860     9.2920    12.7400    24.0780     2.1640   -16.7330 
  109.5000    60.0950    11.0560     9.3810    12.7920    24.0530     2.1660   -16.5930 
  109.6250    61.5620    10.9960     9.3850    12.7710    23.9490     2.1650   -16.4210 
  109.7500    63.0540    10.8520     9.3090    12.5690    23.8480     2.1660   -16.2460 
  109.8750    63.1720    10.7290     9.2140    12.5120    23.7870     2.1720   -16.0620 
  110.0000    62.1050    10.7400     9.1850    12.7900    23.7920     2.1790   -15.8630 
  110.1250    61.2930    10.9540     9.3060    13.1800    23.8600     2.1820   -15.6770 
  110.2500    61.6280    11.2600     9.5300    13.1550    23.9930     2.1820   -15.5030 
  110.3750    62.6280    11.4970     9.7450    12.8340    24.1300     2.1850   -15.3390 
  110.5000    62.7160    11.4890     9.8010    12.6530    24.2210     2.2000   -15.1680 
  110.6250    63.2070    11.1070     9.5530    12.5770    24.2100     2.2310   -15.0160 
  110.7500    66.1760    10.5330     9.1010    12.4640    24.2360     2.2530   -14.8700 
  110.8750    70.5210     9.9910     8.6080    12.0460    24.2450     2.2440   -14.7560 
  111.0000    74.6490     9.6660     8.2320    11.4860    24.2380     2.2170   -14.7000 
  111.1250    76.8430     9.6980     8.1090    11.2760    24.2280     2.2010   -14.6700 
  111.2500    75.6220     9.9750     8.2040    11.9960    24.2360     2.1950   -14.7130 
  111.3750    71.3920    10.3460     8.4480    12.4960    24.2240     2.1870   -14.8110 
  111.5000    67.0170    10.6510     8.7350    12.6240    24.2060     2.1810   -14.9580 
  111.6250    64.1230    10.7700     8.9500    12.4930    24.2140     2.1830   -15.1630 
  111.7500    61.2010    10.7540     9.0580    12.4040    24.2190     2.1910   -15.3890 
  111.8750    59.4790    10.6760     9.0690    12.3850    24.1820     2.1980   -15.6110 
  112.0000    62.2260    10.6060     9.0170    12.3710    24.1600     2.1990   -15.8080 
  112.1250    68.3260    10.5880     8.9460    12.3850    24.1280     2.1930   -15.9730 
  112.2500    71.8260    10.6150     8.9040    12.4540    24.1240     2.1850   -16.0560 
  112.3750    72.0530    10.6780     8.9120    12.5900    24.1380     2.1810   -16.1210 
  112.5000    71.1800    10.7700     8.9740    12.7640    24.1870     2.1800   -16.1580 
  112.6250    70.2520    10.8770     9.0700    13.0220    24.1890     2.1800   -16.1720 
  112.7500    69.1600    10.9770     9.1610    13.1420    24.1800     2.1760   -16.1680 
  112.8750    69.0170    11.0470     9.2210    13.1460    24.1710     2.1700   -16.1630 
  113.0000    69.7160    11.0670     9.2350    13.0330    24.1630     2.1650   -16.1350 
  113.1250    68.2670    11.0120     9.1900    12.9320    24.1900     2.1650   -16.1220 
  113.2500    64.8180    10.8850     9.0960    12.7240    24.1880     2.1680   -16.1360 
  113.3750    61.3570    10.6980     8.9680    12.5000    24.2010     2.1740   -16.1450 
  113.5000    60.2910    10.4900     8.8330    12.2870    24.2350     2.1760   -16.1790 
  113.6250    62.7470    10.3550     8.7450    12.1790    24.2270     2.1710   -16.2130 
  113.7500    66.7330    10.3660     8.7540    12.2280    24.1710     2.1620   -16.2530 
  113.8750    70.0430    10.5630     8.8920    12.4160    24.1190     2.1530   -16.2800 
  114.0000    70.8810    10.9410     9.1670    12.8240    24.1350     2.1460   -16.3400 
  114.1250    68.1150    11.4440     9.5610    14.6610    24.2410     2.1400   -16.3410 
  114.2500    65.0970    11.9070     9.9590    19.1730    24.3320     2.1320   -16.3220 
  114.3750    63.5490    12.1460    10.2210    24.4120    24.3790     2.1180   -16.2290 
  114.5000    63.0600    11.9990    10.2010    19.9470    24.3520     2.1030   -16.0850 
  114.6250    64.2270    11.3540     9.7820    15.2380    24.2950     2.1010   -15.8810 
  114.7500    68.3120    10.4530     9.1200    13.0650    24.2640     2.1190   -15.6580 
  114.8750    75.7690     9.5530     8.3950    11.8060    24.2220     2.1570   -15.4640 
  115.0000    82.8610     8.8940     7.7760    10.1240    24.1250     2.2010   -15.3110 
  115.1250    83.1870     8.6780     7.4320     8.8050    24.0370     2.2310   -15.2860 
  115.2500    77.8770     8.8270     7.3680     9.1960    23.9770     2.2370   -15.3370 
  115.3750    72.5070     9.2280     7.5570    10.5660    23.9500     2.2220   -15.4790 
  115.5000    71.6730     9.7220     7.9160    11.4520    23.9360     2.2000   -15.6610 
  115.6250    73.0170    10.1070     8.2960    11.6820    23.9260     2.1880   -15.9180 
  115.7500    71.8420    10.2830     8.5560    11.8670    23.9300     2.1860   -16.2140 
  115.8750    69.0560    10.2760     8.6700    11.9800    23.9730     2.1880   -16.5150 
  116.0000    66.9580    10.1960     8.6940    12.0010    24.0690     2.1890   -16.7550 
  116.1250    67.4520    10.1660     8.7130    12.0330    24.1550     2.1890   -16.9690 
  116.2500    68.1050    10.2190     8.7630    12.1900    24.2380     2.1880   -17.1370 
  116.3750    66.5670    10.3270     8.8360    12.5310    24.2710     2.1850   -17.2920 
  116.5000    63.0310    10.4410     8.9090    13.1030    24.2680     2.1760   -17.4460 
  116.6250    60.4630    10.5070     8.9600    13.0720    24.2620     2.1580   -17.5640 
  116.7500    60.4220    10.5360     8.9980    12.5440    24.2610     2.1330   -17.6390 
  116.8750    62.8620    10.5660     9.0420    12.1270    24.2610     2.1040   -17.6550 
  117.0000    66.1770    10.6280     9.1060    12.1030    24.2550     2.0800   -17.6190 
  117.1250    67.3070    10.7050     9.1820    12.2110    24.2250     2.0750   -17.4820 
  117.2500    66.5570    10.7290     9.2210    12.2700    24.1830     2.0860   -17.2780 
  117.3750    66.7280    10.6230     9.1570    12.1910    24.1490     2.1070   -16.9960 
