~V
VERS. 2.00: Ver 2.00
~W
STRT.M 50.0000:
STOP.M 270.0000:
STEP.M 0.1250:
NULL. -999.2500:
UWI. F11070:
~C
DEPT.M :
DEN.GM/CC :
GR.API :
RML.OHMM :
RI. :
RXO.OHMM :
CALI.CM :
SP.MV :
~A
# ...
   95.0000     2.1670    66.4890     8.7710     6.6080     9.0380    25.8080   -27.4780 
   95.1250     2.1200    68.0720     8.8670     6.6160     9.5180    27.1150   -27.0100 
   95.2500     2.0750    67.3280     9.0230     6.6680     9.7510    27.8810   -26.3460 
   95.3750     2.0540    64.7500     9.1840     6.7400     9.5960    27.8750   -25.6040 
   95.5000     2.0620    62.7270     9.2620     6.7890     9.3220    27.4330   -24.8660 
   95.6250     2.0890    63.5110     9.1260     6.7440     8.8840    27.0050   -23.9580 
   95.7500     2.1140    66.0510     8.7690     6.5710     7.9850    26.2600   -22.9130 
   95.8750     2.1280    69.5880     8.2480     6.2690     7.0300    25.2370   -21.8900 
   96.0000     2.1400    73.6540     7.6790     5.8900     6.3940    24.4260   -20.9230 
   96.1250     2.1650    77.9650     7.2260     5.5260     6.0110    24.2250   -19.9770 
   96.2500     2.1970    83.3750     6.9680     5.2630     6.0000    24.3380   -19.3050 
   96.3750     2.2230    86.7100     6.9290     5.1510     6.1910    24.5270   -18.8860 
   96.5000     2.2330    85.4030     7.0880     5.2020     6.5910    24.6710   -18.5240 
   96.6250     2.2270    82.8310     7.3630     5.3830     6.7780    24.6770   -18.2780 
   96.7500     2.2200    81.6840     7.5880     5.5750     6.7290    24.6230   -18.1790 
   96.8750     2.2170    80.0310     7.6490     5.6850     6.7590    24.5550   -18.0660 
   97.0000     2.2140    77.5020     7.5110     5.6690     6.8980    24.4680   -17.8220 
   97.1250     2.2090    77.8130     7.2040     5.5210     6.5850    24.2910   -17.5590 
   97.2500     2.2080    80.6280     6.8450     5.3050     6.0960    24.1440   -17.1320 
   97.3750     2.2170    83.8730     6.4900     5.0530     5.7550    24.0140   -16.5400 
   97.5000     2.2330    86.9220     6.1530     4.7830     5.9710    23.9240   -16.0330 
   97.6250     2.2520    88.6970     5.8270     4.5070     6.0390    23.8430   -15.6350 
   97.7500     2.2750    90.1600     5.5170     4.2480     5.3100    23.7970   -15.2430 
   97.8750     2.3070    92.7440     5.2470     4.0260     4.3900    23.7890   -14.9920 
   98.0000     2.3420    94.2210     5.0500     3.8540     4.0150    23.7770   -14.9890 
   98.1250     2.3640    93.2650     4.9610     3.7540     4.3030    23.6730   -15.0420 
   98.2500     2.3700    92.2290     4.9750     3.7270     4.8080    23.5480   -15.2000 
   98.3750     2.3640    93.5130     5.0930     3.7860     5.1300    23.4560   -15.5170 
   98.5000     2.3510    95.6240     5.3110     3.9380     5.1200    23.3940   -15.8070 
   98.6250     2.3330    95.8440     5.6210     4.1810     4.9640    23.3890   -16.0460 
   98.7500     2.3110    93.5530     5.9480     4.4560     5.1080    23.4340   -16.3470 
   98.8750     2.2850    89.5470     6.2030     4.6980     5.7890    23.5100   -16.6060 
   99.0000     2.2560    86.8650     6.2920     4.8350     6.4720    23.6770   -16.6980 
   99.1250     2.2320    87.0330     6.1210     4.7870     6.1050    23.8130   -16.8120 
   99.2500     2.2290    88.4450     5.7630     4.5890     5.0530    23.9250   -17.0300 
   99.3750     2.2480    89.7150     5.3180     4.2990     4.5340    24.0510   -17.2670 
   99.5000     2.2780    92.6040     4.9160     4.0060     4.3630    24.2960   -17.5760 
   99.6250     2.3010    98.1990     4.7220     3.8210     4.4860    24.5650   -17.9840 
   99.7500     2.3090   103.0110     4.7960     3.7990     4.5530    24.6190   -18.3150 
   99.8750     2.3030   104.2490     5.1740     3.9710     4.8840    24.5090   -18.6870 
  100.0000     2.2790   100.9330     5.8170     4.3360     5.3410    24.3100   -19.2730 
  100.1250     2.2340    94.8370     6.5770     4.8420     6.3400    24.1590   -19.9260 
  100.2500     2.1850    88.3690     7.2090     5.3320     6.9740    24.0930   -20.6120 
  100.3750     2.1410    83.7220     7.5620     5.6820     7.4070    24.0810   -21.4410 
  100.5000     2.1110    81.2370     7.6160     5.8320     7.6780    24.0760   -22.2880 
  100.6250     2.1080    81.4820     7.4720     5.8100     7.2810    24.0320   -22.9990 
  100.7500     2.1290    82.5690     7.3520     5.7660     6.7390    23.9690   -23.6820 
  100.8750     2.1540    81.8820     7.3790     5.7930     7.2660    23.9360   -24.2880 
  101.0000     2.1570    79.1830     7.5720     5.9200     7.7070    23.9070   -24.7040 
  101.1250     2.1360    76.6360     7.8730     6.1110     8.0690    23.8570   -25.0410 
  101.2500     2.1200    74.2390     8.1470     6.2850     8.1250    23.8630   -25.4000 
  101.3750     2.1160    71.2730     8.3040     6.3920     8.1740    23.9040   -25.6990 
  101.5000     2.1170    70.0160     8.3250     6.4280     8.0370    23.9320   -25.9980 
  101.6250     2.1220    73.5960     8.2740     6.4300     7.9690    23.9390   -26.3780 
  101.7500     2.1330    76.7190     8.2460     6.4420     8.1770    23.9920   -26.6940 
  101.8750     2.1450    76.0330     8.2640     6.4640     8.4920    24.2140   -26.8360 
  102.0000     2.1480    72.2410     8.3110     6.4730     8.8260    24.6580   -26.9380 
  102.1250     2.1390    69.7180     8.3450     6.4450     9.0270    25.1010   -27.0320 
  102.2500     2.1320    69.5970     8.3270     6.3820     8.8740    25.2430   -26.9990 
  102.3750     2.1280    69.9520     8.2240     6.2840     8.3870    25.2350   -27.0150 
  102.5000     2.1250    69.1540     8.0230     6.1490     8.1320    25.2440   -27.1630 
  102.6250     2.1180    67.6940     7.7320     5.9800     8.1740    25.3540   -27.2440 
  102.7500     2.1110    68.8020     7.4410     5.8080     8.3030    25.4180   -27.2610 
  102.8750     2.1160    72.0410     7.2840     5.6960     8.3760    25.3470   -27.3050 
  103.0000     2.1390    73.9990     7.4450     5.7500     8.3320    25.2460   -27.2850 
  103.1250     2.1800    72.2510     8.2240     6.1750     8.7970    25.2510   -27.1890 
  103.2500     2.2360    69.7870     9.6190     7.0400    11.0130    25.1250   -27.2030 
  103.3750     2.3110    67.9160    11.4680     8.3260    17.5300    24.8960   -27.2390 
  103.5000     2.4030    66.0870    13.3100     9.8110    26.8760    24.7630   -27.2480 
  103.6250     2.4750    64.4270    14.2100    10.8670    31.2590    24.7120   -27.4650 
  103.7500     2.4860    64.1910    13.7770    10.9970    27.9060    24.7250   -27.8190 
  103.8750     2.4220    63.1950    12.2850    10.1980    19.0440    24.8660   -28.1540 
  104.0000     2.3140    60.7510    10.4860     8.9230    11.8270    25.2600   -28.5300 
  104.1250     2.2140    58.9930     9.1310     7.7320     9.7910    25.7430   -29.0320 
  104.2500     2.1450    60.2700     8.3570     6.8810     9.3760    26.3250   -29.4510 
  104.3750     2.1080    63.1930     8.0650     6.4020     9.2140    26.8060   -29.8390 
  104.5000     2.0990    64.5770     8.0900     6.2420     9.0080    26.9540   -30.3180 
  104.6250     2.1160    62.5610     8.2880     6.3290     9.0220    26.7970   -30.6780 
  104.7500     2.1400    60.9240     8.5190     6.5120     9.0490    26.6580   -30.9100 
  104.8750     2.1570    63.7100     8.7190     6.7130     9.0060    26.5090   -31.1280 
  105.0000     2.1630    68.5080     8.8400     6.8730     9.0410    26.1580   -31.2570 
  105.1250     2.1640    67.7970     8.8290     6.9430     9.2110    25.6940   -31.1540 
  105.2500     2.1590    62.9240     8.7210     6.9330     9.2020    25.5700   -31.0740 
  105.3750     2.1470    59.4820     8.5680     6.8700     8.9720    25.6080   -31.0310 
  105.5000     2.1360    58.7700     8.4200     6.7950     8.8260    25.4800   -30.8850 
  105.6250     2.1390    59.1780     8.3140     6.7510     8.8880    25.3380   -30.7900 
  105.7500     2.1460    61.9300     8.2580     6.7470     8.9980    25.2850   -30.7630 
  105.8750     2.1500    65.6910     8.2590     6.7760     8.9880    25.3590   -30.6390 
  106.0000     2.1490    66.7000     8.3240     6.8280     8.8810    25.5100   -30.4270 
  106.1250     2.1480    64.1270     8.4490     6.8890     8.9440    25.7800   -30.2820 
