~V
VERS. 2.00: Ver 2.00
~W
STRT.M 50.0000:
STOP.M 283.0000:
STEP.M 0.1250:
NULL. -999.2500:
UWI. F11066:
~C
DEPT.M :
GR.API :
RML.OHMM :
RI. :
RXO.OHMM :
CALI.CM :
DEN.GM/CC :
SP.MV :
~A
# ...
  173.7500    72.2520    86.0800    78.2600    70.7040    25.1970     2.1990    -5.5500 
  173.8750    70.1410    89.6790    80.8800    68.6400    25.1780     2.2000    -5.5510 
  174.0000    67.0000    95.9720    85.9740    65.3230    25.1930     2.2030    -5.5450 
  174.1250    66.3590   105.0660    94.0440    65.6380    25.1870     2.2070    -5.5290 
  174.2500    63.5930   115.5540   103.9640    68.3610    25.1660     2.2080    -5.5000 
  174.3750    57.5500   126.0760   114.4910    76.4710    25.1800     2.2070    -5.4310 
  174.5000    53.4190   135.0160   124.0500    83.9080    25.2400     2.2050    -5.3340 
  174.6250    55.6490   139.8490   130.1810    91.0050    25.2370     2.2030    -5.2230 
  174.7500    59.5770   139.9670   131.9940   104.1090    25.1750     2.2030    -5.1180 
  174.8750    61.0240   135.6590   129.5110   103.3640    25.3000     2.2030    -4.9900 
  175.0000    59.1130   128.2010   123.7540    83.4110    25.5750     2.2040    -4.8410 
  175.1250    55.5810   119.5130   105.8030    84.2810    25.9000     2.2050    -4.6590 
  175.2500    52.8320   111.9160    99.4480    86.3170    25.2220     2.2050    -4.4790 
  175.3750    52.5800   106.7340    94.8600    89.6480    24.8290     2.2010    -4.3140 
  175.5000    54.1740   104.4660    92.7110    90.5880    24.6800     2.1960    -4.1660 
  175.6250    54.7060   105.1570    93.2830    89.3180    24.6120     2.1930    -4.0080 
  175.7500    54.6960   107.1950    95.3380    88.2550    24.5760     2.1900    -3.8620 
  175.8750    56.3370   108.9910    97.5670    89.1750    24.5840     2.1820    -3.7430 
  176.0000    60.0510   109.0380    98.5620    98.7100    24.5900     2.1690    -3.6680 
  176.1250    63.0490   106.2750    97.1340    97.4070    24.6170     2.1590    -3.6330 
  176.2500    65.0210   101.6640    93.8750    93.7870    24.7090     2.1520    -3.6500 
  176.3750    67.9180    96.1580    89.5140    88.3340    24.8030     2.1480    -3.7460 
  176.5000    71.3840    90.5410    84.7270    81.4170    24.8770     2.1430    -3.8530 
  176.6250    72.5810    85.2150    79.9150    77.9030    24.9320     2.1440    -4.0360 
  176.7500    71.0110    80.1130    75.2090    73.5610    24.9930     2.1570    -4.2350 
  176.8750    69.0710    75.3460    70.7800    67.6780    25.0090     2.1770    -4.4620 
  177.0000    66.9510    71.3810    67.0640    63.7170    25.0150     2.1980    -4.7030 
  177.1250    62.4240    69.3490    65.0070    56.2390    25.0210     2.2120    -4.9530 
  177.2500    57.8340    69.7970    65.0270    57.4260    25.0180     2.2200    -5.1770 
  177.3750    56.9420    73.1640    67.4790    62.0770    25.0160     2.2230    -5.3380 
  177.5000    58.1070    79.5890    72.5020    70.0070    25.0260     2.2180    -5.5290 
  177.6250    57.8540    89.3650    80.4380    82.1550    25.0210     2.2030    -5.6690 
  177.7500    59.9950   101.5430    90.5210    92.0170    24.9940     2.1820    -5.8020 
  177.8750    65.4740   115.5210   102.1860    98.3530    24.9770     2.1610    -5.8990 
  178.0000    69.7380   130.5380   114.6690   103.2490    25.0120     2.1460    -5.9770 
  178.1250    69.0160   145.5990   126.9450    91.8100    25.0590     2.1440    -6.0080 
  178.2500    67.3210   159.6450   138.0540    91.5010    25.0910     2.1520    -6.0150 
  178.3750    66.1850   171.8930   147.3090   101.1140    25.0810     2.1600    -6.0030 
  178.5000    64.8100   182.0370   154.4500   114.8460    25.0500     2.1650    -5.9300 
  178.6250    62.4410   190.3740   159.6970   134.8220    25.0240     2.1670    -5.8330 
  178.7500    59.6460   198.3340   164.4010   141.8240    24.9850     2.1690    -5.7120 
  178.8750    58.6990   206.6430   169.3240   142.2010    24.9420     2.1700    -5.5990 
  179.0000    59.9430   215.0630   174.4920   137.4580    24.9480     2.1680    -5.5110 
  179.1250    60.1240   221.9590   178.9180   133.9910    25.0510     2.1630    -5.4680 
  179.2500    58.6510   226.0190   181.6470   137.8540    25.1450     2.1570    -5.4640 
  179.3750    57.4860   226.8920   182.4310   142.8340    25.1840     2.1530    -5.4590 
  179.5000    56.5270   225.2240   181.7920   147.9880    25.1800     2.1560    -5.4710 
  179.6250    55.4540   221.3180   180.2100   150.1570    25.1520     2.1680    -5.4820 
  179.7500    56.4890   214.9590   177.5090   151.3470    25.1170     2.1810    -5.4960 
  179.8750    58.6580   205.1750   172.7220   151.8060    25.1110     2.1920    -5.4970 
  180.0000    58.3430   191.8650   165.1910   141.8340    25.1660     2.2000    -5.4730 
  180.1250    56.1380   176.3700   155.0790   138.6840    25.1800     2.2020    -5.4410 
  180.2500    56.2760   161.4020   144.3350   130.6550    25.1310     2.1970    -5.3910 
  180.3750    58.4040   148.1810   134.2240   119.9940    25.0590     2.1920    -5.3460 
  180.5000    60.1540   136.0790   124.7250   118.4530    25.0080     2.1900    -5.3470 
  180.6250    60.1640   122.1500   113.6120   108.2650    24.9650     2.1920    -5.3090 
  180.7500    60.4280   104.4390    98.8730    95.7260    24.9640     2.1970    -5.2780 
  180.8750    62.1280    83.8830    80.8130    85.5170    24.9910     2.2060    -5.2550 
  181.0000    65.0400    63.8840    62.3650    72.1550    24.9900     2.2240    -5.2390 
  181.1250    66.3420    48.8760    47.9070    51.2170    24.8860     2.2510    -5.2070 
  181.2500    66.7740    39.6110    38.5700    43.7880    24.7370     2.2780    -5.1520 
  181.3750    68.4260    35.9330    34.2080    34.2070    24.5860     2.2920    -5.1050 
  181.5000    69.7360    37.5000    34.3840    30.5930    24.4800     2.2850    -5.0270 
  181.6250    66.9090    45.2310    39.9560    43.9350    24.4660     2.2610    -5.0260 
  181.7500    61.8690    58.5120    50.7070    69.1680    24.4520     2.2350    -5.0560 
  181.8750    58.4210    77.0140    66.6020   103.5330    24.4860     2.2130    -5.0990 
  182.0000    57.5090    98.8250    94.3750   134.7750    24.6280     2.1970    -5.1520 
  182.1250    58.0140   119.1550   114.0870   137.2050    24.8680     2.1910    -5.2210 
  182.2500    58.8390   133.7560   127.7690   132.2890    25.0680     2.1880    -5.3360 
  182.3750    58.2330   141.9900   134.6850   127.5010    25.1880     2.1850    -5.4550 
  182.5000    55.3520   146.0660   136.9900   125.0950    25.2500     2.1820    -5.5870 
  182.6250    53.7960   148.9260   137.5790   121.6970    25.2550     2.1810    -5.6780 
  182.7500    55.5180   152.6980   138.6880   117.8370    25.2370     2.1810    -5.7560 
  182.8750    57.4420   158.0410   140.9730   116.3860    25.2290     2.1850    -5.8250 
  183.0000    58.7840   164.8710   144.4920   126.7760    25.2510     2.1890    -5.8940 
  183.1250    61.9980   172.4100   149.0080   133.3690    25.2420     2.1910    -5.9610 
  183.2500    64.3120   179.2440   153.7550   139.4290    25.2130     2.1890    -6.0020 
  183.3750    62.5790   184.4240   158.1360   136.5710    25.1900     2.1840    -6.0710 
  183.5000    58.5400   187.6440   161.6920   136.3710    25.1600     2.1790    -6.1530 
  183.6250    57.3530   188.8090   163.9680   139.1230    25.1110     2.1800    -6.2530 
  183.7500    57.8100   187.5570   164.4500   145.8060    25.0550     2.1860    -6.3190 
  183.8750    58.1450   181.4160   161.1850   146.5980    25.0180     2.1930    -6.3760 
  184.0000    59.1130   167.2950   151.4780   134.8390    24.9890     2.2010    -6.4050 
  184.1250    60.5560   143.5430   132.9760    94.3260    25.0330     2.2120    -6.4360 
  184.2500    61.1520   116.4440   110.1050    77.0350    25.0400     2.2240    -6.4700 
  184.3750    60.8620    92.0450    88.0790    58.5160    24.7560     2.2390    -6.4910 
  184.5000    61.2170    74.3230    71.1060    47.2750    24.3680     2.2540    -6.4930 
  184.6250    63.0670    65.6640    62.0320    40.4310    24.1460     2.2660    -6.5150 
  184.7500    62.8270    64.0260    59.3590    41.4150    24.1640     2.2680    -6.5370 
  184.8750    60.0530    68.2650    62.1960    45.2590    24.2900     2.2570    -6.5540 
