~V
VERS. 2.00: Ver 2.00
~W
STRT.M 45.0000:
STOP.M 277.0000:
STEP.M 0.1250:
NULL. -999.2500:
UWI. F11056:
~C
DEPT.M :
GR.API :
RML.OHMM :
RI. :
RXO.OHMM :
CALI.CM :
DEN.GM/CC :
SP.MV :
~A
# ...
  225.0000    76.5990    71.8370    68.3350    55.7130    25.2370     2.2330   -13.9280 
  225.1250    74.2390    72.4070    68.9480    52.1370    25.2740     2.2360   -13.8720 
  225.2500    70.3180    73.6020    70.1940    54.7800    25.2330     2.2310   -13.7670 
  225.3750    66.7090    75.1710    71.7910    52.8040    25.2580     2.2210   -13.6220 
  225.5000    63.0580    76.6380    73.2210    43.9740    25.1170     2.2100   -13.4120 
  225.6250    59.6470    77.5040    74.0080    39.8340    24.9990     2.2020   -13.2290 
  225.7500    58.2640    77.4140    73.8230    47.1380    25.0830     2.2020   -13.0780 
  225.8750    59.7580    76.1920    72.5380    57.3930    25.2920     2.2060   -12.8900 
  226.0000    62.6190    73.6570    70.0480    59.9500    25.4150     2.2140   -12.6490 
  226.1250    63.3710    70.1510    66.6180    58.2040    25.4520     2.2230   -12.4340 
  226.2500    62.5070    65.9830    62.3950    56.7100    25.4560     2.2370   -12.3010 
  226.3750    63.2830    61.6830    57.8230    54.3850    25.4550     2.2570   -12.2200 
  226.5000    66.1840    58.1810    53.8750    48.3160    25.4510     2.2810   -12.1740 
  226.6250    68.5170    56.1590    51.3770    41.7300    25.4360     2.3000   -12.1200 
  226.7500    68.7030    56.1370    50.9340    35.2290    25.4310     2.3040   -12.0520 
  226.8750    67.8870    58.3950    52.8510    35.8480    25.5220     2.2910   -12.0140 
  227.0000    66.4930    63.0610    57.1930    48.4440    25.8220     2.2650   -12.0310 
  227.1250    64.3880    68.7010    62.5000    67.6850    26.0220     2.2400   -12.0440 
  227.2500    63.7700    73.6110    67.1560    82.0300    26.0510     2.2240   -12.0220 
  227.3750    64.4560    76.1310    69.5450    79.4380    25.9920     2.2170   -11.9420 
  227.5000    64.9340    75.2390    68.5780    64.5950    25.9300     2.2140   -11.8250 
  227.6250    64.4270    72.5650    65.7830    56.1690    25.8570     2.2080   -11.7030 
  227.7500    64.3050    69.6950    62.6990    57.1910    25.8060     2.1990   -11.6120 
  227.8750    66.1530    67.7610    60.4410    60.3870    25.7880     2.1910   -11.5430 
  228.0000    67.1020    67.3350    59.6000    55.6040    25.8120     2.1870   -11.4750 
  228.1250    66.8550    67.9360    59.7390    53.5780    25.8570     2.1900   -11.4070 
  228.2500    66.3410    69.1480    60.4230    55.9510    25.8610     2.1960   -11.3300 
  228.3750    66.2260    70.6220    61.2820    59.9760    25.8250     2.2040   -11.2410 
  228.5000    65.3040    72.1850    62.1500    61.5360    25.7880     2.2090   -11.1280 
  228.6250    63.1320    73.8840    63.1180    58.9580    25.7810     2.2110   -11.0140 
  228.7500    61.0330    75.9300    64.4250    55.9200    25.7870     2.2110   -10.8920 
  228.8750    60.5010    78.5670    66.3240    58.1710    25.8060     2.2110   -10.7450 
  229.0000    62.3120    82.0230    69.0110    60.5080    25.8320     2.2150   -10.5340 
  229.1250    65.2550    85.9470    72.1290    64.5090    25.8630     2.2270   -10.2980 
  229.2500    66.8240    89.8300    75.2240    72.3750    25.8610     2.2420   -10.1030 
  229.3750    66.2960    93.0620    77.8050    78.2690    25.7770     2.2540    -9.9720 
  229.5000    65.5870    94.9870    79.3720    78.4260    25.7100     2.2530    -9.8950 
  229.6250    65.7970    95.8080    80.0790    75.2500    25.8140     2.2360    -9.7970 
  229.7500    66.2890    96.0410    80.3010    73.6110    25.9570     2.2040    -9.6620 
  229.8750    67.3590    96.5820    80.7920    79.0260    26.0150     2.1680    -9.5370 
  230.0000    68.3370    99.0270    83.0290    91.3240    25.9610     2.1510    -9.4570 
  230.1250    67.0330   104.3780    87.9690    97.6280    25.9650     2.1770    -9.3770 
  230.2500    65.1900   112.3310    95.9720    94.2230    26.0620     2.2500    -9.2470 
  230.3750    65.0870   118.5970   105.5260    94.6650    26.0410     2.3470    -9.0780 
  230.5000    64.8990   112.5080   109.6800   132.3780    25.8180     2.4160    -8.8300 
  230.6250    63.2770    92.1860   100.5560   184.9540    25.5580     2.4260    -8.5160 
  230.7500    63.4260    64.4930    77.6610   142.2320    25.4130     2.3830    -8.1790 
  230.8750    69.7840    39.6580    50.7540    65.3640    25.2450     2.3210    -7.8510 
  231.0000    79.2650    24.4070    31.0940    28.6010    24.8190     2.2850    -7.5650 
  231.1250    87.4960    15.8070    19.2640    12.9360    24.0310     2.2830    -7.2830 
  231.2500    92.9680    11.2890    12.9350     7.4560    23.0670     2.3010    -6.9910 
  231.3750    94.4760     9.1120     9.8040     6.0180    22.4240     2.3190    -6.6550 
  231.5000    91.1720     8.2100     8.5380     6.5510    22.6080     2.3180    -6.3180 
  231.6250    86.5510     7.8500     8.0940     6.9830    23.2650     2.2970    -6.0500 
  231.7500    84.5560     7.8120     8.1170     7.1300    23.9750     2.2610    -5.8420 
  231.8750    86.4700     7.8840     8.3440     7.1260    24.4880     2.2140    -5.6030 
  232.0000    89.3870     7.9180     8.5720     7.1560    24.9540     2.1670    -5.2810 
  232.1250    92.9580     7.8720     8.7180     7.1700    25.2960     2.1320    -4.9510 
  232.2500    99.4800     7.7640     8.7840     7.3230    25.4660     2.1190    -4.6700 
  232.3750   108.1820     7.6280     8.7890     7.3810    25.3850     2.1350    -4.4970 
  232.5000   111.9570     7.4940     8.7480     7.2140    24.9110     2.1810    -4.4430 
  232.6250   109.7400     7.3920     8.6890     7.1790    24.3670     2.2360    -4.4070 
  232.7500   108.1210     7.3450     8.6320     7.2530    24.0410     2.2800    -4.3710 
  232.8750   111.7130     7.3690     8.5940     7.2680    24.1050     2.3020    -4.4010 
  233.0000   115.5310     7.4830     8.5930     7.4360    24.5430     2.2990    -4.5340 
  233.1250   114.9900     7.6660     8.6290     7.6640    24.9760     2.2880    -4.7210 
  233.2500   112.3830     7.8940     8.6970     7.8300    25.2410     2.2810    -4.8990 
  233.3750   111.9730     8.1310     8.7750     7.9350    25.4030     2.2850    -5.0170 
  233.5000   113.0870     8.3150     8.8010     8.2540    25.5430     2.3000    -5.0580 
  233.6250   112.2950     8.4040     8.7340     8.6950    25.6290     2.3190    -5.0680 
  233.7500   111.5690     8.3760     8.5530     9.1660    25.6590     2.3380    -5.0430 
  233.8750   114.4350     8.2430     8.2690     9.1590    25.6410     2.3530    -4.9930 
  234.0000   118.2380     8.0740     7.9410     8.6240    25.6380     2.3600    -4.9460 
  234.1250   115.7260     8.0150     7.7130     8.3750    25.6290     2.3600    -4.9350 
  234.2500   107.9000     8.2360     7.7680     8.6030    25.5990     2.3540    -4.9480 
  234.3750   102.5990     8.9560     8.3370     9.2080    25.5220     2.3510    -4.9630 
  234.5000   103.3300    10.6870     9.9670    10.1710    25.4370     2.3660    -4.9730 
  234.6250   100.8030    13.9190    13.1510    13.7730    25.2950     2.3980    -5.0200 
  234.7500    90.3550    19.5630    18.6870    23.9310    25.0370     2.4310    -5.1260 
  234.8750    77.3340    28.6080    27.2830    49.3080    24.7120     2.4460    -5.2290 
  235.0000    70.3170    41.3540    38.9380    81.6450    24.6690     2.4200    -5.2470 
  235.1250    67.9650    54.4830    50.5360    81.9350    25.0870     2.3660    -5.1590 
  235.2500    66.4700    64.6030    58.9700    69.3510    25.5870     2.3050    -5.0400 
  235.3750    65.2250    70.1590    63.1860    63.4780    25.7920     2.2580    -4.9690 
  235.5000    66.1400    72.3010    64.7390    62.9300    25.7920     2.2360    -4.9510 
  235.6250    66.8810    74.1990    66.3720    62.2070    25.5130     2.2300    -4.9020 
  235.7500    66.2980    76.8200    68.7910    60.5040    25.2420     2.2290    -4.8220 
  235.8750    65.6000    79.5070    71.4660    59.7610    24.9520     2.2250    -4.7630 
  236.0000    65.6770    80.1210    72.8110    57.8730    24.8980     2.2180    -4.7930 
  236.1250    64.9190    77.3200    71.5630    61.8660    25.0340     2.2110    -4.9020 
