~V
VERS. 2.00: Ver 2.00
~W
STRT.M 55.0000:
STOP.M 276.0000:
STEP.M 0.1250:
NULL. -999.2500:
UWI. F11046:
~C
DEPT.M :
GR.API :
RML.OHMM :
RI. :
RXO.OHMM :
CALI.CM :
DEN.GM/CC :
SP.MV :
~A
# ...
  178.7500    64.1410   174.1080   171.7440   179.4810    23.7970     2.1920   -32.1970 
  178.8750    67.2130   158.7300   153.9390   152.4180    23.6450     2.2210   -31.9820 
  179.0000    70.8660   147.1710   139.9490   108.1520    23.6070     2.2470   -31.7080 
  179.1250    69.5360   141.9230   132.2870   112.7710    23.6070     2.2610   -31.4930 
  179.2500    64.6240   142.9220   130.9710   127.4630    23.6120     2.2660   -31.2720 
  179.3750    61.0470   150.2070   136.0650   144.0600    23.6430     2.2630   -31.0600 
  179.5000    62.1110   163.2670   147.0590   163.9360    23.7320     2.2530   -30.8840 
  179.6250    65.4220   181.3940   163.3700   193.1440    23.8690     2.2360   -30.7550 
  179.7500    65.9480   200.7850   181.7170   236.9390    24.0030     2.2180   -30.5880 
  179.8750    63.5770   216.0390   198.1310   278.7960    24.1560     2.2080   -30.3990 
  180.0000    60.8760   219.9460   205.9810   287.5730    24.3400     2.2100   -30.2190 
  180.1250    60.7120   203.0930   194.1680   240.1190    24.4490     2.2250   -30.0240 
  180.2500    62.1090   169.8240   165.4400   180.3760    24.4520     2.2430   -29.7460 
  180.3750    64.7520   130.5680   129.8770   124.6740    24.3950     2.2550   -29.4910 
  180.5000    67.1040    97.7690    98.5500    78.8600    24.4210     2.2550   -29.2120 
  180.6250    69.0500    79.7600    78.5850    51.9730    24.6710     2.2430   -28.9910 
  180.7500    70.2710    71.6990    67.9090    51.0220    25.0970     2.2320   -28.7700 
  180.8750    69.5910    69.2590    63.9870    59.4040    25.4570     2.2310   -28.4610 
  181.0000    67.8430    69.8620    63.9640    69.6390    25.3980     2.2420   -28.2170 
  181.1250    67.5110    70.9990    65.1050    67.6950    25.0000     2.2650   -27.8750 
  181.2500    68.5050    70.7390    65.0290    61.1000    24.6840     2.2890   -27.6680 
  181.3750    69.1900    68.7490    62.9790    53.8490    24.5260     2.3060   -27.5060 
  181.5000    68.5250    65.8630    59.6020    46.2450    24.4710     2.3120   -27.2830 
  181.6250    67.0040    63.7800    56.6050    43.5330    24.4550     2.3050   -27.0610 
  181.7500    66.3330    63.6080    55.2310    47.5080    24.4610     2.2920   -26.9170 
  181.8750    67.9230    65.7590    55.9280    53.7930    24.5050     2.2790   -26.9930 
  182.0000    70.5940    70.2090    58.7930    61.7460    24.5860     2.2700   -27.1060 
  182.1250    70.5110    76.9490    64.0440    64.9890    24.6590     2.2660   -27.2830 
  182.2500    68.3410    85.0750    71.0000    74.8430    24.7020     2.2610   -27.4150 
  182.3750    65.9880    93.8510    79.1300    96.3270    24.7290     2.2530   -27.4680 
  182.5000    63.8260   102.3530    87.6770   128.9240    24.7830     2.2440   -27.5760 
  182.6250    62.9590   109.0820    95.4120   138.7050    24.9020     2.2340   -27.6950 
  182.7500    63.7350   112.8120   101.0720   129.1790    25.0020     2.2260   -27.7230 
  182.8750    66.2830   111.9670   103.1320   114.8990    25.0400     2.2200   -27.6080 
  183.0000    68.2330   104.9760    99.7560   101.3050    25.0360     2.2160   -27.3930 
  183.1250    67.7260    90.2390    87.9550    92.5600    25.0080     2.2230   -27.1450 
  183.2500    66.7770    70.9410    69.6050    65.9620    24.9320     2.2470   -26.9020 
  183.3750    67.5570    50.8060    49.0350    38.5430    24.7550     2.2920   -26.6040 
  183.5000    71.8140    33.4880    31.4570    20.3160    24.4380     2.3500   -26.1730 
  183.6250    81.3800    21.8370    20.2190    11.1940    24.1210     2.4040   -25.5880 
  183.7500    92.6110    14.8400    13.6120     7.1130    23.9410     2.4400   -25.0070 
  183.8750    98.6910    11.4190    10.1860     6.2950    23.9080     2.4510   -24.5260 
  184.0000    96.3390    10.5700     8.8590     6.8650    23.9440     2.4430   -24.2930 
  184.1250    91.3780    11.9240     9.3310     8.3080    24.0030     2.4240   -24.3410 
  184.2500    89.2180    14.8080    11.3130    11.3560    24.0300     2.4060   -24.4820 
  184.3750    87.6390    18.8390    14.9680    16.8010    24.0190     2.3920   -24.8010 
  184.5000    84.6730    23.2630    20.1840    21.7540    24.0000     2.3830   -25.2510 
  184.6250    84.6650    26.5730    25.7560    22.5200    23.9940     2.3790   -25.9270 
  184.7500    87.7190    27.6700    29.2930    22.5910    23.9910     2.3790   -26.6880 
  184.8750    90.4400    26.2310    29.2920    22.7970    23.9910     2.3830   -27.3900 
  185.0000    91.2380    22.8680    26.0780    20.9320    23.9980     2.3920   -27.9550 
  185.1250    92.7660    18.8100    21.3940    14.9260    24.0200     2.4050   -28.1790 
  185.2500    96.7870    15.2740    17.1320    10.2370    24.0460     2.4160   -28.3120 
  185.3750   100.4180    12.6730    13.8570     8.3880    24.0570     2.4220   -28.3260 
  185.5000   101.2990    10.9870    11.5680     7.8260    24.0580     2.4200   -28.2050 
  185.6250   100.7240    10.0650    10.1380     7.5210    24.0610     2.4080   -28.0330 
  185.7500    99.5580     9.5340     9.2010     7.2700    24.0740     2.3930   -27.7960 
  185.8750    97.0340     9.2660     8.6210     7.0770    24.1010     2.3810   -27.5320 
  186.0000    92.9150     9.2670     8.3480     6.7440    24.1270     2.3740   -27.3200 
  186.1250    91.6270     9.7620     8.5010     6.6080    24.1530     2.3710   -27.2680 
  186.2500    93.6110    10.9300     9.1670     7.0710    24.1870     2.3630   -27.3660 
  186.3750    94.7920    12.9890    10.5340     8.9120    24.2240     2.3440   -27.6190 
  186.5000    93.3980    16.0590    12.8170    12.3490    24.2800     2.3160   -28.0220 
  186.6250    89.9660    20.1290    16.3570    17.3370    24.3350     2.2910   -28.5320 
  186.7500    86.1490    24.4580    20.7510    22.1160    24.5290     2.2790   -29.0960 
  186.8750    83.3350    28.1630    25.1700    25.2020    24.9500     2.2820   -29.7020 
  187.0000    82.4610    30.3300    28.2940    28.9390    25.3160     2.2960   -30.2190 
  187.1250    83.2660    30.1420    28.6100    29.1520    25.4140     2.3130   -30.6850 
  187.2500    83.6860    28.3850    26.7700    22.7010    25.3760     2.3290   -31.0000 
  187.3750    83.9440    26.1090    23.9690    17.4890    25.3500     2.3400   -31.1470 
  187.5000    85.7940    24.5290    21.4510    14.3600    25.3730     2.3430   -31.2690 
  187.6250    86.2380    25.1840    20.3910    14.8640    25.3530     2.3310   -31.3420 
  187.7500    82.6150    28.8000    21.3140    17.9490    25.2690     2.3070   -31.5130 
  187.8750    76.3630    36.3240    25.0740    28.9550    25.1370     2.2770   -31.7070 
  188.0000    70.7820    48.8900    33.0160    67.9880    24.9970     2.2470   -32.0140 
  188.1250    68.9730    68.9510    48.1710   142.4120    24.8810     2.2280   -32.3570 
  188.2500    67.1730    95.9130    70.7380   204.5550    24.8870     2.2180   -32.6820 
  188.3750    63.7960   127.9070    99.1950   194.4190    24.9960     2.2150   -33.1260 
  188.5000    61.3910   160.5120   128.8830   170.1810    25.1510     2.2140   -33.6130 
  188.6250    62.5470   187.0410   152.8630   186.6690    25.2690     2.2130   -34.1280 
  188.7500    65.3650   205.3330   169.3710   198.3370    25.3630     2.2100   -34.5530 
  188.8750    65.8160   215.8500   179.3650   190.7180    25.4570     2.2060   -34.8350 
  189.0000    63.9610   219.8510   184.0990   191.3940    25.4890     2.2030   -35.0040 
  189.1250    64.1610   217.0030   182.6880   187.6960    25.4540     2.2050   -35.1540 
  189.2500    65.8500   209.0960   176.2000   182.7640    25.4610     2.2120   -35.3190 
  189.3750    65.8230   198.2780   166.6520   161.6260    25.5300     2.2260   -35.4700 
  189.5000    63.2190   187.7320   157.1290   128.5530    25.6200     2.2420   -35.5410 
  189.6250    60.3550   181.4670   151.3520   106.6070    25.7050     2.2540   -35.4940 
  189.7500    59.8350   181.0110   150.9490   111.8440    25.7020     2.2600   -35.4440 
  189.8750    60.0140   186.9690   156.7660   140.8760    25.6170     2.2590   -35.4300 
