~V
VERS. 2.00: Ver 2.00
~W
STRT.M 52.0000:
STOP.M 235.0000:
STEP.M 0.1250:
NULL. -999.2500:
UWI. F11014:
~C
DEPT.M :
DEN.GM/CC :
GR.API :
RML.OHMM :
RI. :
RXO.OHMM :
CALI.CM :
SP.MV :
~A
# ...
  175.7500     2.2330    52.6600   370.0820   338.9770   303.7230    24.7490   -15.5190 
  175.8750     2.2490    48.7230   399.6310   364.9870   366.4690    24.4760   -15.4300 
  176.0000     2.2610    45.8290   422.0120   385.9700   404.8070    24.1790   -15.2840 
  176.1250     2.2670    45.8940   426.0870   392.5870   394.4620    23.9530   -15.1110 
  176.2500     2.2740    47.5170   410.0220   381.9620   356.6190    23.8800   -14.9490 
  176.3750     2.2890    48.5290   384.1160   360.4280   334.9890    24.0360   -14.6730 
  176.5000     2.3040    48.4790   364.0680   340.9260   318.1750    24.3100   -14.3430 
  176.6250     2.3140    48.4730   361.1100   334.5640   291.2600    24.5300   -14.1040 
  176.7500     2.3300    48.7680   378.5810   345.9610   278.9270    24.6320   -13.8660 
  176.8750     2.3810    48.3510   398.3840   364.9910   336.6830    24.7080   -13.4940 
  177.0000     2.4670    47.5450   372.1170   358.0050   489.8420    24.7970   -13.1180 
  177.1250     2.5530    48.3820   279.0560   295.6960   674.1560    24.8680   -12.7570 
  177.2500     2.6080    50.8900   166.7200   195.4730   692.9410    24.8780   -12.3250 
  177.3750     2.6300    52.0860    88.6790   108.0590   371.5850    24.8040   -11.9420 
  177.5000     2.6380    51.6830    47.5240    55.1850   103.9110    24.7190   -11.6190 
  177.6250     2.6350    52.4960    26.6300    28.3520    32.8580    24.6920   -11.2110 
  177.7500     2.6050    55.5370    16.2250    16.0100    14.5160    24.6970   -10.7650 
  177.8750     2.5550    57.6700    10.8240    10.6190    10.0410    24.6500   -10.4280 
  178.0000     2.5140    56.5350     8.1720     8.0530     9.0770    24.5870   -10.1130 
  178.1250     2.4940    53.8860     6.9680     6.6380     8.1470    24.5460    -9.8000 
  178.2500     2.4830    51.9980     6.4300     5.9200     6.8060    24.5190    -9.5750 
  178.3750     2.4620    51.0900     6.3670     5.7150     6.0160    24.4990    -9.4040 
  178.5000     2.4350    51.6840     6.6040     5.8580     6.1590    24.4900    -9.2440 
  178.6250     2.4130    55.6710     6.9540     6.1780     6.8320    24.4890    -9.1500 
  178.7500     2.4030    61.8150     7.2270     6.4980     7.5650    24.4930    -9.1470 
  178.8750     2.4040    64.1500     7.2400     6.6150     7.9200    24.4850    -9.1290 
  179.0000     2.4110    61.1000     6.9950     6.4760     7.5010    24.4340    -9.1050 
  179.1250     2.4210    56.5810     6.6620     6.1950     6.6970    24.3640    -9.1560 
  179.2500     2.4370    53.3050     6.4300     5.9330     6.3020    24.3210    -9.2080 
  179.3750     2.4600    50.7750     6.4200     5.8130     6.4120    24.3110    -9.1950 
  179.5000     2.4840    49.0400     6.5910     5.8320     6.6760    24.3190    -9.2240 
  179.6250     2.5020    49.7720     6.8080     5.9030     6.9210    24.3540    -9.3110 
  179.7500     2.5020    53.3610     6.9490     5.9360     6.9260    24.4040    -9.3570 
  179.8750     2.4790    57.0630     6.9440     5.8700     6.5560    24.3980    -9.4140 
  180.0000     2.4430    57.8230     6.8400     5.7290     6.0630    24.3180    -9.5330 
  180.1250     2.4140    56.3470     6.7300     5.5730     5.8740    24.2580    -9.6280 
  180.2500     2.4000    56.1460     6.6690     5.4510     6.1990    24.3020    -9.7180 
  180.3750     2.3950    58.0530     6.6720     5.3830     6.8910    24.4110    -9.8900 
  180.5000     2.3880    60.3930     6.7150     5.3580     7.1560    24.4920   -10.0480 
  180.6250     2.3770    62.2870     6.7760     5.3600     6.7170    24.5220   -10.1620 
  180.7500     2.3670    62.6880     6.8690     5.3870     6.1620    24.4920   -10.3330 
  180.8750     2.3660    59.8110     7.0220     5.4520     5.9220    24.4070   -10.5170 
  181.0000     2.3740    55.3630     7.2310     5.5600     6.0540    24.3460   -10.6500 
  181.1250     2.3840    53.3090     7.4420     5.6860     6.4260    24.3540   -10.8240 
  181.2500     2.3900    53.8600     7.5740     5.7820     6.7630    24.3840   -11.0390 
  181.3750     2.3900    53.4710     7.5450     5.7810     6.8790    24.3960   -11.1780 
  181.5000     2.3890    51.5130     7.3760     5.6710     6.8400    24.3600   -11.3060 
  181.6250     2.3880    49.9530     7.1750     5.5020     6.6160    24.2990   -11.4970 
  181.7500     2.3870    50.2920     7.0660     5.3550     6.2630    24.2300   -11.6660 
  181.8750     2.3870    51.3920     7.1600     5.3230     6.0430    24.2200   -11.8090 
  182.0000     2.3910    52.3400     7.4630     5.4410     6.2700    24.2960   -12.0130 
  182.1250     2.3940    54.5680     7.8980     5.6810     6.9760    24.3950   -12.2440 
  182.2500     2.3920    58.8970     8.3500     5.9780     7.6580    24.4400   -12.4340 
  182.3750     2.3870    62.6150     8.6790     6.2340     7.8550    24.4160   -12.6570 
  182.5000     2.3800    63.1170     8.8210     6.3850     7.6010    24.3390   -12.9280 
  182.6250     2.3690    62.8030     8.8180     6.4330     7.2270    24.1970   -13.1580 
  182.7500     2.3600    66.3720     8.7770     6.4320     6.9830    24.0300   -13.4090 
  182.8750     2.3610    73.9630     8.8310     6.4600     7.0550    23.9140   -13.7800 
  183.0000     2.3710    81.4620     9.0430     6.5680     7.3290    23.9680   -14.1790 
  183.1250     2.3850    87.4500     9.3890     6.7570     7.7310    24.2010   -14.5450 
  183.2500     2.3940    92.6820     9.7880     6.9870     8.2760    24.4920   -14.9760 
  183.3750     2.3980    95.5710    10.1160     7.1890     8.7970    24.7300   -15.4690 
  183.5000     2.4050    94.4070    10.2890     7.3050     9.1750    24.8490   -15.9430 
  183.6250     2.4130    91.0160    10.2950     7.3230     9.4270    24.8090   -16.4580 
  183.7500     2.4170    89.4630    10.1710     7.2550     9.3390    24.6270   -17.0130 
  183.8750     2.4140    90.7550     9.9820     7.1300     8.9110    24.4430   -17.4990 
  184.0000     2.4100    91.8940     9.7950     6.9850     8.6630    24.3870   -17.9190 
  184.1250     2.4090    91.5960     9.6550     6.8530     8.8220    24.3760   -18.3500 
  184.2500     2.4110    92.4570     9.5850     6.7560     8.9170    24.3430   -18.7990 
  184.3750     2.4130    96.1790     9.6170     6.7250     8.8140    24.3640   -19.2340 
  184.5000     2.4140    98.9610     9.7510     6.7710     8.9100    24.4890   -19.6880 
  184.6250     2.4130    97.6690     9.9630     6.8880     9.2230    24.6580   -20.1710 
  184.7500     2.4100    94.1200    10.2240     7.0570     9.6200    24.8220   -20.6200 
  184.8750     2.4040    90.9690    10.4910     7.2530     9.8960    24.9180   -21.0090 
  185.0000     2.3970    88.8690    10.7210     7.4370    10.0370    24.9410   -21.3820 
  185.1250     2.3890    87.8690    10.8850     7.5810    10.0540    24.9440   -21.7270 
  185.2500     2.3810    88.4060    10.9740     7.6710    10.0460    24.9510   -21.9320 
  185.3750     2.3770    89.2210    10.9970     7.7060    10.0520    24.9480   -21.9760 
  185.5000     2.3810    88.9330    10.9860     7.7090    10.0130    24.9310   -21.8900 
  185.6250     2.3900    89.0930    10.9710     7.7000     9.9400    24.9170   -21.6090 
  185.7500     2.4040    92.4780    10.9470     7.6780     9.9120    24.8970   -21.1570 
  185.8750     2.4180    97.4490    10.8520     7.6120     9.9080    24.9030   -20.6370 
  186.0000     2.4290    99.5220    10.6140     7.4660     9.9410    24.9400   -20.0470 
  186.1250     2.4330    98.8370    10.2100     7.2240     9.9710    24.9780   -19.3270 
  186.2500     2.4320    98.1630     9.6860     6.9110     9.6170    25.0050   -18.5520 
  186.3750     2.4260    96.3770     9.1840     6.6000     8.7590    25.0100   -17.8160 
  186.5000     2.4130    92.0270     8.8520     6.3730     7.9000    24.9290   -17.0740 
  186.6250     2.4000    87.8660     8.7560     6.2750     7.4540    24.7670   -16.3710 
  186.7500     2.3950    86.3080     8.8570     6.3080     7.4880    24.6380   -15.7800 
  186.8750     2.4000    84.8260     9.0190     6.4200     8.0530    24.6590   -15.2460 
