~V
VERS. 2.00: Ver 2.00
~W
STRT.M 55.0000:
STOP.M 281.0000:
STEP.M 0.1250:
NULL. -999.2500:
UWI. F11051:
~C
DEPT.M :
SP.MV :
GR.API :
RML.OHMM :
RI. :
RXO.OHMM :
CALI.CM :
DEN.GM/CC :
~A
# ...
   88.7500   -19.5020    62.6150    11.9560     8.6810     8.6030    23.2710     2.1710 
   88.8750   -19.4700    64.1660    12.1090     8.7630     8.9220    23.2630     2.1820 
   89.0000   -19.4330    66.2370    12.1060     8.7700     8.9850    23.2110     2.1920 
   89.1250   -19.4180    65.1220    11.9470     8.6880     8.7480    23.1920     2.1940 
   89.2500   -19.4000    61.6830    11.7560     8.5740     8.5190    23.2840     2.1850 
   89.3750   -19.4050    61.0510    11.6200     8.4700     8.4420    23.3770     2.1650 
   89.5000   -19.3980    65.0220    11.5650     8.3990     8.3810    23.3890     2.1420 
   89.6250   -19.4100    69.9310    11.6060     8.3830     8.2260    23.3240     2.1240 
   89.7500   -19.4120    72.0500    11.7990     8.4570     8.0520    23.2270     2.1200 
   89.8750   -19.4270    70.5510    12.3170     8.7190     8.0180    23.1330     2.1300 
   90.0000   -19.4620    65.4770    13.3790     9.2990     8.4310    23.1160     2.1570 
   90.1250   -19.4550    61.5330    15.2380    10.3850    10.3930    23.2500     2.2170 
   90.2500   -19.4630    63.2600    17.6070    11.8790    15.6970    23.4650     2.3130 
   90.3750   -19.4480    67.7090    19.9160    13.5050    26.5630    23.6250     2.4240 
   90.5000   -19.4640    68.9970    21.2530    14.6940    34.8010    23.6460     2.4940 
   90.6250   -19.5040    65.3130    20.4760    14.6030    30.7240    23.5090     2.4710 
   90.7500   -19.5510    61.2030    18.1410    13.4150    20.4660    23.2240     2.3870 
   90.8750   -19.6060    58.0830    15.3670    11.7690    12.3740    22.9060     2.2810 
   91.0000   -19.6560    56.1110    13.2190    10.3210     9.1720    22.7190     2.1880 
   91.1250   -19.7190    57.3120    12.3440     9.5070     8.6520    22.8330     2.1420 
   91.2500   -19.7480    62.6360    12.3730     9.2300     8.5530    23.1260     2.1660 
   91.3750   -19.8120    68.7470    12.8360     9.3080     8.3790    23.3320     2.2520 
   91.5000   -19.8750    69.1860    13.1960     9.4760     8.1890    23.3440     2.3530 
   91.6250   -19.9360    64.4700    12.9880     9.4360     8.2440    23.2660     2.3790 
   91.7500   -19.9860    63.7130    12.3480     9.1410     8.5430    23.2280     2.3350 
   91.8750   -20.0310    66.5840    11.5820     8.7030     8.8420    23.1970     2.2580 
   92.0000   -20.0480    66.8300    10.9800     8.2830     8.8980    23.1120     2.1870 
   92.1250   -20.0650    63.9060    10.7290     8.0210     8.9580    22.8920     2.1410 
   92.2500   -20.0640    61.1210    10.7090     7.9090     9.1970    22.6760     2.1200 
   92.3750   -20.0730    58.7600    10.7700     7.8880     9.4860    22.5540     2.1180 
   92.5000   -20.1050    58.7460    10.7730     7.8860     9.1170    22.5310     2.1300 
   92.6250   -20.1130    62.4460    10.6420     7.8440     8.5120    22.5830     2.1450 
   92.7500   -20.1400    65.3290    10.4390     7.7610     8.2580    22.7060     2.1540 
   92.8750   -20.1660    66.7780    10.2440     7.6500     8.4000    22.8450     2.1560 
   93.0000   -20.2170    69.6160    10.1250     7.5250     8.4990    22.9300     2.1530 
   93.1250   -20.2500    69.6970    10.1130     7.3980     8.4520    22.9550     2.1500 
   93.2500   -20.2890    64.4700    10.1370     7.2880     8.4490    22.9630     2.1500 
   93.3750   -20.3180    60.0080    10.1650     7.2200     8.5100    22.9670     2.1470 
   93.5000   -20.3230    61.6420    10.2100     7.2280     8.3860    22.9600     2.1430 
   93.6250   -20.3440    62.1990    10.2320     7.2490     8.3600    22.9560     2.1470 
   93.7500   -20.3370    63.4580    10.3750     7.3780     8.2120    22.9370     2.1700 
   93.8750   -20.3300    61.8910    10.6120     7.5690     8.1130    22.9200     2.2090 
   94.0000   -20.3140    61.5450    10.8840     7.7620     8.1340    22.9330     2.2450 
   94.1250   -20.3160    61.8600    11.0390     7.8670     8.2730    22.9260     2.2500 
   94.2500   -20.3360    60.2400    10.9930     7.8480     8.3480    22.9200     2.2220 
   94.3750   -20.3570    58.0330    10.7760     7.7180     8.3870    22.9030     2.1810 
   94.5000   -20.4080    58.9090    10.4860     7.5290     8.4240    22.9300     2.1450 
   94.6250   -20.4250    60.2620    10.2370     7.3510     8.4030    23.0470     2.1280 
   94.7500   -20.4450    60.4890    10.0840     7.2300     8.3570    23.1630     2.1230 
   94.8750   -20.4520    61.6690    10.0360     7.1800     8.3180    23.1940     2.1260 
   95.0000   -20.4460    63.9720    10.0740     7.1900     8.3160    23.1660     2.1350 
   95.1250   -20.4460    65.2750    10.1720     7.2410     8.3650    23.1500     2.1470 
   95.2500   -20.3960    64.7620    10.2970     7.3080     8.4160    23.1420     2.1530 
   95.3750   -20.3410    63.7450    10.4140     7.3790     8.4140    23.1410     2.1500 
   95.5000   -20.2350    63.1850    10.4680     7.4380     8.3480    23.1410     2.1380 
   95.6250   -20.1440    62.4570    10.4080     7.4640     8.1530    23.1400     2.1230 
   95.7500   -20.0560    60.9620    10.2690     7.4560     7.9780    23.1380     2.1160 
   95.8750   -19.9640    59.0060    10.1080     7.4250     7.8820    23.1390     2.1190 
   96.0000   -19.8900    58.0230     9.9880     7.3880     7.8900    23.1400     2.1290 
   96.1250   -19.7770    58.6330     9.9670     7.3700     7.8290    23.1440     2.1380 
   96.2500   -19.6920    60.7950    10.0310     7.3810     7.7160    23.1230     2.1400 
   96.3750   -19.5980    62.6660    10.1470     7.4200     7.6030    23.0330     2.1340 
   96.5000   -19.5260    62.1600    10.2750     7.4740     7.3430    22.9010     2.1250 
   96.6250   -19.4640    61.9140    10.3780     7.5240     7.0820    22.8030     2.1180 
   96.7500   -19.3960    63.7820    10.4360     7.5500     7.0010    22.7480     2.1170 
   96.8750   -19.3410    65.6750    10.4290     7.5340     6.9940    22.6940     2.1200 
   97.0000   -19.2530    66.2630    10.3420     7.4660     6.9990    22.6470     2.1260 
   97.1250   -19.1960    67.4870    10.1740     7.3450     6.9360    22.6630     2.1310 
   97.2500   -19.1200    69.1660     9.9960     7.2130     6.8530    22.7200     2.1330 
   97.3750   -19.0450    69.1330     9.9040     7.1210     6.6870    22.7490     2.1310 
   97.5000   -18.9990    68.3050     9.9840     7.1180     6.4970    22.7230     2.1270 
   97.6250   -18.9340    68.0190    10.2830     7.2360     6.5480    22.6310     2.1230 
   97.7500   -18.9000    67.0800    10.6740     7.4220     6.7400    22.5340     2.1210 
   97.8750   -18.8650    64.6450    11.0160     7.6070     6.8470    22.4190     2.1230 
   98.0000   -18.8670    62.4870    11.1850     7.7210     6.8810    22.4990     2.1280 
   98.1250   -18.8740    62.6370    11.1040     7.7030     6.8830    22.5660     2.1320 
   98.2500   -18.9110    63.3670    10.8630     7.5890     6.9990    22.6130     2.1320 
   98.3750   -18.9620    63.8010    10.5490     7.4260     7.1460    22.6310     2.1280 
   98.5000   -19.0040    63.9570    10.2440     7.2660     7.2920    22.6610     2.1220 
   98.6250   -19.0540    63.9110    10.0360     7.1550     7.4270    22.6660     2.1190 
   98.7500   -19.0750    61.8670     9.9590     7.0980     7.5420    22.6700     2.1180 
   98.8750   -19.1020    58.8990     9.9990     7.0820     7.6150    22.6870     2.1190 
   99.0000   -19.0920    57.2860    10.0920     7.0830     7.6760    22.6890     2.1210 
   99.1250   -19.0800    57.6120    10.1420     7.0720     7.6050    22.6540     2.1230 
   99.2500   -19.0600    58.1610    10.1000     7.0370     7.4210    22.5960     2.1240 
   99.3750   -19.0300    59.0560     9.9880     6.9820     7.1880    22.5490     2.1260 
   99.5000   -19.0030    61.2830     9.8600     6.9190     7.0210    22.5320     2.1290 
   99.6250   -18.9620    63.9740     9.7760     6.8710     7.0470    22.5240     2.1340 
   99.7500   -18.9340    64.1830     9.7370     6.8460     7.2770    22.5320     2.1390 
   99.8750   -18.9100    61.3830     9.7260     6.8470     7.6380    22.5550     2.1410 
