~V
VERS. 2.00: Ver 2.00
~W
STRT.M 59.0000:
STOP.M 225.0000:
STEP.M 0.1250:
NULL. -999.2500:
UWI. F11010:
~C
DEPT.M :
GR.API :
RML.OHMM :
RI. :
RXO.OHMM :
CALI.CM :
SP.MV :
DEN.GM/CC :
~A
# ...
  194.0000    61.6170    42.4860    42.9020    41.0690    24.4870   -21.6190     2.2180 
  194.1250    62.9340    44.8380    45.0030    45.1230    24.6170   -21.8150     2.2100 
  194.2500    65.6060    47.9050    47.7010    48.9680    24.7930   -22.0140     2.2060 
  194.3750    67.4850    51.9190    51.2610    53.0700    24.9930   -22.2280     2.2050 
  194.5000    67.4640    57.0060    55.8530    58.6810    25.2240   -22.4680     2.2040 
  194.6250    65.2800    63.1680    61.5460    65.9370    25.3550   -22.7420     2.2010 
  194.7500    62.5300    69.7310    67.7170    77.8110    25.4050   -23.0390     2.1960 
  194.8750    61.7030    76.0040    73.6680    89.3560    25.4230   -23.3610     2.1920 
  195.0000    62.0980    81.2890    78.6780    94.4030    25.4450   -23.7280     2.1880 
  195.1250    61.0210    84.8020    81.9800    91.9770    25.4680   -24.1250     2.1840 
  195.2500    60.1440    86.6310    83.6850    94.5160    25.4690   -24.5410     2.1790 
  195.3750    62.1440    86.9190    83.9140    98.1030    25.4490   -24.9480     2.1760 
  195.5000    65.4900    86.0400    82.9710    98.7060    25.4250   -25.3280     2.1760 
  195.6250    65.7820    84.6680    81.4330    88.0750    25.3450   -25.6430     2.1840 
  195.7500    65.1360    83.8830    80.3230    81.6980    25.1250   -25.9030     2.1990 
  195.8750    66.2920    84.6420    80.5750    81.8970    24.8260   -26.1580     2.2160 
  196.0000    68.9460    87.7040    83.0340    86.7110    24.6440   -26.4380     2.2280 
  196.1250    70.4140    93.6640    88.5070    96.6000    24.6940   -26.6980     2.2230 
  196.2500    68.8710   101.2110    95.8530   113.6180    24.7860   -26.9090     2.2050 
  196.3750    66.8090   108.5940   103.3800   130.0990    24.8050   -27.1050     2.1800 
  196.5000    65.9660   113.7250   108.9230   142.7400    24.7700   -27.3000     2.1600 
  196.6250    64.1400   114.4770   110.0740   135.2770    24.7450   -27.5210     2.1590 
  196.7500    60.6510   111.8110   107.5890   117.6340    24.7850   -27.7770     2.1710 
  196.8750    58.9140   107.4100   103.1700   108.8380    24.8670   -27.9990     2.1840 
  197.0000    60.3170   103.2070    98.8220   105.7780    24.9440   -28.1560     2.1870 
  197.1250    62.4680   100.8670    96.2570   105.6900    24.9470   -28.3290     2.1720 
  197.2500    63.0190   100.3680    95.5850    93.7440    24.8920   -28.5510     2.1510 
  197.3750    62.1450   101.1340    96.3500    80.4870    24.8580   -28.7730     2.1330 
  197.5000    60.2300   102.2340    97.6300    85.3890    24.8300   -28.9330     2.1260 
  197.6250    58.2510   102.5480    98.2760    99.1360    24.7620   -28.9970     2.1330 
  197.7500    58.8880   101.6630    97.7920   110.8010    24.6830   -29.0110     2.1480 
  197.8750    60.5140    99.7690    96.2010   109.2360    24.6350   -29.0110     2.1670 
  198.0000    61.6510    97.6340    94.1310    98.9980    24.7240   -28.9850     2.1850 
  198.1250    62.6600    96.7260    93.0590    91.9790    25.0360   -28.8380     2.1980 
  198.2500    65.2260    98.0930    94.1310    96.5520    25.3020   -28.5510     2.2020 
  198.3750    66.9880   102.4110    98.0230    99.3150    25.4040   -28.1660     2.2000 
  198.5000    64.0710   109.7770   104.9770   111.8150    25.4220   -27.7450     2.1960 
  198.6250    59.2850   119.4530   114.6620   142.5000    25.4390   -27.3330     2.1940 
  198.7500    57.2240   128.5480   124.2860   171.9830    25.4600   -26.8990     2.1980 
  198.8750    58.6790   134.0730   130.6040   176.5880    25.4820   -26.4500     2.2060 
  199.0000    60.9420   133.8860   130.9270   171.8550    25.5230   -25.9940     2.2150 
  199.1250    62.3340   127.5660   124.3000   155.4480    25.5880   -25.5340     2.2170 
  199.2500    63.8850   119.1950   115.0770   129.4540    25.7080   -25.0570     2.2070 
  199.3750    65.5510   112.1680   107.0720   100.3880    25.8700   -24.5710     2.1870 
  199.5000    64.6600   108.7300   102.8550    83.2170    26.0240   -24.0680     2.1650 
  199.6250    61.2880   110.0820   103.7930    82.8150    26.0300   -23.4950     2.1570 
  199.7500    59.4900   114.5500   108.2510    98.5720    25.8700   -22.8790     2.1690 
  199.8750    59.5470   120.5010   114.8730   122.6580    25.4900   -22.2540     2.1960 
  200.0000    60.0470   125.8510   121.9000   124.8540    25.1730   -21.6450     2.2330 
  200.1250    60.6670   127.6200   126.4440   114.1690    25.1410   -21.0620     2.2760 
  200.2500    63.4090   124.8550   126.5980   126.9810    25.2930   -20.5020     2.3130 
  200.3750    70.2090   118.1690   122.0040   159.8310    25.3260   -19.9420     2.3260 
  200.5000    78.7270   109.9530   114.4850   184.2540    25.0680   -19.4050     2.3000 
  200.6250    81.1370   103.7980   108.0190   132.5530    24.7290   -18.9510     2.2410 
  200.7500    76.1330   100.4710   105.1200    81.6530    24.7320   -18.5430     2.2030 
  200.8750    68.2750    97.1190   103.8390    60.8110    24.9420   -18.1100     2.2300 
  201.0000    60.4130    88.7480    97.3580    77.6070    25.0700   -17.6280     2.3320 
  201.1250    53.5670    71.3350    77.0020   142.2480    25.0580   -17.1300     2.4610 
  201.2500    52.3370    49.8950    50.7700   162.5610    24.8980   -16.6420     2.5450 
  201.3750    57.3820    30.5260    29.1550    67.1560    24.7100   -16.1980     2.5510 
  201.5000    63.0830    16.9930    15.8640    17.3100    24.5550   -15.8060     2.4910 
  201.6250    66.0470     9.5170     9.7570     7.0750    24.5060   -15.4940     2.4040 
  201.7500    69.1860     6.2800     6.9240     4.7680    24.5830   -15.2870     2.3360 
  201.8750    73.3960     5.1570     5.8630     4.8370    24.7470   -15.2410     2.3040 
  202.0000    77.2030     5.2590     5.8810     6.1700    24.9040   -15.3750     2.3060 
  202.1250    78.8350     6.0320     6.7450     8.2880    24.9990   -15.6720     2.3330 
  202.2500    80.0850     6.9760     7.9900     9.6910    25.0300   -16.0710     2.3680 
  202.3750    82.9870     7.8330     9.2240     9.5800    25.0230   -16.5080     2.3970 
  202.5000    88.7350     8.4110    10.0860     9.3290    25.0140   -16.9170     2.4150 
  202.6250    95.8260     8.5930    10.3420     9.4640    25.0140   -17.2170     2.4230 
  202.7500    98.7280     8.5080    10.1900     8.9620    25.0070   -17.4100     2.4270 
  202.8750    97.1080     8.2620     9.8050     8.5540    24.9900   -17.4990     2.4300 
  203.0000    97.2000     7.9450     9.3040     8.3330    24.9670   -17.4980     2.4320 
  203.1250   104.3480     7.6300     8.7480     8.2520    24.9410   -17.4260     2.4310 
  203.2500   115.5330     7.4050     8.2240     8.0310    24.9090   -17.3210     2.4260 
  203.3750   123.3460     7.4040     7.8590     7.8170    24.8850   -17.2020     2.4140 
  203.5000   124.7130     7.8190     7.8230     7.7010    24.8920   -17.0730     2.3940 
  203.6250   120.3580     8.9790     8.4140     7.9140    24.9370   -16.9460     2.3640 
  203.7500   114.8920    10.8390     9.6970     9.0380    24.9980   -16.7730     2.3330 
  203.8750   110.6080    13.1580    11.6280    12.2550    25.0320   -16.5070     2.3150 
  204.0000   105.2440    15.4040    13.8440    19.6950    24.9940   -16.1070     2.3210 
  204.1250    98.1470    16.7640    15.4570    24.4590    24.9050   -15.5520     2.3630 
  204.2500    91.0550    17.0760    15.9830    23.3180    24.8230   -14.9080     2.4300 
  204.3750    86.3460    16.6400    15.6520    18.0440    24.8090   -14.2210     2.5070 
  204.5000    83.3880    16.0240    15.0840    13.7850    24.7970   -13.5470     2.5690 
  204.6250    79.9780    15.7080    14.7880    15.0350    24.8180   -12.9210     2.5840 
  204.7500    75.8570    15.5920    14.7050    19.0020    24.8450   -12.3710     2.5530 
  204.8750    71.9020    15.3270    14.5160    20.8450    24.8390   -11.9040     2.4910 
  205.0000    70.7020    14.6150    13.9040    18.0320    24.8320   -11.5220     2.4230 
  205.1250    74.4320    13.4000    12.7800    14.1950    24.8830   -11.2360     2.3770 
