~V
VERS. 2.00: Ver 2.00
~W
STRT.M 50.0000:
STOP.M 257.0000:
STEP.M 0.1250:
NULL. -999.2500:
UWI. F11021:
~C
DEPT.M :
GR.API :
RML.OHMM :
RI. :
RXO.OHMM :
CALI.CM :
SP.MV :
DEN.GM/CC :
~A
# ...
   61.2500    56.9450    11.6710     0.1740     0.4760    25.7560    94.0250     1.9800 
   61.3750    56.6470     9.6390     0.1710     0.4330    25.7380   190.2440     1.9670 
   61.5000    54.7190     7.3000     0.1710     0.4620    25.7010   193.1230     1.9640 
   61.6250    54.5200     5.4600     0.1750     0.5250    25.6690   194.6670     1.9730 
   61.7500    55.0430     4.2510     0.1790     0.5080    25.6480   191.6520     1.9860 
   61.8750    54.6800     3.6280     0.1810     0.5040    25.6310   185.2770     1.9980 
   62.0000    54.9940     3.4780     0.1790     0.5400    25.6150   179.7690     2.0050 
   62.1250    56.6080     3.6150     0.1730     0.5740    25.6080   172.6050     2.0050 
   62.2500    58.1720     3.7070     0.1660     0.5910    25.6090   164.0310     2.0000 
   62.3750    59.6410     3.6380     0.1630     0.6310    25.6110   154.4590     1.9950 
   62.5000    60.6270     3.4990     0.1610     0.6940    25.6080   144.3750     1.9900 
   62.6250    61.0860     3.4650     0.1600     0.6880    25.6020   134.6210     1.9880 
   62.7500    60.7110     3.4920     0.1590     0.6190    25.5670   125.5000     1.9880 
   62.8750    62.2810     3.2060     0.1540     0.5770    25.4920   116.9870     1.9940 
   63.0000    67.2660     2.1280     0.1470     0.5650    25.4250   109.2370     2.0090 
   63.1250    71.7590     0.7010     0.1410     0.5560    25.4010   102.2930     2.0560 
   63.2500    75.2560    -0.2310     0.1370     0.5750    25.3990    95.8120     2.1510 
   63.3750    78.9470    -0.6620     0.1370     0.6070    25.4020    89.2490     2.2940 
   63.5000    82.2250    -0.7710     0.1440     0.6250    25.3730    81.7950     2.4540 
   63.6250    81.2500    -0.6070     0.1920     0.9720    25.3500    72.3350     2.5580 
   63.7500    80.2630    -0.1620     0.3310     1.9360    25.5530    61.5040     2.5560 
   63.8750    83.2490     0.7050     0.6450     4.1110    26.1530    50.2110     2.4340 
   64.0000    87.1430     2.1410     1.2440     7.0850    26.8780    39.1020     2.2230 
   64.1250    86.1870     3.9900     2.2530     8.9090    27.6660    28.8460     1.9770 
   64.2500    83.8120     5.3980     3.4420     7.8890    27.9870    19.6920     1.7550 
   64.3750    83.6380     5.9110     4.4970     7.2080    28.2010    11.9120     1.5960 
   64.5000    87.5230     5.8170     5.2280     7.2010    28.2600     6.0510     1.5300 
   64.6250    94.3720     5.6020     5.6100     7.4700    28.2250     2.9470     1.5900 
   64.7500   100.9170     5.4400     5.7800     7.1230    26.5110     1.7660     1.7350 
   64.8750   104.0900     5.3430     5.8030     6.0240    24.9530     1.6290     1.9160 
   65.0000   104.6460     5.3760     5.7870     5.1900    25.2260     1.7180     2.0800 
   65.1250   107.4080     5.6700     5.8760     5.0790    25.2990     1.4370     2.1800 
   65.2500   108.6430     6.1930     6.1180     5.5120    25.0410     0.7290     2.2220 
   65.3750   103.7820     6.8360     6.4770     6.2460    24.7690    -0.3270     2.2230 
   65.5000    95.1880     7.4200     6.8480     7.0340    24.7280    -1.6450     2.2040 
   65.6250    93.1900     7.7250     7.0860     7.5600    24.8350    -3.0490     2.1820 
   65.7500    97.8630     7.7930     7.1610     7.4440    24.8330    -4.5050     2.1710 
   65.8750   101.8840     7.7890     7.1350     7.0290    24.6910    -6.0890     2.1710 
   66.0000   100.3920     7.9070     7.1390     7.4700    24.5000    -7.6210     2.1770 
   66.1250    93.3880     8.3380     7.3640     8.2630    24.4000    -8.9680     2.1810 
   66.2500    86.8280     9.0860     7.8630     8.9800    24.3950   -10.1510     2.1870 
   66.3750    82.9950    10.0860     8.5950     9.3000    24.4870   -11.1680     2.2110 
   66.5000    80.2010    11.1340     9.3940    10.5760    24.6970   -12.1250     2.2620 
   66.6250    77.7920    11.7620     9.9150    13.9810    24.9480   -13.3030     2.3270 
   66.7500    76.8380    11.7110     9.9480    15.8370    25.0440   -14.6030     2.3690 
   66.8750    78.3730    11.0930     9.5200    12.1110    25.0820   -15.8760     2.3620 
   67.0000    79.9830    10.3180     8.8830     9.2370    25.1390   -17.1730     2.3060 
   67.1250    78.0590     9.8520     8.3810     8.5350    25.1620   -18.4670     2.2280 
   67.2500    75.5930     9.8090     8.1760     8.5750    25.1590   -19.6780     2.1690 
   67.3750    74.7580    10.1270     8.2740     9.3860    25.1060   -20.7850     2.1510 
   67.5000    75.1440    10.6020     8.5530    11.7240    25.0200   -21.7440     2.1740 
   67.6250    74.7650    10.8830     8.7600    15.0430    24.8460   -22.3590     2.2200 
   67.7500    73.3830    10.7700     8.7150    13.1460    24.7350   -22.7790     2.2540 
   67.8750    72.2960    10.2800     8.4060    10.0270    24.7890   -23.0930     2.2560 
   68.0000    71.1440     9.5920     7.9410     8.4890    24.9560   -23.2950     2.2220 
   68.1250    70.8940     8.9790     7.4820     7.9930    24.9940   -23.3860     2.1710 
   68.2500    73.2000     8.6870     7.1840     7.7580    24.8560   -23.4080     2.1320 
   68.3750    76.0540     8.9230     7.1900     7.7920    24.6490   -23.3920     2.1110 
   68.5000    75.9120     9.8900     7.6810     8.1760    24.4520   -23.3620     2.1020 
   68.6250    72.8990    12.0390     9.0780     9.0310    24.4720   -23.3010     2.1050 
   68.7500    72.5510    15.5600    11.6220    11.5580    24.6050   -23.1450     2.1390 
   68.8750    75.5210    20.6150    15.4800    18.9780    24.7300   -22.9250     2.2240 
   69.0000    78.6730    26.3790    20.1180    37.4690    24.8800   -22.7210     2.3600 
   69.1250    79.6770    28.8880    23.0840    53.7930    24.9860   -22.5930     2.5060 
   69.2500    79.2140    25.9010    22.3890    63.1770    25.0190   -22.6290     2.5980 
   69.3750    77.1780    19.9850    18.7620    58.3600    24.9310   -22.8630     2.5990 
   69.5000    73.6580    14.7050    14.5220    31.3700    24.7290   -23.2400     2.5150 
   69.6250    71.2560    11.6000    11.4260    14.5620    24.6600   -23.7330     2.3820 
   69.7500    70.9980    10.0030     9.5310    10.0950    24.8270   -24.2800     2.2610 
   69.8750    70.4730     9.4020     8.5660     9.3490    25.1930   -24.8240     2.1830 
   70.0000    67.7670     9.3660     8.2220     9.2090    25.4820   -25.3030     2.1570 
   70.1250    65.1800     9.5290     8.2420     9.1080    25.5170   -25.6890     2.1750 
   70.2500    66.1310     9.6060     8.3290     9.1650    25.6970   -26.0050     2.1980 
   70.3750    68.8410     9.5460     8.3730     9.2160    26.1860   -26.2200     2.1960 
   70.5000    70.4980     9.4080     8.3580     9.0730    26.8930   -26.3520     2.1520 
   70.6250    71.1550     9.2750     8.3140     8.7350    27.2960   -26.4820     2.0770 
   70.7500    71.3790     9.1870     8.2730     8.6450    26.9460   -26.6210     2.0120 
   70.8750    69.4680     9.1390     8.2390     8.8050    26.1800   -26.8190     1.9830 
   71.0000    65.5950     9.1240     8.2060     9.1200    25.6430   -27.0910     1.9970 
   71.1250    64.1890     9.1570     8.1890     9.3590    25.4910   -27.3550     2.0310 
   71.2500    65.0280     9.2260     8.2050     9.4700    25.5440   -27.5430     2.0500 
   71.3750    66.3790     9.2890     8.2350     9.5480    25.6950   -27.6110     2.0440 
   71.5000    66.7900     9.2900     8.2340     9.5810    25.8340   -27.5060     2.0240 
   71.6250    68.1150     9.1840     8.1480     9.5140    25.8740   -27.2120     2.0270 
   71.7500    71.7060     9.0070     7.9850     9.2360    25.7080   -26.8500     2.0680 
   71.8750    77.3730     8.8160     7.7790     8.7760    25.2570   -26.4060     2.1410 
   72.0000    83.5100     8.6810     7.5880     8.3500    24.6960   -25.8520     2.2250 
   72.1250    83.1130     8.6640     7.4750     8.2580    24.3100   -25.2260     2.2890 
   72.2500    80.3180     8.7310     7.4340     8.5740    24.1390   -24.5790     2.3250 
   72.3750    80.9630     8.8260     7.4340     9.0070    24.0590   -23.9960     2.3340 
