~V
VERS. 2.00: Ver 2.00
~W
STRT.M 62.0000:
STOP.M 218.0000:
STEP.M 0.1250:
NULL. -999.2500:
UWI. F11008:
~C
DEPT.M :
DEN.GM/CC :
GR.API :
RML.OHMM :
RI. :
RXO.OHMM :
CALI.CM :
SP.MV :
~A
# ...
  152.0000     2.3090    65.0100   241.4560   222.3740   257.8100    34.2040   -18.9520 
  152.1250     2.3120    65.7950   231.1750   210.4850   241.1130    34.2040   -19.0250 
  152.2500     2.3120    65.8100   219.7860   197.4700   232.3460    34.2040   -19.1470 
  152.3750     2.3070    66.5230   205.8410   182.8280   225.5230    34.2040   -19.2420 
  152.5000     2.2950    69.0770   189.9120   167.1010   211.0970    34.2040   -19.3120 
  152.6250     2.2790    71.3500   174.3510   152.2620   199.7670    34.2040   -19.4080 
  152.7500     2.2620    70.5850   161.0570   140.2470   185.8130    34.2040   -19.5320 
  152.8750     2.2490    68.6010   151.7310   132.1920   172.0360    34.2040   -19.6920 
  153.0000     2.2440    67.7040   147.2930   128.3500   130.8220    34.2040   -19.8800 
  153.1250     2.2490    69.0600   147.3660   128.6710   123.0370    34.2040   -20.0430 
  153.2500     2.2570    70.1310   149.7750   131.3050   128.1460    34.2040   -20.1820 
  153.3750     2.2630    68.2430   152.8800   134.8390   133.1480    34.2040   -20.2930 
  153.5000     2.2640    64.2880   155.0230   137.8030   139.2190    34.2040   -20.3800 
  153.6250     2.2600    61.6770   154.3170   138.4750   154.8900    34.2040   -20.4400 
  153.7500     2.2550    61.6410   150.5040   136.3950   160.5510    34.2040   -20.4260 
  153.8750     2.2500    62.2550   143.8400   131.5430   151.6030    34.2040   -20.2890 
  154.0000     2.2460    62.1970   135.1680   124.4590   142.5710    34.2040   -20.1060 
  154.1250     2.2370    63.5670   125.6350   116.0400   134.6160    34.2040   -20.0100 
  154.2500     2.2230    65.3940   116.5250   107.6480   117.9570    34.2040   -19.8520 
  154.3750     2.2030    66.0240   108.5830   100.0980   107.8960    34.2040   -19.6270 
  154.5000     2.1800    65.3690   102.3190    93.9270    99.0160    34.2040   -19.4340 
  154.6250     2.1550    64.6850    98.4740    89.7720    95.2350    34.2040   -19.2890 
  154.7500     2.1290    64.5730    96.9960    87.5770    89.7620    34.2040   -19.1350 
  154.8750     2.1050    63.8100    98.0430    87.5080    84.8360    34.2040   -18.9900 
  155.0000     2.0890    61.0830   101.6350    89.6710    83.1600    34.2040   -18.9150 
  155.1250     2.0880    59.2500   107.8820    94.3110    84.0490    34.2040   -18.8770 
  155.2500     2.1000    61.3520   115.7590   100.5930    90.8420    34.2040   -18.8330 
  155.3750     2.1200    66.3350   124.3950   107.7570   106.5670    34.2040   -18.7750 
  155.5000     2.1410    69.1800   132.8010   114.8800   118.7000    34.2040   -18.7380 
  155.6250     2.1550    67.3180   139.8400   120.8850   128.9990    34.2040   -18.6840 
  155.7500     2.1620    65.0900   145.2290   125.4640   142.6220    34.2040   -18.5920 
  155.8750     2.1650    64.2280   148.9880   128.6760   147.9490    34.2040   -18.5230 
  156.0000     2.1660    63.7260   151.3060   130.8230   143.9210    34.2040   -18.4760 
  156.1250     2.1670    63.7180   151.9430   131.9710   138.0490    34.2040   -18.3430 
  156.2500     2.1680    64.1470   150.6670   131.9610   137.6730    34.2040   -18.1920 
  156.3750     2.1650    64.5800   146.7990   130.0850   143.0080    34.2040   -18.1190 
  156.5000     2.1540    65.2050   139.8480   125.6190   147.7710    34.2040   -18.1040 
  156.6250     2.1340    65.7050   129.5840   117.9370   145.5580    34.2040   -18.0870 
  156.7500     2.1120    64.4430   117.6550   108.3140   134.2480    34.2040   -18.0270 
  156.8750     2.1000    62.4660   105.5390    98.0600   119.4460    34.2040   -17.9720 
  157.0000     2.1050    64.1140    94.5790    88.4830    88.1730    34.2040   -17.9630 
  157.1250     2.1290    69.8440    85.9920    80.8030    70.6520    34.2040   -18.0090 
  157.2500     2.1590    74.5570    79.5910    75.0070    62.4610    34.2040   -18.0610 
  157.3750     2.1830    73.9110    75.1000    70.8700    59.1330    34.2040   -18.1490 
  157.5000     2.1960    68.3420    72.1890    68.0280    59.7210    34.2040   -18.2320 
  157.6250     2.1940    62.8720    70.9130    66.3810    59.5570    34.2040   -18.2500 
  157.7500     2.1840    62.1660    71.0870    65.8200    58.0010    34.2040   -18.3140 
  157.8750     2.1700    65.1950    72.7530    66.5710    54.9570    34.2040   -18.4290 
  158.0000     2.1590    67.2390    75.6960    68.6750    53.7330    34.2040   -18.4270 
  158.1250     2.1560    65.6390    79.3440    71.7340    58.5910    34.2040   -18.2640 
  158.2500     2.1630    63.4240    82.7820    74.6730    73.6980    34.2040   -18.0980 
  158.3750     2.1770    61.8160    85.6680    76.8710    87.8860    34.2040   -17.9270 
  158.5000     2.1940    61.2630    88.3480    78.4110    70.2900    34.2040   -17.6950 
  158.6250     2.2050    60.4990    92.1760    80.5270    53.1180    34.2040   -17.4450 
  158.7500     2.2080    60.4640    98.2530    84.7780    59.1970    34.2040   -17.2340 
  158.8750     2.2040    62.6780   106.8110    92.0220    98.8280    34.2040   -17.0230 
  159.0000     2.2020    66.8970   116.6280   101.6470   173.3460    34.2040   -16.8340 
  159.1250     2.2080    70.2200   124.3760   110.6430   197.8830    34.2040   -16.6660 
  159.2500     2.2240    70.2790   127.2100   115.2360   149.7860    34.1960   -16.5020 
  159.3750     2.2450    67.1820   124.0660   113.4370    99.6800    34.1780   -16.3280 
  159.5000     2.2640    64.1230   116.1750   105.9560    72.1760    34.0750   -16.0960 
  159.6250     2.2730    66.1970   106.6550    95.8930    78.3900    33.8020   -15.8390 
  159.7500     2.2710    72.1340    99.1320    87.3060    90.0300    33.3550   -15.5860 
  159.8750     2.2640    77.2990    95.5400    82.1490    96.1390    33.1590   -15.2820 
  160.0000     2.2590    77.7080    96.9240    81.3490    84.9390    33.2400   -14.9300 
  160.1250     2.2630    74.8720   104.8850    86.4440    84.0090    33.3680   -14.6750 
  160.2500     2.2720    72.4740   118.6910    97.2820    99.6150    33.2760   -14.4810 
  160.3750     2.2820    70.5910   137.2960   113.8410   151.5440    33.0300   -14.2230 
  160.5000     2.2890    69.7590   157.3010   134.1990   232.1470    32.6690   -14.0020 
  160.6250     2.2950    70.5540   170.5430   151.6980   265.0410    32.4110   -13.9110 
  160.7500     2.3010    71.1920   170.4680   157.9190   300.6980    32.1440   -13.8500 
  160.8750     2.3080    70.2990   154.7580   147.9370   275.3900    31.9740   -13.8020 
  161.0000     2.3130    69.7220   127.2120   123.7230   180.8610    31.8600   -13.8070 
  161.1250     2.3140    70.8620    96.5490    93.8710   120.9300    31.8100   -13.8650 
  161.2500     2.3130    70.2890    71.2660    68.5200    75.1260    31.7510   -13.8950 
  161.3750     2.3100    68.5580    54.2180    51.1570    46.2720    31.6070   -13.9030 
  161.5000     2.3050    70.5700    44.9560    41.4510    38.4220    31.4440   -13.9170 
  161.6250     2.2980    75.0490    42.2070    38.1700    45.8360    31.3840   -13.9170 
  161.7500     2.2900    75.9240    42.8190    38.3500    54.8050    31.3630   -13.8650 
  161.8750     2.2810    75.3020    45.2230    40.5920    62.6920    31.3430   -13.7530 
  162.0000     2.2710    77.6190    48.1730    43.6990    53.6910    31.3260   -13.6050 
  162.1250     2.2590    81.7010    50.6750    46.5190    43.8270    31.3430   -13.4420 
  162.2500     2.2480    81.9580    52.4560    48.5060    43.4270    31.3500   -13.2790 
  162.3750     2.2420    77.8710    53.6820    49.7290    46.2250    31.2940   -13.1660 
  162.5000     2.2420    72.5370    54.6730    50.5670    48.4860    31.1480   -13.0990 
  162.6250     2.2470    70.7420    55.6560    51.3590    50.4510    31.0520   -13.0440 
  162.7500     2.2510    73.3170    56.5900    52.1040    53.2000    31.0980   -12.9860 
  162.8750     2.2510    75.1960    57.3240    52.5890    53.4480    31.2070   -12.9650 
  163.0000     2.2480    72.9050    57.7690    52.6560    50.5590    31.2550   -13.0130 
  163.1250     2.2430    69.4830    57.9570    52.2990    47.0100    31.1970   -13.0380 
