~V
VERS. 2.00: Ver 2.00
~W
STRT.M 55.0000:
STOP.M 229.0000:
STEP.M 0.1250:
NULL. -999.2500:
UWI. F11013:
~C
DEPT.M :
DEN.GM/CC :
GR.API :
RML.OHMM :
RI. :
RXO.OHMM :
CALI.CM :
SP.MV :
~A
# ...
   66.2500     2.4550    97.0660     3.7960     4.4390     3.9080    23.0450   -17.9600 
   66.3750     2.4640    96.0880     4.8050     5.3590     4.9470    22.9960   -18.9490 
   66.5000     2.4610    93.6730     6.2790     6.7010     8.0830    23.0050   -20.0410 
   66.6250     2.4230    82.2180     8.0050     8.2680    13.5860    23.0290   -21.2160 
   66.7500     2.3450    67.0720     9.4660     9.6140    14.8720    23.0130   -22.4210 
   66.8750     2.2620    60.6490     9.8520    10.0860    11.0000    23.0320   -23.5790 
   67.0000     2.2070    61.0780     9.3050     9.7740     8.8650    23.2090   -24.6460 
   67.1250     2.1780    60.7140     8.3910     9.0870     8.1220    23.5910   -25.6200 
   67.2500     2.1660    58.3220     7.6320     8.4430     8.0330    24.0530   -26.4980 
   67.3750     2.1660    60.4790     7.2830     8.0860     8.0960    24.2880   -27.1780 
   67.5000     2.1770    64.2060     7.2010     7.9400     7.8710    24.2110   -27.7090 
   67.6250     2.1960    64.1100     7.2570     7.9080     7.3710    23.8620   -28.0840 
   67.7500     2.2100    60.0200     7.3680     7.9300     7.0430    23.4410   -28.3400 
   67.8750     2.2060    58.2230     7.5240     7.9930     6.9120    23.1390   -28.5370 
   68.0000     2.1900    61.5410     7.7360     8.0920     6.7450    23.0370   -28.6690 
   68.1250     2.1740    64.8510     8.0180     8.2260     6.9630    22.8920   -28.7790 
   68.2500     2.1700    62.8280     8.3700     8.3970     8.0740    22.5920   -28.8700 
   68.3750     2.1770    57.6090     8.7690     8.6050     9.3160    22.3270   -28.9520 
   68.5000     2.1880    55.3550     9.1410     8.8210     8.5990    22.2170   -29.0380 
   68.6250     2.2150    56.6550     9.3980     9.0050     7.8430    22.3470   -29.1180 
   68.7500     2.2700    58.5280     9.4480     9.0990     7.5790    22.5460   -29.1810 
   68.8750     2.3230    61.0630     9.1960     9.0240     7.2820    22.4370   -29.1610 
   69.0000     2.3170    63.8410     8.7350     8.7890     6.9910    22.1040   -29.1770 
   69.1250     2.2570    63.2150     8.2110     8.4400     6.6590    21.7780   -29.1570 
   69.2500     2.2000    58.6180     7.7920     8.0530     6.3890    21.4610   -29.1190 
   69.3750     2.1770    56.6910     7.6120     7.7270     6.3100    21.2480   -29.0870 
   69.5000     2.1710    61.0730     7.6100     7.5100     6.4770    21.0950   -29.0420 
   69.6250     2.1710    67.2420     7.6940     7.4100     6.7030    20.9340   -28.9750 
   69.7500     2.1740    69.1460     7.7610     7.4060     6.9400    20.8050   -28.8980 
   69.8750     2.1810    66.2840     7.7370     7.4680     7.1930    20.8410   -28.8540 
   70.0000     2.1920    62.7080     7.6640     7.5600     7.2790    21.1250   -28.7880 
   70.1250     2.2030    60.5940     7.6080     7.6720     7.1250    21.6030   -28.7860 
   70.2500     2.2110    61.7400     7.6180     7.8040     6.6990    22.0540   -28.7750 
   70.3750     2.2130    64.0770     7.7000     7.9480     6.6770    22.3330   -28.7710 
   70.5000     2.2130    61.7080     7.7990     8.0750     6.8220    22.4670   -28.7810 
   70.6250     2.2140    56.2400     7.8640     8.1610     6.9740    22.4170   -28.7960 
   70.7500     2.2190    52.9520     7.8690     8.1870     6.9340    22.2710   -28.8480 
   70.8750     2.2230    56.1750     7.8100     8.1440     6.7900    22.0970   -28.8960 
   71.0000     2.2230    61.5580     7.7230     8.0570     6.7050    21.9420   -28.9660 
   71.1250     2.2210    65.2570     7.6270     7.9470     6.6950    21.7710   -29.0090 
   71.2500     2.2150    65.5730     7.5290     7.8260     6.6930    21.6290   -29.0910 
   71.3750     2.2080    61.2240     7.4270     7.6980     6.7070    21.6140   -29.1580 
   71.5000     2.1990    57.9270     7.3300     7.5640     6.6110    21.6490   -29.1980 
   71.6250     2.1930    57.5750     7.2630     7.4380     6.4980    21.6680   -29.2550 
   71.7500     2.1940    59.3460     7.2450     7.3380     6.4110    21.6280   -29.2610 
   71.8750     2.2030    63.6800     7.2940     7.2910     6.4300    21.5190   -29.2840 
   72.0000     2.2110    70.2240     7.3810     7.2910     6.4030    21.4370   -29.2970 
   72.1250     2.2120    76.0810     7.4780     7.3210     6.4350    21.5160   -29.2970 
   72.2500     2.2090    75.9130     7.5590     7.3540     6.4790    21.6980   -29.2420 
   72.3750     2.2020    71.2740     7.6250     7.3670     6.5020    21.9210   -29.1850 
   72.5000     2.1930    68.4000     7.7120     7.3570     6.5110    22.1650   -29.0770 
   72.6250     2.1860    68.2550     7.8500     7.3330     6.5350    22.3720   -28.9360 
   72.7500     2.1830    67.4760     8.0550     7.3110     6.6060    22.4450   -28.7900 
   72.8750     2.1870    64.2680     8.3240     7.3070     6.7040    22.3220   -28.5860 
   73.0000     2.1940    61.8510     8.6080     7.3250     6.6220    22.0600   -28.3590 
   73.1250     2.2010    61.0940     8.8650     7.3620     6.5960    21.7640   -28.0860 
   73.2500     2.2060    62.1850     9.0580     7.4140     6.9640    21.5020   -27.8000 
   73.3750     2.2120    64.8900     9.1710     7.4770     7.2210    21.3160   -27.5190 
   73.5000     2.2180    66.1370     9.2440     7.5500     7.2420    21.1560   -27.2930 
   73.6250     2.2210    66.0600     9.3080     7.6320     7.1200    20.9850   -27.0440 
   73.7500     2.2160    66.7090     9.3830     7.7160     7.1880    21.0360   -26.8290 
   73.8750     2.2050    70.5820     9.4510     7.7900     7.3550    21.7100   -26.6610 
   74.0000     2.2010    74.6760     9.4710     7.8400     7.6120    22.6450   -26.4530 
   74.1250     2.2050    76.7190     9.4100     7.8460     7.9270    23.2180   -26.2500 
   74.2500     2.2080    76.3780     9.2650     7.7960     8.0360    23.2890   -26.0340 
   74.3750     2.2050    73.4390     9.0610     7.6900     7.8430    23.1420   -25.7980 
   74.5000     2.2000    70.0180     8.8590     7.5630     7.7060    23.0240   -25.5340 
   74.6250     2.2010    66.0210     8.7070     7.4470     7.4580    22.8950   -25.3240 
   74.7500     2.2070    62.8800     8.6330     7.3630     7.1620    22.7220   -25.0940 
   74.8750     2.2170    62.6810     8.6510     7.3270     6.8180    22.5000   -24.8660 
   75.0000     2.2230    63.9120     8.7210     7.3270     6.7620    22.3650   -24.6900 
   75.1250     2.2230    64.4750     8.8150     7.3510     7.0760    22.3290   -24.5240 
   75.2500     2.2200    64.1820     8.9120     7.3880     7.5170    22.3820   -24.3910 
   75.3750     2.2150    64.6860     8.9930     7.4210     7.5730    22.5530   -24.2610 
   75.5000     2.2120    66.4090     9.0540     7.4380     7.4830    22.8060   -24.1340 
   75.6250     2.2090    69.5930     9.0870     7.4320     7.6600    23.0120   -23.9710 
   75.7500     2.2060    73.2150     9.0790     7.3980     8.0770    23.1260   -23.8160 
   75.8750     2.2040    75.3690     9.0210     7.3340     8.0250    23.1310   -23.6090 
   76.0000     2.2050    74.2070     8.9350     7.2510     7.6620    23.1210   -23.3860 
   76.1250     2.2100    69.9700     8.8200     7.1480     7.3840    23.1220   -23.1350 
   76.2500     2.2150    64.8930     8.6530     7.0090     7.2050    23.1460   -22.8700 
   76.3750     2.2210    63.9910     8.3770     6.7880     7.0380    23.1790   -22.5960 
   76.5000     2.2320    68.9290     7.9840     6.4820     6.9000    23.2320   -22.2950 
   76.6250     2.2440    78.5310     7.5000     6.1050     6.6720    23.2990   -22.0040 
   76.7500     2.2530    88.8360     7.0070     5.7120     6.2480    23.4420   -21.7090 
   76.8750     2.2470    97.3220     6.6450     5.3970     5.6900    23.7750   -21.5210 
   77.0000     2.2280   100.9360     6.4860     5.2220     5.5730    24.1010   -21.3940 
   77.1250     2.2040    96.3810     6.5570     5.2190     5.6660    24.1530   -21.3910 
   77.2500     2.1830    84.5400     6.8410     5.3900     5.8660    23.8400   -21.4400 
   77.3750     2.1710    74.4450     7.2960     5.7180     6.0650    23.4410   -21.5260 
