~V
VERS. 2.00: Ver 2.00
~W
STRT.M 57.0000:
STOP.M 272.0000:
STEP.M 0.1250:
NULL. -999.2500:
UWI. F11045:
~C
DEPT.M :
DEN.GM/CC :
GR.API :
RML.OHMM :
RI. :
RXO.OHMM :
CALI.CM :
SP.MV :
~A
# ...
  192.0000     2.2230    64.2510   198.9750   190.9800   127.8270    24.4920    -5.8810 
  192.1250     2.2190    65.3560   178.5710   171.0520   105.4790    24.5410    -5.6260 
  192.2500     2.2110    63.8440   165.0910   156.5380    96.9660    24.5950    -5.3850 
  192.3750     2.2040    60.8050   161.7370   151.0450    97.0980    24.6200    -5.1590 
  192.5000     2.1990    58.8300   170.5090   156.8120   102.5950    24.5890    -5.0240 
  192.6250     2.1960    57.8510   196.0480   178.2390   113.8490    24.5570    -5.0380 
  192.7500     2.1890    55.8600   238.1800   214.7200   130.7000    24.5150    -5.1420 
  192.8750     2.1750    53.3280   296.8440   265.3060   163.5580    24.4570    -5.3270 
  193.0000     2.1580    51.8330   366.0090   323.9010   202.1850    24.4240    -5.5700 
  193.1250     2.1460    52.0090   425.0940   373.8740   230.3430    24.4430    -5.8950 
  193.2500     2.1420    53.0250   452.4390   399.2660   248.8680    24.4960    -6.2400 
  193.3750     2.1450    53.6910   443.1800   395.4670   232.6400    24.5620    -6.6000 
  193.5000     2.1510    52.8050   410.7760   370.9900   201.9530    24.5920    -6.9040 
  193.6250     2.1530    50.3340   373.9190   340.1230   207.1580    24.5770    -7.1220 
  193.7500     2.1530    48.1510   343.7780   313.8580   178.1750    24.5530    -7.3210 
  193.8750     2.1520    48.2070   322.7050   295.2980   154.2740    24.5190    -7.5290 
  194.0000     2.1550    49.6780   309.3380   283.9100   148.5790    24.5640    -7.7620 
  194.1250     2.1570    50.3970   298.5120   275.8930   171.8540    24.7810    -7.9430 
  194.2500     2.1530    49.8780   281.9060   264.2290   190.0840    24.9760    -8.0960 
  194.3750     2.1460    50.4760   254.2800   243.8380   203.8550    25.0430    -8.2090 
  194.5000     2.1420    53.2290   216.2760   213.4900   199.2410    25.0870    -8.3270 
  194.6250     2.1450    55.8660   175.5310   177.3800   161.6250    25.1080    -8.4090 
  194.7500     2.1520    56.0120   140.9860   144.0290   114.0310    25.0730    -8.4140 
  194.8750     2.1610    55.2240   115.9690   118.0320    79.5380    24.9940    -8.3100 
  195.0000     2.1740    58.1630   100.3680   100.6850    62.1040    24.9550    -8.1040 
  195.1250     2.1840    63.0940    93.3530    92.0150    56.0650    24.9630    -7.8440 
  195.2500     2.1910    63.3390    91.1340    88.4440    56.4280    24.8660    -7.5380 
  195.3750     2.1970    59.7940    91.4050    87.6200    68.2370    24.7590    -7.2140 
  195.5000     2.2060    57.4530    92.0880    87.4300    82.9220    24.7230    -6.8080 
  195.6250     2.2150    59.9100    91.6780    86.3670    80.1990    24.7510    -6.3310 
  195.7500     2.2200    63.5060    90.5350    84.6180    69.9210    24.7530    -5.8600 
  195.8750     2.2190    64.1840    89.9340    83.2520    61.9010    24.7310    -5.4120 
  196.0000     2.2160    61.3850    91.4070    83.6110    58.9940    24.7240    -4.9980 
  196.1250     2.2130    57.9310    96.6500    87.1750    65.9250    24.7300    -4.5980 
  196.2500     2.2130    56.6660   105.0950    93.4330    65.5230    24.6550    -4.2000 
  196.3750     2.2210    56.3580   115.5220   101.3240    66.3040    24.4610    -3.7890 
  196.5000     2.2350    55.9200   125.7420   109.1550    69.9560    24.2470    -3.4090 
  196.6250     2.2560    56.5670   131.7450   114.0620    60.6070    24.1370    -2.9910 
  196.7500     2.2820    57.6440   130.3030   113.5630    56.6540    24.1970    -2.5040 
  196.8750     2.3120    57.9110   118.9440   105.2590    65.2000    24.3010    -1.9390 
  197.0000     2.3390    57.9380    98.5320    88.8360    79.2380    24.3880    -1.2820 
  197.1250     2.3590    58.3180    74.6850    68.1030    78.0020    24.4430    -0.5650 
  197.2500     2.3850    58.8790    54.4510    49.7560    52.2030    24.4710     0.1950 
  197.3750     2.4280    59.6730    40.0870    36.3560    31.9250    24.4290     1.0100 
  197.5000     2.4800    60.0530    31.0710    27.6870    25.2270    24.3620     1.9040 
  197.6250     2.5200    58.5330    26.0770    22.6320    23.1450    24.3620     2.7590 
  197.7500     2.5520    54.7940    22.6580    19.0810    24.9570    24.3760     3.5160 
  197.8750     2.5840    51.4640    19.7170    16.1810    25.8490    24.3840     4.1530 
  198.0000     2.5960    52.2740    16.8460    13.6130    18.8750    24.4410     4.6870 
  198.1250     2.5570    56.4050    13.8150    11.4940    11.0210    24.5400     5.1450 
  198.2500     2.4980    58.3470    10.5740     9.9010     8.4260    24.5990     5.5050 
  198.3750     2.4520    56.9750     9.5770     8.8890     7.9480    24.5890     5.7510 
  198.5000     2.4280    55.4610     9.2240     8.4360     8.1950    24.5460     5.8900 
  198.6250     2.4200    57.5800     9.3970     8.4920     9.1010    24.5060     5.9520 
  198.7500     2.4240    59.7700     9.7960     8.8130     9.3080    24.4760     5.9840 
  198.8750     2.4390    58.5700    10.3210     9.2830     9.3030    24.4880     6.0030 
  199.0000     2.4570    53.7150    10.9650     9.8640     9.9490    24.5030     6.0180 
  199.1250     2.4710    49.2050    11.7350    10.5600    12.6350    24.5000     6.0180 
  199.2500     2.4790    47.8460    12.5210    11.2870    15.3510    24.5000     6.0210 
  199.3750     2.4880    48.5220    13.1980    11.9290    17.3430    24.4420     6.0380 
  199.5000     2.5060    49.2300    13.6290    12.3420    17.3550    24.3450     6.0610 
  199.6250     2.5300    50.0030    13.6430    12.3420    14.5440    24.3310     6.0680 
  199.7500     2.5370    52.8780    13.2970    11.9780    11.1150    24.3720     6.0300 
  199.8750     2.5230    56.9530    12.6840    11.3330     9.4570    24.3990     5.9690 
  200.0000     2.5070    58.6180    11.9320    10.5190     8.6930    24.3790     5.9080 
  200.1250     2.5050    56.0680    11.1780     9.6420     8.0930    24.3280     5.8460 
  200.2500     2.5030    53.3880    10.5220     8.8210     7.4100    24.3270     5.7710 
  200.3750     2.4890    53.5360    10.0030     8.1290     6.8470    24.3570     5.6920 
  200.5000     2.4670    55.8250     9.6440     7.6210     6.1730    24.3680     5.6210 
  200.6250     2.4540    56.1330     9.5060     7.3790     6.1270    24.3280     5.6140 
  200.7500     2.4520    54.6500     9.5990     7.3920     6.6420    24.2990     5.6850 
  200.8750     2.4600    53.8030     9.9190     7.6390     7.3890    24.3200     5.8030 
  201.0000     2.4690    53.9690    10.3990     8.0470     8.3460    24.3670     5.9450 
  201.1250     2.4570    53.5580    10.8820     8.4910     9.8060    24.4120     6.1170 
  201.2500     2.4250    54.5800    11.1780     8.8100    12.5820    24.4590     6.3170 
  201.3750     2.3890    59.7050    11.1730     8.8940    14.3650    24.5020     6.5350 
  201.5000     2.3680    68.1100    10.8720     8.7260    12.1330    24.5120     6.7440 
  201.6250     2.3730    77.9220    10.4660     8.4090    10.2250    24.4760     6.8850 
  201.7500     2.3970    89.1210    10.2450     8.1490     9.2850    24.4370     6.9240 
  201.8750     2.4320    98.7800    10.3450     8.0540     9.2100    24.3790     6.9370 
  202.0000     2.4700   101.1450    10.7550     8.1470     9.2970    24.3720     6.9210 
  202.1250     2.5050    95.4630    11.3180     8.3880     9.6160    24.3320     6.8450 
  202.2500     2.5280    90.0740    11.7830     8.6420    10.4940    24.2810     6.7290 
  202.3750     2.5300    89.5820    12.0330     8.8200    11.2420    24.2760     6.6040 
  202.5000     2.5120    93.9480    12.1070     8.8990    10.4120    24.2910     6.4940 
  202.6250     2.4870    98.4170    12.1900     8.9420     9.7310    24.2760     6.4100 
  202.7500     2.4760    97.7920    12.4280     9.0510     9.6060    24.2210     6.3630 
  202.8750     2.4850    93.2690    12.8070     9.2560     9.3290    24.1190     6.3160 
  203.0000     2.5020    88.2300    13.1810     9.5050     8.9180    24.0430     6.2930 
  203.1250     2.5040    85.6500    13.2630     9.6350     9.9860    24.0710     6.3200 
