~V
VERS. 2.00: Ver 2.00
~W
STRT.M 55.0000:
STOP.M 280.0000:
STEP.M 0.1250:
NULL. -999.2500:
UWI. F11032:
~C
DEPT.M :
DEN.GM/CC :
GR.API :
RML.OHMM :
RI. :
RXO.OHMM :
CALI.CM :
SP.MV :
~A
# ...
   88.7500     2.1930    75.8500     7.3780     6.5630     8.1720    22.5310   -21.8510 
   88.8750     2.1950    81.7810     7.0460     6.4310     7.8100    22.5700   -21.9190 
   89.0000     2.2030    87.4350     6.7870     6.1750     7.1600    22.5760   -22.0390 
   89.1250     2.2140    87.8910     6.9520     5.9720     6.3990    22.5760   -22.2160 
   89.2500     2.2210    86.6470     7.4850     5.9440     6.0880    22.5770   -22.4010 
   89.3750     2.2200    87.2450     8.1670     6.0950     6.3910    22.5810   -22.6330 
   89.5000     2.2100    87.9000     8.7190     6.3620     7.0050    22.6070   -22.9340 
   89.6250     2.1930    84.2860     8.8810     6.6470     7.4240    22.7100   -23.2310 
   89.7500     2.1780    80.0720     8.7100     6.8550     7.6820    22.8010   -23.5250 
   89.8750     2.1690    78.5410     8.3420     6.9230     7.8180    22.8160   -23.7460 
   90.0000     2.1660    80.4840     7.8930     6.8130     7.8160    22.8230   -23.8720 
   90.1250     2.1710    84.3350     7.3480     6.5030     7.6350    22.8680   -23.9220 
   90.2500     2.1780    85.9290     6.7000     6.0470     7.2030    23.0350   -23.9440 
   90.3750     2.1880    84.8950     6.1230     5.5250     6.4880    23.3660   -24.0220 
   90.5000     2.1970    84.0380     5.8710     5.0980     5.9220    23.5610   -24.2360 
   90.6250     2.2120    87.2370     6.2400     5.0220     5.7760    23.5930   -24.7000 
   90.7500     2.2390    91.2340     7.1410     5.3900     5.9370    23.5970   -25.4010 
   90.8750     2.2850    90.1140     8.3940     6.2280     7.0840    23.5890   -26.3540 
   91.0000     2.3450    81.4320     9.6860     7.4180    10.9600    23.5390   -27.5120 
   91.1250     2.3880    70.5230    10.4670     8.5390    20.7460    23.2350   -28.7840 
   91.2500     2.3870    65.6950    10.4620     9.0420    20.9660    22.8360   -30.0350 
   91.3750     2.3340    65.3950     9.8550     8.7590    13.9420    22.6870   -31.1800 
   91.5000     2.2530    63.2140     9.1530     7.9760    10.3220    22.6570   -32.1240 
   91.6250     2.1810    58.9050     8.7980     7.1720     9.5940    22.6600   -32.7840 
   91.7500     2.1370    59.6790     8.6860     6.6430     9.4560    22.6420   -33.1670 
   91.8750     2.1240    64.8370     8.5670     6.4430     9.4040    22.5780   -33.2100 
   92.0000     2.1280    66.2140     8.2900     6.4980     9.4260    22.5130   -32.9820 
   92.1250     2.1350    60.9050     7.9800     6.6750     9.4490    22.4950   -32.4660 
   92.2500     2.1360    57.0890     7.8680     6.8180     9.3970    22.4570   -31.7910 
   92.3750     2.1300    57.9880     7.9130     6.8770     9.2490    22.4050   -30.9290 
   92.5000     2.1210    60.1290     7.8790     6.8630     9.0250    22.3460   -29.8740 
   92.6250     2.1170    60.0510     7.6120     6.8350     8.6860    22.3370   -28.6370 
   92.7500     2.1250    62.5530     7.3590     6.8390     8.2810    22.3370   -27.2630 
   92.8750     2.1510    68.9330     7.4220     6.8360     8.0830    22.3590   -25.8710 
   93.0000     2.1960    74.5440     7.8890     6.7460     8.4390    22.5030   -24.5130 
   93.1250     2.2470    75.1260     8.4260     6.4740     8.5110    22.9720   -23.3250 
   93.2500     2.2890    75.6910     8.5850     6.0840     7.4240    23.6320   -22.3720 
   93.3750     2.3080    79.5900     8.2970     5.6960     6.0310    24.0070   -21.7130 
   93.5000     2.3080    82.7030     7.7860     5.4230     5.5050    24.1320   -21.3550 
   93.6250     2.2990    84.0520     7.3650     5.3510     5.6380    24.0790   -21.3700 
   93.7500     2.2970    86.2520     7.1570     5.4300     5.9180    23.8240   -21.6530 
   93.8750     2.3040    88.1930     7.1510     5.5930     6.2110    23.6310   -22.1700 
   94.0000     2.3130    85.9030     7.2770     5.7940     6.4350    23.5930   -22.9090 
   94.1250     2.3070    80.4500     7.4740     6.0410     6.5250    23.5390   -23.8270 
   94.2500     2.2840    76.4090     7.7490     6.3740     6.7780    23.3130   -24.8070 
   94.3750     2.2490    74.0460     8.1390     6.8230     7.3150    23.0460   -25.8040 
   94.5000     2.2150    72.2200     8.6450     7.3760     8.0600    22.9690   -26.7890 
   94.6250     2.1990    73.3050     9.2180     7.9860     8.9670    22.9550   -27.7070 
   94.7500     2.2010    74.7870     9.7250     8.5440     9.5100    22.9270   -28.6100 
   94.8750     2.2130    71.7240    10.0670     8.9520    10.0080    22.9000   -29.4260 
   95.0000     2.2210    64.7920    10.1980     9.1490    10.5360    22.8940   -30.0650 
   95.1250     2.2150    61.6010    10.1180     9.0760    10.8300    22.8940   -30.5070 
   95.2500     2.2000    62.6460     9.9430     8.8220    10.9140    22.8940   -30.7590 
   95.3750     2.1810    62.7440     9.7310     8.4770    10.8520    22.8940   -30.8380 
   95.5000     2.1680    60.6470     9.5330     8.1370    10.6550    22.8940   -30.8010 
   95.6250     2.1650    59.4780     9.4360     7.9240    10.4380    22.8940   -30.6630 
   95.7500     2.1700    59.4230     9.5470     7.9040    10.3070    22.8940   -30.4800 
   95.8750     2.1890    59.0490     9.9320     8.1200    10.2660    22.8970   -30.2640 
   96.0000     2.2280    60.4140    10.5120     8.5600    10.4050    22.9050   -30.0730 
   96.1250     2.2910    64.0300    11.0250     9.0990    10.6620    22.9520   -29.9710 
   96.2500     2.3650    66.7120    11.1910     9.4810    10.8460    22.9560   -29.9620 
   96.3750     2.4250    67.5780    10.8940     9.5000    10.7830    22.9430   -30.0390 
   96.5000     2.4440    68.3450    10.2590     9.1080    10.5580    22.8640   -30.1990 
   96.6250     2.4040    68.7390     9.6050     8.4620    10.4180    22.7520   -30.3720 
   96.7500     2.3320    67.4630     9.1600     7.8700    10.4750    22.7330   -30.5120 
   96.8750     2.2580    65.0560     8.9580     7.4870    10.5600    22.7300   -30.6430 
   97.0000     2.2040    62.1290     8.9450     7.3420    10.6450    22.7300   -30.7580 
   97.1250     2.1790    59.1390     9.0310     7.3720    10.6890    22.7300   -30.7740 
   97.2500     2.1760    59.7800     9.0730     7.4180    10.7120    22.7300   -30.7050 
   97.3750     2.1840    63.6470     8.9710     7.3770    10.6520    22.7300   -30.6220 
   97.5000     2.1920    66.6080     8.6830     7.2020    10.4100    22.7300   -30.5060 
   97.6250     2.1890    66.7020     8.2550     6.9130    10.1370    22.7300   -30.4290 
   97.7500     2.1750    65.4270     7.8890     6.6130    10.0430    22.7300   -30.3430 
   97.8750     2.1500    62.6140     7.8080     6.3850    10.1070    22.7300   -30.2480 
   98.0000     2.1220    58.7870     8.1590     6.3150    10.1320    22.7300   -30.1560 
   98.1250     2.1050    56.6660     8.9210     6.5070    10.1000    22.7300   -30.0210 
   98.2500     2.1120    55.9750     9.7440     6.9080    10.3090    22.7300   -29.9010 
   98.3750     2.1490    55.7420    10.2960     7.3880    11.3240    22.7300   -29.7410 
   98.5000     2.2110    55.4740    10.3110     7.7500    13.5310    22.7300   -29.5550 
   98.6250     2.2700    56.9650     9.6520     7.7340    14.8460    22.7300   -29.3440 
   98.7500     2.2970    61.6570     8.6820     7.3670    12.9090    22.7300   -29.1240 
   98.8750     2.2830    66.3050     7.7270     6.8120    10.8600    22.7300   -28.9080 
   99.0000     2.2400    65.8800     7.0020     6.2730    10.0270    22.7300   -28.7050 
   99.1250     2.1920    63.5700     6.6350     5.9180     9.8590    22.7300   -28.5430 
   99.2500     2.1560    66.4840     6.5630     5.7540     9.7700    22.7300   -28.4260 
   99.3750     2.1350    71.5190     6.7040     5.7480     9.7270    22.7300   -28.3370 
   99.5000     2.1220    71.7180     6.9560     5.8530     9.7200    22.7300   -28.2570 
   99.6250     2.1120    67.3870     7.2520     6.0190     9.7390    22.7330   -28.1900 
   99.7500     2.1030    64.0710     7.5750     6.1950     9.8190    22.7540   -28.0950 
   99.8750     2.0960    61.4370     7.9480     6.3700     9.9270    22.8340   -27.9490 
