~V
VERS. 2.00: Ver 2.00
~W
STRT.M 49.0000:
STOP.M 284.0000:
STEP.M 0.1250:
NULL. -999.2500:
UWI. F11034:
~C
DEPT.M :
GR.API :
RML.OHMM :
RI. :
RXO.OHMM :
CALI.CM :
DEN.GM/CC :
SP.MV :
~A
# ...
  240.2500    60.4930    79.3110    75.9350    80.2900    25.1450     2.2880   -20.3000 
  240.3750    63.4870    87.6090    83.9590    90.5280    24.8620     2.2840   -20.2480 
  240.5000    62.2600    96.5080    92.6780   100.1480    24.6960     2.2770   -20.1330 
  240.6250    58.2620   104.2450   100.4960   108.0330    24.6180     2.2710   -19.9890 
  240.7500    54.7660   108.7920   105.5120   113.1920    24.6120     2.2720   -19.8480 
  240.8750    53.2030   108.3610   105.9730   111.7220    24.6460     2.2830   -19.7040 
  241.0000    52.6050   101.4620   100.2400   104.4640    24.6560     2.3060   -19.5190 
  241.1250    53.0220    89.9660    89.7920    96.4330    24.6050     2.3360   -19.3040 
  241.2500    54.6520    76.7820    77.2280    87.7070    24.4980     2.3660   -19.0770 
  241.3750    56.0130    64.7930    65.3590    76.2270    24.4440     2.3870   -18.8470 
  241.5000    55.9210    56.5000    56.7760    61.5140    24.5350     2.3940   -18.6260 
  241.6250    56.4440    52.1900    51.9560    51.7560    24.6920     2.3920   -18.4200 
  241.7500    58.2940    51.4280    50.5890    50.5900    24.8120     2.3870   -18.2310 
  241.8750    58.9600    53.4370    52.0350    54.1710    24.8780     2.3840   -18.0770 
  242.0000    56.6490    57.1580    55.4590    56.9230    24.9520     2.3830   -17.9610 
  242.1250    54.8480    60.9800    59.3460    58.7760    25.0250     2.3800   -17.8380 
  242.2500    55.8010    63.6010    62.3370    62.5060    25.0090     2.3720   -17.7090 
  242.3750    59.2220    64.2850    63.4880    67.3280    24.8770     2.3600   -17.5990 
  242.5000    62.8900    63.0300    62.5070    69.0560    24.7410     2.3430   -17.5440 
  242.6250    64.6370    61.1640    60.5850    64.0420    24.6690     2.3250   -17.5120 
  242.7500    64.3870    60.0320    59.0630    56.0070    24.6550     2.3060   -17.4600 
  242.8750    63.0460    60.5350    58.9070    53.1870    24.6930     2.2910   -17.3570 
  243.0000    62.2560    63.1110    60.7120    57.7330    24.7890     2.2800   -17.2080 
  243.1250    62.8870    66.9470    63.9100    64.3780    24.8700     2.2720   -17.0510 
  243.2500    63.6730    70.9220    67.5710    70.8170    24.8010     2.2640   -16.8900 
  243.3750    63.2540    73.9080    70.6540    74.7970    24.6460     2.2600   -16.7150 
  243.5000    62.9060    74.7730    71.9970    76.7060    24.6540     2.2730   -16.4960 
  243.6250    63.9960    73.4690    71.3320    78.5820    24.8160     2.3060   -16.2240 
  243.7500    64.9810    70.3080    68.7790    80.1900    24.9350     2.3550   -15.9140 
  243.8750    63.5850    65.6950    64.6330    79.9280    24.8800     2.4030   -15.5820 
  244.0000    60.7970    59.9010    59.1280    78.2300    24.7680     2.4250   -15.2330 
  244.1250    59.1130    53.4510    52.8420    72.3530    24.7330     2.4150   -14.8910 
  244.2500    57.5120    46.8850    46.3720    59.4470    24.7800     2.3810   -14.5540 
  244.3750    54.7730    40.7740    40.3200    44.4190    24.9180     2.3370   -14.2080 
  244.5000    52.5580    35.8160    35.3830    34.9360    25.0460     2.2980   -13.8410 
  244.6250    52.5110    32.2890    31.8060    29.9430    25.0040     2.2720   -13.4850 
  244.7500    54.5680    30.3490    29.7050    27.3260    24.8100     2.2610   -13.1840 
  244.8750    56.8290    30.0540    29.1270    26.6340    24.6400     2.2700   -12.9490 
  245.0000    57.6040    31.4520    30.1870    28.7420    24.6540     2.3030   -12.7700 
  245.1250    56.5710    33.9180    32.4160    34.1130    24.7160     2.3530   -12.6210 
  245.2500    54.2140    36.6320    35.1520    42.3280    24.6810     2.4050   -12.4840 
  245.3750    52.9610    38.6630    37.5410    51.4670    24.5600     2.4410   -12.3790 
  245.5000    53.8790    38.9440    38.4400    57.1400    24.5140     2.4410   -12.3590 
  245.6250    55.2230    37.4250    37.5370    55.0800    24.4300     2.4090   -12.4190 
  245.7500    55.5950    34.6970    35.2290    46.1130    24.3230     2.3610   -12.5060 
  245.8750    55.1540    31.6700    32.3660    37.0710    24.3630     2.3130   -12.5700 
  246.0000    53.5940    29.2260    29.8320    32.5450    24.5170     2.2790   -12.5980 
  246.1250    51.8550    27.5680    27.9200    31.0630    24.5340     2.2630   -12.6040 
  246.2500    52.8890    26.4990    26.5330    30.7820    24.4070     2.2600   -12.6130 
  246.3750    57.9050    25.6930    25.4280    30.6280    24.3090     2.2640   -12.6030 
  246.5000    63.1910    24.8300    24.3500    29.9680    24.3380     2.2690   -12.5020 
  246.6250    65.1190    23.7960    23.1810    28.8370    24.4520     2.2710   -12.2910 
  246.7500    62.7810    22.6950    21.9810    27.4130    24.5520     2.2700   -11.9670 
  246.8750    57.7160    21.8110    20.9630    26.0080    24.5990     2.2690   -11.5670 
  247.0000    53.6670    21.7270    20.5880    25.0480    24.6080     2.2720   -11.1410 
  247.1250    54.0510    22.8830    21.2230    24.7030    24.6070     2.2870   -10.6990 
  247.2500    56.9330    25.5380    23.1520    26.8070    24.5860     2.3220   -10.2620 
  247.3750    57.8120    29.5470    26.3950    34.3140    24.5230     2.3810    -9.8610 
  247.5000    54.9670    34.0700    30.4520    48.4680    24.3970     2.4560    -9.5460 
  247.6250    51.6800    37.6220    34.0540    63.6510    24.3280     2.5200    -9.3130 
  247.7500    50.2670    38.8710    35.8550    74.1260    24.3720     2.5470    -9.1670 
  247.8750    50.7290    37.1930    34.9620    70.7190    24.4990     2.5280    -9.0950 
  248.0000    52.3000    33.0920    31.5370    51.0260    24.5910     2.4750    -9.0690 
  248.1250    55.3340    28.5310    27.4150    33.8720    24.6380     2.4180    -9.0930 
  248.2500    59.1300    24.9200    23.9600    26.5380    24.6600     2.3730    -9.1350 
  248.3750    60.7760    22.7590    21.6710    24.1510    24.6700     2.3440    -9.1630 
  248.5000    57.8230    22.0410    20.6290    23.4000    24.6700     2.3330    -9.1460 
  248.6250    54.2480    22.1650    20.4040    23.7950    24.6550     2.3360    -9.1140 
  248.7500    55.4670    22.6280    20.6190    25.0220    24.5990     2.3510    -9.0880 
  248.8750    62.5130    23.0830    20.9730    26.2350    24.4980     2.3750    -9.0960 
  249.0000    68.5580    23.3330    21.2490    28.0350    24.3980     2.3970    -9.1520 
  249.1250    68.6400    23.4490    21.4230    28.6160    24.3490     2.4060    -9.2140 
  249.2500    65.2410    23.6270    21.6040    26.4930    24.3680     2.4030    -9.2750 
  249.3750    62.3920    24.0600    21.9360    25.3180    24.3920     2.3920    -9.3470 
  249.5000    61.1030    24.8320    22.5110    28.1250    24.3390     2.3800    -9.4350 
  249.6250    59.9580    25.7400    23.1960    32.5350    24.2490     2.3680    -9.5320 
  249.7500    59.7230    26.4870    23.7740    35.0080    24.2400     2.3560    -9.6500 
  249.8750    60.4350    26.8010    24.0170    33.1200    24.3810     2.3520    -9.7810 
  250.0000    60.0100    26.4840    23.7300    28.8080    24.5900     2.3670    -9.9130 
  250.1250    58.6170    25.7200    23.0390    26.3020    24.6360     2.3960   -10.0470 
  250.2500    58.6230    24.8060    22.1910    25.1420    24.5970     2.4240   -10.1750 
  250.3750    61.1680    24.0400    21.4470    24.1340    24.5930     2.4330   -10.2900 
  250.5000    64.2370    23.7520    21.0900    23.0870    24.6350     2.4150   -10.3730 
  250.6250    65.7680    24.1020    21.2590    22.7300    24.6870     2.3880   -10.3870 
  250.7500    67.2150    25.1570    22.0300    23.3820    24.6850     2.3740   -10.3050 
  250.8750    69.7620    26.7780    23.3360    25.4800    24.5760     2.3860   -10.1130 
  251.0000    71.5810    28.3960    24.7720    29.3480    24.3920     2.4240    -9.7890 
  251.1250    71.8360    29.1690    25.6140    33.5170    24.3060     2.4750    -9.3770 
  251.2500    71.9230    28.3900    25.1700    37.6170    24.3190     2.5240    -8.9090 
  251.3750    73.2830    25.7920    23.0820    39.5800    24.3390     2.5600    -8.4040 
