~V
VERS. 2.00: Ver 2.00
~W
STRT.M 55.0000:
STOP.M 274.0000:
STEP.M 0.1250:
NULL. -999.2500:
UWI. F11049:
~C
DEPT.M :
SP.MV :
GR.API :
RML.OHMM :
RI. :
RXO.OHMM :
CALI.CM :
DEN.GM/CC :
~A
# ...
  133.7500   -14.7960    55.6430    22.0150    16.9160    25.8240    24.2440     2.6100 
  133.8750   -14.9780    55.9870    19.0840    15.2960    23.0050    24.2090     2.6140 
  134.0000   -15.2130    62.3420    14.5520    12.3160    13.6410    24.1920     2.5790 
  134.1250   -15.4780    67.5020    10.6860     9.5400     7.8760    24.2100     2.5010 
  134.2500   -15.7370    69.1200     8.2270     7.5890     6.1680    24.2310     2.4090 
  134.3750   -16.0100    71.2110     7.0090     6.4340     6.0200    24.2100     2.3340 
  134.5000   -16.2730    76.1030     6.6640     5.8990     6.4590    24.1950     2.2930 
  134.6250   -16.5480    81.1590     6.8600     5.8380     6.9970    24.2130     2.2800 
  134.7500   -16.7850    81.5240     7.2080     5.9880     7.0330    24.2480     2.2750 
  134.8750   -16.9450    78.3880     7.5540     6.2260     6.7830    24.2560     2.2720 
  135.0000   -17.0890    75.8710     7.8620     6.4930     6.6510    24.2440     2.2710 
  135.1250   -17.2370    77.1280     8.1510     6.7760     7.0110    24.2320     2.2680 
  135.2500   -17.3240    80.5870     8.3960     7.0410     7.7040    24.2780     2.2600 
  135.3750   -17.2910    82.7750     8.4910     7.2110     8.3690    24.3600     2.2490 
  135.5000   -17.1850    81.1610     8.3070     7.1810     8.7690    24.4170     2.2380 
  135.6250   -17.0680    77.3080     7.7230     6.8350     8.3720    24.4420     2.2330 
  135.7500   -16.9070    77.0180     6.9350     6.2930     7.6810    24.4480     2.2390 
  135.8750   -16.6870    82.1690     6.2390     5.7540     6.7420    24.4440     2.2570 
  136.0000   -16.4390    87.3570     5.9790     5.4470     5.9030    24.4310     2.2890 
  136.1250   -16.1530    84.4420     6.5420     5.6310     5.7210    24.4300     2.3310 
  136.2500   -15.8590    75.4730     7.8400     6.3180     6.9030    24.4390     2.3720 
  136.3750   -15.6190    67.6330     9.6050     7.4250    10.1380    24.4430     2.4160 
  136.5000   -15.4430    65.0770    11.2310     8.6390    16.9110    24.4320     2.4690 
  136.6250   -15.3080    67.4880    11.6930     9.2520    18.2510    24.4270     2.5160 
  136.7500   -15.2370    70.8340    10.8730     8.9790    13.4960    24.4320     2.5250 
  136.8750   -15.2260    73.9150     9.3570     8.0990     8.4060    24.4390     2.4820 
  137.0000   -15.2520    77.2010     7.9850     7.1500     6.4690    24.4400     2.4160 
  137.1250   -15.3690    79.4430     7.4420     6.6110     6.7950    24.4340     2.3700 
  137.2500   -15.5130    78.2940     7.6460     6.5400     8.2780    24.4270     2.3540 
  137.3750   -15.6030    74.7350     8.3290     6.8510     9.4080    24.4270     2.3610 
  137.5000   -15.6290    71.4210     9.1180     7.3590    10.3710    24.4350     2.3830 
  137.6250   -15.6880    70.1560     9.6390     7.8390    12.2540    24.4350     2.4160 
  137.7500   -15.7860    69.6930     9.9120     8.2100    13.9840    24.4270     2.4530 
  137.8750   -15.8440    70.2570    10.2800     8.5940    11.2560    24.4230     2.4770 
  138.0000   -15.8830    70.1030    11.2740     9.2660     9.8480    24.4260     2.4780 
  138.1250   -15.9290    68.5020    13.5030    10.6670    13.7050    24.4340     2.4750 
  138.2500   -15.9680    66.5900    16.6590    12.8180    20.7340    24.4340     2.4990 
  138.3750   -16.0210    63.0050    19.9070    15.3740    25.0110    24.4250     2.5460 
  138.5000   -16.1070    57.1070    21.7960    17.3450    28.8020    24.4220     2.5910 
  138.6250   -16.2150    54.2370    20.5910    17.1230    31.6110    24.4300     2.5960 
  138.7500   -16.3320    57.9650    17.3340    15.1140    23.4290    24.4320     2.5680 
  138.8750   -16.4680    65.0420    13.8130    12.6110    13.0950    24.4270     2.5190 
  139.0000   -16.6060    71.1550    11.3930    10.6840     8.8920    24.4220     2.4520 
  139.1250   -16.7750    73.9970    10.7760     9.9060     9.5530    24.4230     2.3710 
  139.2500   -16.9720    73.8480    11.5810    10.1340    12.5400    24.4300     2.2980 
  139.3750   -17.1310    71.7190    13.4660    11.2660    16.4660    24.4350     2.2510 
  139.5000   -17.2030    69.5550    15.7530    12.9710    19.0390    24.4320     2.2270 
  139.6250   -17.1760    68.7710    17.0950    14.3050    20.0000    24.4200     2.2150 
  139.7500   -17.1130    69.0090    16.6430    14.3160    19.0260    24.4160     2.2060 
  139.8750   -16.9730    69.4080    14.5160    12.8770    16.3100    24.4180     2.2020 
  140.0000   -16.7370    70.9960    11.6040    10.6570    12.6150    24.4230     2.2050 
  140.1250   -16.4360    75.4910     9.0190     8.5600     8.7720    24.4290     2.2260 
  140.2500   -16.1170    81.8210     7.3060     7.0600     6.7520    24.4260     2.2630 
  140.3750   -15.8020    87.1630     6.6200     6.2780     6.1210    24.4210     2.3070 
  140.5000   -15.4900    88.8060     7.0090     6.2450     6.2170    24.4230     2.3520 
  140.6250   -15.1790    85.0330     8.7440     7.1680     7.8950    24.4320     2.3990 
  140.7500   -14.9250    76.5590    11.6160     8.9990    12.8590    24.4350     2.4590 
  140.8750   -14.7310    66.8090    15.3050    11.6920    19.7090    24.4320     2.5330 
  141.0000   -14.5430    60.2210    19.0570    14.8540    23.0130    24.4230     2.6010 
  141.1250   -14.3710    58.2380    21.5230    17.4540    24.0410    24.4210     2.6320 
  141.2500   -14.2820    58.9090    22.2240    18.7300    23.3800    24.4270     2.6260 
  141.3750   -14.2710    59.8930    21.5230    18.7100    21.7160    24.4250     2.6060 
  141.5000   -14.2660    59.4610    20.3170    18.0150    19.9300    24.4040     2.5890 
  141.6250   -14.2420    56.7690    19.5090    17.3500    19.9010    24.3550     2.5820 
  141.7500   -14.2250    53.1670    19.3750    17.0490    20.1610    24.3380     2.5830 
  141.8750   -14.2210    51.2170    19.8960    17.1720    21.3310    24.3550     2.5990 
  142.0000   -14.2210    51.9180    20.8980    17.6730    22.1800    24.4040     2.6260 
  142.1250   -14.2320    54.1030    22.0910    18.4380    23.1380    24.4120     2.6460 
  142.2500   -14.2260    55.4990    23.1130    19.2230    23.3230    24.3870     2.6450 
  142.3750   -14.1910    56.2890    23.7610    19.8460    24.0150    24.3710     2.6330 
  142.5000   -14.1450    57.9730    23.9490    20.1720    22.8390    24.4040     2.6230 
  142.6250   -14.1290    58.6310    23.6540    20.0980    21.4380    24.4260     2.6250 
  142.7500   -14.1160    57.5280    23.0810    19.7440    22.7290    24.4150     2.6320 
  142.8750   -14.1170    56.9070    22.3660    19.2280    23.8150    24.3710     2.6440 
  143.0000   -14.1000    56.8860    21.6460    18.6790    21.7490    24.3380     2.6550 
  143.1250   -14.0250    55.3520    21.1080    18.2390    19.3990    24.3440     2.6590 
  143.2500   -13.9680    52.2080    20.8500    17.9790    19.1620    24.3770     2.6500 
  143.3750   -13.9610    49.7170    20.9200    17.9460    19.8730    24.3930     2.6330 
  143.5000   -13.9940    48.5810    21.2790    18.1450    20.8540    24.3600     2.6170 
  143.6250   -13.9640    47.9550    21.7580    18.5100    22.2650    24.3360     2.6140 
  143.7500   -13.9290    47.6580    22.0850    18.8400    22.4000    24.3330     2.6210 
  143.8750   -13.9430    48.5190    22.1170    18.9840    22.5870    24.3550     2.6310 
  144.0000   -13.9730    51.3450    21.8660    18.8930    21.9390    24.4040     2.6330 
  144.1250   -14.0150    53.2150    21.4950    18.6310    21.0550    24.4140     2.6200 
  144.2500   -14.0820    51.0560    21.2480    18.3850    20.6370    24.4010     2.5960 
  144.3750   -14.1440    47.5260    21.2740    18.2880    20.7670    24.4020     2.5750 
  144.5000   -14.1850    46.8980    21.6190    18.4200    21.0440    24.4220     2.5650 
  144.6250   -14.2510    48.0360    22.2150    18.7840    21.4890    24.4330     2.5730 
  144.7500   -14.3420    47.9070    22.8030    19.2010    21.3360    24.4300     2.5890 
  144.8750   -14.4330    47.5520    23.1780    19.4960    21.5970    24.4220     2.6050 
