~V
VERS. 2.00: Ver 2.00
~W
STRT.M 52.0000:
STOP.M 278.0000:
STEP.M 0.1250:
NULL. -999.2500:
UWI. F11035:
~C
DEPT.M :
DEN.GM/CC :
GR.API :
RML.OHMM :
RI. :
RXO.OHMM :
CALI.CM :
SP.MV :
~A
# ...
  153.2500     2.2110    67.7790    62.2100    58.7040    63.1950    24.8440   -16.5030 
  153.3750     2.2130    68.0690    57.1350    54.4370    60.3760    24.7290   -16.5080 
  153.5000     2.2100    68.6650    52.2180    50.3340    54.4720    24.5950   -16.5130 
  153.6250     2.2050    67.1750    47.5440    46.4140    50.8770    24.4250   -16.4780 
  153.7500     2.2030    64.6260    43.0520    42.5360    44.5680    24.3170   -16.4110 
  153.8750     2.2040    63.8100    38.7180    38.6670    40.2610    24.3170   -16.3350 
  154.0000     2.2100    65.6100    34.5220    34.8210    41.6640    24.3540   -16.2530 
  154.1250     2.2180    69.3450    30.4130    30.9310    35.3980    24.4040   -16.2340 
  154.2500     2.2270    72.3530    26.3320    26.9120    26.2540    24.4500   -16.2260 
  154.3750     2.2370    72.6230    22.3700    22.8500    23.8680    24.4790   -16.1910 
  154.5000     2.2510    72.2490    18.7800    19.0490    23.4450    24.4990   -16.1060 
  154.6250     2.2720    74.8280    16.0720    16.0790    19.7650    24.4770   -16.0150 
  154.7500     2.2960    80.6770    14.4150    14.1210    14.5030    24.4440   -15.9050 
  154.8750     2.3140    86.3990    13.8960    13.2290    12.1120    24.4600   -15.7990 
  155.0000     2.3190    87.8610    14.4310    13.3490    13.3420    24.5000   -15.7090 
  155.1250     2.3080    85.1340    15.8350    14.4640    18.5330    24.4740   -15.6370 
  155.2500     2.2920    81.6540    17.4800    16.1090    21.9330    24.4570   -15.5890 
  155.3750     2.2790    79.3060    18.8340    17.7860    22.7230    24.4860   -15.5650 
  155.5000     2.2730    76.4430    19.4690    18.9050    21.9250    24.5520   -15.5500 
  155.6250     2.2690    72.8850    19.1130    18.9450    20.0780    24.5750   -15.5190 
  155.7500     2.2630    72.4880    18.1420    18.2100    18.9300    24.5460   -15.4880 
  155.8750     2.2580    74.0380    16.8930    17.0540    18.4620    24.5010   -15.4670 
  156.0000     2.2590    74.6480    15.6430    15.7700    17.7650    24.5170   -15.4400 
  156.1250     2.2680    75.8750    14.5930    14.5850    15.6180    24.6050   -15.3750 
  156.2500     2.2800    78.8490    13.7760    13.6080    13.6290    24.6490   -15.2720 
  156.3750     2.2900    80.3620    13.1730    12.8670    13.0030    24.6620   -15.1660 
  156.5000     2.2920    78.3170    12.7240    12.3180    13.0710    24.6410   -15.0620 
  156.6250     2.2870    77.9310    12.3470    11.8860    13.3960    24.6120   -15.0050 
  156.7500     2.2810    81.6730    11.9660    11.4720    13.5400    24.5380   -14.9850 
  156.8750     2.2790    85.2570    11.5730    11.0580    12.9220    24.4580   -14.9930 
  157.0000     2.2830    84.8660    11.2050    10.6800    11.9980    24.4050   -15.0510 
  157.1250     2.2880    81.4990    10.9400    10.4170    11.1390    24.3850   -15.1620 
  157.2500     2.2900    79.4430    10.7980    10.2820    11.3290    24.4700   -15.2980 
  157.3750     2.2880    79.1200    10.7620    10.2500    11.8120    24.5830   -15.3920 
  157.5000     2.2830    78.7980    10.7820    10.2700    12.1770    24.6490   -15.4520 
  157.6250     2.2810    78.3950    10.8050    10.2840    12.2300    24.7070   -15.4380 
  157.7500     2.2850    79.9330    10.8160    10.2780    11.6690    24.7250   -15.3810 
  157.8750     2.2940    82.6330    10.8510    10.2820    11.6410    24.7390   -15.3050 
  158.0000     2.3050    84.2310    10.9670    10.3460    12.0250    24.7800   -15.2170 
  158.1250     2.3130    84.3660    11.2200    10.5250    12.5920    24.7720   -15.1300 
  158.2500     2.3140    83.5180    11.5700    10.7970    13.0190    24.7600   -15.0470 
  158.3750     2.3080    81.8410    11.9480    11.1090    13.7900    24.7350   -14.9960 
  158.5000     2.2970    79.9390    12.2720    11.3890    14.6840    24.7480   -14.9760 
  158.6250     2.2870    79.3130    12.4740    11.5560    15.0080    24.7590   -15.0140 
  158.7500     2.2800    78.9120    12.5780    11.6210    14.4290    24.8100   -15.0860 
  158.8750     2.2760    77.8110    12.6240    11.6270    13.9930    24.9020   -15.1820 
  159.0000     2.2720    78.6280    12.6440    11.6140    14.0690    24.9570   -15.2770 
  159.1250     2.2640    80.7480    12.6470    11.5940    14.2720    24.9420   -15.3550 
  159.2500     2.2560    80.5130    12.6270    11.5490    14.4570    24.9150   -15.4650 
  159.3750     2.2520    77.2410    12.5780    11.4570    14.5190    24.8850   -15.6020 
  159.5000     2.2550    74.4760    12.5220    11.3190    14.1190    24.8280   -15.7580 
  159.6250     2.2650    76.5100    12.5400    11.1970    12.8440    24.7710   -15.9420 
  159.7500     2.2780    80.3560    12.7350    11.1970    12.5430    24.7950   -16.1450 
  159.8750     2.2890    82.0840    13.2110    11.4320    13.3030    24.8460   -16.3530 
  160.0000     2.2940    80.6130    14.0150    11.9920    14.7860    24.9110   -16.5510 
  160.1250     2.2920    77.8190    15.1090    12.9470    16.2110    24.9580   -16.7520 
  160.2500     2.2850    76.1180    16.1970    14.0900    17.7340    24.9710   -16.9160 
  160.3750     2.2760    74.4990    16.9710    15.1150    19.7080    24.8890   -17.0610 
  160.5000     2.2680    72.0990    17.1690    15.6570    21.6030    24.7870   -17.2000 
  160.6250     2.2650    71.1140    16.6190    15.3840    20.7140    24.7510   -17.3470 
  160.7500     2.2640    72.9570    15.6400    14.5650    16.8120    24.7540   -17.4540 
  160.8750     2.2620    75.7540    14.5540    13.5350    13.2580    24.7640   -17.5180 
  161.0000     2.2550    77.6640    13.6530    12.5980    11.7670    24.7750   -17.5450 
  161.1250     2.2460    79.8050    13.1690    11.9880    11.2780    24.6930   -17.5390 
  161.2500     2.2380    82.9370    13.0460    11.6950    11.4750    24.5700   -17.5360 
  161.3750     2.2350    84.7750    13.1810    11.6600    12.5050    24.5010   -17.5290 
  161.5000     2.2380    84.5220    13.4430    11.7950    13.6450    24.5120   -17.5280 
  161.6250     2.2440    84.2670    13.7170    12.0140    14.3540    24.5460   -17.5210 
  161.7500     2.2490    84.2670    13.9760    12.2630    14.8550    24.5720   -17.5450 
  161.8750     2.2510    83.5180    14.2700    12.5540    14.9190    24.5900   -17.5780 
  162.0000     2.2520    81.2510    14.6770    12.9320    14.6920    24.6310   -17.6170 
  162.1250     2.2530    78.0130    15.2760    13.4630    15.1020    24.6970   -17.6530 
  162.2500     2.2550    75.5190    16.0090    14.1300    15.2750    24.6870   -17.6740 
  162.3750     2.2560    75.1550    16.7800    14.8890    15.0790    24.5910   -17.6480 
  162.5000     2.2560    75.9500    17.4730    15.6570    15.2020    24.5170   -17.5760 
  162.6250     2.2550    75.7290    17.9580    16.3010    16.4380    24.5490   -17.4660 
  162.7500     2.2570    76.3210    18.2300    16.7440    17.7720    24.6320   -17.3590 
  162.8750     2.2640    78.4240    18.3090    16.9600    18.2300    24.7090   -17.2610 
  163.0000     2.2740    79.8770    18.2510    16.9850    17.8200    24.7550   -17.1790 
  163.1250     2.2820    78.2800    18.1410    16.9020    17.4750    24.7750   -17.0860 
  163.2500     2.2810    75.4380    18.0720    16.8530    17.7970    24.7690   -17.0280 
  163.3750     2.2730    75.9580    18.0740    16.9050    17.9840    24.7130   -16.9970 
  163.5000     2.2620    81.2470    18.1070    17.0350    18.0960    24.5780   -16.9940 
  163.6250     2.2540    86.0220    18.0660    17.1190    17.4510    24.3530   -16.9680 
  163.7500     2.2560    85.2640    17.8960    17.0600    16.5670    24.1580   -16.9080 
  163.8750     2.2660    82.3300    17.6260    16.8540    15.9280    24.0480   -16.8290 
  164.0000     2.2820    83.0640    17.3580    16.5920    15.4740    24.0090   -16.7470 
  164.1250     2.2980    85.3640    17.2270    16.4350    14.7430    24.1160   -16.6680 
  164.2500     2.3050    85.6530    17.2370    16.4290    15.0700    24.2740   -16.5460 
  164.3750     2.3000    85.1540    17.3000    16.5150    16.9110    24.4200   -16.4230 
