~V
VERS. 2.00: Ver 2.00
~W
STRT.M 55.0000:
STOP.M 280.0000:
STEP.M 0.1250:
NULL. -999.2500:
UWI. F11032:
~C
DEPT.M :
DEN.GM/CC :
GR.API :
RML.OHMM :
RI. :
RXO.OHMM :
CALI.CM :
SP.MV :
~A
# ...
  235.0000     2.2460    63.1150    53.5340    44.3160    44.0170    24.7050   -24.3120 
  235.1250     2.2530    61.5450    56.3250    46.9880    49.8910    24.7050   -24.4110 
  235.2500     2.2540    56.8520    58.2950    49.1020    55.2160    24.7050   -24.5220 
  235.3750     2.2500    54.4750    59.2530    50.4110    56.8860    24.7050   -24.6190 
  235.5000     2.2390    56.6820    59.2580    50.8750    53.8740    24.7050   -24.6700 
  235.6250     2.2270    57.4710    58.4180    50.5390    51.6580    24.7050   -24.7340 
  235.7500     2.2180    56.5320    57.0470    49.7120    50.7010    24.7050   -24.8220 
  235.8750     2.2150    58.0370    55.2010    48.4840    51.1900    24.7050   -24.9240 
  236.0000     2.2170    61.7850    52.8700    46.8570    51.7430    24.7050   -25.0280 
  236.1250     2.2230    63.8090    50.0480    44.7860    49.4590    24.7050   -25.1610 
  236.2500     2.2290    64.1300    47.0530    42.4840    45.2480    24.7050   -25.3020 
  236.3750     2.2310    63.7460    44.2340    40.2100    41.7390    24.7030   -25.4200 
  236.5000     2.2310    61.6670    41.9290    38.2590    40.1250    24.6960   -25.5630 
  236.6250     2.2290    59.6880    40.4320    36.9260    39.7530    24.6370   -25.7250 
  236.7500     2.2310    60.4790    39.4730    36.0790    41.0020    24.5220   -25.8520 
  236.8750     2.2410    62.7720    38.6840    35.4550    42.5810    24.3730   -25.9660 
  237.0000     2.2610    63.3110    37.6880    34.7230    39.4860    24.3140   -26.1350 
  237.1250     2.2850    61.2220    36.2340    33.5850    38.8630    24.2770   -26.2890 
  237.2500     2.3010    60.2110    34.5560    32.1620    34.5770    24.1740   -26.3990 
  237.3750     2.3030    60.9200    33.0430    30.7510    28.6670    24.1030   -26.5330 
  237.5000     2.2930    61.4390    32.1150    29.7240    25.6880    24.0900   -26.6520 
  237.6250     2.2800    61.6710    32.2570    29.5240    26.1200    24.0920   -26.7500 
  237.7500     2.2730    65.0520    33.4030    30.1760    27.6290    24.1060   -26.8700 
  237.8750     2.2730    69.5930    35.4120    31.6310    29.3120    24.1840   -27.0180 
  238.0000     2.2740    70.0330    37.9620    33.6820    31.2390    24.3600   -27.1070 
  238.1250     2.2660    64.3970    40.4980    35.8970    37.0260    24.3880   -27.1370 
  238.2500     2.2480    60.0430    42.4330    37.7030    41.5140    24.3750   -27.1700 
  238.3750     2.2240    58.7280    43.4310    38.7530    42.2860    24.2800   -27.2030 
  238.5000     2.2020    57.8680    43.4440    38.9500    41.9700    24.0670   -27.2460 
  238.6250     2.1900    56.4000    42.6440    38.3820    40.4810    23.9090   -27.2630 
  238.7500     2.1880    56.5340    41.5730    37.4970    38.6930    23.6820   -27.2570 
  238.8750     2.1900    58.4160    40.4700    36.5110    37.0060    23.3820   -27.2090 
  239.0000     2.1920    59.6230    39.3340    35.4800    36.8050    23.1820   -27.1640 
  239.1250     2.1940    58.9340    37.9520    34.3040    37.4140    23.2280   -27.1700 
  239.2500     2.1990    60.2060    36.2500    32.9280    36.6170    23.5140   -27.1600 
  239.3750     2.2090    62.8950    34.3070    31.3860    33.3900    23.8340   -27.1180 
  239.5000     2.2210    63.4820    32.3070    29.7920    30.7460    24.2150   -27.0830 
  239.6250     2.2280    59.1910    30.4800    28.3110    28.1650    24.7120   -27.0520 
  239.7500     2.2260    54.7290    28.8640    26.9900    28.2030    25.0390   -27.0390 
  239.8750     2.2180    52.8820    27.3570    25.7600    28.4660    25.0850   -27.0490 
  240.0000     2.2100    53.7960    25.8030    24.4910    27.4210    25.0570   -27.0260 
  240.1250     2.2080    58.9350    24.0750    23.0610    24.8420    24.8370   -26.9320 
  240.2500     2.2110    66.0780    22.2470    21.5080    22.2290    24.6000   -26.8480 
  240.3750     2.2150    70.2400    20.4460    19.9310    19.5270    24.2410   -26.7400 
  240.5000     2.2200    69.0530    18.7960    18.4380    17.0580    23.9240   -26.5350 
  240.6250     2.2250    64.7730    17.3950    17.1320    16.4410    24.0640   -26.3170 
  240.7500     2.2320    60.2430    16.1970    15.9950    16.0050    24.4760   -26.1070 
  240.8750     2.2390    55.6300    15.1800    15.0010    14.8230    24.8100   -25.8750 
  241.0000     2.2440    53.0150    14.3490    14.1410    13.1190    24.9380   -25.6660 
  241.1250     2.2450    54.6360    13.8080    13.4920    12.1670    24.9450   -25.5380 
  241.2500     2.2410    56.7550    13.5910    13.1110    12.2460    24.9460   -25.4030 
  241.3750     2.2350    57.9240    13.7280    13.0550    12.2520    24.9210   -25.2450 
  241.5000     2.2340    59.3450    14.1930    13.3150    11.9530    24.8450   -25.1460 
  241.6250     2.2430    60.1740    14.9140    13.8440    12.9390    24.7990   -25.0550 
  241.7500     2.2600    58.1820    15.7010    14.4760    14.8700    24.7890   -24.8850 
  241.8750     2.2780    55.6390    16.4410    15.1040    15.6180    24.7920   -24.6560 
  242.0000     2.2900    56.4570    17.0940    15.6720    15.7870    24.7960   -24.4290 
  242.1250     2.2880    58.5190    17.6960    16.1770    15.6750    24.8140   -24.1620 
  242.2500     2.2760    57.5330    18.3310    16.6770    16.6480    24.8470   -23.8880 
  242.3750     2.2620    57.2160    19.0410    17.2280    18.1120    24.8050   -23.6560 
  242.5000     2.2540    61.0870    19.8000    17.8460    20.2730    24.7190   -23.4020 
  242.6250     2.2560    64.5440    20.4730    18.4540    22.2950    24.6820   -23.0750 
  242.7500     2.2620    62.4840    20.9120    18.9040    22.7350    24.6290   -22.7540 
  242.8750     2.2660    58.7490    21.0240    19.0810    21.9840    24.5840   -22.4920 
  243.0000     2.2630    57.0760    20.8210    18.9490    20.5890    24.5570   -22.2520 
  243.1250     2.2510    56.1790    20.4150    18.5660    20.0780    24.5530   -22.0470 
  243.2500     2.2380    54.2600    20.0350    18.1440    20.0970    24.5200   -21.8480 
  243.3750     2.2270    54.4020    19.8200    17.8310    20.4770    24.3980   -21.6590 
  243.5000     2.2200    58.5570    19.8210    17.7130    20.0550    24.3550   -21.5540 
  243.6250     2.2160    61.9270    19.9350    17.7540    20.4580    24.5160   -21.5750 
  243.7500     2.2130    59.6220    19.8730    17.7130    21.5050    24.8020   -21.5960 
  243.8750     2.2150    54.6130    19.4240    17.3920    22.5900    24.8490   -21.5300 
  244.0000     2.2280    53.9420    18.5820    16.7510    23.4440    24.8090   -21.4240 
  244.1250     2.2570    58.3880    17.6640    15.9880    23.8730    24.6570   -21.3000 
  244.2500     2.2920    61.2150    17.2180    15.4980    21.5360    24.6330   -21.1300 
  244.3750     2.3160    63.2180    17.6500    15.6040    18.7630    24.6280   -20.9240 
  244.5000     2.3170    66.3880    19.1170    16.5170    18.5300    24.6280   -20.6530 
  244.6250     2.2910    70.3160    21.5180    18.3730    20.4250    24.6340   -20.2800 
  244.7500     2.2570    73.2860    24.0420    20.6700    23.5680    24.6660   -19.9200 
  244.8750     2.2240    73.3920    25.8130    22.6910    27.8010    24.6990   -19.6320 
  245.0000     2.2010    69.2660    26.0760    23.5950    29.4240    24.7050   -19.3570 
  245.1250     2.1860    62.9610    24.5170    22.7650    26.1860    24.7050   -19.1020 
  245.2500     2.1780    61.2200    22.1780    20.9630    21.3350    24.7050   -18.8770 
  245.3750     2.1770    64.5090    19.9140    18.9470    18.7060    24.7020   -18.6660 
  245.5000     2.1810    68.0110    18.2990    17.2960    18.1630    24.6940   -18.4880 
  245.6250     2.1910    67.7710    17.6850    16.4100    17.8390    24.6440   -18.3580 
  245.7500     2.2050    64.5760    17.8200    16.1900    16.8360    24.6310   -18.2310 
  245.8750     2.2170    61.5620    18.4530    16.4840    16.9080    24.6230   -18.1310 
  246.0000     2.2260    59.8000    19.3010    17.0780    19.6810    24.5970   -18.0890 
  246.1250     2.2320    59.1070    20.1030    17.7670    21.0300    24.4920   -18.0370 
