~V
VERS. 2.00: Ver 2.00
~W
STRT.M 57.0000:
STOP.M 280.0000:
STEP.M 0.1250:
NULL. -999.2500:
UWI. F11041:
~C
DEPT.M :
SP.MV :
GR.API :
RML.OHMM :
RI. :
RXO.OHMM :
CALI.CM :
DEN.GM/CC :
~A
# ...
   68.2500   -10.4530    73.7220     9.4080     6.9160     6.4050    23.1980     2.2690 
   68.3750    -9.9330    74.1170    10.2090     7.3830     6.5970    23.2410     2.3310 
   68.5000    -9.3730    73.8890    11.5990     8.2690     7.6120    23.3760     2.4170 
   68.6250    -8.8120    73.7260    13.5870     9.6580    10.5240    23.6590     2.5220 
   68.7500    -8.3030    76.6820    15.7170    11.3090    13.2480    23.9190     2.6070 
   68.8750    -7.9040    81.9310    17.4230    12.8290    12.9760    24.1080     2.6360 
   69.0000    -7.6170    84.2620    18.1670    13.7360    11.4910    24.1500     2.6130 
   69.1250    -7.4450    80.7280    17.4960    13.5420    12.7700    23.9750     2.5560 
   69.2500    -7.3950    75.5910    15.8790    12.5160    12.7140    23.6420     2.4680 
   69.3750    -7.4550    71.7500    12.6810    11.0740     9.8040    23.3060     2.3610 
   69.5000    -7.5820    69.1360    10.4240     9.6420     7.5620    23.1400     2.2710 
   69.6250    -7.7740    68.2100     9.0650     8.5210     6.8820    23.1110     2.2250 
   69.7500    -7.9670    69.3580     8.2220     7.7480     6.6850    23.1100     2.2070 
   69.8750    -8.1550    69.8370     7.8640     7.3160     6.6140    23.1100     2.1990 
   70.0000    -8.3890    68.1200     7.8470     7.1540     6.5050    23.1110     2.1940 
   70.1250    -8.6930    67.5470     7.9680     7.1600     6.3920    23.1090     2.1900 
   70.2500    -8.9510    69.8160     8.0690     7.2170     6.3580    23.1070     2.1860 
   70.3750    -9.0810    72.1560     8.1200     7.2870     6.3810    23.1080     2.1830 
   70.5000    -9.1780    72.0000     8.1210     7.3500     6.3540    23.1110     2.1840 
   70.6250    -9.2970    70.4220     8.0790     7.3740     6.2730    23.1130     2.1890 
   70.7500    -9.4530    69.3470     8.0220     7.3520     6.2530    23.1150     2.1910 
   70.8750    -9.6140    69.4190     7.9720     7.2870     6.2620    23.1320     2.1870 
   71.0000    -9.7770    71.3530     7.9620     7.2020     6.2530    23.1860     2.1820 
   71.1250    -9.9230    71.9840     8.0360     7.1400     6.5070    23.2300     2.1770 
   71.2500   -10.0010    69.6050     8.1860     7.1280     7.3370    23.2610     2.1710 
   71.3750   -10.0650    66.9190     8.3900     7.1680     7.3120    23.2840     2.1660 
   71.5000   -10.1150    67.1860     8.6320     7.2530     7.4230    23.3340     2.1630 
   71.6250   -10.1680    69.4660     8.9080     7.3850     7.8630    23.4030     2.1630 
   71.7500   -10.2310    70.5540     9.2140     7.5560     8.4330    23.4990     2.1630 
   71.8750   -10.2990    69.1040     9.5450     7.7600     8.3800    23.5660     2.1630 
   72.0000   -10.2750    66.3610     9.8730     7.9690     8.0120    23.5580     2.1620 
   72.1250   -10.1270    65.3000    10.1130     8.1120     7.7600    23.5080     2.1610 
   72.2500   -10.0370    65.7860    10.1970     8.1390     7.5850    23.4530     2.1620 
   72.3750   -10.0210    65.3620    10.1120     8.0500     7.3030    23.4350     2.1650 
   72.5000   -10.0140    64.1860     9.9250     7.9060     7.1960    23.4380     2.1700 
   72.6250    -9.9390    67.4260     9.7860     7.8100     7.3390    23.4450     2.1760 
   72.7500    -9.7950    72.5750     9.8130     7.8320     7.5220    23.4400     2.1840 
   72.8750    -9.6180    73.4170    10.0200     7.9920     7.6520    23.4410     2.1880 
   73.0000    -9.5270    69.1790    10.3290     8.2550     7.8720    23.4400     2.1870 
   73.1250    -9.5380    66.0530    10.6000     8.5390     8.0900    23.4890     2.1780 
   73.2500    -9.4670    67.8560    10.7450     8.7540     8.1250    23.5530     2.1710 
   73.3750    -9.3170    71.6260    10.7530     8.8610     8.0310    23.5640     2.1710 
   73.5000    -9.1870    73.4120    10.6660     8.8580     7.9130    23.5180     2.1800 
   73.6250    -9.1270    70.9410    10.5270     8.7680     7.8510    23.4880     2.1910 
   73.7500    -9.1290    68.8280    10.3590     8.6320     7.8710    23.5420     2.1960 
   73.8750    -9.1450    68.4260    10.1490     8.4590     8.1560    23.6540     2.1930 
   74.0000    -9.0600    68.3680     9.8890     8.2460     8.7580    23.7090     2.1870 
   74.1250    -8.8660    67.5160     9.5790     7.9910     9.1450    23.6810     2.1850 
   74.2500    -8.7770    69.0620     9.2690     7.7280     8.3570    23.6470     2.1900 
   74.3750    -8.7830    73.9550     9.0640     7.5260     7.4850    23.6840     2.2060 
   74.5000    -8.7990    77.6420     9.1190     7.4790     7.0370    23.7230     2.2270 
   74.6250    -8.8220    75.5150     9.6310     7.7140     7.2390    23.7370     2.2380 
   74.7500    -8.8550    71.0380    10.5250     8.2080     7.7760    23.7430     2.2410 
   74.8750    -8.9140    66.9240    11.6170     8.8890     8.3520    23.7570     2.2580 
   75.0000    -9.0690    63.5250    12.5640     9.5870     8.5330    23.7750     2.2980 
   75.1250    -9.3380    61.2000    12.8400     9.9770     8.5250    23.7670     2.3280 
   75.2500    -9.5430    61.6590    12.4110     9.9220     8.3750    23.7280     2.3080 
   75.3750    -9.6330    64.0920    11.5570     9.4990     8.2590    23.6720     2.2470 
   75.5000    -9.6560    66.5560    10.6960     8.9370     8.1250    23.6340     2.1930 
   75.6250    -9.6030    66.9740    10.2040     8.4970     7.9770    23.5620     2.1690 
   75.7500    -9.5320    65.4040    10.0800     8.2830     7.7780    23.4760     2.1590 
   75.8750    -9.4610    63.1490    10.1990     8.2730     7.6650    23.4380     2.1540 
   76.0000    -9.2980    61.3990    10.3880     8.3770     7.6810    23.4160     2.1530 
   76.1250    -9.0300    62.6380    10.5460     8.4900     7.6940    23.3910     2.1590 
   76.2500    -8.7860    66.5380    10.6980     8.5810     7.5850    23.3930     2.1670 
   76.3750    -8.6010    71.3280    10.8710     8.6640     7.4990    23.4390     2.1770 
   76.5000    -8.4390    73.4470    11.0630     8.7580     7.5090    23.4980     2.1890 
   76.6250    -8.2920    70.0480    11.2650     8.8610     7.6060    23.5010     2.2050 
   76.7500    -8.1190    66.7080    11.4600     8.9540     7.7000    23.4840     2.2230 
   76.8750    -7.8900    67.3690    11.6110     9.0110     7.7840    23.4540     2.2370 
   77.0000    -7.7440    70.2490    11.6470     9.0100     7.8980    23.4340     2.2470 
   77.1250    -7.6810    69.9870    11.4290     8.9120     7.9050    23.3970     2.2500 
   77.2500    -7.5530    66.6760    10.9760     8.7270     8.0230    23.3320     2.2490 
   77.3750    -7.3610    64.9070    10.5160     8.5320     8.2170    23.2950     2.2480 
   77.5000    -7.1230    65.2340    10.5900     8.5470     8.3590    23.3060     2.2550 
   77.6250    -6.8660    65.4550    12.2600     9.2840     8.3530    23.3830     2.2790 
   77.7500    -6.6050    64.8900    15.9810    11.1190     8.7910    23.5250     2.3180 
   77.8750    -6.2620    65.1710    21.8370    14.3590    10.6420    23.7820     2.3680 
   78.0000    -5.8180    67.4940    28.7600    18.7750    15.7940    24.1410     2.4300 
   78.1250    -5.2820    70.0950    32.5330    22.2690    28.9190    24.3920     2.4880 
   78.2500    -4.7080    72.4910    29.7820    22.0270    35.0220    24.4810     2.5160 
   78.3750    -4.1400    76.4840    22.1530    18.0990    24.4390    24.4820     2.4960 
   78.5000    -3.6040    83.0720    14.3380    13.1700    12.2360    24.5040     2.4400 
   78.6250    -3.0860    90.1380     9.4540     9.5310     8.0030    24.4680     2.3820 
   78.7500    -2.5890    94.7250     6.9150     7.2710     6.7180    24.3590     2.3440 
   78.8750    -2.2750    97.8650     5.9150     6.0500     6.3910    24.2770     2.3270 
   79.0000    -2.0490    99.6780     5.7630     5.5250     6.1530    24.3700     2.3260 
   79.1250    -1.8470   101.0130     5.9520     5.4570     6.0980    24.4970     2.3280 
   79.2500    -1.7660   102.2320     6.1140     5.5580     6.0800    24.5350     2.3270 
   79.3750    -1.8050   101.6510     6.1970     5.7250     5.9640    24.5080     2.3170 
