~V
VERS. 2.00: Ver 2.00
~W
STRT.M 52.0000:
STOP.M 269.0000:
STEP.M 0.1250:
NULL. -999.2500:
UWI. F11071:
~C
DEPT.M :
GR.API :
RML.OHMM :
RI. :
RXO.OHMM :
CALI.CM :
DEN.GM/CC :
SP.MV :
~A
# ...
  232.0000    67.2950   185.9770   171.6250   216.0000    25.1670     2.1990    -9.2090 
  232.1250    64.1070   186.6230   174.6150   209.7280    25.1770     2.1880    -9.4590 
  232.2500    63.1160   183.9380   174.0500   194.2720    25.1890     2.1760    -9.7000 
  232.3750    64.4570   178.9350   170.6450   179.4640    25.2070     2.1650    -9.9320 
  232.5000    66.8190   173.1180   165.9240   167.5930    25.2170     2.1590   -10.1670 
  232.6250    68.2580   167.9270   161.4150   166.8970    25.2310     2.1580   -10.3340 
  232.7500    66.6180   163.8540   157.7600   165.9840    25.2360     2.1580   -10.4630 
  232.8750    62.3440   160.8990   155.0410   157.6060    25.2370     2.1590   -10.5930 
  233.0000    58.7080   158.8690   153.1300   149.6670    25.2250     2.1620   -10.6920 
  233.1250    60.0530   157.6120   151.8440   156.5410    25.2050     2.1690   -10.7580 
  233.2500    64.0380   156.8080   150.8950   163.3470    25.1930     2.1790   -10.8630 
  233.3750    67.0820   156.3860   150.2450   166.4190    25.2010     2.1900   -11.0230 
  233.5000    68.0760   156.4680   149.9430   163.1780    25.1880     2.1960   -11.1930 
  233.6250    67.3040   157.7340   150.4500   153.9950    25.1740     2.1960   -11.3880 
  233.7500    66.5130   160.8280   152.5120   153.2980    25.1590     2.1950   -11.6110 
  233.8750    66.0120   166.3800   157.0100   161.4340    25.1260     2.1930   -11.8470 
  234.0000    65.4610   174.5180   164.3280   168.3610    25.0680     2.1910   -12.0530 
  234.1250    63.2270   184.6640   174.2140   171.2420    25.0850     2.1890   -12.2420 
  234.2500    59.9170   194.6330   184.6380   190.7940    25.1310     2.1850   -12.4070 
  234.3750    58.6900   202.1900   193.4010   229.5710    25.1700     2.1840   -12.5220 
  234.5000    59.3370   205.1920   198.2150   256.6520    25.1980     2.1880   -12.5960 
  234.6250    60.1230   201.2460   196.4630   238.7590    25.2080     2.1970   -12.6130 
  234.7500    61.4350   191.5460   188.8760   215.7340    25.2010     2.2050   -12.5930 
  234.8750    64.4830   177.5420   176.6300   206.3810    25.1690     2.2120   -12.5600 
  235.0000    67.9020   161.1830   161.6850   195.0240    25.1340     2.2170   -12.5600 
  235.1250    66.4430   144.3580   145.9580   171.7090    25.1080     2.2230   -12.5520 
  235.2500    63.0620   128.4270   130.7150   152.3440    25.1730     2.2300   -12.5080 
  235.3750    61.9380   114.0920   116.5360   131.0630    25.1760     2.2330   -12.4730 
  235.5000    64.1400   101.8980   104.0280   107.4160    25.0910     2.2320   -12.4740 
  235.6250    67.2490    92.7700    94.2250    92.9260    24.9890     2.2300   -12.4770 
  235.7500    68.8750    86.5690    87.2170    79.8500    24.9540     2.2340   -12.4500 
  235.8750    68.7340    83.3450    83.2170    72.9650    24.9280     2.2420   -12.3770 
  236.0000    67.0230    82.9340    82.1550    73.6150    24.9150     2.2480   -12.2240 
  236.1250    66.3210    85.2240    84.0060    81.9050    24.9320     2.2410   -11.9690 
  236.2500    67.2500    89.0290    87.6080    94.9800    24.9520     2.2210   -11.7110 
  236.3750    66.1680    93.4560    92.0550   103.9950    24.9480     2.1950   -11.4490 
  236.5000    61.5790    97.6280    96.3380   103.6970    24.9280     2.1720   -11.1500 
  236.6250    58.4240   100.7170    99.4740   107.3960    25.0520     2.1620   -10.8540 
  236.7500    58.7970   102.7090   101.4250   127.3910    25.1580     2.1670   -10.5700 
  236.8750    59.3100   103.7910   102.4070   140.7960    25.2210     2.1860   -10.3180 
  237.0000    59.0960   104.2260   102.7080   120.0580    25.2300     2.2130   -10.1490 
  237.1250    61.7050   104.1110   102.4390   107.4650    25.1750     2.2400   -10.0940 
  237.2500    65.2750   103.5150   101.6950   103.9290    25.1360     2.2570   -10.0760 
  237.3750    65.1460   102.3570   100.4070   101.4210    25.1290     2.2610   -10.1080 
  237.5000    60.4800   100.6050    98.5670    95.3940    25.1220     2.2540   -10.1730 
  237.6250    57.8470    98.2770    96.2750    92.7790    25.1690     2.2470   -10.2570 
  237.7500    60.1270    95.6570    93.8190    92.0090    25.1970     2.2490   -10.3930 
  237.8750    63.8480    92.9310    91.3380    94.8870    25.2270     2.2620   -10.5750 
  238.0000    65.3100    90.2540    88.9150    98.0460    25.2420     2.2830   -10.7350 
  238.1250    64.5880    87.7840    86.6590    91.8360    25.2460     2.3040   -10.8430 
  238.2500    64.4300    85.5850    84.6130    87.2220    25.2220     2.3180   -10.9420 
  238.3750    65.5570    83.7090    82.8380    84.1760    25.1960     2.3210   -10.9730 
  238.5000    67.2460    82.1670    81.4120    81.7270    25.1680     2.3120   -10.9670 
  238.6250    67.6420    80.9130    80.3840    83.3140    25.1530     2.2950   -10.9740 
  238.7500    65.2270    79.7500    79.5130    81.3210    25.0840     2.2740   -10.9670 
  238.8750    62.1010    78.5800    78.6280    74.1310    24.9060     2.2550   -10.9090 
  239.0000    61.3710    77.4190    77.7180    66.1870    24.6440     2.2400   -10.8320 
  239.1250    62.6450    76.4200    76.9510    59.5700    24.3920     2.2300   -10.8310 
  239.2500    63.0490    75.7010    76.4510    51.6320    24.1780     2.2220   -10.8630 
  239.3750    63.0030    75.2980    76.2810    44.7320    24.0530     2.2140   -10.9410 
  239.5000    64.6370    75.1250    76.3620    45.4770    24.0120     2.2070   -11.0580 
  239.6250    66.9080    74.9720    76.3550    48.5030    24.0060     2.2070   -11.2090 
  239.7500    67.7640    74.6550    75.9460    48.2050    23.9690     2.2140   -11.3910 
  239.8750    67.2750    74.1980    75.1220    43.4510    23.8820     2.2250   -11.5770 
  240.0000    66.8220    73.8340    74.1570    40.5700    23.7980     2.2320   -11.7540 
  240.1250    69.1370    74.1170    73.6680    42.8460    23.8020     2.2310   -11.8940 
  240.2500    71.6280    75.4050    74.1950    47.0280    23.9010     2.2240   -12.0620 
  240.3750    72.3710    77.8740    76.0810    52.6020    24.0680     2.2180   -12.2390 
  240.5000    70.0480    81.3990    79.2470    60.7160    24.2330     2.2150   -12.4070 
  240.6250    66.7940    85.5840    83.2620    66.3450    24.4140     2.2160   -12.5190 
  240.7500    65.3820    89.6530    87.2490    75.2200    24.5980     2.2190   -12.5570 
  240.8750    65.4440    93.0280    90.5450    83.6220    24.6970     2.2200   -12.6220 
  241.0000    64.8240    95.3320    92.6720    88.1700    24.7780     2.2190   -12.6880 
  241.1250    60.9220    96.3680    93.4240    86.6490    24.9220     2.2160   -12.6830 
  241.2500    58.6050    96.6580    93.4240    85.8930    24.9680     2.2160   -12.5870 
  241.3750    61.3400    96.6360    93.0790    83.9040    24.8740     2.2180   -12.3860 
  241.5000    65.4990    96.7280    92.7090    80.7670    24.7140     2.2220   -12.1390 
  241.6250    64.9720    97.4770    92.7520    79.9670    24.5970     2.2240   -11.8840 
  241.7500    62.2820    99.1920    93.5580    73.0840    24.4780     2.2230   -11.6380 
  241.8750    62.7780   102.1390    95.4760    61.9820    24.3190     2.2180   -11.3600 
  242.0000    65.6600   106.3870    98.7560    54.8470    24.1690     2.2110   -11.1070 
  242.1250    65.0750   111.7090   103.4380    55.2630    24.0890     2.2050   -10.9450 
  242.2500    62.4670   117.0360   108.4570    62.7860    24.0510     2.1990   -10.8230 
  242.3750    62.4950   121.3630   112.6460    71.9860    24.0800     2.1900   -10.7520 
  242.5000    65.6660   124.0590   115.0820    81.4580    24.1790     2.1750   -10.6740 
  242.6250    67.5220   125.3710   115.6420    86.2010    24.3760     2.1550   -10.5530 
  242.7500    67.1960   127.2200   116.2800    94.6100    24.5950     2.1410   -10.4330 
  242.8750    66.3470   131.7150   119.3450   107.3380    24.6990     2.1540   -10.2760 
  243.0000    65.9610   140.6280   127.0350   140.1810    24.7170     2.2160   -10.0630 
  243.1250    65.1390   154.3180   140.9080   157.0260    24.6480     2.3400    -9.7980 
