~V
VERS. 2.00: Ver 2.00
~W
STRT.M 55.0000:
STOP.M 283.0000:
STEP.M 0.1250:
NULL. -999.2500:
UWI. F11062:
~C
DEPT.M :
SP.MV :
GR.API :
RML.OHMM :
RI. :
RXO.OHMM :
CALI.CM :
DEN.GM/CC :
~A
# ...
  212.5000    -3.3470    65.2610     6.7340     5.4300     4.6980    22.4130     2.4020 
  212.6250    -3.0100    76.1710     6.9820     5.7260     4.8800    22.3210     2.4190 
  212.7500    -2.8170    86.2620     7.1910     6.0210     5.0150    22.3290     2.4250 
  212.8750    -2.7480    85.2790     7.4570     6.3500     5.1590    22.3770     2.4270 
  213.0000    -2.7760    75.4800     7.8690     6.7650     5.4390    22.4200     2.4300 
  213.1250    -2.8340    69.8670     8.4570     7.2940     5.9330    22.3830     2.4320 
  213.2500    -2.8880    71.6380     9.0770     7.8400     6.6790    22.2310     2.4310 
  213.3750    -2.9510    73.7620     9.5450     8.2640     7.6370    21.9990     2.4260 
  213.5000    -2.9690    72.5420     9.6900     8.4200     8.4080    21.7760     2.4190 
  213.6250    -2.9560    72.5230     9.3810     8.1730     8.2670    21.6010     2.4120 
  213.7500    -2.9340    74.6310     8.8010     7.6620     7.7650    21.3700     2.4090 
  213.8750    -2.9070    75.6090     8.1460     7.0510     7.1820    21.0180     2.4070 
  214.0000    -2.8750    72.9100     7.5930     6.4970     6.7220    20.5980     2.4070 
  214.1250    -2.8400    69.5440     7.2740     6.1230     6.4780    20.2240     2.4050 
  214.2500    -2.8400    70.1590     7.1500     5.9150     6.4310    19.9780     2.4020 
  214.3750    -2.8570    72.6310     7.1690     5.8460     6.3620    19.8220     2.3960 
  214.5000    -2.9210    75.1100     7.2790     5.8760     6.1460    19.6940     2.3880 
  214.6250    -3.0420    76.4630     7.4430     5.9800     5.8470    19.6750     2.3780 
  214.7500    -3.2060    77.1230     7.6240     6.1220     5.6910    19.8070     2.3670 
  214.8750    -3.4030    75.9960     7.8040     6.2850     5.7950    20.1050     2.3570 
  215.0000    -3.6260    73.9750     7.9710     6.4570     6.0730    20.5790     2.3500 
  215.1250    -3.8850    73.7280     8.1230     6.6280     6.5460    21.2480     2.3480 
  215.2500    -4.1500    74.2350     8.2840     6.8040     6.9990    21.8870     2.3500 
  215.3750    -4.4150    74.4270     8.5030     7.0110     7.0920    22.2890     2.3540 
  215.5000    -4.6860    74.6800     8.8350     7.2820     7.1100    22.4410     2.3570 
  215.6250    -4.8920    77.5170     9.3220     7.6570     7.2030    22.4750     2.3590 
  215.7500    -5.0780    80.0540     9.8970     8.1060     7.5690    22.4960     2.3610 
  215.8750    -5.2410    77.5500    10.4660     8.5730     8.3830    22.5100     2.3640 
  216.0000    -5.3540    73.1850    10.9280     8.9850     9.3870    22.5130     2.3700 
  216.1250    -5.4280    72.5810    11.1830     9.2550    10.0460    22.4990     2.3740 
  216.2500    -5.4960    74.0440    11.2670     9.3850     9.6690    22.4510     2.3750 
  216.3750    -5.5690    74.0860    11.2380     9.4040     9.0050    22.3500     2.3730 
  216.5000    -5.6390    72.0570    11.1870     9.3760     8.6130    22.1670     2.3690 
  216.6250    -5.7200    71.0020    11.2770     9.4060     8.7040    21.8870     2.3670 
  216.7500    -5.8020    70.6180    11.6800     9.5980     9.0330    21.5790     2.3650 
  216.8750    -5.8700    69.7340    12.5220    10.0540     9.2370    21.3700     2.3620 
  217.0000    -5.9530    68.0520    13.8600    10.8490     9.1030    21.3250     2.3580 
  217.1250    -6.0400    65.5350    15.6980    12.0180     9.8090    21.4680     2.3490 
  217.2500    -6.1110    65.5790    17.4240    13.3600    10.9420    21.8130     2.3370 
  217.3750    -6.1590    66.9300    18.9150    14.6780    12.5110    22.2890     2.3250 
  217.5000    -6.1830    67.6680    20.0200    15.8110    14.7950    22.6180     2.3130 
  217.6250    -6.2220    68.2210    20.9400    16.7810    15.8340    22.7330     2.3050 
  217.7500    -6.2640    68.5410    22.3360    17.9690    15.4070    22.7850     2.2980 
  217.8750    -6.3240    67.6460    24.8780    19.8740    15.2900    22.8620     2.2890 
  218.0000    -6.3940    64.8150    28.9930    22.9350    17.2080    22.9600     2.2770 
  218.1250    -6.4740    62.0070    34.6660    27.4400    23.0360    23.0700     2.2620 
  218.2500    -6.5510    59.2580    40.5440    32.5520    30.7480    23.1810     2.2470 
  218.3750    -6.6370    56.5520    45.0820    37.1010    36.5330    23.2810     2.2370 
  218.5000    -6.7330    54.5140    46.7870    39.6950    36.9750    23.3390     2.2320 
  218.6250    -6.8280    53.6310    44.5300    38.9170    35.8900    23.3650     2.2360 
  218.7500    -6.9210    54.9640    40.1600    35.9100    34.3130    23.3680     2.2440 
  218.8750    -7.0040    59.2810    35.7230    32.3360    31.1000    23.3550     2.2530 
  219.0000    -7.0900    64.1890    32.7990    29.6410    25.9910    23.3320     2.2600 
  219.1250    -7.1760    64.4760    32.4340    28.8340    21.8880    23.3130     2.2600 
  219.2500    -7.2870    61.1360    34.1800    29.7620    20.6940    23.2980     2.2550 
  219.3750    -7.4070    58.4380    37.5630    32.2180    22.6060    23.3030     2.2480 
  219.5000    -7.5090    58.3090    41.8400    35.7550    26.7110    23.3350     2.2430 
  219.6250    -7.6450    57.5270    45.9810    39.6620    30.9830    23.3710     2.2440 
  219.7500    -7.7970    54.4530    49.1900    43.0920    33.7810    23.3840     2.2490 
  219.8750    -7.9670    53.3270    51.3150    45.6880    35.2150    23.3870     2.2570 
  220.0000    -8.1470    56.5860    52.8990    47.6750    35.6730    23.3890     2.2620 
  220.1250    -8.3520    59.1760    55.1640    49.9510    35.1300    23.3890     2.2590 
  220.2500    -8.5700    56.3080    58.8870    53.3200    35.5410    23.3910     2.2510 
  220.3750    -8.7960    52.1190    64.1270    58.0160    37.9340    23.3950     2.2380 
  220.5000    -9.0410    52.0510    70.2130    63.6370    42.1410    23.4060     2.2240 
  220.6250    -9.3110    56.5490    75.6380    69.0060    47.9580    23.4180     2.2150 
  220.7500    -9.5990    59.1310    79.0480    72.8070    53.1480    23.4300     2.2120 
  220.8750    -9.9000    57.1770    79.8670    74.3210    56.6180    23.4300     2.2130 
  221.0000   -10.2170    54.7770    78.6640    73.7920    57.7370    23.4150     2.2170 
  221.1250   -10.5080    55.9410    77.4170    72.7160    53.7700    23.3840     2.2230 
  221.2500   -10.7860    58.1780    78.4770    73.3320    51.6390    23.3600     2.2270 
  221.3750   -11.0880    58.4860    83.4620    77.3410    52.4570    23.3510     2.2270 
  221.5000   -11.4100    56.8370    93.4590    86.0080    57.1380    23.3480     2.2220 
  221.6250   -11.7060    54.5190   111.4860   101.0460    70.5480    23.3570     2.2130 
  221.7500   -11.9920    51.8140   135.8220   121.4840    92.5550    23.3910     2.2030 
  221.8750   -12.2550    49.9130   165.7950   146.2930   119.8120    23.4490     2.1970 
  222.0000   -12.5060    50.8280   200.9720   173.6530   142.4680    23.4840     2.1960 
  222.1250   -12.7390    54.2430   231.3880   201.0170   157.0850    23.4840     2.1980 
  222.2500   -12.9510    56.8140   258.1000   225.9410   164.8500    23.4740     2.2000 
  222.3750   -13.1210    56.0900   278.6120   246.4780   176.6560    23.4600     2.2000 
  222.5000   -13.2610    52.4550   290.4790   260.5700   176.0830    23.4270     2.1970 
  222.6250   -13.3880    50.6960   288.8900   264.1030   142.9130    23.3970     2.1950 
  222.7500   -13.4760    52.0240   274.1200   256.6330   119.2080    23.3860     2.1950 
  222.8750   -13.5230    54.0330   248.2460   238.2480   105.1530    23.3870     2.1970 
  223.0000   -13.5570    53.5920   214.8270   211.2370    97.4230    23.3860     2.2020 
  223.1250   -13.5620    49.4980   181.5810   180.1450    88.3360    23.3780     2.2070 
  223.2500   -13.5680    47.6160   155.0420   151.6400    81.4740    23.3720     2.2130 
  223.3750   -13.5640    49.9750   135.3260   129.8350    73.0650    23.3620     2.2180 
  223.5000   -13.5540    54.3480   122.8930   116.6520    62.5980    23.3430     2.2210 
  223.6250   -13.5050    54.8540   120.5140   113.2850    54.7010    23.3280     2.2200 
