~V
VERS. 2.00: Ver 2.00
~W
STRT.M 55.0000:
STOP.M 275.0000:
STEP.M 0.1250:
NULL. -999.2500:
UWI. F11036:
~C
DEPT.M :
GR.API :
RML.OHMM :
RI. :
RXO.OHMM :
CALI.CM :
DEN.GM/CC :
SP.MV :
~A
# ...
  212.5000    64.5730   159.3300   153.7650    94.5570    23.9050     2.0940   -10.5830 
  212.6250    65.4720   180.0640   170.7230    72.5210    23.6410     2.1070   -10.5230 
  212.7500    66.4360   194.3530   184.8090    57.2000    23.4860     2.1470   -10.3850 
  212.8750    66.1280   196.7050   190.6200    68.2730    23.4280     2.1980   -10.2200 
  213.0000    66.7340   187.3130   185.0770   100.4700    23.4400     2.2380   -10.0550 
  213.1250    67.3770   168.5330   168.5000   137.2170    23.4550     2.2460    -9.8770 
  213.2500    66.3960   145.9550   147.4040   104.6340    23.4560     2.2340    -9.7140 
  213.3750    64.9110   123.2820   125.4630    75.9390    23.4450     2.2190    -9.5640 
  213.5000    64.9870   102.9790   105.1820    68.4870    23.4850     2.2150    -9.3840 
  213.6250    69.3560    87.4080    89.1560    69.7920    23.6300     2.2280    -9.2680 
  213.7500    76.1280    76.8430    77.9580    64.9880    23.9170     2.2470    -9.2370 
  213.8750    80.7490    71.5880    71.9890    52.2640    24.2100     2.2640    -9.2410 
  214.0000    80.2480    71.4650    71.3080    44.2460    24.3250     2.2740    -9.3290 
  214.1250    76.6110    76.1570    75.9730    65.0200    24.2660     2.2740    -9.4300 
  214.2500    73.2220    83.0450    83.3890    85.1420    24.1420     2.2720    -9.5140 
  214.3750    70.2470    89.9540    91.1740   104.4580    24.1410     2.2730    -9.6060 
  214.5000    67.3750    95.0930    97.0470   116.3630    24.2650     2.2800    -9.7460 
  214.6250    66.5240    97.6870    99.6260   115.8440    24.5440     2.2830    -9.8060 
  214.7500    68.3610    99.4900   100.9080    88.9890    24.7730     2.2740    -9.8860 
  214.8750    70.8750   102.2370   103.1590    92.7940    24.8730     2.2530    -9.9490 
  215.0000    69.8720   106.8150   107.6370   120.9170    24.8570     2.2290    -9.9840 
  215.1250    65.2680   112.5720   113.7870   129.9500    24.7400     2.2110   -10.0350 
  215.2500    64.4140   117.1720   119.1270   103.9610    24.5540     2.1920   -10.0550 
  215.3750    68.0920   118.6740   121.3670    68.6500    24.3510     2.1650   -10.0490 
  215.5000    70.7470   116.1780   119.1290    56.5630    24.3370     2.1330   -10.0310 
  215.6250    69.5000   109.8640   112.5870    72.9890    24.7550     2.1230   -10.0500 
  215.7500    67.7840   101.9400   104.4350    99.7940    25.3740     2.1500    -9.9460 
  215.8750    66.8060    93.6480    96.0050   108.1460    25.8950     2.2050    -9.8340 
  216.0000    66.9160    85.7030    87.9200    93.3950    26.0130     2.2590    -9.7120 
  216.1250    67.9760    78.6840    80.8220    79.5510    25.5930     2.2770    -9.5650 
  216.2500    68.0040    72.8330    74.9710    76.4400    25.0490     2.2650    -9.4510 
  216.3750    67.0510    68.4920    70.6350    67.4720    24.7870     2.2410    -9.3730 
  216.5000    68.5000    66.0160    68.1270    58.3550    24.8450     2.2250    -9.2800 
  216.6250    73.0040    66.1390    68.1780    57.0140    25.0120     2.2200    -9.2290 
  216.7500    76.3900    68.7070    70.6270    62.1600    25.1200     2.2120    -9.2710 
  216.8750    77.0660    73.6530    75.4730    67.7270    25.2410     2.1960    -9.3300 
  217.0000    75.2660    80.4790    82.4010    72.8010    25.4270     2.1770    -9.3750 
  217.1250    72.1930    87.8170    90.2340    86.0600    25.6180     2.1660    -9.4480 
  217.2500    68.7970    93.3900    96.4170   101.2050    25.7460     2.1700    -9.4700 
  217.3750    66.9170    95.3710    98.7000   117.7600    25.7280     2.1890    -9.4560 
  217.5000    67.4250    93.0800    96.0530   118.8760    25.5970     2.2190    -9.4570 
  217.6250    67.8940    87.4300    89.3330    95.9090    25.4270     2.2500    -9.4760 
  217.7500    67.5150    81.8300    82.4260    72.8560    25.2210     2.2710    -9.5370 
  217.8750    67.7010    78.9500    78.1870    62.9820    24.9640     2.2740    -9.6160 
  218.0000    70.3190    80.6960    78.5120    60.2740    24.7720     2.2560    -9.7190 
  218.1250    71.5520    88.8830    85.3740    70.0280    24.9260     2.2230    -9.8830 
  218.2500    70.2990   102.0740    97.7610    90.8550    25.3220     2.1880   -10.0800 
  218.3750    68.2370   118.2840   114.0500   111.9990    25.6220     2.1600   -10.2950 
  218.5000    66.4840   134.1520   130.8710   117.5860    25.7540     2.1410   -10.5370 
  218.6250    66.8760   144.5980   142.5990   143.7620    25.9110     2.1350   -10.7060 
  218.7500    69.2140   147.7750   146.6920   149.1260    26.0190     2.1420   -10.8470 
  218.8750    70.9280   144.0130   143.3930   147.4750    26.0770     2.1650   -10.9710 
  219.0000    70.5950   135.4460   135.0840   145.1530    26.0680     2.2010   -11.1040 
  219.1250    69.1860   124.6710   124.4840   153.5130    25.9670     2.2400   -11.1920 
  219.2500    68.6950   114.2650   114.0360   153.8100    25.7930     2.2640   -11.2950 
  219.3750    69.2100   105.5790   105.0720   126.3140    25.5700     2.2670   -11.4380 
  219.5000    69.5590    99.5990    98.6950    93.9090    25.3770     2.2490   -11.6470 
  219.6250    68.6510    97.5420    96.2230    82.4740    25.2760     2.2240   -11.9530 
  219.7500    66.7700    98.9050    97.3110    82.2310    25.2310     2.2060   -12.3070 
  219.8750    66.0350   103.1500   101.5750    91.3930    25.2090     2.1970   -12.7640 
  220.0000    66.6460   109.2770   108.0200   112.8490    25.2910     2.1950   -13.2490 
  220.1250    66.5370   115.9970   115.1280   139.8100    25.5100     2.1980   -13.7660 
  220.2500    65.8210   122.1430   121.4220   141.9140    25.6830     2.2030   -14.3310 
  220.3750    64.6530   127.3110   126.3770   106.6400    25.6310     2.2110   -14.8820 
  220.5000    64.4170   131.4820   130.0520    69.8040    25.3620     2.2240   -15.3710 
  220.6250    65.1090   134.4510   132.4820    73.3470    25.2300     2.2350   -15.8680 
  220.7500    65.9260   135.9390   133.5670   100.4310    25.3470     2.2380   -16.3930 
  220.8750    65.5550   135.2960   132.5900   136.0640    25.6050     2.2300   -16.7960 
  221.0000    63.9330   132.1860   128.9990   155.2980    25.6420     2.2170   -17.1220 
  221.1250    65.0250   127.0610   122.9730   145.4320    25.4010     2.2090   -17.4800 
  221.2500    68.9270   122.1170   116.7700   124.4280    25.1570     2.2090   -17.8600 
  221.3750    72.5860   119.4350   112.6010   111.1030    25.0750     2.2140   -18.3430 
  221.5000    73.8770   120.7530   112.2910   106.3010    25.1780     2.2200   -18.9570 
  221.6250    73.4920   127.9560   117.7040   113.8530    25.5460     2.2220   -19.6320 
  221.7500    71.5350   140.1700   128.0340   136.0060    25.8990     2.2240   -20.3590 
  221.8750    67.4460   156.2710   142.3350   172.5560    26.1450     2.2250   -21.0940 
  222.0000    63.5810   173.9740   158.5650   221.5820    26.2750     2.2240   -21.7850 
  222.1250    61.7720   189.2850   172.8370   243.3330    26.1990     2.2160   -22.2870 
  222.2500    60.9570   199.4300   181.9860   232.7750    26.0840     2.2040   -22.6660 
  222.3750    62.2520   203.7810   185.1660   211.6850    26.0610     2.1920   -22.8260 
  222.5000    65.8580   203.9100   184.0720   217.9940    26.0520     2.1840   -22.6870 
  222.6250    67.0160   202.6050   181.7540   214.0190    25.9500     2.1820   -22.2840 
  222.7500    65.0220   202.2160   180.6350   157.6880    25.8050     2.1810   -21.6600 
  222.8750    62.7070   203.0240   181.0840   101.6520    25.5500     2.1780   -20.9060 
  223.0000    62.1630   204.1150   182.3190    71.7970    24.9310     2.1740   -20.1130 
  223.1250    62.8510   203.6940   182.6340    54.2490    24.1580     2.1710   -19.3430 
  223.2500    64.4200   200.9280   180.8790    48.5650    23.7620     2.1780   -18.4380 
  223.3750    67.3440   195.9580   176.9000    58.5560    23.9820     2.2010   -17.4430 
  223.5000    69.8440   189.8100   171.5010    84.3790    24.4610     2.2370   -16.4870 
  223.6250    68.9300   183.9680   166.1620   106.1030    24.5710     2.2770   -15.5490 
