~V
VERS. 2.00: Ver 2.00
~W
STRT.M 55.0000:
STOP.M 277.0000:
STEP.M 0.1250:
NULL. -999.2500:
UWI. F11037:
~C
DEPT.M :
SP.MV :
GR.API :
RML.OHMM :
RI. :
RXO.OHMM :
CALI.CM :
DEN.GM/CC :
~A
# ...
  268.7500    -6.1100    66.8350     7.8280     6.3720     6.1630    26.8280     2.0440 
  268.8750    -6.1540    66.8350     7.7860     6.3590     6.3100    27.3900     1.9180 
  269.0000    -6.2940    66.8350     7.7350     6.3480     6.6830    27.8520     1.8430 
  269.1250    -6.3410    66.8350     7.6460     6.3260     6.9110    28.1250     1.8420 
  269.2500    -6.3160    66.8350     7.5100     6.2750     6.6390    27.9420     1.8940 
  269.3750    -6.3050    66.8350     7.3420     6.1900     5.9230    27.2790     1.9830 
  269.5000    -6.2500    66.8350     7.1800     6.0840     5.4900    26.6740     2.0920 
  269.6250    -6.1930    66.8350     7.0690     5.9950     5.5450    26.7720     2.2010 
  269.7500    -6.1290    66.8350     7.0290     5.9540     5.7290    26.9710     2.2960 
  269.8750    -6.0610    66.8350     7.0670     5.9650     6.0200    26.6980     2.3630 
  270.0000    -5.9890    66.8350     7.1710     6.0090     6.4540    26.0750     2.3950 
  270.1250    -5.9560    66.8350     7.2940     6.0450     6.5320    25.9230     2.3850 
  270.2500    -5.9830    66.8350     7.3720     6.0420     6.6800    25.6650     2.3490 
  270.3750    -6.0280    66.8350     7.3820     6.0010     6.8460    25.0440     2.3010 
  270.5000    -6.0890    66.8350     7.3370     5.9440     7.1470    24.8900     2.2540 
  270.6250    -6.1150    66.8350     7.2810     5.9070     7.0190    26.1590     2.2200 
  270.7500    -6.2040    66.8350     7.2410     5.9110     6.8800    27.0580     2.1970 
  270.8750    -6.3110    66.8350     7.2050     5.9510     6.5970    27.2310     2.1770 
  271.0000    -6.4000    66.8350     7.1500     5.9940     6.4880    27.1280     2.1560 
  271.1250    -6.5570    66.8350     7.0610     5.9940     6.8970    27.1140     2.1450 
  271.2500    -6.6890    66.8350     6.9580     5.9470     7.6250    26.9500     2.1560 
  271.3750    -6.7800    66.8350     6.8680     5.8800     8.1630    26.6200     2.1890 
  271.5000    -6.8790    66.8350     6.8130     5.8250     8.2890    26.0200     2.2290 
  271.6250    -6.9510    66.8350     6.8040     5.8050     8.0100    25.3430     2.2530 
  271.7500    -6.9880    66.8350     6.8150     5.8040     7.6510    25.1750     2.2550 
  271.8750    -7.0300    66.8350     6.8300     5.8070     7.2910    25.4290     2.2480 
  272.0000    -7.0850    66.8350     6.8400     5.8070     7.1580    25.6720     2.2510 
  272.1250    -7.0820    66.8350     6.8430     5.8070     7.2360    25.5290     2.2800 
  272.2500    -7.0190    66.8350     6.8430     5.8070     7.0510    25.3600     2.3280 
  272.3750    -6.9200    66.8350     6.8430     5.8070     6.8260    25.3010     2.3770 
  272.5000    -6.8610    66.8350     6.8430     5.8070     6.7790    25.3130     2.4130 
  272.6250    -6.8290    66.8350     6.8430     5.8070     6.8270    25.3660     2.4220 
  272.7500    -6.7770    66.8350     6.8430     5.8070     7.0670    25.3260     2.4110 
  272.8750    -6.7050    66.8350     6.8430     5.8070     7.9380    25.2930     2.3880 
  273.0000    -6.6300    66.8350     6.8430     5.8070     8.9410    25.3310     2.3590 
  273.1250    -6.6820    66.8350     6.8430     5.8070     9.6210    25.2810     2.3360 
  273.2500    -6.7830    66.8350     6.8430     5.8070     9.4410    25.2450     2.3290 
  273.3750    -6.8840    66.8350     6.8430     5.8070     8.1290    25.3890     2.3490 
  273.5000    -7.1280    66.8350     6.8430     5.8070     6.8000    25.3580     2.3910 
  273.6250    -7.5920    66.8350     6.8430     5.8070     6.5590    25.0300     2.4430 
  273.7500    -8.0750    66.8350     6.8430     5.8070     7.0620    24.8520     2.4830 
  273.8750    -8.5570    66.8350     6.8430     5.8070     8.0110    24.8010     2.5020 
  274.0000    -9.0210    66.8350     6.8430     5.8070     8.6330    24.7970     2.4990 
  274.1250    -9.3800    66.8350     6.8430     5.8070     7.8900    24.8070     2.4740 
  274.2500    -9.7340    66.8350     6.8430     5.8070     7.1430    24.8210     2.4360 
  274.3750   -10.1660    66.8350     6.8430     5.8070     7.1560    24.9450     2.3910 
  274.5000   -10.2540    66.8350     6.8430     5.8070     7.4980    25.2120     2.3500 
  274.6250   -10.2540    66.8350     6.8430     5.8070     7.8970    25.5560     2.3250 
  274.7500  -999.2500    66.8350     6.8430     5.8070     8.1540    25.6090     2.3200 
  274.8750  -999.2500    66.8350     6.8430     5.8070     8.3520    25.2360     2.3260 
  275.0000  -999.2500    66.8350     6.8430     5.8070     8.5820    24.9080     2.3360 
  275.1250  -999.2500    66.8350     6.8430     5.8070     8.8750    24.7980     2.3390 
  275.2500  -999.2500    66.8350     6.8430     5.8070     8.4590    24.7650     2.3310 
  275.3750  -999.2500    66.8350     6.8430     5.8070     7.8550    24.7590     2.2990 
  275.5000  -999.2500    66.8350     6.8430     5.8070     7.1860    24.7080     2.2290 
  275.6250  -999.2500    66.8350     6.8430     5.8070     6.6780    24.3660     2.1090 
  275.7500  -999.2500    66.8350     6.8430     5.8070     6.1320    22.8370     2.0240 
  275.8750  -999.2500    66.8350     6.8430     5.8070     5.4950    19.8850     1.7550 
  276.0000  -999.2500    66.8350     6.8430     5.8070     4.9810    16.1670     1.3270 
  276.1250  -999.2500    66.8350     6.8430     5.8070     4.7660    13.8280     0.6310 
  276.2500  -999.2500    66.8350     6.8430     5.8070     4.7410    13.2510    -0.1650 
  276.3750  -999.2500    66.8350     6.8430     5.8070     4.7400    13.1990    -0.7800 
  276.5000  -999.2500    66.8350     6.8430     5.8070     4.7390    13.1950    -0.0350 
  276.6250  -999.2500    66.8350     6.8430     5.8070     4.7390    13.1930    -0.0350 
  276.7500  -999.2500    66.8350     6.8430     5.8070     4.7390    13.1920    -0.0350 
  276.8750  -999.2500    66.8350     6.8430     5.8070     4.7390    13.1920    -0.0350 
  277.0000  -999.2500    66.8350     6.8430     5.8070     4.7390    13.1920  -999.2500 
