~V
VERS. 2.00: Ver 2.00
~W
STRT.M 50.0000:
STOP.M 276.0000:
STEP.M 0.1250:
NULL. -999.2500:
UWI. F11044:
~C
DEPT.M :
SP.MV :
GR.API :
RML.OHMM :
RI. :
RXO.OHMM :
CALI.CM :
DEN.GM/CC :
~A
# ...
   83.7500    -8.9010    67.4620    10.0870     8.5440    10.0020    23.7680     2.1400 
   83.8750    -9.0820    66.4390    10.0970     8.5890     9.9700    23.8860     2.1320 
   84.0000    -9.3080    66.0670    10.0800     8.6010     9.7560    23.8980     2.1240 
   84.1250    -9.4780    67.9870    10.0440     8.5750     9.5420    23.7020     2.1210 
   84.2500    -9.7700    68.7960    10.0080     8.5260     9.3470    23.5260     2.1270 
   84.3750   -10.1290    67.3100     9.9840     8.4730     9.4960    23.4790     2.1390 
   84.5000   -10.4500    65.2140     9.9820     8.4350     9.9000    23.5070     2.1520 
   84.6250   -10.8220    63.9980    10.0080     8.4200    10.3410    23.5550     2.1600 
   84.7500   -11.1550    63.7920    10.0460     8.4120    10.6880    23.6040     2.1590 
   84.8750   -11.3440    64.2280    10.0700     8.3960    10.8620    23.6490     2.1520 
   85.0000   -11.4690    63.9220    10.0580     8.3570    10.6790    23.6730     2.1410 
   85.1250   -11.5460    62.0000     9.9880     8.2830    10.1830    23.6810     2.1320 
   85.2500   -11.5720    60.3110     9.8850     8.1910     9.8020    23.6870     2.1260 
   85.3750   -11.5740    59.6170     9.7910     8.1060     9.8800    23.7040     2.1250 
   85.5000   -11.5330    58.7940     9.7500     8.0600    10.1790    23.7360     2.1290 
   85.6250   -11.4320    58.2750     9.8090     8.0970    10.3040    23.7520     2.1390 
   85.7500   -11.3120    59.3080     9.9400     8.2070    10.3240    23.7680     2.1550 
   85.8750   -11.1730    61.8060    10.0920     8.3590    10.3420    23.7900     2.1720 
   86.0000   -11.0200    63.6480    10.1900     8.4970    10.3860    23.8020     2.1830 
   86.1250   -10.9210    63.4670    10.1320     8.5230    10.2200    23.8020     2.1830 
   86.2500   -10.7290    63.0030     9.9060     8.4000    10.0510    23.8160     2.1740 
   86.3750   -10.4930    62.4920     9.5420     8.1300    10.0830    23.8500     2.1630 
   86.5000   -10.3340    62.5110     9.1160     7.7690    10.1560    23.8750     2.1570 
   86.6250   -10.1230    64.6700     8.7390     7.4110     9.9500    23.8890     2.1580 
   86.7500    -9.8950    67.9210     8.4860     7.1360     9.2260    23.9230     2.1610 
   86.8750    -9.7830    69.7040     8.3870     6.9830     8.3280    23.9960     2.1620 
   87.0000    -9.7320    68.6360     8.4360     6.9560     8.0030    24.0570     2.1600 
   87.1250    -9.6430    67.2820     8.6120     7.0490     8.6350    24.0440     2.1580 
   87.2500    -9.6740    67.3760     8.8360     7.2000     8.9620    23.9440     2.1570 
   87.3750    -9.7480    68.2800     9.0370     7.3570     9.0870    23.8100     2.1550 
   87.5000    -9.7000    70.5310     9.1360     7.4560     9.1430    23.7110     2.1510 
   87.6250    -9.6530    73.4160     9.0280     7.4000     9.2200    23.6160     2.1430 
   87.7500    -9.5680    75.1080     8.7190     7.1730     9.0560    23.5260     2.1400 
   87.8750    -9.3680    77.0840     8.2640     6.8080     8.8620    23.4540     2.1440 
   88.0000    -9.1290    82.8170     7.7740     6.3880     8.4200    23.4100     2.1560 
   88.1250    -8.8790    89.1520     7.4260     6.0350     7.9550    23.3860     2.1660 
   88.2500    -8.6190    89.0130     7.3380     5.8370     7.5560    23.4070     2.1650 
   88.3750    -8.3740    83.2790     7.5850     5.8540     7.7490    23.4820     2.1470 
   88.5000    -8.1930    77.9990     8.1890     6.1320     8.5200    23.6000     2.1210 
   88.6250    -8.0710    75.9620     9.1380     6.7330     9.2240    23.7150     2.1090 
   88.7500    -7.9940    73.4340    10.2130     7.5650     9.4330    23.8430     2.1270 
   88.8750    -7.9600    69.5290    11.1870     8.4930     9.2550    23.9350     2.1740 
   89.0000    -7.9430    68.3790    11.8140     9.2960     9.0930    23.9210     2.2330 
   89.1250    -7.9060    72.6430    11.8310     9.6510     9.1840    23.8250     2.2730 
   89.2500    -7.7470    77.4680    11.3430     9.5100     9.3450    23.7840     2.2790 
   89.3750    -7.5350    77.9720    10.5260     8.9670     9.4560    23.8120     2.2580 
   89.5000    -7.2690    74.3610     9.6030     8.2230     9.3580    23.8230     2.2270 
   89.6250    -6.8170    72.4510     8.7750     7.4790     9.1020    23.7920     2.2100 
   89.7500    -6.3750    76.0920     8.0960     6.8320     8.7120    23.7960     2.2110 
   89.8750    -5.9370    84.9810     7.5550     6.2960     8.1930    23.8980     2.2220 
   90.0000    -5.4670    95.0910     7.1390     5.8680     7.5520    24.0600     2.2320 
   90.1250    -5.1920   100.6390     6.8980     5.5800     7.2750    24.2770     2.2320 
   90.2500    -5.1470   100.1160     6.8550     5.4400     6.8200    24.4690     2.2230 
   90.3750    -5.2370    94.3760     7.0320     5.4710     6.5070    24.4680     2.2100 
   90.5000    -5.5320    85.9330     7.4040     5.6780     7.0410    24.1220     2.1970 
   90.6250    -6.0800    80.2000     7.9060     6.0500     8.1380    23.7490     2.1840 
   90.7500    -6.6440    78.6340     8.4170     6.4970     8.6910    23.5860     2.1710 
   90.8750    -7.2560    79.9140     8.8580     6.9550     8.9700    23.6400     2.1560 
   91.0000    -7.8340    80.9200     9.1740     7.3570     9.1720    23.7770     2.1400 
   91.1250    -8.1400    80.5420     9.2890     7.6150     9.5320    23.8760     2.1250 
   91.2500    -8.2120    79.5760     9.1970     7.6990     9.7840    23.9730     2.1190 
   91.3750    -8.0100    78.1520     8.8910     7.5820     9.9110    24.0920     2.1260 
   91.5000    -7.5450    79.2250     8.3960     7.2650     9.7150    24.2460     2.1510 
   91.6250    -6.8880    85.0500     7.7810     6.7810     8.7780    24.4340     2.1900 
   91.7500    -6.1570    91.0330     7.1830     6.2610     7.4820    24.6530     2.2300 
   91.8750    -5.4110    92.9230     6.7000     5.7960     6.8500    24.8170     2.2600 
   92.0000    -4.7040    92.2590     6.3900     5.4470     6.7070    24.8960     2.2760 
   92.1250    -4.1660    94.8300     6.2650     5.2530     6.6740    24.9090     2.2790 
   92.2500    -3.8130    97.9350     6.2210     5.1550     6.4500    24.8840     2.2780 
   92.3750    -3.6480    97.5690     6.1760     5.1010     6.3130    24.7580     2.2780 
   92.5000    -3.5760    93.9040     6.0890     5.0460     6.4300    24.4890     2.2790 
   92.6250    -3.6320    92.0140     5.9930     4.9870     6.5970    24.2370     2.2790 
   92.7500    -3.8870    93.7740     5.9830     4.9680     6.4750    24.2830     2.2720 
   92.8750    -4.2190    95.0460     6.1380     5.0420     5.9130    24.5330     2.2580 
   93.0000    -4.6590    91.3340     6.4840     5.2490     5.9030    24.5880     2.2410 
   93.1250    -5.1450    83.7840     6.9850     5.6110     7.0060    24.2440     2.2290 
   93.2500    -5.4510    79.6730     7.4830     6.0440     8.0800    24.0020     2.2250 
   93.3750    -5.6130    80.4070     7.8440     6.4410     8.4090    24.0050     2.2300 
   93.5000    -5.8010    82.2330     7.9890     6.6910     8.1450    24.1460     2.2370 
   93.6250    -5.9630    82.4820     7.9100     6.7190     7.7730    24.3030     2.2430 
   93.7500    -6.0410    82.9510     7.7690     6.6270     7.5610    24.4440     2.2430 
   93.8750    -6.1490    85.4470     7.6930     6.5280     7.4450    24.5410     2.2380 
   94.0000    -6.1860    87.5720     7.7470     6.5060     7.5420    24.4440     2.2300 
   94.1250    -6.1130    85.3820     7.9040     6.5880     7.8950    24.1440     2.2250 
   94.2500    -6.0960    81.6210     8.0230     6.6900     8.1420    23.9530     2.2270 
   94.3750    -6.0830    80.6990     7.9950     6.7140     8.2920    23.8850     2.2390 
   94.5000    -5.9800    85.3960     7.7890     6.5860     8.4740    23.9130     2.2580 
   94.6250    -5.8520    91.8250     7.4960     6.3060     8.0260    24.1200     2.2800 
   94.7500    -5.6370    95.9600     7.3240     6.0350     7.3860    24.4720     2.2950 
   94.8750    -5.3260    97.7090     7.4240     5.9210     7.0190    24.7370     2.2970 
