~V
VERS. 2.00: Ver 2.00
~W
STRT.M 51.0000:
STOP.M 282.0000:
STEP.M 0.1250:
NULL. -999.2500:
UWI. F11065:
~C
DEPT.M :
GR.API :
RML.OHMM :
RI. :
RXO.OHMM :
CALI.CM :
DEN.GM/CC :
SP.MV :
~A
# ...
   96.0000    73.1110     9.4010     7.2670     9.2330    24.1430     2.1850   -14.9350 
   96.1250    77.6890     9.1760     6.9580     9.0020    24.2170     2.2120   -14.5670 
   96.2500    81.2930     8.9810     6.7270     8.0710    24.2950     2.2320   -14.2170 
   96.3750    83.2950     8.9050     6.6840     7.2000    24.3460     2.2380   -13.9700 
   96.5000    83.9850     8.9570     6.8310     7.3160    24.3010     2.2320   -13.8070 
   96.6250    82.9520     9.1060     7.1350     8.1610    24.1410     2.2200   -13.7180 
   96.7500    78.5490     9.2880     7.5290     9.4680    23.9080     2.2070   -13.7480 
   96.8750    71.7750     9.4380     7.9080    10.0770    23.6980     2.1950   -13.9780 
   97.0000    66.4250     9.5500     8.1910    10.0700    23.5300     2.1850   -14.3590 
   97.1250    63.7230     9.6350     8.3510    10.1870    23.4280     2.1750   -14.8040 
   97.2500    63.1790     9.6830     8.3930    10.3630    23.4410     2.1630   -15.2340 
   97.3750    61.7150     9.6300     8.3270    11.0360    23.5490     2.1490   -15.5810 
   97.5000    61.6430     9.4460     8.1940    11.5720    23.6880     2.1370   -15.8410 
   97.6250    65.7640     9.1590     8.0170    11.5850    23.8220     2.1300   -16.0790 
   97.7500    72.5750     8.8720     7.8290    10.7560    23.9380     2.1300   -16.2760 
   97.8750    75.1040     8.7670     7.6900     9.5020    24.0490     2.1350   -16.3780 
   98.0000    71.6770     8.9030     7.6590     9.2140    24.1590     2.1390   -16.4450 
   98.1250    66.8300     9.2210     7.7570     9.4430    24.2840     2.1380   -16.3560 
   98.2500    64.9340     9.5450     7.9250     9.5780    24.4330     2.1340   -16.1460 
   98.3750    66.7920     9.5810     7.9830    10.0060    24.6170     2.1380   -15.7690 
   98.5000    71.6060     9.2160     7.7770    10.4370    24.7940     2.1590   -15.1940 
   98.6250    79.8200     8.4920     7.2760     9.8610    24.9420     2.2020   -14.4900 
   98.7500    91.3920     7.5930     6.5860     7.9890    25.1490     2.2570   -13.6870 
   98.8750   102.5460     6.7830     5.9200     6.2940    25.3240     2.3030   -12.9100 
   99.0000   106.8710     6.2060     5.4280     6.2100    25.3890     2.3260   -12.1490 
   99.1250   102.4950     5.8660     5.1410     6.3470    25.3890     2.3270   -11.4800 
   99.2500    95.7690     5.6820     5.0140     6.2360    25.3620     2.3190   -10.9680 
   99.3750    94.5270     5.5420     4.9530     6.0050    25.3570     2.3180   -10.6010 
   99.5000    96.7210     5.3830     4.8510     5.6140    25.3740     2.3330   -10.4040 
   99.6250    98.8260     5.2320     4.6890     5.2820    25.3910     2.3590   -10.3780 
   99.7500    99.8070     5.1510     4.5250     4.9470    25.3930     2.3850   -10.4630 
   99.8750    98.8830     5.2200     4.4730     4.6860    25.3870     2.3950   -10.6290 
  100.0000    95.3350     5.4190     4.5760     4.8610    25.4070     2.3880   -10.8200 
  100.1250    89.5490     5.6880     4.8250     5.5240    25.4220     2.3680   -11.0390 
  100.2500    84.4520     5.9160     5.1380     6.2170    25.3590     2.3450   -11.3130 
  100.3750    82.6420     5.9470     5.3320     6.6630    25.1080     2.3300   -11.6860 
  100.5000    83.4230     5.7730     5.2830     6.6310    24.8020     2.3220   -12.1550 
  100.6250    86.2010     5.5040     5.0160     6.1940    24.6470     2.3190   -12.6740 
  100.7500    90.6120     5.3590     4.7100     5.8460    24.7240     2.3220   -13.3230 
  100.8750    92.5940     5.6700     4.6500     5.6170    25.0400     2.3410   -14.1550 
  101.0000    88.8270     6.5330     4.9700     6.1630    25.4040     2.3820   -15.1790 
  101.1250    83.6280     7.9190     5.7210     9.4430    25.6080     2.4390   -16.4560 
  101.2500    80.6900     9.6150     6.8620    16.8870    25.5560     2.4910   -17.8600 
  101.3750    78.1450    11.1940     8.2110    18.7240    25.2340     2.4990   -19.4350 
  101.5000    74.6400    12.2720     9.3860    13.5760    24.8940     2.4530   -21.1090 
  101.6250    71.7450    12.7130    10.1400    11.0110    24.7280     2.3690   -22.8980 
  101.7500    69.7020    12.6160    10.4390    11.5190    24.7630     2.2760   -24.6720 
  101.8750    68.1490    12.1910    10.4020    15.2210    24.8720     2.2130   -26.1700 
  102.0000    69.0910    11.6730    10.2340    18.9870    24.8590     2.1830   -27.4520 
  102.1250    71.8080    11.1160     9.9780    16.0090    24.7390     2.1770   -28.4020 
  102.2500    72.5550    10.5420     9.6190    11.7020    24.6120     2.1810   -29.1230 
  102.3750    69.9990    10.0240     9.1630    10.0990    24.4950     2.1830   -29.6480 
  102.5000    67.8570     9.6300     8.7090     9.7970    24.3760     2.1820   -30.0170 
  102.6250    68.2160     9.3910     8.3500     9.7510    24.2690     2.1810   -30.2740 
  102.7500    72.1760     9.2930     8.1430     9.5980    24.1610     2.1810   -30.4730 
  102.8750    75.2810     9.3140     8.1180     9.7180    24.0920     2.1810   -30.7150 
  103.0000    73.4290     9.3950     8.1920     9.6370    24.0220     2.1780   -31.0340 
  103.1250    69.4950     9.4960     8.2930     9.3890    23.9740     2.1740   -31.4640 
  103.2500    68.2650     9.5690     8.3610     9.1570    23.9530     2.1710   -31.9830 
  103.3750    70.7700     9.5540     8.3540     9.3000    23.9180     2.1720   -32.5780 
  103.5000    71.9460     9.4550     8.2960     9.6950    23.8750     2.1750   -33.2280 
  103.6250    71.0350     9.3020     8.2090     9.7020    23.8520     2.1790   -33.9060 
  103.7500    70.7780     9.1310     8.1040     9.4520    23.8530     2.1790   -34.5720 
  103.8750    72.4050     8.9600     7.9710     8.9340    23.8620     2.1770   -35.1720 
  104.0000    73.7440     8.7770     7.8030     8.6560    23.8570     2.1730   -35.4080 
  104.1250    73.1910     8.5710     7.6000     8.3300    23.7940     2.1690   -35.0560 
  104.2500    70.2340     8.3650     7.3840     7.8790    23.6900     2.1660   -33.8080 
  104.3750    67.3800     8.2490     7.2350     7.6140    23.6660     2.1590   -31.2400 
  104.5000    66.3350     8.2970     7.2220     7.5400    23.6360     2.1540   -27.9180 
  104.6250    66.8560     8.5400     7.3740     7.8280    23.6330     2.1630   -24.2390 
  104.7500    68.1880     8.9340     7.6640     8.8090    23.7350     2.1940   -20.4740 
  104.8750    69.1820     9.3520     7.9980    12.2280    24.0730     2.2420   -16.7510 
  105.0000    69.3480     9.6400     8.2360    17.6500    24.3640     2.2820   -13.3600 
  105.1250    69.3720     9.7220     8.3020    17.9070    24.3830     2.2960   -10.5710 
  105.2500    69.5270     9.6150     8.2090    11.5840    24.2070     2.2770    -8.5890 
  105.3750    70.1480     9.4220     8.0440     9.8640    24.0920     2.2390    -7.8290 
  105.5000    70.1420     9.2870     7.9190    10.1170    24.0320     2.2050    -7.7500 
  105.6250    68.3750     9.2750     7.8880    10.8310    24.0200     2.1860    -7.9210 
  105.7500    64.3090     9.4020     7.9620    11.1620    24.1420     2.1810    -8.2070 
  105.8750    62.4660     9.6580     8.1190    11.1090    24.2640     2.1820    -8.5070 
  106.0000    64.6870     9.9750     8.2940    11.5690    24.3970     2.1790    -8.7920 
  106.1250    68.2580    10.3050     8.4440    11.6960    24.5280     2.1700    -9.0450 
  106.2500    70.6630    10.5920     8.5280    11.2790    24.5870     2.1560    -9.3100 
  106.3750    71.7240    10.7250     8.5000    10.9070    24.5490     2.1430    -9.6320 
  106.5000    70.9310    10.6230     8.3880    10.3800    24.4960     2.1340   -10.0220 
  106.6250    68.1670    10.2350     8.2250     9.7460    24.5320     2.1310   -10.3840 
  106.7500    66.7760     9.6050     8.0330     9.4680    24.5910     2.1330   -10.6540 
  106.8750    69.0710     8.9180     7.8500     9.2720    24.5930     2.1400   -10.8250 
  107.0000    69.9320     8.4360     7.7270     9.4990    24.5510     2.1500   -10.8760 
  107.1250    67.3040     8.3090     7.7050    10.0320    24.4960     2.1610   -10.8340 
