~V
VERS. 2.00: Ver 2.00
~W
STRT.M 60.0000:
STOP.M 274.0000:
STEP.M 0.1250:
NULL. -999.2500:
UWI. F11079:
~C
DEPT.M :
GR.API :
RML.OHMM :
RI. :
RXO.OHMM :
CALI.CM :
DEN.GM/CC :
SP.MV :
~A
# ...
  183.7500    94.5820     6.2850     4.8290     5.7380    24.0580     2.3320     1.5290 
  183.8750    97.9200     6.1380     4.7410     5.5860    24.0760     2.3210     1.5270 
  184.0000    98.1990     5.9630     4.6290     5.3840    24.1250     2.3130     1.5500 
  184.1250    97.9600     5.8050     4.5110     5.3230    24.1330     2.3100     1.6220 
  184.2500   101.7140     5.6890     4.4070     5.3210    24.1040     2.3080     1.7320 
  184.3750   107.1250     5.6260     4.3320     5.3130    24.0660     2.3030     1.8410 
  184.5000   108.0180     5.6220     4.2910     5.2680    24.0510     2.2980     1.9070 
  184.6250   103.6210     5.6780     4.2960     5.1890    24.0530     2.2980     1.9070 
  184.7500   100.3260     5.7710     4.3390     5.1900    24.0730     2.3030     1.8910 
  184.8750   100.8570     5.8790     4.4140     5.3090    24.1160     2.3080     1.8840 
  185.0000   102.0590     5.9870     4.5150     5.5150    24.1380     2.3090     1.8930 
  185.1250   100.4630     6.0810     4.6250     5.7280    24.1150     2.3090     1.8860 
  185.2500    96.4360     6.1500     4.7190     5.8350    24.0770     2.3100     1.8710 
  185.3750    92.9950     6.1790     4.7770     5.7350    24.0800     2.3130     1.8590 
  185.5000    93.5040     6.1630     4.7930     5.7350    24.1250     2.3130     1.8540 
  185.6250    98.2610     6.1240     4.7820     6.0850    24.1460     2.3110     1.8640 
  185.7500   103.2470     6.1330     4.7910     6.3410    24.1350     2.3110     1.8620 
  185.8750   105.6610     6.2640     4.8660     6.0850    24.0980     2.3140     1.8510 
  186.0000   102.8960     6.5740     5.0500     5.7390    24.0840     2.3170     1.8340 
  186.1250    94.4280     7.0870     5.3740     6.2010    24.1140     2.3110     1.8240 
  186.2500    87.5500     7.6580     5.7690     7.2230    24.1440     2.2980     1.8080 
  186.3750    88.2680     8.1040     6.1250     8.1280    24.1530     2.2830     1.7560 
  186.5000    93.1960     8.2580     6.3170     8.1150    24.1610     2.2760     1.6660 
  186.6250    94.7170     8.0890     6.2800     7.6770    24.1880     2.2810     1.5320 
  186.7500    93.9390     7.8980     6.1830     7.3080    24.2400     2.2940     1.3970 
  186.8750    94.7680     7.9760     6.2180     6.9290    24.2610     2.3080     1.2800 
  187.0000    94.0560     8.5400     6.5510     7.2720    24.2600     2.3200     1.1760 
  187.1250    86.7090     9.6900     7.3330    10.0210    24.2710     2.3230     1.0440 
  187.2500    81.4660    11.0400     8.3910    14.1960    24.2750     2.3180     0.8880 
  187.3750    82.0650    12.0860     9.4020    14.9660    24.2680     2.3090     0.7360 
  187.5000    83.0870    12.3340     9.9400    12.7300    24.2550     2.3080     0.5880 
  187.6250    82.2480    11.5460     9.6480    10.4860    24.2430     2.3270     0.4390 
  187.7500    84.6800    10.3400     8.8820     8.8800    24.2610     2.3610     0.2870 
  187.8750    89.9320     9.2580     8.0500     7.7000    24.2910     2.3980     0.1220 
  188.0000    91.3440     8.6250     7.4580     7.2600    24.3100     2.4250    -0.0490 
  188.1250    86.5280     8.5340     7.2570     7.9060    24.2920     2.4280    -0.2150 
  188.2500    81.7150     8.7270     7.3050     7.7100    24.2820     2.4190    -0.3950 
  188.3750    79.6610     9.0030     7.4700     7.1080    24.2710     2.4120    -0.6030 
  188.5000    82.4550     9.1900     7.6230     6.7730    24.2440     2.4090    -0.8330 
  188.6250    89.4730     9.1960     7.6760     6.6290    24.2180     2.4040    -1.0680 
  188.7500    95.7810     9.1320     7.6810     6.7040    24.1820     2.3960    -1.3280 
  188.8750    98.1380     9.1310     7.7270     6.8540    24.1490     2.3920    -1.6200 
  189.0000    95.4000     9.2800     7.8880     7.1210    24.1200     2.4000    -1.9460 
  189.1250    89.4200     9.6400     8.2140     7.4560    24.0730     2.4160    -2.2820 
  189.2500    85.8610    10.1790     8.6770     8.0270    24.0210     2.4300    -2.5940 
  189.3750    87.2830    10.8920     9.2670     9.1650    24.0150     2.4320    -2.8650 
  189.5000    90.7720    11.7590     9.9670    10.3130    24.0740     2.4200    -3.1020 
  189.6250    92.1870    12.6990    10.7310    11.4480    24.1090     2.3980    -3.3330 
  189.7500    91.0380    13.5160    11.4290    13.1030    24.1470     2.3790    -3.5390 
  189.8750    88.5220    13.9990    11.9050    15.0250    24.2050     2.3640    -3.6820 
  190.0000    86.2980    14.0090    12.0340    15.4640    24.2610     2.3530    -3.7690 
  190.1250    87.1340    13.5430    11.7660    14.3140    24.2800     2.3470    -3.8540 
  190.2500    89.3710    12.9660    11.3540    12.0920    24.2720     2.3500    -3.9750 
  190.3750    89.6360    12.6030    11.0470    11.0750    24.2390     2.3620    -4.1470 
  190.5000    86.9730    12.6930    11.0600    11.5860    24.1330     2.3750    -4.3450 
  190.6250    82.5770    13.3540    11.5720    13.0940    23.9840     2.3810    -4.5520 
  190.7500    80.2630    14.3010    12.4380    14.5940    23.8170     2.3790    -4.7400 
  190.8750    81.9180    15.2260    13.4430    17.0180    23.7810     2.3730    -4.9240 
  191.0000    85.7390    15.8310    14.3080    18.5060    23.9060     2.3620    -5.1110 
  191.1250    86.9650    15.8850    14.7360    19.6430    24.1050     2.3520    -5.2790 
  191.2500    84.0930    15.5550    14.7560    16.5090    24.1310     2.3470    -5.4230 
  191.3750    80.7010    15.0140    14.4810    14.3910    23.9600     2.3450    -5.5300 
  191.5000    80.0190    14.3940    14.0390    15.4030    23.8260     2.3490    -5.6130 
  191.6250    83.8230    13.7250    13.4910    17.1340    23.7980     2.3640    -5.6740 
  191.7500    89.6920    13.0020    12.8690    15.0470    23.8050     2.3850    -5.7580 
  191.8750    97.2340    12.2460    12.1930    12.1350    23.8150     2.4050    -5.8560 
  192.0000   104.1190    11.5440    11.5360    10.6490    23.8330     2.4190    -5.9510 
  192.1250   106.2840    11.1230    11.0810    10.4570    23.8410     2.4220    -6.0650 
  192.2500   103.0520    11.1220    10.9610    10.6410    23.8370     2.4190    -6.2030 
  192.3750    97.5370    11.6250    11.2740    11.1020    23.8210     2.4100    -6.3820 
  192.5000    93.7370    12.6280    12.0580    12.5090    23.8090     2.3940    -6.6010 
  192.6250    91.9090    14.1520    13.3890    15.7190    23.8070     2.3740    -6.8380 
  192.7500    89.3890    16.0680    15.1800    19.7720    23.8210     2.3530    -7.0600 
  192.8750    86.8630    18.4030    17.4520    22.2060    23.8620     2.3380    -7.2860 
  193.0000    86.0250    21.3460    20.3210    23.9910    23.9100     2.3330    -7.5250 
  193.1250    85.7440    25.5100    24.3080    27.8890    23.9500     2.3320    -7.7720 
  193.2500    82.7790    34.2090    29.7540    34.6720    23.9680     2.3270    -8.0140 
  193.3750    78.9860    45.3640    36.9340    47.7580    23.9910     2.3170    -8.2420 
  193.5000    77.7760    55.3930    45.6330    68.3340    24.0340     2.3040    -8.4610 
  193.6250    76.9020    65.3300    54.7150    73.2570    24.0670     2.2920    -8.7040 
  193.7500    73.7510    73.1990    62.3500    69.7810    24.0840     2.2820    -8.9500 
  193.8750    70.3500    78.2940    67.6670    68.2490    24.0960     2.2750    -9.1690 
  194.0000    70.3850    81.7660    71.3190    70.3580    24.1180     2.2730    -9.3660 
  194.1250    74.0440    86.2590    75.3880    76.3740    24.1310     2.2710    -9.5590 
  194.2500    73.9710    93.5420    81.6460    92.1400    24.1410     2.2650    -9.7430 
  194.3750    69.7340   104.1120    90.7580    96.5030    24.1470     2.2540    -9.9170 
  194.5000    65.6350   117.3120   102.3880    98.4090    24.1460     2.2430   -10.0770 
  194.6250    64.3530   130.9490   114.9810    99.0030    24.1370     2.2380   -10.2050 
  194.7500    64.1410   142.6550   126.3800   105.1610    24.1270     2.2400   -10.3040 
  194.8750    65.3200   152.5190   136.2310   107.4990    24.1270     2.2460   -10.3790 
