~V
VERS. 2.00: Ver 2.00
~W
STRT.M 7.0000:
STOP.M 259.0000:
STEP.M 0.1250:
NULL. -999.2500:
UWI. F11018:
~C
DEPT.M :
DEN.GM/CC :
SP.MV :
GR.API :
RML.OHMM :
RI. :
RXO.OHMM :
CALI.CM :
~A
# ...
  153.2500     2.3590    -7.1030    97.9540     5.9770     5.1840     5.7120    24.3920 
  153.3750     2.3660    -7.0450    98.5330     5.8750     5.1660     6.0050    24.3890 
  153.5000     2.3740    -6.9440   100.2310     5.6660     5.0610     6.0870    24.3490 
  153.6250     2.3830    -6.8670   101.0420     5.3660     4.8610     5.7940    24.2730 
  153.7500     2.3900    -6.8180   101.0210     5.0290     4.5910     5.3760    24.1740 
  153.8750     2.3970    -6.7690   101.5560     4.7190     4.2990     5.2560    24.2270 
  154.0000     2.4040    -6.7460   102.1670     4.4920     4.0420     5.2230    24.2860 
  154.1250     2.4090    -6.7200    99.7880     4.3470     3.8480     4.8320    24.2920 
  154.2500     2.4100    -6.6340    95.0990     4.2920     3.7340     4.6110    24.2250 
  154.3750     2.4070    -6.5730    91.7650     4.3540     3.7150     4.5180    24.1760 
  154.5000     2.4020    -6.5690    90.6510     4.6090     3.8390     4.5400    24.2530 
  154.6250     2.3920    -6.5320    89.4720     5.0630     4.1140     4.9330    24.3360 
  154.7500     2.3730    -6.4860    88.7710     5.6920     4.5380     5.9470    24.3540 
  154.8750     2.3510    -6.4620    88.9190     6.4150     5.0720     7.2920    24.2500 
  155.0000     2.3430    -6.4580    86.2690     7.1240     5.6570     8.4060    24.0960 
  155.1250     2.3480    -6.4700    81.7870     7.8170     6.2610     9.2980    24.0340 
  155.2500     2.3540    -6.5190    80.3560     8.6440     6.9490     9.2500    24.1620 
  155.3750     2.3510    -6.5890    80.9290     9.8720     7.8910     8.9520    24.2310 
  155.5000     2.3460    -6.6250    74.9420    11.9410     9.4410    10.4300    24.2040 
  155.6250     2.3480    -6.6890    66.8310    14.9430    11.7540    15.4980    24.2010 
  155.7500     2.3510    -6.7710    63.4690    18.8220    14.8810    24.7840    24.2460 
  155.8750     2.3410    -6.8080    63.6520    23.1210    18.5510    36.4940    24.3660 
  156.0000     2.3070    -6.8230    64.7960    26.6480    21.9180    39.3890    24.4780 
  156.1250     2.2670    -6.8590    67.7410    28.6310    24.2030    38.5280    24.5630 
  156.2500     2.2350    -6.8860    71.2860    29.2920    25.3250    37.0600    24.5590 
  156.3750     2.2170    -6.8860    70.6850    29.4330    25.7620    35.1630    24.4870 
  156.5000     2.2080    -6.9070    65.7020    29.7120    26.0710    33.4090    24.3490 
  156.6250     2.2020    -6.9220    62.8590    30.2360    26.5310    32.2860    24.2150 
  156.7500     2.2010    -6.8910    63.9490    30.8360    27.0990    31.5510    24.0910 
  156.8750     2.2040    -6.8970    67.0690    31.2100    27.5560    31.1470    23.9540 
  157.0000     2.2060    -6.9030    69.4030    30.9100    27.5030    31.0000    23.8970 
  157.1250     2.2050    -6.8600    70.3670    29.7880    26.7700    30.7400    23.9100 
  157.2500     2.2040    -6.8310    69.6740    27.8160    25.2910    29.0550    23.8980 
  157.3750     2.2090    -6.8110    69.9760    25.3010    23.2400    25.3160    23.7590 
  157.5000     2.2200    -6.7540    73.8660    23.0250    21.1600    20.8730    23.4390 
  157.6250     2.2270    -6.6910    76.8850    21.6750    19.6830    18.6010    22.9590 
  157.7500     2.2280    -6.6740    76.0540    21.6100    19.2020    16.9140    22.4570 
  157.8750     2.2260    -6.6080    72.3130    23.0060    19.9830    15.7050    22.1650 
  158.0000     2.2280    -6.5120    67.4580    26.1810    22.4440    18.5690    22.0120 
  158.1250     2.2340    -6.4490    60.7830    30.6190    26.2330    23.7900    21.9500 
  158.2500     2.2450    -6.3770    55.2470    35.2540    30.6350    27.4330    21.9130 
  158.3750     2.2590    -6.2720    55.2980    37.7440    33.9750    25.9750    21.7700 
  158.5000     2.2730    -6.1620    59.4370    34.7180    33.2150    21.4950    21.3220 
  158.6250     2.2870    -6.0610    61.4220    28.1450    28.6040    17.2700    20.7570 
  158.7500     2.3050    -5.9830    60.5020    21.3660    22.4770    14.2650    20.4740 
  158.8750     2.3230    -5.9350    60.1830    16.3510    17.1640    11.3740    20.6300 
  159.0000     2.3300    -5.9070    63.2430    13.6410    13.8430     9.2870    21.1310 
  159.1250     2.3200    -5.9130    67.7220    12.3830    12.0200    10.0000    21.8020 
  159.2500     2.3040    -5.9140    71.7440    12.0010    11.2220    14.6090    22.7220 
  159.3750     2.2940    -5.9280    73.7680    11.9110    10.9470    18.5510    23.6550 
  159.5000     2.2930    -5.9950    73.3060    11.4980    10.6760    16.5700    24.1250 
  159.6250     2.2960    -6.0560    74.4610    10.5900    10.0860    12.9680    24.1900 
  159.7500     2.3010    -6.0840    78.9410     9.4160     9.2080     9.7520    23.9650 
  159.8750     2.3020    -6.1340    82.1820     8.3440     8.2730     7.8660    23.5380 
  160.0000     2.3020    -6.1400    80.7200     7.6320     7.5390     7.2450    23.1100 
  160.1250     2.3060    -6.1030    78.3830     7.1710     7.0250     6.9450    22.7930 
  160.2500     2.3150    -6.0890    77.4540     6.8250     6.6510     6.7240    22.6600 
  160.3750     2.3250    -6.0600    77.9840     6.4990     6.3270     6.6140    22.6320 
  160.5000     2.3320    -5.9750    80.5280     6.1600     5.9970     6.5870    22.6400 
  160.6250     2.3390    -5.8800    83.0590     5.8280     5.6640     6.7680    22.6670 
  160.7500     2.3430    -5.7890    83.7560     5.5390     5.3580     6.7920    22.7360 
  160.8750     2.3430    -5.6560    84.3500     5.3350     5.1190     6.5580    22.8860 
  161.0000     2.3370    -5.5450    88.7300     5.2760     5.0060     6.2440    23.1140 
  161.1250     2.3280    -5.4510    92.6520     5.3730     5.0340     5.9860    23.2740 
  161.2500     2.3160    -5.3170    92.1970     5.6590     5.2240     6.0630    23.3250 
  161.3750     2.3090    -5.1670    87.9230     6.1580     5.6010     6.6640    23.3860 
  161.5000     2.3080    -5.0300    84.8850     6.8730     6.1910     7.5620    23.6430 
  161.6250     2.3100    -4.9010    82.6740     7.6560     6.8920     8.0390    24.0810 
  161.7500     2.3180    -4.7410    77.6380     8.3100     7.5580     8.3750    24.4900 
  161.8750     2.3300    -4.5990    70.5990     8.6020     7.9840     8.9200    24.7270 
  162.0000     2.3410    -4.5070    68.5250     8.3150     7.9120     9.6400    24.8350 
  162.1250     2.3450    -4.3970    72.0040     7.6530     7.4300     8.6140    24.9620 
  162.2500     2.3440    -4.3090    76.6020     6.8790     6.7270     7.0330    25.1280 
  162.3750     2.3460    -4.3110    80.0800     6.2160     6.0200     5.9150    25.2510 
  162.5000     2.3540    -4.3940    83.2450     5.8100     5.4850     5.5820    25.1050 
  162.6250     2.3610    -4.5210    84.4940     5.6170     5.1410     5.6570    24.7520 
  162.7500     2.3650    -4.7430    84.3370     5.5980     4.9730     5.8050    24.4590 
  162.8750     2.3650    -5.0540    83.4390     5.7310     4.9590     5.9410    24.3970 
  163.0000     2.3600    -5.3810    83.7120     6.0690     5.1290     6.1520    24.4570 
  163.1250     2.3460    -5.7530    84.9590     6.6370     5.4860     6.6420    24.5030 
  163.2500     2.3160    -6.1930    85.0640     7.4920     6.0700     7.9590    24.4210 
  163.3750     2.2650    -6.6040    81.7390     8.6790     6.9210    10.9970    24.2140 
  163.5000     2.2090    -6.9760    74.8520    10.2370     8.1200    16.1410    24.0480 
  163.6250     2.1780    -7.3510    70.7520    11.9740     9.5680    19.1450    23.9520 
  163.7500     2.1820    -7.6530    70.0200    13.6190    11.0850    18.9650    23.9290 
  163.8750     2.2070    -7.8540    68.2980    14.8240    12.3670    19.1110    23.9410 
  164.0000     2.2360    -8.0290    64.1430    15.2390    13.0260    20.0180    23.9700 
  164.1250     2.2620    -8.1590    61.9390    15.0970    13.1370    20.6880    23.9990 
  164.2500     2.2860    -8.2010    65.2510    14.7450    12.9360    18.0600    24.0450 
  164.3750     2.2990    -8.2190    70.3310    14.5330    12.7110    13.6740    24.0890 
