~V
VERS. 2.00: Ver 2.00
~W
STRT.M 62.0000:
STOP.M 236.0000:
STEP.M 0.1250:
NULL. -999.2500:
UWI. F11006:
~C
DEPT.M :
GR.API :
RML.OHMM :
RI. :
RXO.OHMM :
CALI.CM :
SP.MV :
DEN.GM/CC :
~A
# ...
   73.2500    83.5340     7.9610     6.6620     8.8580    23.3410   -27.7180     2.1920 
   73.3750    88.5100     7.8270     6.5570     8.8590    23.4450   -27.9150     2.1960 
   73.5000    90.6900     7.7300     6.4600     8.8530    23.4990   -28.1830     2.2010 
   73.6250    87.4300     7.7070     6.4060     9.0990    23.3740   -28.5500     2.2040 
   73.7500    82.3610     7.7330     6.3920     9.3180    23.1680   -28.9810     2.2030 
   73.8750    78.9570     7.7700     6.3970     9.4060    22.9910   -29.4020     2.2000 
   74.0000    77.6730     7.7790     6.3950     9.2680    22.9260   -29.8040     2.1960 
   74.1250    77.7950     7.7400     6.3660     9.1920    22.9500   -30.1970     2.1930 
   74.2500    78.3580     7.6790     6.3200     9.2130    22.9960   -30.5160     2.1890 
   74.3750    79.2300     7.6290     6.2750     9.1540    23.0100   -30.7100     2.1810 
   74.5000    78.1520     7.6140     6.2550     8.9240    23.0070   -30.7780     2.1690 
   74.6250    75.2590     7.6440     6.2740     8.6880    23.0370   -30.7290     2.1580 
   74.7500    73.3900     7.6880     6.3150     8.8050    23.0430   -30.6250     2.1560 
   74.8750    73.0110     7.7070     6.3510     9.5600    23.0570   -30.4630     2.1650 
   75.0000    74.5400     7.6650     6.3480    10.9910    23.0670   -30.2210     2.1830 
   75.1250    77.5700     7.5300     6.2740    12.0170    22.9810   -29.8590     2.1970 
   75.2500    79.3440     7.3320     6.1460    10.7650    22.9140   -29.4130     2.1970 
   75.3750    78.8110     7.1170     6.0010     9.4640    22.8380   -28.9390     2.1870 
   75.5000    78.5200     6.9480     5.8820     8.6700    22.7700   -28.4390     2.1720 
   75.6250    81.4240     6.8910     5.8320     8.3430    22.7410   -27.8720     2.1650 
   75.7500    83.2120     6.9240     5.8350     8.3890    22.8120   -27.1510     2.1680 
   75.8750    83.0090     6.9810     5.8430     8.7330    22.9250   -26.2570     2.1760 
   76.0000    83.4720     6.9670     5.7910     8.8620    22.9570   -25.2030     2.1890 
   76.1250    88.8020     6.7740     5.6010     8.7590    22.9280   -23.9240     2.2030 
   76.2500    96.6020     6.4200     5.2860     8.2840    22.9520   -22.4820     2.2210 
   76.3750   104.1860     5.9760     4.8950     7.2410    23.1100   -20.9300     2.2390 
   76.5000   110.7020     5.5460     4.5070     5.8580    23.4540   -19.3770     2.2550 
   76.6250   114.6030     5.2640     4.2280     5.2490    23.8320   -18.0110     2.2650 
   76.7500   115.0200     5.1780     4.1040     5.1440    24.1140   -16.9930     2.2690 
   76.8750   111.4010     5.3240     4.1650     5.4050    24.0310   -16.4090     2.2710 
   77.0000   104.1790     5.7300     4.4330     6.1370    23.5560   -16.2180     2.2730 
   77.1250    96.4430     6.4680     4.9670     7.4920    23.0540   -16.4100     2.2750 
   77.2500    89.7130     7.4430     5.7280     8.0540    22.7800   -16.8560     2.2760 
   77.3750    83.4710     8.4870     6.6340     8.3810    22.7070   -17.3870     2.2770 
   77.5000    77.1460     9.3010     7.4800     8.8560    22.7890   -17.7820     2.2800 
   77.6250    74.3290     9.4230     7.8780    10.5410    23.0010   -17.7700     2.2870 
   77.7500    79.1640     8.8190     7.6800    12.4980    23.2720   -17.3010     2.2950 
   77.8750    92.3930     7.7090     6.9610    10.5350    23.5400   -16.4090     2.2960 
   78.0000   108.1390     6.5090     6.0020     6.3720    23.8590   -15.2760     2.2850 
   78.1250   115.8480     5.6820     5.1680     4.7750    24.1820   -14.1460     2.2600 
   78.2500   114.2300     5.3360     4.6410     4.3840    24.4280   -13.1510     2.2300 
   78.3750   108.3260     5.4140     4.4490     4.5820    24.2920   -12.4540     2.2020 
   78.5000   103.5520     5.7700     4.5370     5.2760    23.6590   -12.1800     2.1800 
   78.6250    99.4610     6.2170     4.8150     6.1390    22.7910   -12.4460     2.1700 
   78.7500    94.3730     6.5850     5.1240     6.5500    22.2960   -13.1870     2.1690 
   78.8750    89.6020     6.8180     5.3770     6.7230    22.1030   -14.2780     2.1750 
   79.0000    86.8630     6.9280     5.5380     6.7940    22.0940   -15.4940     2.1840 
   79.1250    87.6740     6.9670     5.6080     6.8150    22.1870   -16.7240     2.1920 
   79.2500    87.9600     7.0010     5.6450     6.9570    22.2730   -17.9580     2.1950 
   79.3750    84.6470     7.0580     5.6840     7.1390    22.3110   -19.1000     2.1910 
   79.5000    81.1230     7.1500     5.7460     7.3230    22.3190   -20.0950     2.1820 
   79.6250    82.4040     7.2910     5.8340     7.4820    22.3290   -20.8640     2.1710 
   79.7500    84.7770     7.4700     5.9400     7.6580    22.3380   -21.4030     2.1650 
   79.8750    84.5700     7.6720     6.0560     7.9570    22.4260   -21.7770     2.1640 
   80.0000    84.1650     7.8740     6.1750     8.2250    22.6350   -22.0880     2.1680 
   80.1250    86.1470     8.0380     6.2850     8.3280    22.8500   -22.3210     2.1730 
   80.2500    87.1500     8.1280     6.3630     8.3650    22.9890   -22.3480     2.1760 
   80.3750    85.9850     8.1040     6.3750     8.4300    23.0980   -22.1680     2.1780 
   80.5000    85.7370     7.9250     6.2840     8.4130    23.1910   -21.7930     2.1830 
   80.6250    86.8650     7.5630     6.0450     8.1420    23.2000   -21.1890     2.1930 
   80.7500    87.7390     7.1060     5.7040     7.5930    23.0670   -20.4280     2.2090 
   80.8750    90.8040     6.6640     5.3240     6.6770    23.0140   -19.5660     2.2260 
   81.0000    97.8870     6.3540     4.9930     5.4740    23.3110   -18.7620     2.2390 
   81.1250   105.2480     6.3000     4.8210     5.0900    23.6870   -18.2270     2.2430 
   81.2500   105.5680     6.4780     4.8280     5.5100    23.5970   -18.0440     2.2370 
   81.3750    97.9400     6.8410     5.0110     6.5370    22.9290   -18.1790     2.2240 
   81.5000    88.9810     7.3200     5.3360     7.3650    22.3850   -18.5830     2.2110 
   81.6250    85.4300     7.8570     5.7720     7.6650    22.2990   -19.3040     2.2050 
   81.7500    85.0530     8.4120     6.2660     7.8250    22.4170   -20.2490     2.2070 
   81.8750    83.4180     8.9730     6.7900     8.3050    22.5670   -21.3430     2.2190 
   82.0000    79.8060     9.5050     7.3070     9.2970    22.6160   -22.4470     2.2360 
   82.1250    78.9890     9.8910     7.7270    11.0790    22.4990   -23.3760     2.2560 
   82.2500    80.6240    10.0340     7.9690    13.0300    22.4880   -24.0620     2.2720 
   82.3750    80.5210     9.8870     7.9830    13.4270    22.6610   -24.5700     2.2780 
   82.5000    77.1810     9.5040     7.7820    11.4480    22.8490   -25.0170     2.2700 
   82.6250    72.5320     9.0350     7.4470    10.0610    22.9530   -25.4060     2.2500 
   82.7500    70.7780     8.6640     7.1250     9.3210    22.9760   -25.7220     2.2260 
   82.8750    71.4290     8.4720     6.9040     9.0140    22.9730   -25.9460     2.2030 
   83.0000    71.6440     8.4580     6.8160     8.8590    22.9890   -26.0680     2.1850 
   83.1250    68.6200     8.5480     6.8460     8.8490    22.9990   -25.9800     2.1750 
   83.2500    65.4310     8.6020     6.8960     8.8610    22.9970   -25.7320     2.1690 
   83.3750    65.9130     8.5170     6.8800     8.8200    23.0100   -25.3050     2.1650 
   83.5000    70.8700     8.2250     6.7280     8.7070    23.0700   -24.5880     2.1650 
   83.6250    77.0600     7.6930     6.3830     8.1860    23.2010   -23.6120     2.1670 
   83.7500    82.1620     7.0400     5.9090     7.3990    23.3040   -22.3990     2.1700 
   83.8750    85.2450     6.3850     5.3840     6.6250    23.3420   -20.9600     2.1720 
   84.0000    86.7100     5.8540     4.9020     5.7880    23.4090   -19.4160     2.1740 
   84.1250    87.4640     5.5770     4.5740     4.9500    23.5340   -18.0080     2.1760 
   84.2500    88.8980     5.5510     4.4240     4.8050    23.5680   -16.8940     2.1800 
   84.3750    91.9210     5.7430     4.4510     5.1550    23.3890   -16.0640     2.1860 
