~V
VERS. 2.00: Ver 2.00
~W
STRT.M 57.0000:
STOP.M 272.0000:
STEP.M 0.1250:
NULL. -999.2500:
UWI. F11045:
~C
DEPT.M :
DEN.GM/CC :
GR.API :
RML.OHMM :
RI. :
RXO.OHMM :
CALI.CM :
SP.MV :
~A
# ...
  237.0000     2.2270    60.0520   175.2780   158.3410   183.0960    24.4870     1.8370 
  237.1250     2.2430    59.8800   160.7450   148.3130   189.6070    24.4870     1.8540 
  237.2500     2.2660    62.2410   141.6670   133.5130   177.9090    24.4470     1.8830 
  237.3750     2.2940    65.5210   122.4460   117.1130   141.2760    24.4150     1.9260 
  237.5000     2.3180    67.9480   106.9930   102.7370    95.0790    24.4020     1.9650 
  237.6250     2.3280    69.9200    98.3780    93.8100    74.6260    24.4220     1.9120 
  237.7500     2.3320    71.3870    95.6310    90.2080    76.5390    24.4620     1.7700 
  237.8750     2.3400    70.3410    97.6570    91.2530    85.4540    24.4990     1.5640 
  238.0000     2.3600    68.7960   102.7240    95.6150    99.4870    24.4830     1.3370 
  238.1250     2.3890    70.3520   108.3260   101.2790   102.3870    24.4590     1.0880 
  238.2500     2.4140    73.8790   111.9470   105.6760    98.1560    24.4570     0.8640 
  238.3750     2.4230    77.8290   112.7490   107.5690    93.2140    24.4580     0.6760 
  238.5000     2.4150    82.2720   111.4610   107.0840    89.5460    24.4390     0.5490 
  238.6250     2.4030    86.5590   109.6970   105.4380    91.5870    24.4160     0.5480 
  238.7500     2.3940    87.2120   108.8610   104.3580    86.9080    24.3510     0.6290 
  238.8750     2.3850    83.7480   109.3390   104.6330    90.5690    24.3140     0.7690 
  239.0000     2.3720    80.3710   110.6750   106.0950   108.1540    24.2910     0.9520 
  239.1250     2.3580    80.4220   111.3450   107.4080   122.0370    24.3080     1.2050 
  239.2500     2.3450    81.0150   109.9710   107.0990   124.4920    24.3220     1.4620 
  239.3750     2.3320    79.5030   106.3640    96.3600   111.8120    24.3030     1.7090 
  239.5000     2.3200    76.1580   101.5780    90.1490    96.6450    24.2920     1.9160 
  239.6250     2.3090    71.8240    97.2940    86.8140    83.0500    24.3210     2.0460 
  239.7500     2.2970    67.8890    94.3000    84.3270    78.4690    24.3540     2.1360 
  239.8750     2.2840    65.2830    92.4720    82.7940    81.8790    24.3390     2.2170 
  240.0000     2.2750    66.8540    91.0910    81.8630    90.8300    24.3280     2.2770 
  240.1250     2.2750    71.2730    88.8460    80.6230    99.1930    24.3530     2.2830 
  240.2500     2.2830    73.8480    85.0250    78.1870    88.0040    24.3260     2.2770 
  240.3750     2.2920    73.0990    79.7440    74.2900    75.0720    24.2780     2.2430 
  240.5000     2.3000    72.9820    73.8110    69.4300    72.4130    24.2810     2.1850 
  240.6250     2.3020    76.6170    68.5210    64.7450    69.3850    24.2940     2.1930 
  240.7500     2.2950    78.6680    64.6770    61.2280    60.6100    24.2500     2.2800 
  240.8750     2.2830    76.6460    62.4870    59.2420    55.7440    24.2410     2.3990 
  241.0000     2.2700    72.1620    61.7260    58.6240    57.7030    24.2820     2.5270 
  241.1250     2.2640    68.5440    62.0890    59.0650    62.3380    24.3240     2.7040 
  241.2500     2.2670    67.7820    62.8440    59.9650    66.8290    24.3390     2.8870 
  241.3750     2.2790    69.2910    63.4260    60.9110    67.2340    24.3420     3.0840 
  241.5000     2.2940    71.9350    63.4870    61.5130    66.7370    24.3600     3.3020 
  241.6250     2.3140    72.7710    63.1510    61.6250    66.7570    24.3480     3.4520 
  241.7500     2.3380    72.6340    63.0500    61.6930    63.9270    24.3290     3.5060 
  241.8750     2.3500    73.1340    63.7150    62.1890    60.9200    24.3600     3.5110 
  242.0000     2.3310    72.2050    65.5150    63.5060    60.4080    24.4260     3.5220 
  242.1250     2.2930    67.6550    68.8370    66.1070    62.5900    24.4100     3.5390 
  242.2500     2.2730    63.0590    73.3300    69.7770    66.9020    24.3890     3.5710 
  242.3750     2.2750    62.0430    78.5620    74.1550    72.3640    24.3800     3.5980 
  242.5000     2.2850    64.3130    83.8210    78.6300    78.6000    24.3660     3.6010 
  242.6250     2.2950    66.4660    87.9850    82.2710    85.3190    24.3420     3.6450 
  242.7500     2.3060    66.7740    90.4720    84.5400    88.4210    24.2700     3.7660 
  242.8750     2.3130    65.5440    91.0720    85.1540    85.4220    24.2410     3.9230 
  243.0000     2.3070    62.5840    90.0500    84.1940    84.6610    24.3130     4.0530 
  243.1250     2.2830    62.7630    88.0630    82.0350    84.9400    24.3600     4.1370 
  243.2500     2.2590    65.8420    86.1290    79.6380    83.6290    24.3690     4.1720 
  243.3750     2.2440    65.5320    84.7120    77.5760    78.8620    24.3670     4.1890 
  243.5000     2.2380    60.6300    83.8390    76.0780    72.8410    24.3480     4.2180 
  243.6250     2.2370    59.4120    83.1060    74.9880    74.7950    24.3520     4.2190 
  243.7500     2.2370    64.8260    81.9740    73.8400    81.5310    24.3660     4.1720 
  243.8750     2.2390    69.6270    80.3300    72.4520    84.3140    24.3520     4.0740 
  244.0000     2.2400    69.2180    78.4820    70.9520    81.0040    24.3480     3.9610 
  244.1250     2.2390    66.5280    77.0070    69.6940    75.5570    24.3630     3.8250 
  244.2500     2.2400    64.2420    76.1810    68.8850    75.5320    24.3300     3.6960 
  244.3750     2.2550    63.0000    75.9630    68.5530    79.9380    24.2470     3.5570 
  244.5000     2.2800    63.8450    75.9920    68.5180    80.6830    24.1380     3.3810 
  244.6250     2.2980    66.8330    75.5940    68.3280    75.6670    24.0810     3.1130 
  244.7500     2.3120    69.9490    74.4130    67.5930    70.6800    24.0790     2.8170 
  244.8750     2.3340    71.7390    72.5110    66.2130    65.3260    24.1060     2.5530 
  245.0000     2.3530    71.3140    70.2550    64.3700    60.9440    24.1400     2.3320 
  245.1250     2.3350    69.9170    68.1440    62.4450    54.6340    24.1950     2.1620 
  245.2500     2.2950    68.2030    66.4300    60.7950    50.6100    24.1720     2.0290 
  245.3750     2.2640    66.5100    65.1230    59.5110    51.0050    24.0970     1.9200 
  245.5000     2.2520    66.1060    64.0690    58.4670    52.3940    24.0230     1.8490 
  245.6250     2.2490    67.0930    63.0200    57.3820    53.7320    24.0090     1.8860 
  245.7500     2.2490    67.8940    61.8350    56.0730    53.6060    24.0190     1.9900 
  245.8750     2.2520    68.1520    60.6310    54.6300    53.9080    24.0280     2.1260 
  246.0000     2.2570    70.4220    59.7240    53.3530    53.8810    24.0560     2.2890 
  246.1250     2.2610    73.9750    59.5490    52.6930    53.1830    24.0580     2.4840 
  246.2500     2.2650    74.1730    60.0300    52.6530    52.7350    24.0750     2.7070 
  246.3750     2.2750    70.2670    60.8070    52.9660    54.3310    24.0760     2.9800 
  246.5000     2.2920    64.8710    61.2580    53.1480    61.9130    24.0500     3.3140 
  246.6250     2.3100    62.8340    60.6280    52.6030    63.3470    24.0010     3.6250 
  246.7500     2.3220    65.1210    59.0020    51.3130    59.8960    23.9690     3.8940 
  246.8750     2.3330    70.0950    56.8580    49.5850    54.1580    23.9570     4.1630 
  247.0000     2.3520    74.1210    54.9990    48.0240    51.6580    24.0160     4.4680 
  247.1250     2.3960    74.6640    54.7050    47.6790    54.6860    24.1280     4.7880 
  247.2500     2.4580    73.4760    56.7000    49.2210    62.2670    24.2050     5.1180 
  247.3750     2.5140    71.1430    61.3160    53.0590    68.5710    24.2360     5.4430 
  247.5000     2.5470    68.5060    67.8650    58.7580    74.6180    24.2380     5.7130 
  247.6250     2.5680    65.4250    72.9800    63.6540    83.0870    24.2590     5.9860 
  247.7500     2.5960    63.2350    71.5700    63.2340   117.0420    24.2800     6.2870 
  247.8750     2.6240    62.6700    61.1480    54.7900   142.6420    24.2760     6.5830 
  248.0000     2.6300    61.8990    45.0550    40.7560    99.3490    24.2100     6.8360 
  248.1250     2.5850    58.1940    30.2510    27.4790    56.8680    24.0480     7.0590 
