~V
VERS. 2.00: Ver 2.00
~W
STRT.M 59.0000:
STOP.M 230.0000:
STEP.M 0.1250:
NULL. -999.2500:
UWI. F11001:
~C
DEPT.M :
GR.API :
RML.OHMM :
RI. :
RXO.OHMM :
CALI.CM :
SP.MV :
DEN.GM/CC :
~A
# ...
  160.2500    67.8570   137.1200   135.2200   132.1350    24.2690   -13.1560     2.1930 
  160.3750    70.2610   119.3200   120.2130   119.1080    24.7720   -13.3380     2.1820 
  160.5000    69.4790   106.7670   110.4730   113.9500    25.0370   -13.5200     2.1800 
  160.6250    66.8430    98.8910   105.6890   107.7440    25.2680   -13.6390     2.1890 
  160.7500    67.1770    94.1170   104.6260    88.8570    25.2860   -13.7240     2.2150 
  160.8750    67.8120    88.9410   103.2150    76.0380    25.1870   -13.7690     2.2600 
  161.0000    64.7720    80.8260    97.4350    69.8900    25.0200   -13.7690     2.3230 
  161.1250    60.2210    68.7860    84.7130    71.5650    24.8450   -13.7270     2.3940 
  161.2500    60.6360    53.9970    66.1810    51.9550    24.7140   -13.7140     2.4500 
  161.3750    66.3070    39.8420    48.0380    32.4950    24.6100   -13.7250     2.4800 
  161.5000    76.3720    28.3600    33.7530    17.0360    24.6800   -13.7700     2.4820 
  161.6250    88.8440    20.2490    24.0790    10.8450    24.7750   -13.8870     2.4680 
  161.7500    98.1800    15.5690    18.6310     8.8510    24.8660   -14.0630     2.4510 
  161.8750    99.9870    13.0520    15.6150     7.9480    25.0130   -14.3270     2.4360 
  162.0000    97.3390    12.1900    14.3570     7.9450    25.1320   -14.6600     2.4210 
  162.1250    94.6460    12.7670    14.5590     8.7460    25.1260   -15.0230     2.4000 
  162.2500    93.8070    15.1720    16.5770    10.9300    25.0740   -15.4390     2.3750 
  162.3750    93.1950    19.5930    20.6770    15.7500    25.0230   -15.8780     2.3480 
  162.5000    91.0270    26.6470    27.6970    25.6000    25.0460   -16.4450     2.3230 
  162.6250    88.2380    37.1020    38.7540    43.2670    25.1650   -17.1350     2.3020 
  162.7500    83.3010    52.7120    56.0020    58.9890    25.3280   -17.9820     2.2860 
  162.8750    76.8660    73.8660    79.3310    68.0510    25.2860   -18.8660     2.2730 
  163.0000    70.8700   101.7030   109.0380    82.5230    25.3110   -19.7750     2.2590 
  163.1250    66.4310   137.4210   145.5390    84.1930    25.4090   -20.6570     2.2410 
  163.2500    65.6210   181.8130   189.6010   131.7900    25.4960   -21.4170     2.2160 
  163.3750    67.9130   227.0350   234.8290   248.6710    25.3890   -22.0460     2.1920 
  163.5000    70.3580   260.3360   268.5500   294.8260    25.3080   -22.4860     2.1770 
  163.6250    70.3350   269.0360   275.7400   290.7250    25.2000   -22.6760     2.1760 
  163.7500    68.5830   247.2530   249.4200   290.4010    25.0600   -22.5860     2.1860 
  163.8750    68.0030   212.3120   210.6890   277.2290    25.0600   -22.2780     2.1990 
  164.0000    67.9740   177.9760   174.6800   188.2110    25.1040   -21.7930     2.2130 
  164.1250    68.2560   151.5500   147.9270   118.6670    25.0390   -21.1690     2.2280 
  164.2500    68.8110   134.8400   131.5190   110.9220    25.0480   -20.4260     2.2430 
  164.3750    67.7820   123.8260   121.1740   107.9800    25.1810   -19.5850     2.2570 
  164.5000    64.8650   116.0050   114.3280    88.6710    25.2910   -18.6490     2.2760 
  164.6250    61.2100   109.3100   108.6450    91.5820    25.1740   -17.6510     2.3070 
  164.7500    58.7980   102.3250   102.2820    96.8260    25.1920   -16.6730     2.3620 
  164.8750    57.5770    94.8940    95.0440    89.7120    25.1100   -15.7240     2.4320 
  165.0000    57.8680    87.5550    87.5960    89.9710    24.9400   -14.7550     2.4990 
  165.1250    58.5480    80.9260    80.7510    81.2100    24.7610   -13.8230     2.5490 
  165.2500    58.7410    75.4760    75.1950    69.6610    24.6200   -12.8550     2.5720 
  165.3750    59.9390    70.9230    70.6390    68.7930    24.5610   -11.9260     2.5820 
  165.5000    61.5460    67.1230    66.7960    82.3090    24.6830   -11.0410     2.5880 
  165.6250    62.0180    64.2000    63.6880    92.1080    24.8410   -10.2390     2.5950 
  165.7500    61.6020    62.8240    62.0020    97.2450    24.8360    -9.4700     2.5940 
  165.8750    62.7840    62.9600    61.9620    92.2370    24.6840    -8.7440     2.5870 
  166.0000    65.8550    63.7830    63.0820    80.4830    24.6210    -8.1560     2.5810 
  166.1250    66.6640    63.3120    63.4230    68.4950    24.7130    -7.7040     2.5890 
  166.2500    63.8760    58.5200    58.8700    73.4630    24.7950    -7.4770     2.6160 
  166.3750    60.5950    49.4000    48.9110    86.5050    24.8540    -7.3950     2.6460 
  166.5000    59.8970    37.7480    36.5000    69.0400    24.9210    -7.3770     2.6600 
  166.6250    63.5380    26.5140    25.5390    32.4650    24.9850    -7.3760     2.6430 
  166.7500    69.7620    18.6060    18.4080    14.5560    25.0270    -7.3440     2.5940 
  166.8750    71.7150    13.8520    14.0950     9.6070    25.0160    -7.2920     2.5360 
  167.0000    67.0090    11.3100    11.6720     8.8950    24.8980    -7.1550     2.4850 
  167.1250    60.7340    10.0290    10.4100     9.9720    24.6590    -6.9230     2.4510 
  167.2500    59.3050     9.4690     9.8240     9.5840    24.4250    -6.5500     2.4380 
  167.3750    59.8110     9.0590     9.3680     8.8160    24.4060    -6.0710     2.4440 
  167.5000    58.6630     8.5810     8.7900     7.5140    24.5760    -5.5080     2.4680 
  167.6250    56.8160     7.9760     8.0350     6.9810    24.7420    -4.9220     2.5020 
  167.7500    56.1400     7.3100     7.2070     6.6760    24.5920    -4.3950     2.5330 
  167.8750    54.7130     6.7100     6.4700     6.1070    24.2710    -3.8940     2.5440 
  168.0000    52.7220     6.2670     5.9260     5.2710    24.0090    -3.4880     2.5290 
  168.1250    52.0400     6.0260     5.6180     4.9320    23.9700    -3.1640     2.4890 
  168.2500    52.9950     6.0090     5.5630     4.9910    24.2420    -2.9400     2.4380 
  168.3750    51.6290     6.1220     5.6580     5.0280    24.6130    -2.8020     2.3920 
  168.5000    49.5400     6.2920     5.8190     5.1410    24.7920    -2.7480     2.3640 
  168.6250    50.0630     6.4530     5.9670     5.3420    24.8480    -2.7510     2.3540 
  168.7500    51.5720     6.5650     6.0460     5.5340    24.8930    -2.7530     2.3610 
  168.8750    51.6010     6.6470     6.0800     5.5640    24.9360    -2.7620     2.3730 
  169.0000    51.2640     6.7270     6.1030     5.6420    25.0000    -2.7410     2.3860 
  169.1250    52.4710     6.8260     6.1380     5.7770    25.0050    -2.6930     2.4000 
  169.2500    53.6440     6.9410     6.1840     5.8740    24.9460    -2.6460     2.4150 
  169.3750    54.7340     7.0370     6.2080     5.9870    24.9210    -2.5820     2.4300 
  169.5000    56.6020     7.0820     6.1780     6.1910    24.9320    -2.5240     2.4440 
  169.6250    58.5920     7.0650     6.0840     6.3060    25.0160    -2.4390     2.4520 
  169.7500    58.4680     7.0100     5.9510     6.0080    25.0790    -2.3680     2.4520 
  169.8750    56.3160     6.9850     5.8410     5.6420    25.1430    -2.3310     2.4470 
  170.0000    54.4970     7.0420     5.8000     5.4150    25.1900    -2.3380     2.4410 
  170.1250    53.7860     7.1970     5.8470     5.4840    25.1950    -2.3880     2.4390 
  170.2500    52.2570     7.4260     5.9730     5.8810    25.1170    -2.4760     2.4400 
  170.3750    50.6170     7.6470     6.1160     6.2040    25.0510    -2.5900     2.4410 
  170.5000    50.3970     7.7980     6.2270     6.3020    24.9900    -2.7190     2.4410 
  170.6250    49.8340     7.8540     6.2780     6.3530    24.9540    -2.9370     2.4380 
  170.7500    46.8150     7.8380     6.2760     6.2810    24.9050    -3.1850     2.4320 
  170.8750    44.6720     7.8390     6.2760     6.3690    24.7900    -3.4620     2.4240 
  171.0000    46.4510     7.9320     6.3300     6.6010    24.6240    -3.7590     2.4170 
  171.1250    50.4180     8.1550     6.4730     6.8870    24.4830    -4.0530     2.4120 
  171.2500    53.1240     8.4960     6.7110     7.0040    24.5010    -4.3690     2.4110 
  171.3750    55.5830     8.8380     6.9720     7.3750    24.6450    -4.6670     2.4120 
