~V
VERS. 2.00: Ver 2.00
~W
STRT.M 54.0000:
STOP.M 226.0000:
STEP.M 0.1250:
NULL. -999.2500:
UWI. F11002:
~C
DEPT.M :
GR.API :
RML.OHMM :
RI. :
RXO.OHMM :
CALI.CM :
DEN.GM/CC :
SP.MV :
~A
# ...
   87.7500    68.2320    11.5800     9.0840    11.6840    23.7710     2.2520   -14.3390 
   87.8750    71.8230    12.1720     9.3340     9.6730    23.6250     2.2350   -14.4180 
   88.0000    72.1390    12.5560     9.4970     9.3380    23.6850     2.2250   -14.3130 
   88.1250    70.6190    12.6420     9.5280    10.2130    23.8190     2.2290   -14.1160 
   88.2500    70.7950    12.3730     9.3480    10.7320    23.8980     2.2430   -13.8600 
   88.3750    73.2560    11.7670     8.9100    10.5130    23.9280     2.2570   -13.5170 
   88.5000    75.5460    11.0760     8.3970     8.9680    23.9590     2.2630   -13.2100 
   88.6250    77.5450    10.5390     8.0130     7.7270    23.9520     2.2610   -12.9660 
   88.7500    77.5630    10.3300     7.9170     7.8650    23.8960     2.2530   -12.8570 
   88.8750    75.6090    10.5300     8.1810     9.2200    23.8340     2.2450   -12.9170 
   89.0000    75.0560    10.9440     8.6430    10.0080    23.8280     2.2410   -13.1260 
   89.1250    76.8340    11.4010     9.1540    10.2670    23.8430     2.2440   -13.3930 
   89.2500    78.0800    11.7620     9.5730    10.4380    23.8500     2.2520   -13.6600 
   89.3750    77.5480    11.8810     9.7390    10.4720    23.8600     2.2600   -13.8670 
   89.5000    76.5780    11.7040     9.6140    10.5110    23.8910     2.2640   -13.9150 
   89.6250    73.9690    11.1970     9.2090    10.3460    23.9450     2.2630   -13.8570 
   89.7500    69.9970    10.4200     8.6240    10.3680    24.0050     2.2620   -13.7310 
   89.8750    71.8960     9.5840     8.0310     9.5070    24.0930     2.2600   -13.6110 
   90.0000    79.5940     8.9790     7.5890     7.9320    24.1840     2.2590   -13.6270 
   90.1250    84.4550     8.7760     7.3660     7.0040    24.2010     2.2560   -13.7990 
   90.2500    81.1650     9.0050     7.3640     7.6070    24.1010     2.2470   -14.0480 
   90.3750    74.2220     9.5710     7.5750     8.9400    23.8980     2.2320   -14.4280 
   90.5000    71.6530    10.1810     7.9040     9.4160    23.7810     2.2150   -14.8860 
   90.6250    73.3690    10.6270     8.2670     9.3550    23.7480     2.2000   -15.3770 
   90.7500    75.0100    10.7790     8.5610     9.3590    23.7550     2.1880   -15.8530 
   90.8750    74.5920    10.6100     8.6670     9.4080    23.7680     2.1800   -16.2180 
   91.0000    73.4670    10.3210     8.6050     9.3230    23.7650     2.1770   -16.4190 
   91.1250    73.0740    10.0580     8.4310     9.1360    23.7590     2.1790   -16.4400 
   91.2500    72.5680     9.8890     8.2230     8.9950    23.7590     2.1850   -16.3580 
   91.3750    72.0070     9.8250     8.0500     8.9460    23.7400     2.1920   -16.1810 
   91.5000    72.3770     9.8400     7.9310     8.9910    23.7240     2.1950   -16.0920 
   91.6250    73.8800     9.9470     7.8660     9.1710    23.7180     2.1940   -16.1250 
   91.7500    74.4580    10.1500     7.8540     9.1710    23.7330     2.1900   -16.2280 
   91.8750    73.6770    10.4200     7.8980     9.0910    23.7820     2.1880   -16.3170 
   92.0000    72.8270    10.6650     7.9780     9.1510    23.8140     2.1890   -16.3640 
   92.1250    71.6170    10.8240     8.0730     9.3080    23.7230     2.1920   -16.3620 
   92.2500    69.6350    10.8910     8.1620     9.4540    23.5310     2.1930   -16.3320 
   92.3750    68.8740    10.9190     8.2330     9.6850    23.3530     2.1940   -16.3640 
   92.5000    70.4370    10.9610     8.2920     9.8510    23.2410     2.1970   -16.3480 
   92.6250    72.1500    11.0040     8.3420     9.8730    23.2160     2.2020   -16.1860 
   92.7500    71.2190    11.0040     8.3880     9.8130    23.2440     2.2070   -15.9820 
   92.8750    68.3660    10.9120     8.4340     9.6930    23.2930     2.2060   -15.7750 
   93.0000    66.7910    10.7390     8.4660     9.7080    23.3320     2.1970   -15.5260 
   93.1250    66.8560    10.4830     8.4360     9.8680    23.3500     2.1830   -15.3500 
   93.2500    67.3350    10.1260     8.2880     9.9670    23.3280     2.1700   -15.2250 
   93.3750    66.7820     9.6410     7.9890     9.7200    23.2700     2.1700   -15.1120 
   93.5000    68.5670     9.1110     7.6180     9.0770    23.2790     2.1810   -15.1060 
   93.6250    73.2510     8.6630     7.2720     8.2400    23.3440     2.1970   -15.2160 
   93.7500    77.1750     8.4210     7.0380     7.5550    23.4440     2.2100   -15.3870 
   93.8750    77.5820     8.4760     7.0040     8.4280    23.5300     2.2110   -15.6150 
   94.0000    76.3210     8.7250     7.1410     9.1470    23.6280     2.2010   -15.9050 
   94.1250    74.6000     9.0990     7.4140     9.4910    23.7470     2.1830   -16.0970 
   94.2500    72.9430     9.5700     7.7750     9.4730    23.8360     2.1630   -16.1250 
   94.3750    74.7920    10.1310     8.1780     9.5750    23.8800     2.1550   -15.8850 
   94.5000    78.6990    10.6580     8.5480    10.0460    23.9140     2.1740   -15.2610 
   94.6250    81.2840    10.9490     8.7720    10.9380    23.9660     2.2260   -14.2480 
   94.7500    81.0630    10.7990     8.7180    12.7420    24.0690     2.3020   -12.9290 
   94.8750    80.6100    10.0620     8.2520    14.4350    24.2740     2.3700   -11.4570 
   95.0000    83.9800     9.0210     7.5340    12.6990    24.4620     2.4020   -10.0400 
   95.1250    92.2610     7.9880     6.7800     8.2120    24.5070     2.3900    -8.8660 
   95.2500   101.0590     7.2400     6.1920     5.8350    24.4390     2.3490    -8.0250 
   95.3750   102.5200     6.9810     5.9150     5.5170    24.3970     2.3040    -7.5560 
   95.5000    99.0350     7.0830     5.8890     5.8430    24.3370     2.2740    -7.4230 
   95.6250    98.5070     7.3860     6.0400     6.1740    24.1890     2.2600    -7.5570 
   95.7500   102.2510     7.6970     6.2490     6.3310    23.9980     2.2560    -7.8560 
   95.8750   103.2810     7.8180     6.3750     6.0650    23.8680     2.2550    -8.2040 
   96.0000   100.3230     7.7120     6.3670     6.0340    23.7550     2.2550    -8.3550 
   96.1250    99.4330     7.4150     6.2350     6.2390    23.6950     2.2590    -8.2240 
   96.2500   103.3450     7.0070     5.9930     5.9610    23.7370     2.2710    -7.9280 
   96.3750   105.7970     6.6070     5.6750     5.2250    23.7880     2.2900    -7.5640 
   96.5000   104.5400     6.3400     5.3880     4.9400    23.8500     2.3090    -7.3100 
   96.6250   102.4610     6.2990     5.2320     4.8320    23.9140     2.3180    -7.3230 
   96.7500   102.3220     6.5240     5.2860     4.7930    23.9270     2.3120    -7.6430 
   96.8750   102.4550     6.9790     5.5790     5.2640    23.8310     2.2920    -8.2250 
   97.0000    98.7010     7.4410     5.9400     6.1740    23.7060     2.2660    -8.9660 
   97.1250    91.4140     7.7140     6.2050     7.0140    23.6610     2.2410    -9.8280 
   97.2500    84.7130     7.6930     6.2760     7.0880    23.8480     2.2220   -10.6380 
   97.3750    83.6620     7.4500     6.1940     6.4760    24.2120     2.2060   -11.3690 
   97.5000    83.8730     7.3180     6.1760     6.3260    24.6420     2.1990   -11.9230 
   97.6250    83.1240     7.6040     6.4020     6.4320    25.0950     2.2160   -12.1940 
   97.7500    82.7310     8.4990     6.9930     6.6660    25.5950     2.2710   -12.2170 
   97.8750    82.3220    10.0050     8.0350     7.5370    24.7700     2.3740   -12.1220 
   98.0000    81.0030    11.5950     9.2740     9.5520    24.2110     2.4870   -12.0520 
   98.1250    80.1420    12.7190    10.2900    12.6170    23.9670     2.5700   -12.1090 
   98.2500    82.5770    12.9570    10.5900    14.0020    23.8890     2.5890   -12.3590 
   98.3750    85.1810    12.1470     9.9090    11.5930    23.7360     2.5270   -12.6910 
   98.5000    83.9190    10.8830     8.8250     8.8540    23.5260     2.4260   -13.0970 
   98.6250    81.9680     9.6660     7.8140     7.6680    23.2860     2.3220   -13.6100 
   98.7500    83.0870     8.8300     7.1390     7.8580    23.1040     2.2410   -14.1380 
   98.8750    85.5440     8.5210     6.8990     8.2770    23.0500     2.1950   -14.6460 
