~V
VERS. 2.00: Ver 2.00
~W
STRT.M 60.0000:
STOP.M 276.0000:
STEP.M 0.1250:
NULL. -999.2500:
UWI. F11026:
~C
DEPT.M :
DEN.GM/CC :
GR.API :
RML.OHMM :
RI. :
RXO.OHMM :
CALI.CM :
SP.MV :
~A
# ...
  240.0000     2.3070    63.4710    43.9040    42.1770    46.2850    24.3500   -13.7540 
  240.1250     2.3790    64.5710    40.8920    39.5120    45.4230    24.1070   -13.5760 
  240.2500     2.4300    65.9420    37.4470    36.1380    39.3570    23.8950   -13.2530 
  240.3750     2.4430    67.4710    34.2910    32.8640    29.4260    23.9120   -12.7670 
  240.5000     2.4210    66.8380    31.9710    30.3360    25.6080    24.1550   -12.2910 
  240.6250     2.3790    62.5240    30.8730    29.0190    26.8540    24.4090   -11.9630 
  240.7500     2.3420    60.0130    30.6550    28.6580    28.9100    24.5150   -11.6250 
  240.8750     2.3180    61.6710    30.9450    28.9820    29.8940    24.5260   -11.2230 
  241.0000     2.3060    64.1730    31.2860    29.5670    30.9200    24.4970   -10.6890 
  241.1250     2.3040    63.9770    31.1640    29.8020    31.2550    24.4880   -10.0890 
  241.2500     2.3080    62.8670    30.4860    29.4090    30.8380    24.4970    -9.6740 
  241.3750     2.3150    65.1150    29.4290    28.5070    29.9990    24.5050    -9.4310 
  241.5000     2.3190    70.1070    28.3440    27.4720    28.6530    24.4960    -9.1330 
  241.6250     2.3120    71.6890    27.6450    26.7550    25.8280    24.4810    -8.6190 
  241.7500     2.2970    68.5540    27.3960    26.4730    24.8220    24.4600    -8.0750 
  241.8750     2.2790    65.2210    27.4490    26.4900    26.6840    24.4240    -7.6400 
  242.0000     2.2660    65.0260    27.5060    26.4930    32.3010    24.3980    -7.4650 
  242.1250     2.2680    65.1970    27.1950    26.0460    31.5020    24.3810    -7.4900 
  242.2500     2.2780    65.2330    26.4900    25.0970    26.3150    24.3860    -7.3270 
  242.3750     2.2910    67.7620    25.6120    23.8770    22.2530    24.3900    -7.0010 
  242.5000     2.3020    71.0990    24.9550    22.8000    20.5890    24.3920    -6.7530 
  242.6250     2.3070    70.1050    25.0440    22.3920    21.4650    24.3750    -6.7450 
  242.7500     2.3100    66.8940    25.9610    22.8020    21.8910    24.3450    -6.8850 
  242.8750     2.3140    65.1270    27.5950    24.0420    23.2150    24.2830    -6.9710 
  243.0000     2.3200    64.4660    29.6300    25.9140    26.5050    24.2250    -6.8130 
  243.1250     2.3250    62.5200    31.5680    27.9380    29.5020    24.1430    -6.4390 
  243.2500     2.3210    61.5130    33.0210    29.5440    32.2840    23.9880    -6.1830 
  243.3750     2.3050    63.4650    33.8400    30.4820    34.0860    23.8120    -6.0660 
  243.5000     2.2850    66.4740    34.0710    30.7750    32.3980    23.8100    -5.9560 
  243.6250     2.2830    67.4040    33.8110    30.5460    27.8750    23.8980    -5.7020 
  243.7500     2.3100    67.8330    33.2600    30.0390    27.3740    23.8920    -5.2930 
  243.8750     2.3560    69.2070    32.4580    29.3170    32.8910    23.6560    -4.8650 
  244.0000     2.3930    71.1500    31.4280    28.3860    36.3620    23.3380    -4.5390 
  244.1250     2.3880    72.9880    30.2560    27.3030    30.9250    23.2930    -4.4310 
  244.2500     2.3450    74.0560    29.1380    26.2750    25.2270    23.6450    -4.3940 
  244.3750     2.2900    73.9600    28.1840    25.4420    23.2130    23.9330    -4.3850 
  244.5000     2.2480    73.7100    27.3640    24.7820    26.6980    24.0740    -4.4330 
  244.6250     2.2400    75.8230    26.4480    24.0590    28.4500    24.1180    -4.4810 
  244.7500     2.2550    77.9170    25.2100    22.9910    27.6250    24.1570    -4.4790 
  244.8750     2.2790    76.6250    23.6020    21.4730    26.0030    24.1400    -4.4680 
  245.0000     2.3010    73.2770    21.7990    19.6770    23.1010    24.0660    -4.4530 
  245.1250     2.3120    72.9430    20.2110    18.0310    18.0530    23.9870    -4.2650 
  245.2500     2.3210    76.1430    19.1640    16.8730    15.1880    23.9220    -4.0050 
  245.3750     2.3390    79.1390    18.8080    16.3580    14.9730    23.8930    -3.8040 
  245.5000     2.3770    78.5330    19.1150    16.5010    15.9930    23.8200    -3.5630 
  245.6250     2.4380    76.9270    19.9240    17.2370    17.8660    23.7000    -3.3130 
  245.7500     2.4990    75.7030    20.8110    18.1470    19.3690    23.6360    -3.1870 
  245.8750     2.5370    73.8380    21.4730    18.8540    20.4960    23.5860    -3.1410 
  246.0000     2.5330    73.3070    21.7610    19.0900    21.5990    23.4560    -3.1410 
  246.1250     2.4810    75.4990    21.7880    18.8760    19.5130    23.3260    -3.2300 
  246.2500     2.4080    76.1070    21.9650    18.7180    16.9190    23.2550    -3.2800 
  246.3750     2.3490    73.6860    22.5370    18.9960    16.2200    23.1780    -3.2400 
  246.5000     2.3380    71.2180    23.4140    19.7760    18.2940    23.1480    -3.1940 
  246.6250     2.3970    68.5980    23.9400    20.5690    24.4570    23.3880    -3.1230 
  246.7500     2.4920    61.9990    23.3810    20.4520    35.1010    23.7640    -2.9330 
  246.8750     2.5780    55.1000    21.4370    18.8410    45.6200    24.1230    -2.6600 
  247.0000     2.6190    54.8410    18.3830    15.9800    33.9870    24.2690    -2.2910 
  247.1250     2.5980    61.5720    14.7930    12.8630    17.3710    24.2660    -1.8280 
  247.2500     2.5470    66.6100    11.5270    10.3280    10.2840    24.2790    -1.3680 
  247.3750     2.4930    67.0060     9.1890     8.5670     8.6690    24.3340    -0.9430 
  247.5000     2.4490    66.4480     7.9900     7.5200     8.4990    24.4020    -0.5510 
  247.6250     2.4160    69.3290     7.6970     7.1140     7.7770    24.4460    -0.2980 
  247.7500     2.3900    71.6260     7.6740     7.0720     7.7450    24.4310    -0.2370 
  247.8750     2.3710    69.6200     7.7700     7.2420     8.3930    24.3620    -0.2750 
  248.0000     2.3630    65.8780     7.9270     7.4950     9.0460    24.2020    -0.3530 
  248.1250     2.3670    65.2560     8.0840     7.7270     9.1860    24.0240    -0.4680 
  248.2500     2.3770    68.5150     8.1840     7.8700     9.1920    24.0260    -0.6130 
  248.3750     2.3920    71.7120     8.1940     7.8930     9.1900    24.2350    -0.7480 
  248.5000     2.4090    72.2200     8.1160     7.8040     9.2730    24.4680    -0.9330 
  248.6250     2.4260    71.3840     7.9950     7.6450     9.1190    24.5940    -1.1670 
  248.7500     2.4410    71.4430     7.8990     7.4830     8.7560    24.6360    -1.2330 
  248.8750     2.4510    72.5990     7.8680     7.3540     8.3610    24.6280    -1.1260 
  249.0000     2.4580    73.5160     7.9100     7.2750     8.1690    24.6020    -1.0380 
  249.1250     2.4640    73.2670     8.0090     7.2520     8.0290    24.5770    -1.0650 
  249.2500     2.4740    72.4730     8.1190     7.2630     7.7280    24.5370    -1.1800 
  249.3750     2.4860    70.8090     8.2220     7.2950     7.7550    24.5020    -1.2610 
  249.5000     2.5000    69.8800     8.3270     7.3440     7.9290    24.4280    -1.1700 
  249.6250     2.5070    69.1840     8.4810     7.4240     8.1550    24.3770    -0.8720 
  249.7500     2.5000    68.2500     8.7120     7.5540     7.8880    24.3740    -0.6360 
  249.8750     2.4740    68.2700     9.0190     7.7470     7.9670    24.4230    -0.5590 
  250.0000     2.4300    69.2820     9.3610     7.9930     8.5030    24.4330    -0.4850 
  250.1250     2.3800    69.5450     9.6540     8.2460     9.5870    24.4220    -0.3360 
  250.2500     2.3410    68.1500     9.8410     8.4370    10.2300    24.4460    -0.1150 
  250.3750     2.3270    67.2900     9.9030     8.5130     9.5950    24.4600     0.0360 
  250.5000     2.3380    68.7160     9.8560     8.4580     8.6990    24.4060     0.0300 
  250.6250     2.3690    70.5810     9.7360     8.3000     8.1880    24.3920    -0.0940 
  250.7500     2.4040    70.5510     9.6160     8.1400     8.0670    24.4030    -0.2440 
  250.8750     2.4340    66.5600     9.5420     8.0470     8.3210    24.3930    -0.3350 
  251.0000     2.4560    59.9680     9.5470     8.0610     9.2630    24.3400    -0.3660 
  251.1250     2.4670    54.7830     9.6390     8.1850    11.2970    24.2520    -0.3970 
