~V
VERS. 2.00: Ver 2.00
~W
STRT.M 50.0000:
STOP.M 276.0000:
STEP.M 0.1250:
NULL. -999.2500:
UWI. F11044:
~C
DEPT.M :
SP.MV :
GR.API :
RML.OHMM :
RI. :
RXO.OHMM :
CALI.CM :
DEN.GM/CC :
~A
# ...
  106.2500    -9.2600    63.7600     8.9420     7.8290     9.2130    22.8080     2.1460 
  106.3750    -9.3580    62.9900     8.9140     7.7840     9.0920    22.9400     2.1490 
  106.5000    -9.4300    62.9730     8.8890     7.7460     9.0170    23.0490     2.1530 
  106.6250    -9.5700    64.4810     8.8870     7.7350     9.0500    23.0880     2.1580 
  106.7500    -9.6900    64.8340     8.9020     7.7470     9.1700    23.0810     2.1610 
  106.8750    -9.7380    64.3230     8.9230     7.7690     9.3400    23.0710     2.1600 
  107.0000    -9.8340    66.0550     8.9300     7.7790     9.4310    23.0670     2.1540 
  107.1250   -10.0220    69.3350     8.9110     7.7510     9.4010    23.1010     2.1480 
  107.2500   -10.1840    69.7320     8.8750     7.6820     9.3590    23.1460     2.1440 
  107.3750   -10.3890    68.4530     8.8340     7.5850     9.2320    23.1580     2.1450 
  107.5000   -10.6680    69.5410     8.7920     7.4860     9.1170    23.1330     2.1520 
  107.6250   -10.8940    71.8890     8.7250     7.4080     9.0150    23.0880     2.1620 
  107.7500   -11.1010    71.4370     8.6050     7.3310     9.0410    23.0520     2.1740 
  107.8750   -11.3030    68.5720     8.4240     7.2190     9.2580    23.0530     2.1860 
  108.0000   -11.4440    66.6460     8.2070     7.0530     9.5420    23.0980     2.2000 
  108.1250   -11.5250    68.2860     8.0140     6.8460     9.2220    23.1830     2.2140 
  108.2500   -11.5590    71.8150     7.9060     6.6670     8.4090    23.2300     2.2230 
  108.3750   -11.5400    75.2220     7.9270     6.5830     8.1310    23.2830     2.2240 
  108.5000   -11.5660    76.0770     8.1040     6.6410     8.9670    23.3820     2.2170 
  108.6250   -11.6670    74.0020     8.4460     6.8710     9.5840    23.4080     2.2050 
  108.7500   -11.7130    70.6650     8.8560     7.2040     9.8530    23.2930     2.1970 
  108.8750   -11.8120    66.9830     9.2340     7.5600     9.9140    23.0950     2.1950 
  109.0000   -12.0340    64.2430     9.4900     7.8490     9.6480    23.0270     2.1970 
  109.1250   -12.2150    62.5320     9.5710     7.9900     9.2360    23.1190     2.2000 
  109.2500   -12.3700    62.3230     9.5570     8.0110     9.0880    23.2500     2.1990 
  109.3750   -12.5740    64.6900     9.5180     7.9590     9.4610    23.3310     2.1930 
  109.5000   -12.7200    67.7970     9.4930     7.8760     9.9120    23.4270     2.1820 
  109.6250   -12.7360    67.5080     9.4740     7.7910    10.1450    23.5540     2.1700 
  109.7500   -12.7680    66.3250     9.4340     7.7130    10.1630    23.7060     2.1640 
  109.8750   -12.7900    69.2570     9.3680     7.6390    10.0370    23.8700     2.1660 
  110.0000   -12.6880    76.4250     9.2970     7.5780     9.7060    23.9660     2.1750 
  110.1250   -12.5820    79.8000     9.2880     7.5700     9.4110    23.9630     2.1840 
  110.2500   -12.5470    75.7540     9.3860     7.6490     9.1130    23.9980     2.1840 
  110.3750   -12.3960    69.0170     9.5950     7.8390     9.2200    24.1000     2.1750 
  110.5000   -12.1880    65.1580     9.8570     8.1270    10.4070    24.1970     2.1600 
  110.6250   -12.0180    64.9570     9.9980     8.4200    12.1630    24.1070     2.1460 
  110.7500   -11.7030    66.3980     9.8550     8.5490    12.3500    23.9370     2.1380 
  110.8750   -11.2350    68.7770     9.3330     8.3750    11.0570    23.8660     2.1370 
  111.0000   -10.7190    72.7370     8.4750     7.8520    10.0310    23.9110     2.1480 
  111.1250   -10.0780    77.5960     7.4670     7.0510     9.1270    23.9260     2.1710 
  111.2500    -9.4400    83.8120     6.5720     6.2160     7.7530    23.9540     2.2010 
  111.3750    -8.8790    92.3600     5.9220     5.5050     6.6340    24.1660     2.2260 
  111.5000    -8.3210   100.2560     5.5420     5.0040     5.9210    24.5600     2.2390 
  111.6250    -7.8300   101.5870     5.4100     4.7720     5.8180    24.7710     2.2370 
  111.7500    -7.4780    97.9380     5.4160     4.7380     6.0250    24.8180     2.2350 
  111.8750    -7.2500    94.5980     5.5030     4.8370     6.3490    24.7960     2.2430 
  112.0000    -7.1790    95.8880     5.6280     4.9970     6.3090    24.7540     2.2610 
  112.1250    -7.3320   100.0460     5.7580     5.1520     6.3990    24.6670     2.2810 
  112.2500    -7.4460   102.6400     5.8810     5.2800     6.2430    24.5060     2.2900 
  112.3750    -7.4970   100.5190     5.9910     5.3800     6.2410    24.2810     2.2880 
  112.5000    -7.5580    94.3190     6.0660     5.4540     6.5580    24.0260     2.2780 
  112.6250    -7.5790    89.9720     6.0470     5.4770     6.8400    24.0600     2.2680 
  112.7500    -7.5450    90.1740     5.9110     5.4310     6.7040    24.3850     2.2650 
  112.8750    -7.4970    94.2620     5.6690     5.3100     6.4130    24.7110     2.2660 
  113.0000    -7.4300   101.0880     5.3750     5.1340     6.2910    24.8730     2.2710 
  113.1250    -7.2850   108.1250     5.1140     4.9410     6.1720    24.9140     2.2770 
  113.2500    -7.1380   112.9250     4.9390     4.7760     5.8250    24.9550     2.2830 
  113.3750    -7.0870   112.5750     4.8720     4.6710     5.6700    25.0040     2.2900 
  113.5000    -7.0380   109.3810     4.9110     4.6360     5.7410    25.0240     2.2960 
  113.6250    -6.9690   107.6220     5.0310     4.6710     5.7620    24.9970     2.3020 
  113.7500    -7.0030   109.9400     5.1560     4.7410     5.6350    24.9520     2.3070 
  113.8750    -7.0320   113.9870     5.2280     4.8250     5.6130    24.9130     2.3100 
  114.0000    -6.9740   116.0520     5.2260     4.9070     5.8050    24.8800     2.3130 
  114.1250    -6.9260   115.7120     5.1800     4.9710     5.6540    24.8230     2.3150 
  114.2500    -6.8360   115.1790     5.1580     5.0040     5.5410    24.7600     2.3150 
  114.3750    -6.6600   114.8870     5.1880     4.9850     5.5420    24.7230     2.3150 
  114.5000    -6.5130   114.4030     5.2460     4.8920     5.8640    24.7130     2.3190 
  114.6250    -6.3140   113.2920     5.2600     4.7020     6.2300    24.7060     2.3340 
  114.7500    -6.0770   111.5190     5.1730     4.4360     5.8780    24.6920     2.3560 
  114.8750    -5.9070   108.3290     4.9720     4.1130     5.0090    24.6710     2.3770 
  115.0000    -5.7500   105.1300     4.6870     3.7660     4.7160    24.6570     2.3860 
  115.1250    -5.5780   108.1710     4.4330     3.4760     4.9580    24.6430     2.3740 
  115.2500    -5.5640   117.0650     4.4210     3.3520     5.1240    24.6190     2.3520 
  115.3750    -5.6890   122.4280     4.9470     3.5420     5.1450    24.5930     2.3420 
  115.5000    -5.8390   116.0500     6.4020     4.2750     5.6690    24.6580     2.3640 
  115.6250    -6.1790    99.8100     9.5850     6.2150     8.9850    24.7460     2.4350 
  115.7500    -6.6310    84.4280    14.7330     9.9340    19.1570    24.8020     2.5350 
  115.8750    -7.1120    74.8980    21.4690    15.9440    41.3990    24.8070     2.6340 
  116.0000    -7.6990    71.8860    27.7700    23.4290    68.6690    24.7770     2.6960 
  116.1250    -8.4220    73.5770    29.6640    27.7030    68.1780    24.6520     2.6870 
  116.2500    -9.1130    75.0210    26.6230    25.9110    48.3230    24.4090     2.6190 
  116.3750    -9.7220    74.8160    20.7980    20.5500    27.1330    24.0090     2.5130 
  116.5000   -10.3410    75.2810    15.2220    15.2400    14.4530    23.5390     2.3980 
  116.6250   -10.8620    77.8910    11.8520    11.7090    10.6680    23.2960     2.3040 
  116.7500   -11.2260    79.0910    10.1180     9.5300     9.3320    23.3190     2.2400 
  116.8750   -11.5460    76.5860     9.3750     8.2990     8.6600    23.4780     2.2030 
  117.0000   -11.8160    71.4650     9.1520     7.7200     8.2470    23.6200     2.1810 
  117.1250   -11.9150    68.0390     9.1690     7.6120     8.3770    23.7360     2.1640 
  117.2500   -11.9630    67.8940     9.2110     7.6980     8.7310    23.8590     2.1470 
  117.3750   -11.9490    70.1250     9.1870     7.8190     9.1230    23.9470     2.1330 
