~V
VERS. 2.00: Ver 2.00
~W
STRT.M 58.0000:
STOP.M 271.0000:
STEP.M 0.1250:
NULL. -999.2500:
UWI. F11072:
~C
DEPT.M :
DEN.GM/CC :
GR.API :
RML.OHMM :
RI. :
RXO.OHMM :
CALI.CM :
SP.MV :
~A
# ...
  204.2500     2.2650    63.3120    75.4670    65.6340    58.9550    23.0800   -19.2820 
  204.3750     2.2410    58.8090    78.4110    68.1250    63.6360    22.9740   -19.3760 
  204.5000     2.2190    55.3780    81.8180    71.2130    69.7770    22.9320   -19.4670 
  204.6250     2.1990    57.0130    84.5380    74.0000    77.7300    22.9890   -19.5610 
  204.7500     2.1850    59.4940    85.6820    75.6230    81.8920    23.1500   -19.6550 
  204.8750     2.1790    59.8120    84.8810    75.6280    82.3100    23.4270   -19.7420 
  205.0000     2.1820    58.2660    82.4190    74.1090    80.9500    23.9000   -19.8170 
  205.1250     2.1920    56.3410    79.0900    71.6300    76.7160    24.4450   -19.8640 
  205.2500     2.2030    54.9550    75.9650    69.1660    71.6600    24.7500   -19.8820 
  205.3750     2.2120    54.4540    73.4800    67.1840    68.9000    24.8470   -19.8770 
  205.5000     2.2190    53.9660    71.6010    65.7480    72.8680    24.8780   -19.8490 
  205.6250     2.2270    55.3290    69.9050    64.5590    75.0420    24.8720   -19.7960 
  205.7500     2.2360    58.0470    67.8210    63.0970    73.8250    24.8550   -19.7270 
  205.8750     2.2460    59.6180    65.0320    61.0330    70.7620    24.8440   -19.6530 
  206.0000     2.2530    58.8130    61.5050    58.2650    69.3750    24.8010   -19.5760 
  206.1250     2.2530    58.9650    57.5340    54.9750    65.0190    24.7720   -19.4980 
  206.2500     2.2490    59.9780    53.7560    51.7340    59.3130    24.7050   -19.4170 
  206.3750     2.2440    60.3340    50.6320    48.9790    53.0220    24.5770   -19.3370 
  206.5000     2.2430    62.2320    48.4480    47.0040    47.0360    24.4170   -19.2650 
  206.6250     2.2500    66.7830    47.4300    46.0510    42.8310    24.2220   -19.2040 
  206.7500     2.2600    68.7720    47.2170    45.8420    42.3700    24.0050   -19.1520 
  206.8750     2.2700    67.0820    47.5180    46.1250    43.1210    23.8550   -19.1040 
  207.0000     2.2770    65.0780    48.0490    46.6280    44.7030    23.8200   -19.0680 
  207.1250     2.2800    65.4150    48.6520    47.1550    46.8820    23.8200   -19.0570 
  207.2500     2.2790    66.5480    49.3820    47.7060    48.1940    23.8570   -19.0750 
  207.3750     2.2740    65.8290    50.4860    48.4760    49.1800    23.8960   -19.1270 
  207.5000     2.2620    61.9750    52.3020    49.7670    50.7160    23.9360   -19.2070 
  207.6250     2.2410    60.0910    55.3400    52.0610    51.9550    24.0570   -19.3100 
  207.7500     2.2150    61.7810    59.5980    55.4260    55.2200    24.2400   -19.4310 
  207.8750     2.1880    62.7870    65.0790    59.9040    58.4830    24.4040   -19.5690 
  208.0000     2.1670    58.7620    71.7220    65.4570    63.3160    24.5470   -19.7130 
  208.1250     2.1590    52.9300    79.6610    72.2000    72.2010    24.6600   -19.8470 
  208.2500     2.1620    49.7860    88.7250    79.9490    80.0370    24.7690   -19.9650 
  208.3750     2.1750    49.4570    98.8660    88.6770    81.6870    24.8680   -20.0630 
  208.5000     2.1930    50.8040   109.6810    98.1090    83.2830    24.8990   -20.1390 
  208.6250     2.2090    52.3490   119.6890   107.1410    89.5270    24.9160   -20.1850 
  208.7500     2.2180    53.2740   126.7450   113.9430    99.2300    25.0130   -20.2140 
  208.8750     2.2160    53.5170   128.8230   116.6740   107.6420    25.1530   -20.2250 
  209.0000     2.2050    54.1220   125.0350   114.3250   109.1670    25.2770   -20.2230 
  209.1250     2.1900    53.8680   116.3830   107.3120    98.2460    25.2880   -20.2180 
  209.2500     2.1770    51.7290   107.4900    99.4760    87.3150    25.1580   -20.2120 
  209.3750     2.1710    49.1290   101.7920    93.9720    84.0360    24.9490   -20.2040 
  209.5000     2.1740    47.6740   101.2840    92.9320    86.7120    24.6950   -20.1950 
  209.6250     2.1860    48.9730   107.1740    97.8710    91.8330    24.4100   -20.1900 
  209.7500     2.2040    50.1610   117.2650   107.0410    99.2890    24.2600   -20.1830 
  209.8750     2.2240    49.9900   129.2960   118.5010   116.0630    24.3480   -20.1710 
  210.0000     2.2430    48.9800   140.3000   129.5490   137.2800    24.5680   -20.1640 
  210.1250     2.2520    48.3890   146.1660   136.3620   157.2660    24.8310   -20.1550 
  210.2500     2.2500    48.3890   145.5840   137.4370   164.7080    24.9420   -20.1450 
  210.3750     2.2410    48.0980   138.7360   132.6490   158.8520    24.9390   -20.1370 
  210.5000     2.2310    48.9660   127.0910   123.0780   140.9980    24.9120   -20.1360 
  210.6250     2.2270    51.7320   112.0450   109.7800   126.4840    24.9090   -20.1480 
  210.7500     2.2320    53.5200    95.7070    94.7800   124.0660    24.8660   -20.1670 
  210.8750     2.2450    54.5490    79.6010    79.5660   120.0390    24.8020   -20.1830 
  211.0000     2.2630    55.0010    65.3350    65.7980   103.2130    24.7130   -20.1810 
  211.1250     2.2820    55.9990    54.6910    55.3630    76.0150    24.5270   -20.1520 
  211.2500     2.2990    58.4830    47.4040    48.1550    54.8540    24.3230   -20.0900 
  211.3750     2.3130    61.4960    42.9570    43.6950    45.7050    24.1550   -19.9880 
  211.5000     2.3250    61.5330    40.5290    41.1960    43.9540    24.0130   -19.8510 
  211.6250     2.3330    58.9610    39.3430    39.9250    46.1210    23.9040   -19.6760 
  211.7500     2.3380    59.0760    38.4630    38.9690    46.2330    23.7780   -19.4800 
  211.8750     2.3440    62.4550    37.4670    37.8930    42.7650    23.6220   -19.2780 
  212.0000     2.3530    64.6970    36.1630    36.4760    38.9790    23.5080   -19.0910 
  212.1250     2.3650    63.6340    34.5750    34.7110    36.2000    23.4450   -18.9580 
  212.2500     2.3740    61.4820    33.0370    32.9340    35.0380    23.4480   -18.8940 
  212.3750     2.3730    60.2360    31.9240    31.5050    34.1550    23.5450   -18.9200 
  212.5000     2.3610    61.0550    31.6210    30.7710    34.5790    23.6610   -19.0360 
  212.6250     2.3420    62.8690    32.6210    31.1710    34.9070    23.7770   -19.2440 
  212.7500     2.3260    64.4750    34.7770    32.6220    37.6350    23.9720   -19.5200 
  212.8750     2.3200    63.9970    37.8070    34.9500    43.3490    24.2130   -19.8500 
  213.0000     2.3210    60.9960    41.1670    37.7440    56.1430    24.3930   -20.2140 
  213.1250     2.3240    58.4910    44.0040    40.2870    68.2170    24.5060   -20.5820 
  213.2500     2.3220    57.9850    45.7560    41.9640    71.2420    24.5340   -20.9270 
  213.3750     2.3130    57.6000    46.2510    42.5030    67.9250    24.5120   -21.2220 
  213.5000     2.2990    56.5960    45.7320    42.0470    65.0140    24.4980   -21.4510 
  213.6250     2.2840    57.0470    44.6860    41.0120    63.0190    24.4620   -21.6100 
  213.7500     2.2710    58.7150    43.6710    39.9480    61.8860    24.4060   -21.7220 
  213.8750     2.2570    59.2450    42.8630    39.0510    61.5680    24.3380   -21.8030 
  214.0000     2.2420    57.4350    42.2590    38.3490    61.6200    24.2160   -21.8630 
  214.1250     2.2250    56.6390    41.7370    37.7650    61.9170    24.0420   -21.9170 
  214.2500     2.2060    58.4810    41.0890    37.1100    62.2790    23.9160   -21.9840 
  214.3750     2.1880    63.1030    40.1310    36.2090    62.5120    23.8400   -22.0710 
  214.5000     2.1720    66.7420    38.7320    34.9280    62.4700    23.8210   -22.1870 
  214.6250     2.1630    64.1980    36.8290    33.1870    61.3560    23.8410   -22.3320 
  214.7500     2.1610    58.0540    34.6470    31.2110    57.3010    23.8370   -22.4780 
  214.8750     2.1660    53.4280    32.4050    29.2430    49.3000    23.8290   -22.5990 
  215.0000     2.1750    53.0910    30.3660    27.5300    40.5000    23.8510   -22.6790 
  215.1250     2.1850    55.0290    28.6690    26.3170    35.3980    23.8660   -22.6930 
  215.2500     2.1950    56.3520    27.3470    25.5500    31.9930    23.9110   -22.6490 
  215.3750     2.2040    58.3560    26.6370    25.1330    31.6800    23.9750   -22.5460 
