~V
VERS. 2.00: Ver 2.00
~W
STRT.M 53.0000:
STOP.M 257.0000:
STEP.M 0.1250:
NULL. -999.2500:
UWI. F11022:
~C
DEPT.M :
GR.API :
RML.OHMM :
RI. :
RXO.OHMM :
CALI.CM :
SP.MV :
DEN.GM/CC :
~A
# ...
  143.0000    82.6470     7.5480     6.8540     6.5200    26.0470   -21.4180     2.2880 
  143.1250    78.9870     7.3120     6.6280     6.5690    26.0030   -21.4550     2.2870 
  143.2500    79.4230     7.0590     6.3790     6.1980    25.9650   -21.3730     2.2840 
  143.3750    84.1830     6.7750     6.1070     5.7310    25.9960   -21.2360     2.2830 
  143.5000    89.1870     6.4750     5.8300     5.2660    26.1250   -21.2180     2.2850 
  143.6250    89.7500     6.1980     5.5880     4.9580    26.3390   -21.1160     2.2930 
  143.7500    89.2730     5.9720     5.4070     4.8430    26.4670   -20.9570     2.3040 
  143.8750    90.9030     5.8190     5.3000     4.8820    26.4980   -20.9340     2.3140 
  144.0000    92.4890     5.7520     5.2710     4.9960    26.3530   -20.8960     2.3190 
  144.1250    92.5500     5.7920     5.3220     5.1460    26.0620   -20.7320     2.3220 
  144.2500    93.0360     5.9090     5.4240     5.2540    25.9960   -20.7110     2.3270 
  144.3750    93.4160     6.0750     5.5510     5.3130    26.1900   -20.7630     2.3290 
  144.5000    91.9130     6.2480     5.6770     5.4220    26.4680   -20.7150     2.3210 
  144.6250    90.3640     6.3700     5.7630     5.5970    26.5750   -20.7060     2.3070 
  144.7500    90.4120     6.4110     5.7920     5.6580    26.4110   -20.7800     2.2980 
  144.8750    89.5780     6.3650     5.7590     5.6450    26.0390   -20.7800     2.3010 
  145.0000    88.5260     6.2470     5.6750     5.5890    25.6540   -20.7470     2.3120 
  145.1250    89.3990     6.0970     5.5660     5.4630    25.4590   -20.8160     2.3220 
  145.2500    89.7350     5.9690     5.4630     5.3380    25.4950   -20.8920     2.3280 
  145.3750    89.5070     5.8860     5.3800     5.2680    25.6520   -20.8660     2.3290 
  145.5000    90.6000     5.8450     5.3180     5.2480    25.6750   -20.8590     2.3210 
  145.6250    92.0740     5.8260     5.2680     5.2700    25.5560   -20.9890     2.3060 
  145.7500    90.7160     5.8050     5.2220     5.2810    25.4710   -21.0090     2.2980 
  145.8750    87.5340     5.7800     5.1780     5.1870    25.4280   -20.9840     2.3050 
  146.0000    84.9490     5.7640     5.1450     5.0860    25.3840   -21.0990     2.3200 
  146.1250    83.5560     5.7800     5.1390     5.1130    25.3070   -21.2100     2.3300 
  146.2500    84.3570     5.8220     5.1630     5.2340    25.2220   -21.1700     2.3270 
  146.3750    88.2420     5.8780     5.2100     5.3160    25.1990   -21.1610     2.3190 
  146.5000    93.3320     5.9300     5.2700     5.3730    25.2380   -21.2590     2.3140 
  146.6250    96.0010     5.9650     5.3220     5.4790    25.2500   -21.2550     2.3160 
  146.7500    97.9600     5.9830     5.3590     5.5700    25.1980   -21.2260     2.3190 
  146.8750   102.5490     5.9810     5.3770     5.5010    25.1660   -21.3170     2.3220 
  147.0000   106.8280     5.9560     5.3790     5.3490    25.1770   -21.3160     2.3250 
  147.1250   102.8770     5.8950     5.3610     5.2570    25.2100   -21.2200     2.3300 
  147.2500    94.7250     5.8080     5.3200     5.2430    25.2190   -21.2800     2.3360 
  147.3750    89.9400     5.7040     5.2540     5.2050    25.2460   -21.3760     2.3400 
  147.5000    91.1610     5.5980     5.1650     5.0950    25.3370   -21.3420     2.3440 
  147.6250    92.8100     5.4990     5.0560     4.9240    25.4390   -21.2870     2.3480 
  147.7500    92.9140     5.4050     4.9480     4.8170    25.4050   -21.3700     2.3520 
  147.8750    93.5930     5.3180     4.8510     4.7860    25.2680   -21.4250     2.3530 
  148.0000    97.1570     5.2400     4.7690     4.7380    25.2050   -21.4290     2.3530 
  148.1250   101.7940     5.1740     4.6930     4.5930    25.2970   -21.4870     2.3530 
  148.2500   102.2840     5.1090     4.6150     4.4330    25.5370   -21.5460     2.3560 
  148.3750    98.2570     5.0410     4.5420     4.3870    25.7740   -21.5350     2.3560 
  148.5000    94.5950     4.9770     4.4880     4.3830    25.8490   -21.5650     2.3520 
  148.6250    93.6530     4.9370     4.4720     4.3360    25.7100   -21.7210     2.3440 
  148.7500    92.3490     4.9320     4.4840     4.3170    25.5610   -21.8100     2.3320 
  148.8750    89.7460     4.9640     4.5160     4.3560    25.4180   -21.7890     2.3150 
  149.0000    87.1190     5.0190     4.5580     4.4660    25.3040   -21.8900     2.2960 
  149.1250    87.0310     5.0850     4.6160     4.4490    25.2310   -22.0540     2.2860 
  149.2500    87.6440     5.1700     4.6990     4.4200    25.1960   -22.0860     2.2830 
  149.3750    89.0100     5.3000     4.8190     4.4110    25.1650   -22.2240     2.2840 
  149.5000    92.1980     5.4960     4.9880     4.5620    25.1460   -22.3980     2.2860 
  149.6250    96.0810     5.7550     5.2060     4.9210    25.1390   -22.3930     2.2890 
  149.7500    98.1540     6.0080     5.4280     5.5560    25.1410   -22.4270     2.2890 
  149.8750    96.3280     6.1810     5.5950     6.3260    25.1500   -22.5840     2.2870 
  150.0000    92.5930     6.2100     5.6540     6.7450    25.1700   -22.6260     2.2880 
  150.1250    88.8350     6.0540     5.5650     6.4230    25.1980   -22.5800     2.2950 
  150.2500    87.0060     5.7910     5.3810     5.6460    25.2180   -22.6720     2.3030 
  150.3750    87.5640     5.4980     5.1550     5.2870    25.2430   -22.6770     2.3070 
  150.5000    88.9860     5.2640     4.9500     5.4220    25.2600   -22.6090     2.3110 
  150.6250    88.7210     5.2310     4.8720     5.6310    25.2390   -22.7070     2.3180 
  150.7500    87.7950     5.4870     4.9970     5.5850    25.1960   -22.7840     2.3260 
  150.8750    87.0470     6.0850     5.3740     5.4860    25.1580   -22.7330     2.3320 
  151.0000    85.2430     6.9790     5.9850     6.2220    25.1400   -22.7330     2.3410 
  151.1250    80.3910     7.9150     6.6730     8.1030    25.1380   -22.8510     2.3540 
  151.2500    75.4310     8.4470     7.1180    10.0310    25.1470   -22.8890     2.3540 
  151.3750    74.6700     8.2730     7.0840     9.8590    25.1710   -22.8820     2.3300 
  151.5000    78.2050     7.4890     6.5970     7.7250    25.1980   -22.9600     2.2960 
  151.6250    81.6180     6.6260     5.9720     5.7220    25.2090   -23.0490     2.2820 
  151.7500    82.6040     6.1820     5.5720     5.1810    25.2110   -23.0650     2.2850 
  151.8750    82.1560     6.2910     5.5370     5.5500    25.2110   -23.1400     2.2930 
  152.0000    81.6540     6.8770     5.8720     6.6220    25.2110   -23.3040     2.2970 
  152.1250    80.4920     7.7040     6.4790     8.6270    25.2190   -23.3580     2.2920 
  152.2500    78.0210     8.3850     7.0820    10.6630    25.2400   -23.3510     2.2770 
  152.3750    76.1060     8.7150     7.5060    10.6470    25.2680   -23.4620     2.2610 
  152.5000    76.8840     8.7610     7.7370     8.6140    25.2830   -23.6050     2.2520 
  152.6250    78.5330     8.8490     7.9390     7.2400    25.2860   -23.5960     2.2540 
  152.7500    77.2920     9.1930     8.2640     7.6460    25.2860   -23.6060     2.2610 
  152.8750    74.2870     9.7160     8.6820     9.3600    25.2860   -23.7070     2.2700 
  153.0000    71.3750    10.1160     8.9960    11.3920    25.2870   -23.6980     2.2810 
  153.1250    69.2480     9.9080     8.8400    12.3890    25.2930   -23.6910     2.2870 
  153.2500    69.3870     9.1020     8.2140    11.2290    25.3120   -23.8030     2.2810 
  153.3750    72.6750     8.0570     7.3780     8.4280    25.3390   -23.8090     2.2690 
  153.5000    76.4390     7.2590     6.6830     6.1860    25.3500   -23.7300     2.2620 
  153.6250    76.6350     7.0960     6.4370     5.8790    25.3330   -23.8070     2.2650 
  153.7500    76.1450     7.4440     6.6080     6.9690    25.3030   -23.9420     2.2680 
  153.8750    77.2620     8.1040     7.0970     8.6170    25.2890   -23.9340     2.2650 
  154.0000    81.2900     8.8090     7.7290     9.9330    25.2940   -23.9390     2.2560 
  154.1250    85.9340     9.2710     8.2640    10.0640    25.3160   -24.0590     2.2480 
