~V
VERS. 2.00: Ver 2.00
~W
STRT.M 50.0000:
STOP.M 276.0000:
STEP.M 0.1250:
NULL. -999.2500:
UWI. F11044:
~C
DEPT.M :
SP.MV :
GR.API :
RML.OHMM :
RI. :
RXO.OHMM :
CALI.CM :
DEN.GM/CC :
~A
# ...
  196.2500   -17.5770    70.8920    22.6420    22.1600    29.9180    24.9010     2.5480 
  196.3750   -17.0830    68.8430    16.2390    15.9090    17.0890    24.9000     2.5100 
  196.5000   -16.5800    65.0400    12.8090    12.5500    13.3500    24.9090     2.4710 
  196.6250   -16.3030    61.8190    11.7600    11.1560    13.2850    24.9020     2.4620 
  196.7500   -16.0290    58.5780    11.8150    10.7590    12.9440    24.8950     2.4780 
  196.8750   -15.6870    55.6370    12.3220    11.0030    11.5710    24.8850     2.5050 
  197.0000   -15.4000    54.0240    12.9170    11.5670    11.2670    24.8920     2.5320 
  197.1250   -15.2030    53.8340    13.2740    12.0780    12.6190    24.9120     2.5480 
  197.2500   -15.0540    54.3320    13.2870    12.3050    15.9910    24.9050     2.5500 
  197.3750   -14.9140    56.4670    12.9810    12.2100    18.1410    24.8610     2.5390 
  197.5000   -14.8230    59.1320    12.4680    11.8680    14.1520    24.8290     2.5230 
  197.6250   -14.7320    58.7130    11.8950    11.4030    11.8620    24.8600     2.5140 
  197.7500   -14.6020    58.1680    11.3790    10.9370    11.8480    24.9740     2.5130 
  197.8750   -14.5340    59.5700    10.9390    10.4900    12.0850    24.9920     2.5130 
  198.0000   -14.5470    60.8660    10.5440    10.0320    11.1480    24.9250     2.5050 
  198.1250   -14.4610    61.2420    10.1450     9.5180     9.6610    24.9620     2.4820 
  198.2500   -14.3070    61.6760     9.7300     8.9640     8.6470    25.0150     2.4540 
  198.3750   -14.2250    62.0130     9.3340     8.4280     7.6970    24.9860     2.4330 
  198.5000   -14.0980    59.7620     9.0070     7.9820     7.3890    24.8720     2.4240 
  198.6250   -13.8710    56.7600     8.8030     7.6970     7.3660    24.8910     2.4250 
  198.7500   -13.7330    55.1400     8.6830     7.5360     7.7940    24.9090     2.4290 
  198.8750   -13.6430    54.1380     8.5930     7.4380     7.9980    24.8770     2.4300 
  199.0000   -13.5530    54.7700     8.4800     7.3320     7.8490    24.8340     2.4270 
  199.1250   -13.6130    57.4760     8.3110     7.1630     7.2180    24.7560     2.4190 
  199.2500   -13.6660    61.0980     8.1280     6.9540     6.5160    24.6080     2.4100 
  199.3750   -13.5840    62.5970     7.9920     6.7590     6.1360    24.5480     2.4050 
  199.5000   -13.4760    60.2500     7.9640     6.6420     6.1310    24.7350     2.4080 
  199.6250   -13.3230    59.2060     8.0950     6.6670     6.7130    25.0800     2.4230 
  199.7500   -13.0340    63.2150     8.3370     6.8110     7.3730    25.1480     2.4460 
  199.8750   -12.7310    70.8260     8.6400     7.0340     7.9360    25.1040     2.4660 
  200.0000   -12.5020    77.1480     8.9530     7.2830     8.3230    25.1130     2.4770 
  200.1250   -12.2680    79.9620     9.2430     7.5140     8.1570    25.1860     2.4740 
  200.2500   -12.1230    83.0140     9.4960     7.7190     8.1610    25.2200     2.4600 
  200.3750   -12.1710    87.2890     9.6930     7.8980     8.2760    25.2360     2.4420 
  200.5000   -12.3670    88.8510     9.8030     8.0260     8.6570    25.2350     2.4210 
  200.6250   -12.6600    84.2990     9.7770     8.0480     9.1290    25.0160     2.4040 
  200.7500   -12.9700    77.9270     9.6430     7.9600    10.3220    24.7500     2.3940 
  200.8750   -13.2500    75.8060     9.4450     7.7790    10.7140    24.3000     2.3910 
  201.0000   -13.4440    79.8890     9.2500     7.5490     8.6460    23.8620     2.3930 
  201.1250   -13.5690    88.7960     9.1350     7.3320     7.6770    23.8330     2.3950 
  201.2500   -13.7360    98.0920     9.1230     7.1740     8.2260    24.2300     2.3940 
  201.3750   -13.9120   102.2010     9.2170     7.0890     9.3630    24.7540     2.3930 
  201.5000   -14.0280    98.9750     9.3930     7.0790     9.4990    25.1150     2.3960 
  201.6250   -14.2700    95.1020     9.6130     7.1420     9.2750    25.1480     2.4090 
  201.7500   -14.6720    98.6730     9.8180     7.2350     9.4730    25.0520     2.4290 
  201.8750   -15.1320   106.4960     9.9730     7.3180    10.4170    24.9800     2.4490 
  202.0000   -15.6890   107.2310    10.0840     7.3700    11.1090    24.9600     2.4640 
  202.1250   -16.2910    99.4570    10.2450     7.4200    11.4580    24.9660     2.4740 
  202.2500   -16.7370    94.4500    10.6110     7.5650    11.5010    24.9600     2.4860 
  202.3750   -17.0430    94.1800    11.3440     7.9320    11.2140    24.9490     2.5060 
  202.5000   -17.2600    93.1320    12.5610     8.6340    11.8450    24.9430     2.5330 
  202.6250   -17.1970    91.0510    14.3170     9.8070    14.9860    24.9430     2.5560 
  202.7500   -16.9650    89.3210    16.2680    11.3190    19.8020    24.9450     2.5640 
  202.8750   -16.6700    85.3280    17.9490    12.9090    23.5310    24.9510     2.5560 
  203.0000   -16.2080    79.9250    18.7940    14.0960    22.3130    24.9490     2.5430 
  203.1250   -15.5830    79.5230    18.1800    14.1360    20.0450    24.8900     2.5350 
  203.2500   -14.9870    82.7140    16.4430    13.0760    18.6290    24.8090     2.5280 
  203.3750   -14.4430    84.9530    14.1490    11.3560    17.4680    24.6960     2.5100 
  203.5000   -13.9060    86.0450    11.9820     9.5790    13.5000    24.5200     2.4760 
  203.6250   -13.4640    92.9790    10.6250     8.2920     9.4140    24.2790     2.4350 
  203.7500   -13.1490   100.3660    10.2050     7.6240     8.1320    24.1710     2.4130 
  203.8750   -12.9270    99.7650    10.7140     7.6140     9.0300    24.3320     2.4230 
  204.0000   -12.7520    91.7610    11.9860     8.2530    11.9620    24.6430     2.4680 
  204.1250   -12.6830    87.1750    13.6380     9.4940    15.6230    24.8960     2.5350 
  204.2500   -12.7260    88.7550    14.9470    10.8420    17.6790    24.9810     2.5990 
  204.3750   -12.7210    89.0200    15.3430    11.6910    16.8030    24.9890     2.6440 
  204.5000   -12.6430    87.6560    14.5970    11.5730    16.4900    24.9690     2.6570 
  204.6250   -12.5190    89.6700    12.9000    10.4500    16.0220    24.9710     2.6300 
  204.7500   -12.2290    91.3930    11.0360     9.0210    13.6060    25.0040     2.5760 
  204.8750   -11.7180    88.0820     9.4750     7.7120    10.3550    25.0710     2.5100 
  205.0000   -11.1740    78.9290     8.4230     6.7320     7.8790    25.1830     2.4440 
  205.1250   -10.6360    69.9330     7.9360     6.1780     7.1390    25.2220     2.3880 
  205.2500    -9.9820    64.7740     7.7840     5.9230     7.1560    25.2100     2.3480 
  205.3750    -9.3850    63.1480     7.8070     5.8710     7.3010    25.2050     2.3320 
  205.5000    -8.9040    64.2620     7.8690     5.9170     7.3820    25.2050     2.3410 
  205.6250    -8.4590    69.5090     7.8710     5.9700     7.1770    25.1770     2.3720 
  205.7500    -8.1800    79.1800     7.8230     6.0030     6.8720    25.1150     2.4090 
  205.8750    -8.1220    87.8230     7.7840     6.0460     6.7470    25.0440     2.4430 
  206.0000    -8.0960    90.0470     7.8110     6.1390     6.9390    24.9870     2.4680 
  206.1250    -8.0420    87.5030     7.9430     6.3090     7.1960    24.9550     2.4800 
  206.2500    -8.0840    86.2260     8.1230     6.5110     7.4750    24.9550     2.4830 
  206.3750    -8.1450    86.9930     8.2720     6.6830     7.6220    24.9690     2.4770 
  206.5000    -8.1730    86.2260     8.3100     6.7480     7.6600    24.9680     2.4690 
  206.6250    -8.2180    84.4040     8.1530     6.6330     7.5570    24.8940     2.4640 
  206.7500    -8.2280    84.0240     7.8460     6.3790     7.3710    24.7800     2.4630 
  206.8750    -8.1940    84.5860     7.4650     6.0450     7.0460    24.6710     2.4610 
  207.0000    -8.1730    83.9310     7.1100     5.7060     6.5110    24.5770     2.4540 
  207.1250    -8.2010    82.2890     6.9050     5.4470     6.1360    24.5910     2.4370 
  207.2500    -8.2920    82.4170     6.8700     5.3060     6.1470    24.6180     2.4170 
  207.3750    -8.4170    83.0860     6.9830     5.2900     6.4130    24.7030     2.3980 
