~V
VERS. 2.00: Ver 2.00
~W
STRT.M 47.0000:
STOP.M 272.0000:
STEP.M 0.1250:
NULL. -999.2500:
UWI. F11040:
~C
DEPT.M :
DEN.GM/CC :
GR.API :
RML.OHMM :
RI. :
RXO.OHMM :
CALI.CM :
SP.MV :
~A
# ...
  137.0000     2.4240    58.1690    10.5790     9.9840     9.8970    22.9170   -15.2000 
  137.1250     2.4170    59.3990    10.4830     9.7600     9.7930    23.1090   -15.0640 
  137.2500     2.4270    55.3460    11.0410    10.1270    11.4230    23.3410   -14.9150 
  137.3750     2.4420    49.7350    11.9240    10.8740    14.8380    23.6010   -14.7470 
  137.5000     2.4560    48.5420    12.7550    11.7100    18.7940    23.7820   -14.5980 
  137.6250     2.4690    51.2130    13.0500    12.2000    17.7430    23.8410   -14.5120 
  137.7500     2.4840    53.7850    12.6490    12.0850    14.9760    23.8500   -14.4470 
  137.8750     2.4960    55.3430    11.5940    11.3060    15.0230    23.8570   -14.4320 
  138.0000     2.4950    58.2280    10.1320    10.0350    18.0920    23.8750   -14.4660 
  138.1250     2.4690    63.8130     8.6490     8.6130    16.3300    23.9170   -14.5510 
  138.2500     2.4280    69.4180     7.4670     7.3930    10.8850    23.9800   -14.6540 
  138.3750     2.3850    74.5620     6.7230     6.5430     7.4580    24.0450   -14.7890 
  138.5000     2.3510    77.9350     6.4390     6.1140     6.6020    24.0970   -14.9750 
  138.6250     2.3350    76.1570     6.6340     6.1530     6.8470    24.1570   -15.1940 
  138.7500     2.3360    71.2230     7.1620     6.5360     7.4120    24.2190   -15.4530 
  138.8750     2.3480    67.6470     7.9410     7.1980     8.3810    24.2510   -15.6970 
  139.0000     2.3660    66.7330     8.8770     8.0640     9.5740    24.2120   -15.9060 
  139.1250     2.3850    66.0990     9.8610     9.0510    10.5090    24.1340   -16.0690 
  139.2500     2.3950    64.6110    10.7800    10.0380    10.5130    24.0650   -16.2030 
  139.3750     2.3900    61.0470    11.5730    10.9510    11.8960    23.9780   -16.3360 
  139.5000     2.3650    56.4570    12.2280    11.7440    13.8160    23.9370   -16.4450 
  139.6250     2.3240    55.6940    12.7430    12.3650    15.2930    24.0170   -16.5140 
  139.7500     2.2800    58.9630    13.1310    12.8070    14.6030    24.2230   -16.5220 
  139.8750     2.2450    62.2740    13.3130    12.9950    14.0030    24.4030   -16.4990 
  140.0000     2.2240    63.7410    13.1620    12.8250    14.5310    24.4920   -16.4660 
  140.1250     2.2200    65.4280    12.5000    12.1540    15.9970    24.4860   -16.4240 
  140.2500     2.2290    66.9190    11.4550    11.1190    16.1140    24.4090   -16.3750 
  140.3750     2.2450    67.7960    10.2450     9.9190    14.0590    24.2650   -16.3130 
  140.5000     2.2640    69.0280     9.1840     8.8300    10.8090    24.0710   -16.2730 
  140.6250     2.2750    69.6560     8.6820     8.1980     8.4050    23.9340   -16.2640 
  140.7500     2.2720    69.8930     8.8460     8.1250     8.0640    23.9200   -16.2620 
  140.8750     2.2580    70.6970     9.7030     8.6570     8.8440    23.9680   -16.2130 
  141.0000     2.2480    69.8710    11.1850     9.7740    10.2840    23.9840   -16.1220 
  141.1250     2.2650    65.9020    13.1540    11.4270    11.7460    23.9430   -16.0410 
  141.2500     2.3170    63.0480    15.1900    13.2820    13.1970    23.8660   -15.9560 
  141.3750     2.3970    62.2100    16.9290    15.0230    14.1580    23.7050   -15.8800 
  141.5000     2.4860    58.8650    18.0700    16.3380    16.4770    23.4930   -15.7890 
  141.6250     2.5470    51.1170    18.3890    16.9260    19.2700    23.3960   -15.6620 
  141.7500     2.5710    46.7400    18.2070    16.9700    20.5760    23.4350   -15.5250 
  141.8750     2.5670    48.4260    17.8830    16.7420    19.8120    23.5310   -15.4020 
  142.0000     2.5550    51.2810    17.7670    16.5520    17.6720    23.6360   -15.2970 
  142.1250     2.5540    51.9730    18.1190    16.6590    18.0230    23.6920   -15.1650 
  142.2500     2.5630    51.5620    18.8400    17.0570    18.5520    23.7110   -15.0850 
  142.3750     2.5750    51.1490    19.7730    17.6660    19.4550    23.7150   -15.0230 
  142.5000     2.5830    49.1010    20.7200    18.3520    20.5380    23.7180   -14.9640 
  142.6250     2.5850    45.9650    21.4810    18.9640    21.5190    23.7270   -14.9080 
  142.7500     2.5860    43.8560    22.0110    19.4360    22.6470    23.7420   -14.8340 
  142.8750     2.5870    42.6940    22.3270    19.7600    23.7800    23.7620   -14.7820 
  143.0000     2.5880    42.4070    22.4720    19.9540    23.7850    23.7710   -14.7460 
  143.1250     2.5870    45.4000    22.4840    20.0250    22.8630    23.7680   -14.7450 
  143.2500     2.5830    48.8850    22.4360    20.0240    23.5430    23.7540   -14.7140 
  143.3750     2.5790    49.2620    22.3740    19.9850    25.3610    23.7300   -14.6640 
  143.5000     2.5760    45.9550    22.3480    19.9480    25.8930    23.7110   -14.6450 
  143.6250     2.5740    42.2870    22.4180    19.9670    22.6130    23.6970   -14.6670 
  143.7500     2.5740    40.1010    22.5950    20.0650    20.7710    23.6810   -14.7040 
  143.8750     2.5740    40.2320    22.8610    20.2390    20.2860    23.6670   -14.7280 
  144.0000     2.5750    42.1430    23.1480    20.4460    20.9660    23.6680   -14.6960 
  144.1250     2.5790    43.9750    23.3080    20.5740    21.9720    23.6940   -14.6270 
  144.2500     2.5840    45.7880    23.2040    20.5070    22.7420    23.7360   -14.5750 
  144.3750     2.5890    48.3850    22.7440    20.1550    23.2440    23.7730   -14.5330 
  144.5000     2.5920    49.7320    21.9310    19.5030    22.9820    23.7910   -14.4540 
  144.6250     2.5880    48.9870    20.8930    18.6310    22.2370    23.7970   -14.3100 
  144.7500     2.5780    49.3750    19.9230    17.7780    21.0210    23.8090   -14.1440 
  144.8750     2.5620    51.7940    19.2330    17.1230    19.9580    23.8280   -13.9690 
  145.0000     2.5450    54.2590    18.9430    16.7830    18.7240    23.8400   -13.8280 
  145.1250     2.5330    55.5680    19.0950    16.8200    18.2920    23.8430   -13.7100 
  145.2500     2.5250    55.4520    19.4520    17.0670    19.3460    23.8410   -13.5880 
  145.3750     2.5190    54.6910    19.7810    17.3440    20.3420    23.8360   -13.4620 
  145.5000     2.5130    55.0990    19.8490    17.4520    20.4370    23.8230   -13.3300 
  145.6250     2.5030    57.8250    19.4220    17.1640    19.9600    23.8010   -13.1780 
  145.7500     2.4940    58.9610    18.5740    16.4970    19.0960    23.7770   -13.0140 
  145.8750     2.4890    56.0040    17.4460    15.5450    18.5770    23.7550   -12.8540 
  146.0000     2.4910    51.3920    16.2460    14.4770    17.2100    23.7410   -12.6980 
  146.1250     2.4950    50.7130    15.2250    13.5090    15.6480    23.7470   -12.5670 
  146.2500     2.4980    52.8800    14.5120    12.7770    14.5210    23.8160   -12.4450 
  146.3750     2.4970    53.0450    14.1600    12.3440    13.7660    23.8600   -12.3100 
  146.5000     2.4970    48.7110    14.1470    12.2130    13.6640    23.8700   -12.1450 
  146.6250     2.5020    45.8650    14.4030    12.3640    14.1400    23.8640   -11.9650 
  146.7500     2.5110    47.8960    14.7720    12.6780    14.7710    23.8530   -11.7890 
  146.8750     2.5210    51.5560    15.1910    13.0940    15.3240    23.8400   -11.6260 
  147.0000     2.5300    52.5460    15.6190    13.5590    15.5700    23.8240   -11.4940 
  147.1250     2.5350    50.2230    15.9310    13.9530    16.1650    23.8060   -11.3620 
  147.2500     2.5380    48.8920    15.8970    14.0640    17.0500    23.7890   -11.2080 
  147.3750     2.5360    49.1950    15.2340    13.6390    17.3200    23.7840   -11.0500 
  147.5000     2.5260    50.7980    13.7690    12.5040    16.9640    23.7890   -10.8800 
  147.6250     2.5030    55.5600    11.5530    10.6530    16.3400    23.7980   -10.7640 
  147.7500     2.4700    62.7450     9.1850     8.6020    14.8420    23.8050   -10.7040 
  147.8750     2.4360    71.1590     7.1370     6.7660    11.0180    23.7930   -10.6800 
  148.0000     2.4080    76.8880     5.6870     5.3930     6.8460    23.7560   -10.6810 
  148.1250     2.3920    78.4970     4.9460     4.6100     5.1960    23.7260   -10.6750 
