~V
VERS. 2.00: Ver 2.00
~W
STRT.M 47.0000:
STOP.M 270.0000:
STEP.M 0.1250:
NULL. -999.2500:
UWI. F11075:
~C
DEPT.M :
GR.API :
RML.OHMM :
RI. :
RXO.OHMM :
CALI.CM :
DEN.GM/CC :
SP.MV :
~A
# ...
  227.0000    89.0450    11.2980     9.7740    11.2520    25.6000     2.4490   -10.1650 
  227.1250    90.9830    11.6000     9.5980    11.4120    25.5710     2.4480   -10.1340 
  227.2500    93.3010    12.2290     9.8590    11.3000    25.4850     2.4520   -10.1510 
  227.3750    93.2330    12.7980    10.2800    11.5720    25.3960     2.4620   -10.1800 
  227.5000    91.4810    13.0880    10.5860    12.3100    25.3370     2.4780   -10.1950 
  227.6250    90.0150    13.0660    10.6820    13.7160    25.3390     2.4940   -10.2150 
  227.7500    88.5480    12.8100    10.5710    14.4710    25.3940     2.5020   -10.2390 
  227.8750    86.8280    12.4420    10.2870    13.2300    25.4610     2.4900   -10.2500 
  228.0000    85.4510    12.1390     9.9720    11.0900    25.5270     2.4660   -10.2390 
  228.1250    84.6260    12.0640     9.7670    10.7620    25.5870     2.4420   -10.2060 
  228.2500    85.3950    12.3960     9.8230    11.4170    25.6210     2.4320   -10.1590 
  228.3750    88.9170    13.4480    10.4020    10.5550    25.6290     2.4500   -10.0990 
  228.5000    91.0410    15.2800    11.6100    11.6360    25.6320     2.4890   -10.0310 
  228.6250    89.0110    17.8580    13.5220    17.1690    25.6310     2.5390    -9.9630 
  228.7500    84.4930    20.7660    15.9530    25.1110    25.6260     2.5910    -9.8890 
  228.8750    80.3040    22.8020    18.0690    28.6260    25.6130     2.6320    -9.7880 
  229.0000    77.0150    22.9440    18.7270    30.8100    25.5940     2.6560    -9.6540 
  229.1250    75.2250    20.9560    17.4010    32.1520    25.5670     2.6590    -9.5040 
  229.2500    77.8220    17.5620    14.6400    29.6640    25.5350     2.6400    -9.3400 
  229.3750    83.9920    14.0400    11.6260    17.8630    25.4580     2.6000    -9.1660 
  229.5000    85.8260    11.2440     9.1460    11.7320    25.3360     2.5540    -9.0030 
  229.6250    79.4070     9.3190     7.3440     8.0570    25.1860     2.5120    -8.8240 
  229.7500    69.0460     8.1540     6.1820     6.9320    25.0550     2.4850    -8.6450 
  229.8750    64.5180     7.6830     5.6530     6.6250    24.9840     2.4770    -8.5040 
  230.0000    66.9690     7.6660     5.5440     6.7700    24.9650     2.4800    -8.4180 
  230.1250    73.8720     7.9920     5.7290     7.0820    24.9800     2.4860    -8.3760 
  230.2500    80.4470     8.5370     6.0850     7.3250    25.0270     2.4850    -8.3740 
  230.3750    84.6710     9.1350     6.5000     7.9020    25.0890     2.4790    -8.4000 
  230.5000    87.2190     9.5880     6.8580     8.6310    25.1310     2.4740    -8.4370 
  230.6250    87.8730     9.7710     7.0900     9.0990    25.1670     2.4720    -8.4790 
  230.7500    86.9610     9.6350     7.1610     9.3290    25.1890     2.4740    -8.5140 
  230.8750    87.1500     9.2090     7.0540     9.2560    25.1960     2.4730    -8.5230 
  231.0000    89.6240     8.6970     6.8470     8.7380    25.1850     2.4660    -8.5070 
  231.1250    89.6430     8.2570     6.6030     7.8390    25.1680     2.4550    -8.4850 
  231.2500    85.7120     8.0060     6.3760     7.6270    25.1670     2.4420    -8.4560 
  231.3750    83.5860     8.0100     6.2090     7.8090    25.1770     2.4300    -8.4030 
  231.5000    84.0030     8.1640     6.1190     7.7980    25.1980     2.4200    -8.3350 
  231.6250    83.8780     8.3590     6.1140     7.6320    25.2240     2.4150    -8.2790 
  231.7500    80.9910     8.4930     6.1730     7.6480    25.2560     2.4140    -8.2440 
  231.8750    77.6300     8.4910     6.2340     7.6130    25.2870     2.4180    -8.2260 
  232.0000    75.2250     8.3990     6.2400     7.5840    25.3060     2.4210    -8.2220 
  232.1250    73.7260     8.2860     6.1830     7.4760    25.3250     2.4230    -8.2130 
  232.2500    73.4340     8.2210     6.0940     7.7160    25.3440     2.4240    -8.2080 
  232.3750    73.7140     8.2710     6.0510     8.0220    25.3730     2.4230    -8.2590 
  232.5000    75.8980     8.4310     6.1080     8.2600    25.4130     2.4210    -8.3550 
  232.6250    80.6450     8.6870     6.2770     8.6190    25.4400     2.4150    -8.4610 
  232.7500    84.8760     9.0110     6.5450     8.8030    25.4520     2.4060    -8.5670 
  232.8750    84.7710     9.3850     6.8870     9.0750    25.4680     2.3940    -8.6920 
  233.0000    84.9530     9.8070     7.2710     9.8300    25.4840     2.3830    -8.8170 
  233.1250    88.5100    10.3160     7.6880    10.4970    25.4930     2.3710    -8.9520 
  233.2500    91.7040    10.9540     8.1510    10.8050    25.5140     2.3550    -9.0950 
  233.3750    90.1400    11.7320     8.6580    11.7850    25.5390     2.3320    -9.2070 
  233.5000    86.9060    12.5330     9.1530    12.7770    25.5680     2.3120    -9.3080 
  233.6250    84.7980    13.2220     9.5950    13.7070    25.5720     2.3030    -9.4310 
  233.7500    82.9490    13.6870     9.9640    15.3110    25.5360     2.3060    -9.5720 
  233.8750    81.5060    13.8600    10.2540    15.9140    25.4590     2.3130    -9.7070 
  234.0000    80.5360    13.9120    10.5020    14.3500    25.4110     2.3100    -9.8540 
  234.1250    79.4750    14.0840    10.7920    14.2390    25.4130     2.2940   -10.0010 
  234.2500    78.9360    14.7000    11.2890    17.5890    25.4330     2.2740   -10.1360 
  234.3750    80.0610    16.3400    12.3700    20.7470    25.4060     2.2670   -10.2680 
  234.5000    81.3900    19.3640    14.4010    21.6340    25.3380     2.2770   -10.3890 
  234.6250    79.4840    24.3110    17.9670    24.4060    25.2760     2.2950   -10.4990 
  234.7500    72.8020    31.7840    23.8000    32.4820    25.2480     2.3100   -10.5980 
  234.8750    65.4660    42.6210    32.9810    64.4620    25.2710     2.3060   -10.6940 
  235.0000    62.7840    55.3900    44.5260    92.3840    25.3350     2.2880   -10.7740 
  235.1250    63.3630    67.5890    56.2970    98.3800    25.4050     2.2610   -10.8390 
  235.2500    63.1110    76.2460    65.2090    94.2110    25.4680     2.2360   -10.8990 
  235.3750    63.5390    79.1440    68.5970    90.8070    25.5070     2.2210   -10.9720 
  235.5000    67.2380    78.5600    68.4200    85.2350    25.5410     2.2160   -11.0640 
  235.6250    70.3900    76.7220    66.7600    81.0700    25.5820     2.2190   -11.1500 
  235.7500    69.2140    75.0770    65.0410    78.4600    25.6480     2.2270   -11.2150 
  235.8750    65.3290    74.1710    63.9500    78.4130    25.6990     2.2340   -11.2660 
  236.0000    63.4300    73.8500    63.5610    77.6760    25.7230     2.2360   -11.3170 
  236.1250    63.4200    74.0250    63.8480    75.4060    25.7330     2.2330   -11.3690 
  236.2500    63.3460    74.5890    64.6440    75.9150    25.7460     2.2280   -11.4280 
  236.3750    62.0730    75.4560    65.7130    82.2720    25.7700     2.2250   -11.4860 
  236.5000    61.0120    76.5800    66.8920    85.7670    25.7820     2.2240   -11.5340 
  236.6250    61.5290    78.1710    68.3460    86.0930    25.7830     2.2240   -11.5820 
  236.7500    62.5840    80.5900    70.4740    82.5140    25.7740     2.2240   -11.6330 
  236.8750    61.6090    84.3970    73.9910    84.3020    25.7570     2.2210   -11.6850 
  237.0000    59.5290    89.3760    78.8960    94.0980    25.7380     2.2200   -11.7360 
  237.1250    58.8550    94.8970    84.7550   111.7530    25.7270     2.2230   -11.7930 
  237.2500    60.4050    99.5370    90.4220   126.8760    25.7030     2.2330   -11.8530 
  237.3750    61.2450   101.2920    93.6650   130.8040    25.6800     2.2430   -11.9160 
  237.5000    60.7950   100.2850    93.3570   124.9750    25.6650     2.2460   -11.9780 
  237.6250    60.2840    96.9700    89.5670   115.7600    25.6700     2.2390   -12.0240 
  237.7500    59.9400    92.0340    83.7740   101.1560    25.6750     2.2250   -12.0960 
  237.8750    59.4310    87.0020    78.4680    88.2380    25.6840     2.2130   -12.1760 
  238.0000    58.7590    84.0160    75.5550    77.5900    25.7030     2.2060   -12.2750 
  238.1250    58.3200    84.2360    75.8820    74.2180    25.7280     2.2050   -12.3800 
