~V
VERS. 2.00: Ver 2.00
~W
STRT.M 51.0000:
STOP.M 252.0000:
STEP.M 0.1250:
NULL. -999.2500:
UWI. F11020:
~C
DEPT.M :
DEN.GM/CC :
GR.API :
RML.OHMM :
RI. :
RXO.OHMM :
CALI.CM :
SP.MV :
~A
# ...
  129.7500     2.5390    54.6590    22.1820    20.1730    16.2450    24.0760   -16.8650 
  129.8750     2.5680    56.7760    22.6030    20.5740    16.6420    24.2250   -16.7580 
  130.0000     2.5910    55.8690    22.9800    20.9340    16.8290    24.2870   -16.6780 
  130.1250     2.6010    51.9840    23.2820    21.2210    17.7700    24.3150   -16.6240 
  130.2500     2.5990    48.0950    23.4630    21.3930    18.6400    24.3760   -16.5840 
  130.3750     2.5860    46.5270    23.5160    21.4450    18.5200    24.4660   -16.5470 
  130.5000     2.5630    47.1420    23.4800    21.4100    17.8210    24.5410   -16.5200 
  130.6250     2.5410    48.5260    23.4660    21.3960    17.6620    24.5830   -16.5090 
  130.7500     2.5250    48.6370    23.6450    21.5670    17.7650    24.5770   -16.5070 
  130.8750     2.5120    48.5790    24.1170    22.0160    17.4710    24.5530   -16.5170 
  131.0000     2.4950    48.8680    24.8890    22.7520    17.9190    24.5450   -16.5240 
  131.1250     2.4720    48.2690    25.8200    23.6390    19.1820    24.5770   -16.5370 
  131.2500     2.4440    47.3270    26.6110    24.3910    20.5290    24.6430   -16.5520 
  131.3750     2.4150    48.4700    26.9920    24.7550    19.9820    24.7230   -16.5770 
  131.5000     2.3870    50.6230    26.8850    24.6530    18.1150    24.8240   -16.6060 
  131.6250     2.3750    50.3720    26.4010    24.1920    16.7620    24.8760   -16.6390 
  131.7500     2.3870    48.0570    25.7730    23.5930    16.6830    24.7680   -16.6760 
  131.8750     2.4150    46.9460    25.2470    23.0930    17.1330    24.6090   -16.7120 
  132.0000     2.4420    46.3910    24.9380    22.7980    17.4900    24.5160   -16.7650 
  132.1250     2.4640    45.5900    24.8830    22.7460    17.5640    24.5290   -16.8210 
  132.2500     2.4810    46.3160    25.0830    22.9370    17.6390    24.6340   -16.8780 
  132.3750     2.4930    49.2180    25.4640    23.2990    18.5320    24.7610   -16.9350 
  132.5000     2.5010    50.9660    25.9540    23.7660    20.3730    24.8560   -16.9990 
  132.6250     2.5060    49.0610    26.4410    24.2300    22.1300    24.9070   -17.0660 
  132.7500     2.4960    45.7310    26.7740    24.5470    22.6560    24.9540   -17.1320 
  132.8750     2.4690    44.8060    26.8570    24.6260    21.6190    25.0200   -17.2090 
  133.0000     2.4320    46.6750    26.6540    24.4320    21.0160    25.0780   -17.2860 
  133.1250     2.3980    50.5620    26.2020    24.0010    20.7650    25.0910   -17.3730 
  133.2500     2.3740    54.6540    25.6150    23.4440    19.6870    25.0270   -17.4810 
  133.3750     2.3550    56.1190    25.0870    22.9400    18.0370    24.8660   -17.6060 
  133.5000     2.3330    54.1600    24.7550    22.6240    16.8000    24.6300   -17.7300 
  133.6250     2.3210    50.7040    24.7110    22.5820    16.5270    24.4480   -17.8600 
  133.7500     2.3390    48.0940    24.9820    22.8400    17.3530    24.4870   -18.0190 
  133.8750     2.3820    47.7890    25.4450    23.2810    18.9800    24.6580   -18.1810 
  134.0000     2.4310    48.9570    25.9580    23.7700    21.3300    24.8040   -18.3390 
  134.1250     2.4640    49.4530    26.3520    24.1450    21.9900    24.8500   -18.4710 
  134.2500     2.4750    49.1290    26.4850    24.2720    20.5290    24.8240   -18.5640 
  134.3750     2.4740    50.7860    26.3960    24.1870    19.7130    24.7790   -18.6160 
  134.5000     2.4690    53.9900    26.1890    23.9890    20.1610    24.6990   -18.6260 
  134.6250     2.4650    54.4360    26.0250    23.8330    20.0990    24.6120   -18.6020 
  134.7500     2.4620    50.6080    26.1010    23.9060    19.4900    24.5790   -18.5250 
  134.8750     2.4580    48.0130    26.4890    24.2750    19.6060    24.5700   -18.4240 
  135.0000     2.4460    49.5650    27.1380    24.8930    20.4340    24.5400   -18.3020 
  135.1250     2.4310    52.7870    27.8260    25.5490    22.1480    24.4690   -18.1660 
  135.2500     2.4240    52.8160    28.1600    25.8670    23.9960    24.3210   -18.0180 
  135.3750     2.4320    50.6140    27.8360    25.5580    23.4780    24.1340   -17.8710 
  135.5000     2.4490    49.9440    26.7730    24.5460    20.8740    23.9850   -17.7360 
  135.6250     2.4630    51.0680    25.1900    23.0390    18.1100    23.9120   -17.5990 
  135.7500     2.4640    52.2540    23.4970    21.4260    15.9780    23.9110   -17.4580 
  135.8750     2.4510    53.9190    22.0550    20.0530    14.7950    23.9960   -17.3050 
  136.0000     2.4280    56.3160    20.9970    19.0450    14.4780    24.2060   -17.1440 
  136.1250     2.4020    56.8520    20.3350    18.4140    14.8120    24.5270   -16.9790 
  136.2500     2.3870    54.1540    20.0210    18.1150    15.6770    24.8460   -16.8230 
  136.3750     2.3910    51.5400    19.9080    18.0070    16.1200    25.0430   -16.6750 
  136.5000     2.4110    50.6880    19.9100    18.0090    15.4870    25.1490   -16.5270 
  136.6250     2.4340    50.1440    19.9700    18.0670    14.9220    25.2230   -16.3790 
  136.7500     2.4500    48.2340    20.0570    18.1500    15.0510    25.2280   -16.2490 
  136.8750     2.4610    46.4330    20.1480    18.2370    15.6680    25.1040   -16.1360 
  137.0000     2.4700    46.2880    20.2280    18.3120    16.0930    24.8980   -16.0400 
  137.1250     2.4780    46.9730    20.2490    18.3320    16.0900    24.7220   -15.9730 
  137.2500     2.4850    46.5150    20.1310    18.2190    15.0520    24.6640   -15.9120 
  137.3750     2.4870    45.5100    19.8570    17.9590    13.9060    24.7140   -15.8520 
  137.5000     2.4850    44.7790    19.4880    17.6070    12.8500    24.7050   -15.8010 
  137.6250     2.4890    44.7030    19.1440    17.2790    11.5620    24.5290   -15.7730 
  137.7500     2.4990    46.6970    18.9430    17.0880    10.1970    24.2860   -15.7530 
  137.8750     2.5080    51.1570    18.8680    17.0180     9.3110    24.1170   -15.7540 
  138.0000     2.5130    54.5960    18.8370    16.9880     9.0870    24.0890   -15.7570 
  138.1250     2.5130    54.1940    18.7420    16.8970     9.6630    24.1750   -15.7530 
  138.2500     2.5010    52.1840    18.4960    16.6640    10.6680    24.3390   -15.7530 
  138.3750     2.4770    51.3600    18.0860    16.2720    10.6420    24.4240   -15.7530 
  138.5000     2.4460    52.5670    17.4950    15.7100     9.3130    24.2820   -15.7470 
  138.6250     2.4230    55.4030    16.7300    14.9810     8.1130    24.0100   -15.7110 
  138.7500     2.4080    58.0320    15.8450    14.1390     8.0290    23.8970   -15.6360 
  138.8750     2.3920    57.4740    14.9560    13.2910     8.4680    24.0250   -15.4950 
  139.0000     2.3760    54.3040    14.1620    12.5350     8.9500    24.3520   -15.3170 
  139.1250     2.3680    52.0390    13.5600    11.9620     9.3820    24.8450   -15.1180 
  139.2500     2.3680    51.3490    13.2430    11.6590    10.0110    25.4010   -14.9060 
  139.3750     2.3610    50.4630    13.2050    11.6240    10.4410    25.8270   -14.7030 
  139.5000     2.3520    51.6310    13.3800    11.7900    10.4270    26.0530   -14.5240 
  139.6250     2.3470    57.0210    13.5460    11.9490    10.2680    26.1170   -14.3710 
  139.7500     2.3320    63.5260    13.3290    11.7420    10.5120    26.1250   -14.2450 
  139.8750     2.2960    67.0480    12.5330    10.9840    10.6080    26.1630   -14.1500 
  140.0000     2.2510    69.5580    11.2420     9.7540     9.6460    26.2300   -14.0820 
  140.1250     2.2190    74.5100     9.7780     8.3590     7.6600    26.2370   -14.0040 
  140.2500     2.2140    81.5670     8.5230     7.1650     5.8110    26.1160   -13.9250 
  140.3750     2.2290    87.7720     7.6630     6.3460     4.8440    25.9430   -13.8330 
  140.5000     2.2510    90.7480     7.2120     5.9160     4.5540    25.7900   -13.7180 
  140.6250     2.2690    89.5960     7.0900     5.7990     4.6460    25.7170   -13.5850 
  140.7500     2.2760    85.1020     7.1510     5.8590     4.9240    25.7320   -13.4520 
  140.8750     2.2770    81.0620     7.2020     5.9060     5.1220    25.7820   -13.3140 
