~V
VERS. 2.00: Ver 2.00
~W
STRT.M 53.0000:
STOP.M 279.0000:
STEP.M 0.1250:
NULL. -999.2500:
UWI. F11068:
~C
DEPT.M :
GR.API :
RML.OHMM :
RI. :
RXO.OHMM :
CALI.CM :
SP.MV :
DEN.GM/CC :
~A
# ...
  109.2500    64.5990     9.0820     7.3460     7.4890    23.5440   -13.8290     2.2200 
  109.3750    65.1470     9.0280     7.1530     7.4270    23.4890   -14.3310     2.2170 
  109.5000    64.1520     9.2600     7.2620     7.4190    23.4040   -14.6860     2.2340 
  109.6250    63.6480     9.6160     7.6100     7.1920    23.3860   -14.8170     2.2520 
  109.7500    64.0680     9.8810     7.9810     6.8270    23.4650   -14.8110     2.2570 
  109.8750    65.1830     9.9430     8.2160     6.5060    23.5120   -14.6170     2.2460 
  110.0000    66.3920     9.7800     8.2290     6.5710    23.4390   -14.2830     2.2240 
  110.1250    64.8950     9.4400     8.0230     6.8870    23.3160   -13.8930     2.2050 
  110.2500    63.1590     9.0600     7.7410     7.2060    23.2160   -13.5190     2.1950 
  110.3750    63.2210     8.7040     7.4630     7.2840    23.1700   -13.1630     2.1940 
  110.5000    64.4620     8.3820     7.2120     7.1530    23.1820   -12.8900     2.1970 
  110.6250    66.5670     8.0570     6.9460     7.0530    23.2380   -12.7450     2.2020 
  110.7500    69.3750     7.7110     6.6270     6.9450    23.3090   -12.6090     2.2090 
  110.8750    72.5260     7.3820     6.2780     6.6600    23.3690   -12.5730     2.2170 
  111.0000    73.7830     7.1500     5.9800     6.3550    23.4120   -12.5650     2.2230 
  111.1250    72.0090     7.1420     5.8600     6.1430    23.4400   -12.5650     2.2200 
  111.2500    68.8540     7.3580     5.9460     6.3030    23.4150   -12.5070     2.2040 
  111.3750    64.7960     7.7410     6.2210     6.7330    23.3370   -12.4760     2.1790 
  111.5000    61.8310     8.1780     6.6100     7.2640    23.2880   -12.3750     2.1530 
  111.6250    62.3710     8.5080     6.9860     7.9280    23.3190   -12.1280     2.1380 
  111.7500    65.1710     8.6540     7.2360     8.6070    23.4290   -11.8100     2.1390 
  111.8750    67.2310     8.6230     7.3180     8.9100    23.5580   -11.4140     2.1550 
  112.0000    67.1540     8.4880     7.2650     8.0950    23.5990   -11.0250     2.1810 
  112.1250    66.2700     8.3520     7.1550     8.0260    23.5110   -10.6890     2.2130 
  112.2500    67.3850     8.2860     7.0750     7.8080    23.3900   -10.3500     2.2460 
  112.3750    70.1250     8.3170     7.0680     7.6050    23.2890    -9.9610     2.2760 
  112.5000    73.1440     8.4550     7.1510     8.0770    23.2710    -9.5410     2.3000 
  112.6250    76.1180     8.6990     7.3290    10.1390    23.3140    -9.1650     2.3130 
  112.7500    78.8110     8.9900     7.5490    10.9780    23.3500    -8.8570     2.3130 
  112.8750    80.3990     9.2680     7.7640     8.9690    23.3620    -8.6490     2.3020 
  113.0000    79.5330     9.4660     7.9340     7.5940    23.3690    -8.5020     2.2810 
  113.1250    77.2570     9.5280     8.0130     7.7290    23.3860    -8.3660     2.2570 
  113.2500    76.4860     9.4880     8.0090     8.0450    23.3860    -8.2640     2.2370 
  113.3750    76.4140     9.3980     7.9520     8.1060    23.3680    -8.2110     2.2260 
  113.5000    76.2360     9.3140     7.8800     7.9960    23.3660    -8.1840     2.2240 
  113.6250    74.8820     9.2890     7.8380     8.0650    23.4240    -8.1530     2.2280 
  113.7500    72.6940     9.3400     7.8470     8.3130    23.5420    -8.1620     2.2330 
  113.8750    71.5750     9.4800     7.9220     8.3820    23.6980    -8.1520     2.2410 
  114.0000    72.8770     9.7090     8.0700     8.1670    23.8170    -8.1460     2.2510 
  114.1250    74.6660    10.0020     8.2980     7.8220    23.8050    -8.1090     2.2620 
  114.2500    72.6380    10.2660     8.5530     7.8900    23.7390    -8.1330     2.2680 
  114.3750    68.5680    10.4000     8.7580     8.0670    23.6600    -8.1800     2.2670 
  114.5000    66.4230    10.3270     8.8230     8.0030    23.5240    -8.3770     2.2630 
  114.6250    66.3960    10.0140     8.6660     7.7660    23.3630    -8.7080     2.2620 
  114.7500    65.3690     9.6060     8.3700     7.5110    23.2600    -9.1270     2.2660 
  114.8750    65.7020     9.2530     8.0490     7.4740    23.2760    -9.6650     2.2680 
  115.0000    69.0920     9.0860     7.8180     7.3580    23.3740   -10.2980     2.2600 
  115.1250    72.1180     9.2040     7.7780     7.4900    23.4880   -11.1370     2.2370 
  115.2500    71.2470     9.5170     7.9140     7.8240    23.6070   -12.0800     2.2070 
  115.3750    68.2100     9.9160     8.1800     8.3620    23.7370   -13.0590     2.1810 
  115.5000    66.9290    10.2780     8.4960     8.8230    23.8870   -13.9720     2.1640 
  115.6250    66.0740    10.4900     8.7520     9.0150    24.0390   -14.7220     2.1560 
  115.7500    65.2320    10.5550     8.9000     9.0560    24.1280   -15.3380     2.1540 
  115.8750    66.2300    10.5150     8.9510     8.9410    24.1320   -15.7670     2.1560 
  116.0000    68.8140    10.4290     8.9490     8.6770    24.1220   -15.9600     2.1640 
  116.1250    69.1070    10.3510     8.9450     8.3220    24.0450   -15.7980     2.1820 
  116.2500    66.6580    10.3060     8.9600     8.0210    23.7690   -15.3770     2.2020 
  116.3750    65.9670    10.2900     8.9820     7.8630    23.4270   -14.7910     2.2200 
  116.5000    67.2920    10.2870     8.9910     7.7990    23.2110   -14.1100     2.2290 
  116.6250    67.8750    10.2760     8.9720     7.7000    23.1410   -13.4430     2.2310 
  116.7500    67.6440    10.2500     8.9350     7.6120    23.1170   -12.8580     2.2290 
  116.8750    67.5790    10.2130     8.8960     7.6020    23.1250   -12.3650     2.2260 
  117.0000    67.7380    10.1700     8.8620     7.5920    23.1370   -12.0090     2.2230 
  117.1250    67.1600    10.1070     8.8180     7.6440    23.1570   -11.8410     2.2210 
  117.2500    67.6410    10.0020     8.7350     7.6850    23.2000   -11.8130     2.2210 
  117.3750    69.7310     9.8320     8.5910     7.7070    23.2820   -11.8590     2.2270 
  117.5000    71.2780     9.6000     8.3770     7.7590    23.4020   -11.8860     2.2370 
  117.6250    71.0360     9.3380     8.1150     7.8590    23.4960   -11.7830     2.2440 
  117.7500    70.9740     9.1160     7.8710     8.0360    23.4960   -11.5010     2.2420 
  117.8750    72.1880     8.9980     7.7110     8.0300    23.4240   -11.0530     2.2290 
  118.0000    73.4600     9.0340     7.6940     7.6770    23.3420   -10.4990     2.2110 
  118.1250    71.4740     9.2710     7.8830     7.3690    23.2910    -9.8200     2.2020 
  118.2500    67.7160     9.6400     8.2240     7.8640    23.2630    -9.1010     2.2060 
  118.3750    65.9430    10.0510     8.6380     8.2720    23.2360    -8.4100     2.2180 
  118.5000    68.5040    10.3910     9.0140     8.2360    23.2030    -7.8250     2.2300 
  118.6250    71.1430    10.5290     9.2140     8.1390    23.2030    -7.4020     2.2310 
  118.7500    69.3820    10.4780     9.2220     7.9530    23.2200    -7.1900     2.2210 
  118.8750    66.6870    10.2950     9.0820     7.7040    23.2180    -7.2200     2.2070 
  119.0000    67.2720    10.0610     8.8750     7.5730    23.2040    -7.4510     2.1930 
  119.1250    69.8200     9.8470     8.6790     7.5790    23.2110    -7.9350     2.1850 
  119.2500    71.9240     9.6700     8.5190     7.5700    23.2160    -8.5680     2.1830 
  119.3750    75.2120     9.5210     8.3830     7.6560    23.2280    -9.2920     2.1880 
  119.5000    78.1320     9.3910     8.2530     7.8140    23.2800   -10.0080     2.2020 
  119.6250    77.7070     9.2840     8.1220     8.0490    23.3320   -10.6910     2.2220 
  119.7500    76.5020     9.2170     8.0120     8.0180    23.3420   -11.3440     2.2410 
  119.8750    76.1410     9.2120     7.9600     7.9980    23.3650   -11.9330     2.2560 
  120.0000    75.2160     9.2850     7.9930     7.9470    23.4430   -12.4660     2.2640 
  120.1250    74.9690     9.4470     8.1260     8.2900    23.5470   -12.8550     2.2620 
  120.2500    77.1030     9.6590     8.3190     8.9630    23.6140   -13.1220     2.2530 
  120.3750    78.0630     9.8840     8.5380     9.3630    23.6740   -13.2560     2.2380 
