~V
VERS. 2.00: Ver 2.00
~W
STRT.M 55.0000:
STOP.M 283.0000:
STEP.M 0.1250:
NULL. -999.2500:
UWI. F11062:
~C
DEPT.M :
SP.MV :
GR.API :
RML.OHMM :
RI. :
RXO.OHMM :
CALI.CM :
DEN.GM/CC :
~A
# ...
   88.7500   -20.4500    54.6300     9.1840     7.3370    10.0280    24.4930     2.1430 
   88.8750   -20.5550    55.5270     9.2270     7.3860    10.3700    24.5390     2.1400 
   89.0000   -20.6040    54.0140     9.2310     7.4130    10.4220    24.5650     2.1390 
   89.1250   -20.5760    50.2400     9.2030     7.4160    10.3770    24.5750     2.1420 
   89.2500   -20.4780    48.1980     9.1790     7.4170    10.3430    24.5670     2.1470 
   89.3750   -20.3290    49.8060     9.1800     7.4300    10.3510    24.5260     2.1540 
   89.5000   -20.1260    53.8200     9.2040     7.4560    10.4050    24.4330     2.1610 
   89.6250   -19.8610    57.1680     9.2270     7.4820    10.5000    24.2800     2.1670 
   89.7500   -19.5600    58.9300     9.2130     7.4870    10.6980    24.1320     2.1710 
   89.8750   -19.1940    58.9000     9.1490     7.4570    10.9280    24.0390     2.1760 
   90.0000   -18.8600    57.1740     9.0320     7.3870    10.8880    23.9910     2.1830 
   90.1250   -18.5320    55.4330     8.8780     7.2830    10.4990    23.9600     2.1900 
   90.2500   -18.2200    56.1380     8.7190     7.1710    10.1810    23.9510     2.1950 
   90.3750   -17.9040    58.3350     8.5760     7.0740     9.9380    23.9430     2.1950 
   90.5000   -17.6300    59.3630     8.4650     7.0080     9.6740    23.9040     2.1900 
   90.6250   -17.3320    56.3580     8.4020     6.9900     9.4100    23.8630     2.1810 
   90.7500   -17.0120    53.1900     8.3790     7.0120     9.2210    23.8650     2.1700 
   90.8750   -16.6610    54.6670     8.3860     7.0650     9.0680    23.8830     2.1610 
   91.0000   -16.1870    59.5970     8.4140     7.1350     8.9290    23.8880     2.1530 
   91.1250   -15.5380    62.0720     8.4360     7.1990     8.9050    23.8720     2.1500 
   91.2500   -14.7640    61.1070     8.4140     7.2210     8.9080    23.8280     2.1530 
   91.3750   -13.8570    59.4110     8.3000     7.1600     8.8740    23.7170     2.1640 
   91.5000   -12.8340    60.8970     8.0480     6.9770     8.8110    23.4750     2.1850 
   91.6250   -11.7770    67.1730     7.6020     6.6230     8.6000    23.0300     2.2150 
   91.7500   -10.7420    73.1920     7.0180     6.1420     8.1150    22.4920     2.2480 
   91.8750    -9.7940    76.6370     6.3650     5.5880     7.3180    21.9840     2.2780 
   92.0000    -8.9980    78.9250     5.7380     5.0390     6.3680    21.6240     2.3030 
   92.1250    -8.4860    81.1950     5.2680     4.5950     5.4720    21.4910     2.3210 
   92.2500    -8.1910    82.2960     5.0200     4.3120     5.0950    21.4950     2.3300 
   92.3750    -8.1750    81.7970     5.0510     4.2370     4.9690    21.5640     2.3290 
   92.5000    -8.4340    81.5590     5.3830     4.3940     5.0290    21.6250     2.3140 
   92.6250    -8.9610    81.6370     6.0150     4.8060     5.5040    21.6140     2.2810 
   92.7500    -9.6560    81.5180     6.7670     5.3600     6.6150    21.5680     2.2420 
   92.8750   -10.4570    79.3810     7.4630     5.9400     8.4110    21.5490     2.2080 
   93.0000   -11.3240    73.3750     7.9410     6.4180    11.2240    21.5940     2.1900 
   93.1250   -12.2050    67.9220     8.0790     6.6710    13.8070    21.6970     2.1890 
   93.2500   -13.1050    66.8010     8.0150     6.7450    11.7250    21.8290     2.1950 
   93.3750   -13.9730    68.0970     7.9270     6.7490     8.6660    22.0550     2.1960 
   93.5000   -14.7640    67.4310     7.9860     6.8080     7.8150    22.4160     2.1910 
   93.6250   -15.4830    62.3780     8.3060     7.0300     8.5220    22.9160     2.1840 
   93.7500   -16.0990    55.7030     8.8000     7.3880     9.3520    23.3400     2.1850 
   93.8750   -16.6600    50.5980     9.3580     7.8200     9.7000    23.6510     2.1990 
   94.0000   -17.1660    51.5340     9.8600     8.2410     9.8450    23.8690     2.2210 
   94.1250   -17.5990    58.6700    10.1780     8.5430     9.9400    23.9910     2.2440 
   94.2500   -17.9580    63.5190    10.2990     8.6970     9.9540    24.0130     2.2560 
   94.3750   -18.2210    62.6000    10.2360     8.7000     9.9550    23.9950     2.2510 
   94.5000   -18.4080    57.9310    10.0290     8.5800     9.9440    23.9680     2.2320 
   94.6250   -18.4870    55.3220     9.7350     8.3730     9.9660    23.9400     2.2050 
   94.7500   -18.5840    55.4240     9.4430     8.1490     9.9360    23.9280     2.1810 
   94.8750   -18.6400    54.8890     9.2100     7.9540     9.8480    23.9310     2.1650 
   95.0000   -18.6620    52.5970     9.0640     7.8140     9.7690    23.9170     2.1600 
   95.1250   -18.6830    52.1410     9.0120     7.7450     9.7560    23.8920     2.1630 
   95.2500   -18.6880    54.6560     9.0120     7.7220     9.8790    23.8750     2.1660 
   95.3750   -18.7120    56.1370     9.0330     7.7250    10.0040    23.8710     2.1670 
   95.5000   -18.7270    55.1930     9.0500     7.7380    10.0280    23.8940     2.1650 
   95.6250   -18.7790    54.9270     9.0510     7.7490     9.9550    23.9760     2.1620 
   95.7500   -18.8080    55.6080     9.0480     7.7590     9.9100    24.0840     2.1580 
   95.8750   -18.8360    54.8630     9.0540     7.7760     9.9620    24.1970     2.1540 
   96.0000   -18.8640    52.7960     9.0880     7.8070    10.0330    24.2680     2.1480 
   96.1250   -18.8650    52.9350     9.1700     7.8620    10.0310    24.2720     2.1410 
   96.2500   -18.8420    55.1350     9.2950     7.9410     9.9940    24.2600     2.1360 
   96.3750   -18.8180    57.9350     9.4480     8.0380     9.9810    24.2340     2.1320 
   96.5000   -18.8070    59.5980     9.5980     8.1360     9.9940    24.1600     2.1300 
   96.6250   -18.7600    59.1820     9.6870     8.2000    10.0090    24.0790     2.1280 
   96.7500   -18.6860    58.4380     9.6750     8.2020    10.0320    24.1450     2.1260 
   96.8750   -18.5990    58.2610     9.5430     8.1250     9.9970    24.3160     2.1260 
   97.0000   -18.4750    58.2280     9.3210     7.9800     9.9140    24.4200     2.1310 
   97.1250   -18.3110    58.1340     9.1210     7.8360     9.9840    24.3510     2.1420 
   97.2500   -18.1040    59.0330     9.1210     7.8140    10.0230    24.1800     2.1580 
   97.3750   -17.8610    59.6200     9.4750     8.0340    10.1030    23.9700     2.1840 
   97.5000   -17.5690    57.3150    10.2400     8.5640    10.5350    23.8130     2.2230 
   97.6250   -17.2600    52.4990    11.2990     9.3760    12.2700    23.7900     2.2730 
   97.7500   -16.9690    49.5280    12.2440    10.1880    15.3200    23.7230     2.3190 
   97.8750   -16.6880    48.7430    12.6970    10.7050    20.2170    23.6850     2.3410 
   98.0000   -16.4430    48.9880    12.4020    10.6710    27.8630    23.6570     2.3270 
   98.1250   -16.2550    51.5830    11.3150     9.9480    25.1710    23.4760     2.2810 
   98.2500   -16.1670    56.6090     9.9810     8.9180    15.3980    23.1910     2.2320 
   98.3750   -16.1390    60.8250     8.8460     7.9410    10.5660    22.9410     2.1970 
   98.5000   -16.1840    61.6240     8.1690     7.2540     9.2390    22.8230     2.1780 
   98.6250   -16.3160    58.2030     8.0250     6.9700     9.1330    22.8960     2.1730 
   98.7500   -16.4790    53.7780     8.1670     6.9500     9.3010    23.1000     2.1730 
   98.8750   -16.6780    51.1840     8.4100     7.0790     9.5420    23.3680     2.1750 
   99.0000   -16.9320    51.1350     8.6200     7.2470     9.7170    23.6520     2.1770 
   99.1250   -17.2110    53.0820     8.7200     7.3770     9.7980    23.8690     2.1790 
   99.2500   -17.4800    55.7460     8.7370     7.4520     9.8600    23.9130     2.1780 
   99.3750   -17.7590    58.3240     8.7050     7.4830     9.8780    23.8290     2.1740 
   99.5000   -18.0220    58.1010     8.6580     7.4890     9.8450    23.7230     2.1670 
   99.6250   -18.2520    54.9680     8.6240     7.4890     9.8680    23.7900     2.1590 
   99.7500   -18.4600    53.4070     8.6110     7.4940    10.0310    24.0060     2.1530 
   99.8750   -18.6460    54.4200     8.6150     7.5060    10.1730    24.2860     2.1520 
