~V
VERS. 2.00: Ver 2.00
~W
STRT.M 53.0000:
STOP.M 220.0000:
STEP.M 0.1250:
NULL. -999.2500:
UWI. F11005:
~C
DEPT.M :
DEN.GM/CC :
GR.API :
RML.OHMM :
RI. :
RXO.OHMM :
CALI.CM :
SP.MV :
~A
# ...
   75.5000     2.1970    83.0160     9.0160     7.2970     8.4630    23.3460   -14.7320 
   75.6250     2.2330    78.1400     8.8400     7.1660     8.8020    23.3310   -14.0460 
   75.7500     2.2720    75.9370     8.6040     6.9510     8.8310    23.3300   -12.9030 
   75.8750     2.2970    79.2060     8.3160     6.6740     8.2000    23.4130   -11.4570 
   76.0000     2.2940    85.3500     7.9890     6.3530     7.0230    23.6250    -9.9380 
   76.1250     2.2640    90.1320     7.6770     6.0360     6.0980    23.9960    -8.6600 
   76.2500     2.2260    90.5120     7.4560     5.7920     5.7730    24.4250    -7.7540 
   76.3750     2.1940    88.0030     7.3760     5.6670     5.8580    24.7460    -7.2250 
   76.5000     2.1730    86.1180     7.4460     5.6760     6.1990    24.7240    -7.0650 
   76.6250     2.1680    84.6880     7.6420     5.8130     6.5100    24.3410    -7.3540 
   76.7500     2.1720    83.5880     7.8910     6.0150     6.7490    23.9070    -7.9760 
   76.8750     2.1810    84.5390     8.1580     6.2490     6.9220    23.6640    -8.7940 
   77.0000     2.1900    87.7820     8.4210     6.4880     7.0260    23.6390    -9.6120 
   77.1250     2.1960    88.6600     8.6530     6.6990     7.3180    23.7040   -10.2730 
   77.2500     2.2010    84.5460     8.8300     6.8560     7.5910    23.6800   -10.7970 
   77.3750     2.2070    79.4190     8.9310     6.9340     7.8950    23.5730   -11.2080 
   77.5000     2.2150    77.8350     8.9640     6.9390     8.0830    23.4510   -11.4930 
   77.6250     2.2230    79.9170     8.9550     6.8980     8.0810    23.4160   -11.6440 
   77.7500     2.2270    81.5630     8.9430     6.8430     8.0660    23.4480   -11.7180 
   77.8750     2.2220    80.7990     8.9290     6.7760     8.0560    23.4860   -11.6640 
   78.0000     2.2100    80.1130     8.8830     6.6890     7.9980    23.4850   -11.4270 
   78.1250     2.1920    83.2500     8.7180     6.5510     7.8360    23.4630   -10.9460 
   78.2500     2.1760    86.3290     8.3940     6.3260     7.3200    23.4870   -10.2780 
   78.3750     2.1720    84.8620     7.9350     6.0080     6.9520    23.5610    -9.4440 
   78.5000     2.1890    80.7310     7.4760     5.6640     7.6420    23.6420    -8.4620 
   78.6250     2.2430    81.1180     7.2990     5.4660     7.6800    23.7920    -7.4060 
   78.7500     2.3240    84.7260     7.5790     5.5480     6.7470    23.9440    -6.4210 
   78.8750     2.4100    86.5180     8.3600     5.9850     6.4000    24.1320    -5.6520 
   79.0000     2.4700    84.4020     9.4840     6.7480     7.9440    24.3360    -5.2360 
   79.1250     2.4700    79.3770    10.5350     7.6310    12.5010    24.5710    -5.3290 
   79.2500     2.4190    75.9080    11.0920     8.2530    15.8850    24.7290    -5.8110 
   79.3750     2.3410    75.6750    10.9990     8.3840    14.9550    24.7690    -6.6350 
   79.5000     2.2660    76.2620    10.4090     8.0690    11.4990    24.6870    -7.7830 
   79.6250     2.2170    73.9170     9.7190     7.5840     9.4820    24.4890    -9.1680 
   79.7500     2.1920    71.5340     9.2900     7.2300     9.3930    24.2420   -10.5850 
   79.8750     2.1820    71.8940     9.2080     7.1040    10.0880    23.9300   -11.9040 
   80.0000     2.1780    71.5990     9.3690     7.1790    10.6420    23.6830   -13.0730 
   80.1250     2.1740    67.3780     9.5750     7.3510    10.6690    23.5480   -14.0530 
   80.2500     2.1710    64.9850     9.6750     7.4870    10.4390    23.5240   -14.8170 
   80.3750     2.1680    67.2230     9.6490     7.5450    10.2650    23.5590   -15.3260 
   80.5000     2.1650    71.0810     9.5520     7.5440    10.2500    23.6030   -15.6330 
   80.6250     2.1600    71.7250     9.4680     7.5310    10.3710    23.6330   -15.8340 
   80.7500     2.1530    72.0000     9.4570     7.5470    10.5210    23.6710   -15.9500 
   80.8750     2.1430    74.2520     9.5400     7.6150    10.4720    23.7130   -15.9430 
   81.0000     2.1350    76.4640     9.7010     7.7290    10.2040    23.7340   -15.8090 
   81.1250     2.1380    75.5930     9.8570     7.8340     9.8700    23.7490   -15.4440 
   81.2500     2.1520    71.3320     9.8690     7.8300     9.7350    23.8170   -14.8040 
   81.3750     2.1750    67.1620     9.6100     7.6190     9.6650    23.9190   -13.9680 
   81.5000     2.1990    67.4610     9.0260     7.1520     9.4810    24.0530   -13.0340 
   81.6250     2.2130    73.2750     8.1730     6.4750     8.4020    24.2870   -12.0300 
   81.7500     2.2170    79.3110     7.3240     5.7950     6.9930    24.6230   -11.0680 
   81.8750     2.2150    81.3150     6.7090     5.2670     5.8130    24.9740   -10.2780 
   82.0000     2.2190    80.9580     6.4960     5.0000     5.0900    25.1700    -9.7160 
   82.1250     2.2390    78.7120     6.8030     5.0940     5.2490    24.9360    -9.4370 
   82.2500     2.2700    74.4600     7.4370     5.4640     6.2920    24.4870    -9.4550 
   82.3750     2.3020    70.8760     8.1810     5.9970     7.7560    24.1650    -9.7670 
   82.5000     2.3230    70.2280     8.7900     6.5110     8.9350    23.9150   -10.2910 
   82.6250     2.3180    74.0450     9.0220     6.7740     9.2010    23.7920   -10.9620 
   82.7500     2.2930    79.5300     8.9360     6.7630     7.9140    23.7080   -11.6850 
   82.8750     2.2550    84.9230     8.6790     6.5770     6.8720    23.7450   -12.4480 
   83.0000     2.2130    87.8670     8.4380     6.3610     6.8110    23.9800   -13.2040 
   83.1250     2.1820    85.9870     8.3860     6.2550     7.4390    24.3920   -13.9040 
   83.2500     2.1700    82.8310     8.5580     6.3000     7.8640    24.7070   -14.6040 
   83.3750     2.1780    80.3230     8.9690     6.5160     8.0090    24.7370   -15.3200 
   83.5000     2.2000    78.7890     9.6160     6.9090     8.1050    24.4490   -16.0380 
   83.6250     2.2210    77.5570    10.4810     7.4780     8.4710    23.9800   -16.7140 
   83.7500     2.2310    76.7380    11.3990     8.1260     9.2670    23.5370   -17.3340 
   83.8750     2.2270    76.5600    12.1830     8.7380    10.4680    23.3210   -17.8910 
   84.0000     2.2160    75.7860    12.6460     9.1700    12.1070    23.2770   -18.3760 
   84.1250     2.2070    72.9340    12.6270     9.2700    11.7970    23.2600   -18.7860 
   84.2500     2.2040    70.4740    12.2790     9.1130    10.6590    23.2380   -19.1070 
   84.3750     2.2050    71.0250    11.7800     8.8180     9.8880    23.2150   -19.3510 
   84.5000     2.2070    73.7040    11.3040     8.5090     9.7700    23.1900   -19.5320 
   84.6250     2.2050    74.5500    10.9780     8.2830     9.7920    23.2020   -19.6640 
   84.7500     2.1980    74.3830    10.7820     8.1470     9.6850    23.2360   -19.7570 
   84.8750     2.1890    76.3140    10.6710     8.0780     9.6350    23.2570   -19.8210 
   85.0000     2.1780    77.9850    10.5940     8.0470     9.6180    23.2770   -19.8780 
   85.1250     2.1690    74.0090    10.5280     8.0380     9.7010    23.3020   -19.9630 
   85.2500     2.1630    69.9220    10.4740     8.0480     9.6830    23.2970   -20.0480 
   85.3750     2.1620    71.4620    10.4410     8.0780     9.5650    23.2780   -20.0590 
   85.5000     2.1640    75.7370    10.4250     8.1230     9.3870    23.2480   -19.9240 
   85.6250     2.1720    76.0740    10.3630     8.1540     9.2560    23.2220   -19.5780 
   85.7500     2.1830    74.6080    10.1650     8.1030     9.2150    23.1980   -19.0550 
   85.8750     2.2000    75.0950     9.7710     7.9010     9.1320    23.1890   -18.3220 
   86.0000     2.2190    77.1180     9.2010     7.5310     8.8130    23.2210   -17.3510 
   86.1250     2.2330    79.0240     8.5990     7.0790     8.2610    23.2900   -16.1340 
   86.2500     2.2380    80.7480     8.1600     6.7070     7.2760    23.3790   -14.8620 
   86.3750     2.2340    81.9870     7.9870     6.5050     6.1610    23.4380   -13.6540 
   86.5000     2.2270    82.3060     8.0670     6.4920     5.9290    23.4530   -12.5510 
   86.6250     2.2240    82.0510     8.2740     6.6090     7.2070    23.4670   -11.5480 
