~V
VERS. 2.00: Ver 2.00
~W
STRT.M 55.0000:
STOP.M 277.0000:
STEP.M 0.1250:
NULL. -999.2500:
UWI. F11037:
~C
DEPT.M :
SP.MV :
GR.API :
RML.OHMM :
RI. :
RXO.OHMM :
CALI.CM :
DEN.GM/CC :
~A
# ...
  235.0000   -13.3100    65.4040    88.3530    78.8620    87.9160    25.2850     2.2830 
  235.1250   -13.3210    65.7270    90.3700    79.9790    83.6330    25.2780     2.2820 
  235.2500   -13.2790    66.2550    94.3510    83.0030    88.9310    25.2710     2.2780 
  235.3750   -13.3910    65.3220    99.7670    87.7760   107.4940    25.2670     2.2720 
  235.5000   -13.6840    63.0890   105.1590    93.0880   127.5110    25.2500     2.2620 
  235.6250   -14.0880    61.4560   108.4550    96.9620   137.1690    25.2210     2.2580 
  235.7500   -14.3780    62.2650   108.9880    98.5080   131.9070    25.1810     2.2710 
  235.8750   -14.3550    65.0590   106.7140    97.6730   117.2630    25.1280     2.3120 
  236.0000   -14.2130    68.2310   101.8650    94.6870   103.0250    25.0480     2.3780 
  236.1250   -14.0400    69.2100    94.2900    89.1370   101.5290    24.9290     2.4520 
  236.2500   -13.7830    69.8250    84.8620    81.3520   112.0180    24.8940     2.5020 
  236.3750   -13.3590    71.8220    74.5720    71.9810   108.4270    24.9450     2.5090 
  236.5000   -12.7620    73.2050    64.7710    62.3730    72.1650    24.9850     2.4760 
  236.6250   -12.0680    71.1830    57.0300    54.3030    47.0180    24.9910     2.4180 
  236.7500   -11.4580    67.1290    51.5870    48.3200    40.6520    25.0920     2.3610 
  236.8750   -11.1190    62.9340    48.3220    44.4720    44.5570    25.2060     2.3110 
  237.0000   -10.9320    60.4940    46.8850    42.5820    49.8030    25.2740     2.2650 
  237.1250   -10.7410    61.9910    47.0740    42.7040    48.9000    25.2330     2.2320 
  237.2500   -10.5830    65.0550    48.2210    44.2530    44.8190    25.0800     2.2350 
  237.3750   -10.5660    65.4370    49.8190    46.7320    42.3420    24.8520     2.2870 
  237.5000   -10.5340    63.2910    51.1310    49.3260    43.8990    24.6150     2.3800 
  237.6250   -10.3580    62.0340    50.9220    50.5430    46.7660    24.3980     2.4710 
  237.7500   -10.2720    63.0240    48.7030    49.4000    45.2880    24.3660     2.5140 
  237.8750   -10.3500    65.6460    44.5970    45.7170    43.3020    24.5650     2.4960 
  238.0000   -10.3720    68.2450    39.4310    40.3420    40.9540    24.9270     2.4380 
  238.1250   -10.3970    67.7470    34.4970    34.7860    36.2510    25.1560     2.3750 
  238.2500   -10.5310    65.6800    30.6480    30.2360    31.6270    25.2710     2.3330 
  238.3750   -10.6320    65.0800    28.0830    27.0580    29.0750    25.3200     2.3110 
  238.5000   -10.7020    68.4790    26.6150    25.1980    27.5450    25.3240     2.3010 
  238.6250   -10.9590    73.0380    25.9600    24.5200    27.6090    25.3250     2.2970 
  238.7500   -11.3870    73.0790    25.6440    24.4690    28.5280    25.3370     2.2940 
  238.8750   -11.7960    68.8430    25.4720    24.6970    30.3040    25.3440     2.2920 
  239.0000   -12.0590    66.5020    25.3710    24.9280    30.7090    25.3290     2.2920 
  239.1250   -12.1900    69.9860    25.3920    25.0420    29.8640    25.3150     2.2940 
  239.2500   -12.3730    72.9920    25.6080    25.1730    28.9090    25.3080     2.2960 
  239.3750   -12.6780    71.7200    26.0710    25.4980    28.6770    25.3100     2.2940 
  239.5000   -13.0360    69.0950    26.7360    26.1140    29.2640    25.3200     2.2870 
  239.6250   -13.0110    69.4100    27.3820    26.8960    31.1780    25.3400     2.2770 
  239.7500   -12.6850    72.2020    27.6750    27.4190    34.1010    25.3540     2.2720 
  239.8750   -12.2600    74.8270    27.3550    27.2960    35.4680    25.3470     2.2740 
  240.0000   -11.9160    76.4590    26.3440    26.3500    33.1240    25.3440     2.2830 
  240.1250   -11.6700    78.6230    24.8080    24.7040    28.2770    25.3210     2.2970 
  240.2500   -11.3490    80.2960    23.3170    22.9890    24.2520    25.3120     2.3070 
  240.3750   -10.9070    77.9140    22.3720    21.6900    24.1010    25.3100     2.3100 
  240.5000   -10.3780    71.6060    22.3950    21.1890    23.9750    25.2970     2.3020 
  240.6250   -10.1800    68.5490    23.8290    21.9520    23.7140    25.2640     2.2930 
  240.7500   -10.1880    71.0040    26.3540    23.8590    26.4220    25.2520     2.3010 
  240.8750   -10.1630    73.7470    29.4840    26.6350    37.2910    25.2840     2.3410 
  241.0000   -10.1350    71.4930    32.4440    29.6410    58.7230    25.2550     2.4100 
  241.1250   -10.2250    66.2570    34.1380    31.7300    68.6810    25.1050     2.4770 
  241.2500   -10.2410    63.6670    34.2800    32.2510    46.7970    24.9990     2.5050 
  241.3750   -10.1310    64.6490    33.1070    31.2270    30.2510    25.0080     2.4780 
  241.5000   -10.0480    67.9880    31.2970    29.3050    26.7760    25.1180     2.4070 
  241.6250   -10.0010    71.2160    29.7060    27.4090    28.7750    25.2680     2.3300 
  241.7500    -9.8990    73.2270    28.8270    26.1750    30.1490    25.3290     2.2900 
  241.8750    -9.7910    73.7460    28.8390    25.8580    30.4910    25.3090     2.3080 
  242.0000    -9.7740    73.0660    29.7810    26.4870    30.6190    25.2460     2.3810 
  242.1250    -9.7510    71.1520    31.7050    28.0040    29.9640    25.1680     2.4840 
  242.2500    -9.7680    68.1810    34.1660    29.9770    30.1020    25.0860     2.5710 
  242.3750    -9.9160    65.4660    36.6900    32.1040    32.5700    25.0300     2.6100 
  242.5000   -10.1480    64.0010    38.7340    34.0610    37.8270    24.9670     2.5910 
  242.6250   -10.4150    63.5870    39.7330    35.4390    42.9750    24.9710     2.5210 
  242.7500   -10.7240    64.4130    39.7800    36.1490    42.7990    25.0360     2.4370 
  242.8750   -11.0640    66.8570    39.0750    36.1460    42.7090    25.1480     2.3640 
  243.0000   -11.3180    68.9920    37.8790    35.4390    42.7470    25.1870     2.3190 
  243.1250   -11.5390    68.4640    36.3750    34.0710    43.3500    25.1310     2.3160 
  243.2500   -11.7570    67.9390    34.7420    32.3660    44.1510    25.0740     2.3440 
  243.3750   -11.8770    70.4760    33.0620    30.5060    42.9440    25.0450     2.3860 
  243.5000   -11.8910    74.4670    31.4150    28.6460    38.1900    25.0110     2.4170 
  243.6250   -11.9160    75.3280    29.9370    26.9890    33.6520    24.9650     2.4150 
  243.7500   -11.9780    73.2030    28.7240    25.6810    31.2480    25.0030     2.3850 
  243.8750   -12.0540    71.6860    27.8620    24.8440    28.4990    25.1530     2.3420 
  244.0000   -12.2080    73.0930    27.3770    24.5360    25.7630    25.2740     2.3010 
  244.1250   -12.4590    73.4370    27.2370    24.7390    25.9490    25.3240     2.2760 
  244.2500   -12.7530    70.4290    27.2300    25.1140    28.0640    25.3150     2.2630 
  244.3750   -13.1130    67.6390    27.1870    25.3890    28.4110    25.2510     2.2630 
  244.5000   -13.5720    69.2250    26.9670    25.3640    26.7430    25.1660     2.2740 
  244.6250   -13.8990    71.7760    26.4410    24.8670    25.8440    25.1470     2.2960 
  244.7500   -13.9360    70.9750    25.6750    23.9930    26.0780    25.1640     2.3190 
  244.8750   -13.6980    70.0070    24.7910    22.8800    26.8270    25.1710     2.3340 
  245.0000   -13.2290    71.8280    23.9940    21.7290    26.4340    25.1650     2.3360 
  245.1250   -12.5480    75.9040    23.6710    20.8510    25.0280    25.1660     2.3300 
  245.2500   -11.7380    78.2360    24.1570    20.5220    24.1320    25.2040     2.3310 
  245.3750   -10.7520    78.0870    25.4430    21.0610    26.0180    25.2380     2.3460 
  245.5000    -9.5870    77.0330    27.4110    22.8050    34.4800    25.2250     2.3800 
  245.6250    -8.4730    75.2490    30.7600    26.4470    53.0240    25.0920     2.4310 
  245.7500    -7.5860    71.8870    36.1380    32.1160    79.9680    24.8400     2.4920 
  245.8750    -6.8760    66.6740    43.4510    39.8540   105.1570    24.6440     2.5590 
  246.0000    -6.2820    62.0200    51.1450    48.8580   138.1460    24.5710     2.6300 
  246.1250    -5.8210    59.1730    55.5020    55.8850   150.6610    24.5930     2.6910 
