~V
VERS. 2.00: Ver 2.00
~W
STRT.M 51.0000:
STOP.M 252.0000:
STEP.M 0.1250:
NULL. -999.2500:
UWI. F11020:
~C
DEPT.M :
DEN.GM/CC :
GR.API :
RML.OHMM :
RI. :
RXO.OHMM :
CALI.CM :
SP.MV :
~A
# ...
  118.5000     2.1700    73.3970     8.6910     7.3250     8.4720    25.0700   -29.1560 
  118.6250     2.1670    71.8670     8.6100     7.2480     8.3960    25.1600   -29.1130 
  118.7500     2.1640    72.5170     8.4860     7.1300     8.1230    25.1910   -28.9410 
  118.8750     2.1620    74.8930     8.3670     7.0170     7.8330    25.1730   -28.6900 
  119.0000     2.1610    77.4350     8.2660     6.9200     7.7830    25.1370   -28.3940 
  119.1250     2.1590    79.0490     8.1710     6.8300     7.5690    25.1180   -28.0590 
  119.2500     2.1600    78.4350     8.0710     6.7340     7.2180    25.1100   -27.7370 
  119.3750     2.1660    77.1220     7.9790     6.6470     6.9360    25.0810   -27.4510 
  119.5000     2.1760    77.6740     7.9200     6.5910     6.9200    25.0100   -27.2490 
  119.6250     2.1830    79.8090     7.9210     6.5910     7.1720    24.9220   -27.1490 
  119.7500     2.1840    81.5370     7.9860     6.6530     7.3930    24.9030   -27.1330 
  119.8750     2.1840    81.9820     8.0820     6.7450     7.3900    24.9590   -27.1740 
  120.0000     2.1860    81.3560     8.1780     6.8360     7.3490    25.0220   -27.2680 
  120.1250     2.1870    80.7500     8.2590     6.9130     7.4670    25.0470   -27.4230 
  120.2500     2.1830    79.9120     8.3440     6.9940     7.5720    25.0460   -27.6070 
  120.3750     2.1760    77.5960     8.4570     7.1020     7.5880    25.0410   -27.7760 
  120.5000     2.1700    74.5990     8.5930     7.2310     7.4070    25.0180   -27.8900 
  120.6250     2.1700    73.4700     8.7050     7.3380     7.1190    24.9720   -27.9400 
  120.7500     2.1780    75.6210     8.7370     7.3690     7.0210    24.9250   -27.9520 
  120.8750     2.1880    78.6390     8.6980     7.3320     6.9690    24.9010   -27.9210 
  121.0000     2.1960    79.4890     8.6340     7.2710     6.9590    24.8680   -27.8540 
  121.1250     2.2000    77.2270     8.6010     7.2390     6.9230    24.7690   -27.7580 
  121.2500     2.1990    74.4410     8.6320     7.2690     6.9170    24.5700   -27.6330 
  121.3750     2.1940    73.4350     8.6880     7.3210     6.7780    24.3390   -27.4920 
  121.5000     2.1860    73.4980     8.7030     7.3360     6.6230    24.1820   -27.3290 
  121.6250     2.1770    73.5210     8.6320     7.2680     6.6050    24.1740   -27.1390 
  121.7500     2.1710    73.8810     8.4850     7.1280     6.7260    24.3760   -26.9070 
  121.8750     2.1730    74.4980     8.3530     7.0030     6.7110    24.6620   -26.6530 
  122.0000     2.1850    74.2800     8.3020     6.9540     6.6200    24.9590   -26.3670 
  122.1250     2.2060    74.2220     8.3460     6.9960     6.7170    25.1440   -26.0470 
  122.2500     2.2330    75.8140     8.4640     7.1080     7.3080    25.1330   -25.6960 
  122.3750     2.2580    77.9330     8.6340     7.2700     8.1910    25.0260   -25.3390 
  122.5000     2.2740    79.2090     8.8930     7.5180     8.6820    24.9300   -25.0100 
  122.6250     2.2770    77.0930     9.3280     7.9310     8.8920    24.9080   -24.7160 
  122.7500     2.2630    71.3510    10.0540     8.6230    10.2540    25.0070   -24.4510 
  122.8750     2.2470    65.8270    11.1060     9.6260    12.7620    25.1640   -24.1730 
  123.0000     2.2430    63.2150    12.5190    10.9710    14.3540    25.2830   -23.8770 
  123.1250     2.2640    62.9750    14.3100    12.6770    14.7440    25.2950   -23.5380 
  123.2500     2.3230    62.0840    16.4190    14.6850    15.9880    25.1880   -23.1480 
  123.3750     2.4110    60.0080    18.5460    16.7100    18.4440    25.0080   -22.7150 
  123.5000     2.5050    57.7770    20.3590    18.4370    21.2850    24.8010   -22.2360 
  123.6250     2.5660    55.6890    21.5310    19.5520    22.5110    24.6190   -21.7210 
  123.7500     2.5680    53.5850    21.8200    19.8280    20.8040    24.5050   -21.2020 
  123.8750     2.5460    52.0020    21.4240    19.4510    18.3050    24.4730   -20.7150 
  124.0000     2.5300    51.8300    20.6510    18.7150    16.8710    24.4910   -20.2820 
  124.1250     2.5250    53.0950    19.9010    18.0010    16.2960    24.5180   -19.9260 
  124.2500     2.5260    54.6740    19.5590    17.6750    15.3000    24.5000   -19.6540 
  124.3750     2.5340    54.6110    19.7720    17.8780    13.9130    24.4660   -19.4440 
  124.5000     2.5590    52.0560    20.5500    18.6190    14.0930    24.4380   -19.2760 
  124.6250     2.6000    48.1230    21.7650    19.7760    17.0900    24.4200   -19.1480 
  124.7500     2.6360    45.7200    23.1880    21.1310    20.5710    24.4300   -19.0360 
  124.8750     2.6520    45.2410    24.5440    22.4230    22.2480    24.4450   -18.9450 
  125.0000     2.6520    45.1110    25.6560    23.4820    20.6340    24.4330   -18.8670 
  125.1250     2.6490    44.2470    26.3680    24.1600    17.8240    24.4110   -18.8100 
  125.2500     2.6510    44.2890    26.5450    24.3290    18.3430    24.4430   -18.7810 
  125.3750     2.6510    46.7180    26.2400    24.0380    21.3760    24.5290   -18.7740 
  125.5000     2.6400    49.7540    25.5210    23.3530    22.8130    24.6000   -18.7910 
  125.6250     2.6180    50.2600    24.5400    22.4190    19.8910    24.6350   -18.8100 
  125.7500     2.5990    48.0080    23.5290    21.4560    16.4080    24.6340   -18.8360 
  125.8750     2.5960    46.5260    22.7290    20.6940    15.8400    24.6030   -18.8610 
  126.0000     2.6070    47.3610    22.2780    20.2640    17.2140    24.5530   -18.9000 
  126.1250     2.6180    48.6390    22.2340    20.2230    18.8950    24.4880   -18.9570 
  126.2500     2.6170    49.1450    22.5370    20.5120    17.9960    24.3990   -19.0180 
  126.3750     2.6030    49.3470    22.9230    20.8790    16.4670    24.2880   -19.0770 
  126.5000     2.5840    49.0060    23.1980    21.1410    15.5530    24.2130   -19.1240 
  126.6250     2.5640    48.1980    23.2380    21.1790    15.7740    24.2130   -19.1660 
  126.7500     2.5410    47.8500    22.9750    20.9290    16.4600    24.2640   -19.2010 
  126.8750     2.5160    48.0160    22.4510    20.4300    15.9560    24.2840   -19.2260 
  127.0000     2.5020    48.2810    21.7250    19.7380    14.7680    24.2440   -19.2320 
  127.1250     2.5060    48.9450    20.9120    18.9640    13.9910    24.1630   -19.2050 
  127.2500     2.5230    51.1900    20.1660    18.2540    13.3950    24.1130   -19.1530 
  127.3750     2.5400    53.7520    19.6000    17.7140    12.9500    24.0970   -19.0800 
  127.5000     2.5520    55.7220    19.2440    17.3750    12.8770    24.0950   -19.0090 
  127.6250     2.5620    56.4340    19.0490    17.1900    13.1040    24.0830   -18.9450 
  127.7500     2.5620    55.5260    18.9210    17.0680    13.0010    24.0160   -18.8830 
  127.8750     2.5470    54.7590    18.7930    16.9460    12.6160    23.8920   -18.8150 
  128.0000     2.5250    54.5010    18.6790    16.8370    12.1550    23.7780   -18.7280 
  128.1250     2.5130    53.4410    18.6290    16.7890    11.7820    23.7220   -18.6410 
  128.2500     2.5210    50.8260    18.6910    16.8490    11.9420    23.7000   -18.5550 
  128.3750     2.5390    49.7560    18.8420    16.9930    12.4370    23.6820   -18.4720 
  128.5000     2.5550    52.0700    19.0350    17.1760    12.5130    23.6570   -18.3730 
  128.6250     2.5620    55.5500    19.2360    17.3680    12.0480    23.5860   -18.2540 
  128.7500     2.5580    56.7750    19.4590    17.5790    11.4070    23.5210   -18.1200 
  128.8750     2.5480    55.2310    19.7250    17.8340    11.6840    23.6000   -17.9720 
  129.0000     2.5410    52.8270    20.0310    18.1250    12.6320    23.7260   -17.8170 
  129.1250     2.5360    51.8700    20.3470    18.4260    13.5380    23.7940   -17.6470 
  129.2500     2.5270    52.4160    20.6600    18.7240    13.8150    23.8160   -17.4720 
  129.3750     2.5150    52.8390    20.9860    19.0340    14.0190    23.8350   -17.3050 
  129.5000     2.5080    52.3100    21.3450    19.3760    14.4810    23.8580   -17.1460 
  129.6250     2.5150    52.3220    21.7490    19.7610    15.3050    23.9220   -16.9960 
