~V
VERS. 2.00: Ver 2.00
~W
STRT.M 51.0000:
STOP.M 252.0000:
STEP.M 0.1250:
NULL. -999.2500:
UWI. F11020:
~C
DEPT.M :
DEN.GM/CC :
GR.API :
RML.OHMM :
RI. :
RXO.OHMM :
CALI.CM :
SP.MV :
~A
# ...
  219.7500     2.1340    56.8170    67.0040    61.3010    74.0370    25.1430   -22.6230 
  219.8750     2.1600    56.5570    65.4710    60.1680    57.1410    25.2330   -22.2300 
  220.0000     2.1960    55.5080    65.9250    60.8220    54.5020    25.3160   -21.7850 
  220.1250     2.2550    56.0000    67.8530    62.8000    62.4610    25.2630   -21.2740 
  220.2500     2.3440    57.2860    68.8140    63.9720    76.7110    25.1090   -20.7000 
  220.3750     2.4320    57.4260    65.2970    61.1520    90.0400    24.9850   -20.0720 
  220.5000     2.4900    57.4470    55.7510    52.7140    92.5620    24.9320   -19.3980 
  220.6250     2.4990    58.3110    42.3950    40.4920    76.7190    24.9790   -18.6890 
  220.7500     2.4600    59.1100    29.5970    28.7310    50.3270    25.0910   -17.9300 
  220.8750     2.4040    58.8260    19.5430    19.9580    30.6310    25.1370   -17.1920 
  221.0000     2.3590    56.8980    13.1390    14.1820    18.9360    25.0530   -16.5240 
  221.1250     2.3320    53.2070     9.8280    10.6880    11.6070    24.8790   -15.9710 
  221.2500     2.3200    48.3520     8.1710     8.8210     7.6820    24.7580   -15.4970 
  221.3750     2.3150    44.3920     7.3500     7.8280     6.6430    24.7220   -15.1140 
  221.5000     2.3120    41.9930     6.9850     7.3700     6.6350    24.6810   -14.7930 
  221.6250     2.3080    40.4850     6.8230     7.1950     6.9340    24.6570   -14.5540 
  221.7500     2.2970    39.0030     6.6950     7.1200     6.8280    24.6890   -14.4040 
  221.8750     2.2850    37.3760     6.5140     7.0220     6.2690    24.6710   -14.3340 
  222.0000     2.2780    37.8100     6.2840     6.8780     5.5550    24.5370   -14.3240 
  222.1250     2.2770    41.4450     6.0610     6.7200     5.0400    24.3580   -14.3530 
  222.2500     2.2810    47.3240     5.9140     6.6000     4.8690    24.1610   -14.4750 
  222.3750     2.2920    51.9130     5.8520     6.5340     4.8690    24.1420   -14.6590 
  222.5000     2.3060    53.5160     5.8540     6.5030     5.0730    24.2750   -14.9360 
  222.6250     2.3210    53.0790     5.8750     6.4680     5.4110    24.4510   -15.2800 
  222.7500     2.3330    51.5680     5.8620     6.3880     5.5380    24.5410   -15.7050 
  222.8750     2.3390    49.3610     5.8000     6.2530     5.1180    24.5630   -16.2130 
  223.0000     2.3360    47.9800     5.7040     6.0820     4.6690    24.5600   -16.8230 
  223.1250     2.3190    49.9420     5.6060     5.9110     4.4980    24.5570   -17.5410 
  223.2500     2.2910    56.4590     5.5540     5.7850     4.5740    24.5540   -18.3770 
  223.3750     2.2630    65.5800     5.5880     5.7430     4.7840    24.5520   -19.2980 
  223.5000     2.2470    76.0520     5.7470     5.8210     5.2520    24.5530   -20.2700 
  223.6250     2.2530    84.8270     6.0590     6.0390     5.8490    24.5870   -21.2510 
  223.7500     2.2870    87.8060     6.5250     6.3990     6.5740    24.7080   -22.1970 
  223.8750     2.3310    85.2730     7.0670     6.8360     7.1350    24.8980   -23.0200 
  224.0000     2.3630    79.7460     7.5960     7.2820     7.7900    25.1050   -23.6940 
  224.1250     2.3730    75.2450     8.0120     7.6540     8.2010    25.2180   -24.1990 
  224.2500     2.3670    73.9730     8.2520     7.8830     8.2790    25.2260   -24.5300 
  224.3750     2.3550    74.8300     8.3600     7.9870     8.2430    25.2040   -24.7240 
  224.5000     2.3470    75.7370     8.3900     8.0050     8.1850    25.1320   -24.8170 
  224.6250     2.3410    75.9370     8.3960     7.9810     8.1630    24.9390   -24.8680 
  224.7500     2.3360    75.9580     8.4150     7.9490     8.1160    24.6220   -24.9260 
  224.8750     2.3310    77.0180     8.4430     7.9160     8.0810    24.3560   -25.0570 
  225.0000     2.3310    79.7460     8.4730     7.8770     8.0870    24.2250   -25.2390 
  225.1250     2.3390    82.2410     8.5040     7.8340     8.2550    24.1910   -25.4990 
  225.2500     2.3490    82.7410     8.5740     7.8300     8.5020    24.1810   -25.8170 
  225.3750     2.3560    82.6290     8.7600     7.9310     8.5640    24.1580   -26.2240 
  225.5000     2.3580    82.8110     9.1590     8.2120     8.6700    24.1300   -26.6960 
  225.6250     2.3550    82.3530     9.8790     8.7500     9.1200    24.1370   -27.2230 
  225.7500     2.3470    79.4190    10.9980     9.6020    10.3970    24.2590   -27.7500 
  225.8750     2.3370    75.9590    12.3930    10.6910    12.3500    24.5500   -28.2870 
  226.0000     2.3290    73.4680    13.8970    11.9120    14.4290    24.9150   -28.8310 
  226.1250     2.3240    72.2390    15.2900    13.1160    16.4000    25.1960   -29.3530 
  226.2500     2.3230    71.6560    16.3660    14.1350    18.3600    25.3010   -29.8380 
  226.3750     2.3230    71.5290    17.0920    14.8940    19.4670    25.3190   -30.2750 
  226.5000     2.3210    71.3540    17.5180    15.3880    19.4490    25.3010   -30.6720 
  226.6250     2.3220    70.7360    17.7630    15.6810    19.4070    25.2800   -31.0450 
  226.7500     2.3270    71.7330    17.9700    15.8810    19.3070    25.2520   -31.4290 
  226.8750     2.3330    75.4380    18.2820    16.1280    18.8310    25.2260   -31.8360 
  227.0000     2.3330    78.9580    18.7830    16.5050    18.8350    25.2160   -32.2560 
  227.1250     2.3270    78.5860    19.4990    17.0320    19.8740    25.2150   -32.6980 
  227.2500     2.3240    75.0550    20.3610    17.6380    20.8820    25.2120   -33.1570 
  227.3750     2.3260    73.3220    21.1420    18.1760    21.5900    25.2100   -33.5990 
  227.5000     2.3290    75.0120    21.6150    18.5240    22.2080    25.2080   -34.0380 
  227.6250     2.3350    77.7840    21.6240    18.6070    22.2700    25.2090   -34.4120 
  227.7500     2.3460    78.4180    21.2090    18.4430    21.5410    25.2210   -34.7250 
  227.8750     2.3580    76.6080    20.7220    18.2120    21.1410    25.2570   -34.9200 
  228.0000     2.3690    73.0450    20.4580    18.0800    21.0180    25.3120   -35.0400 
  228.1250     2.3720    69.5100    20.6260    18.1980    21.0740    25.3480   -35.0900 
  228.2500     2.3690    68.8860    21.2900    18.6800    21.8770    25.3590   -35.0520 
  228.3750     2.3660    70.6720    22.2670    19.4710    23.1030    25.3610   -34.9480 
  228.5000     2.3620    71.7110    23.4010    20.4750    24.5280    25.3610   -34.7590 
  228.6250     2.3540    70.0750    24.5160    21.5430    25.6880    25.3480   -34.5300 
  228.7500     2.3430    67.1090    25.4290    22.4880    26.4260    25.3030   -34.2300 
  228.8750     2.3300    64.6160    26.0450    23.1880    26.6620    25.2180   -33.8980 
  229.0000     2.3180    63.4500    26.3390    23.6050    26.2820    25.0900   -33.5160 
  229.1250     2.3060    65.1190    26.3490    23.7690    25.6940    24.9280   -33.0620 
  229.2500     2.2970    68.9730    26.1440    23.7340    25.8520    24.8410   -32.5320 
  229.3750     2.2890    71.2970    25.8360    23.5880    26.2390    24.8780   -31.9550 
  229.5000     2.2820    70.9740    25.4810    23.3600    26.1170    25.0300   -31.3360 
  229.6250     2.2800    69.8750    25.0770    23.0650    25.8950    25.2020   -30.6670 
  229.7500     2.2950    70.2090    24.5760    22.7120    26.0660    25.2000   -29.9440 
  229.8750     2.3190    71.3280    23.9460    22.3080    26.3840    25.0990   -29.1770 
  230.0000     2.3410    71.5760    23.1940    21.8500    28.3080    25.0280   -28.3650 
  230.1250     2.3540    70.8660    22.4180    21.3720    31.7610    25.0730   -27.5430 
  230.2500     2.3570    71.1090    21.7980    20.9600    32.1540    25.1470   -26.7130 
  230.3750     2.3530    73.3230    21.4470    20.7030    26.8210    25.1950   -25.9000 
  230.5000     2.3460    74.9300    21.3690    20.6390    23.2700    25.2040   -25.1050 
  230.6250     2.3440    74.4060    21.4480    20.7200    22.9970    25.1910   -24.3170 
  230.7500     2.3540    73.7180    21.4750    20.8070    24.5980    25.1540   -23.5620 
  230.8750     2.3750    75.4210    21.2530    20.7260    26.4660    25.1050   -22.8370 
