~V
VERS. 2.00: Ver 2.00
~W
STRT.M 62.0000:
STOP.M 273.0000:
STEP.M 0.1250:
NULL. -999.2500:
UWI. F11050:
~C
DEPT.M :
SP.MV :
GR.API :
RML.OHMM :
RI. :
RXO.OHMM :
CALI.CM :
DEN.GM/CC :
~A
# ...
  152.0000   -14.2200    97.1240     5.2290     3.8340     4.6880    24.7220     2.3950 
  152.1250   -14.2550    96.1030     5.2130     3.8340     4.6900    24.7450     2.3990 
  152.2500   -14.2910    93.5150     5.2270     3.8320     4.6780    24.7580     2.3970 
  152.3750   -14.3210    90.5410     5.2620     3.8210     4.6760    24.7570     2.3920 
  152.5000   -14.3610    88.2660     5.2930     3.7910     4.7100    24.7520     2.3900 
  152.6250   -14.3830    89.3410     5.2870     3.7390     4.7460    24.7520     2.3920 
  152.7500   -14.4040    95.2340     5.2440     3.6800     4.6360    24.7560     2.3960 
  152.8750   -14.4300   101.9400     5.1780     3.6250     4.4380    24.7430     2.3950 
  153.0000   -14.4660   105.2940     5.1160     3.5860     4.3610    24.6960     2.3880 
  153.1250   -14.5010   104.9800     5.0940     3.5770     4.4140    24.6320     2.3800 
  153.2500   -14.5420   103.7710     5.1180     3.5970     4.5190    24.6330     2.3780 
  153.3750   -14.5700   101.2780     5.1720     3.6410     4.5800    24.6530     2.3850 
  153.5000   -14.6190    97.1350     5.2320     3.6990     4.6000    24.6480     2.3970 
  153.6250   -14.6500    94.2590     5.2700     3.7560     4.6470    24.6240     2.4090 
  153.7500   -14.7110    94.8410     5.2830     3.7960     4.7570    24.5980     2.4180 
  153.8750   -14.7490    98.4890     5.2710     3.8090     4.7300    24.5970     2.4270 
  154.0000   -14.7780   101.5240     5.2340     3.7870     4.4200    24.6220     2.4340 
  154.1250   -14.7980    98.9580     5.1610     3.7240     4.2790    24.6200     2.4340 
  154.2500   -14.8120    94.8220     5.0650     3.6360     4.2870    24.5910     2.4270 
  154.3750   -14.8170    93.1790     4.9620     3.5350     4.2700    24.5660     2.4220 
  154.5000   -14.8280    95.2190     4.8590     3.4300     4.1160    24.5830     2.4230 
  154.6250   -14.8360    94.9710     4.7430     3.3250     3.8540    24.6440     2.4290 
  154.7500   -14.8250    93.3820     4.6010     3.2240     3.6850    24.6650     2.4340 
  154.8750   -14.8190    95.7970     4.4400     3.1330     3.6080    24.6440     2.4350 
  155.0000   -14.8160   101.0540     4.2930     3.0630     3.5990    24.5820     2.4340 
  155.1250   -14.8270   102.8520     4.2270     3.0360     3.5610    24.5740     2.4280 
  155.2500   -14.8350   101.1550     4.2670     3.0610     3.5120    24.6120     2.4190 
  155.3750   -14.8660    99.5800     4.4170     3.1450     3.5280    24.6620     2.4120 
  155.5000   -14.8660    98.1110     4.6480     3.2880     3.6710    24.6900     2.4110 
  155.6250   -14.8830    94.2630     4.9070     3.4690     4.0260    24.6960     2.4100 
  155.7500   -14.8820    91.4290     5.1200     3.6350     4.3670    24.7030     2.4060 
  155.8750   -14.8890    92.2490     5.2450     3.7460     4.4780    24.7170     2.3990 
  156.0000   -14.8910    96.2610     5.2700     3.7860     4.2960    24.7370     2.3950 
  156.1250   -14.9050    97.7340     5.2010     3.7580     4.0880    24.7340     2.3930 
  156.2500   -14.9010    94.5890     5.0970     3.7020     3.9940    24.7200     2.3910 
  156.3750   -14.9150    89.3870     5.0030     3.6500     4.0470    24.7090     2.3850 
  156.5000   -14.9160    87.1030     4.9760     3.6330     4.1760    24.6690     2.3780 
  156.6250   -14.9320    89.8160     5.0920     3.7020     4.3400    24.5930     2.3680 
  156.7500   -14.9620    92.2070     5.3650     3.8750     4.4760    24.5960     2.3550 
  156.8750   -14.9930    91.8420     5.8360     4.1840     4.9960    24.6900     2.3400 
  157.0000   -15.0210    89.4170     6.5700     4.6830     6.4750    24.7980     2.3260 
  157.1250   -15.0580    86.7090     7.6720     5.4680     8.9960    24.8620     2.3190 
  157.2500   -15.1130    84.5680     9.0150     6.4830     9.6370    24.8990     2.3170 
  157.3750   -15.1770    81.8240    10.3800     7.5980     9.4040    24.9230     2.3170 
  157.5000   -15.2410    78.0300    11.4300     8.5670    10.7100    24.9290     2.3170 
  157.6250   -15.3250    75.7630    11.6760     8.9850    14.0920    24.9080     2.3260 
  157.7500   -15.4060    79.1070    11.1440     8.7930    12.9380    24.8990     2.3420 
  157.8750   -15.5060    86.5920    10.1220     8.1590     8.8450    24.9060     2.3610 
  158.0000   -15.6020    92.3730     9.0420     7.3880     6.3750    24.9070     2.3780 
  158.1250   -15.6880    92.7030     8.3470     6.7970     6.0070    24.8590     2.3960 
  158.2500   -15.7730    90.8330     8.1810     6.5380     6.3570    24.8040     2.4160 
  158.3750   -15.8630    87.4490     8.5780     6.6780     6.8310    24.8110     2.4320 
  158.5000   -15.9510    83.0620     9.4830     7.2280     7.5660    24.8290     2.4390 
  158.6250   -16.0620    80.9050    10.8670     8.2210     8.3860    24.8270     2.4410 
  158.7500   -16.1770    80.7620    12.5340     9.5330     9.1730    24.8530     2.4430 
  158.8750   -16.2910    82.5120    14.2740    11.0380    10.1350    24.8640     2.4450 
  159.0000   -16.4150    84.3850    15.7520    12.4820    11.7520    24.8740     2.4460 
  159.1250   -16.5410    82.7310    16.4500    13.4200    13.6370    24.8680     2.4420 
  159.2500   -16.6630    78.1990    16.3490    13.7160    14.9660    24.8340     2.4320 
  159.3750   -16.7800    75.0490    15.7250    13.5040    14.1650    24.7800     2.4220 
  159.5000   -16.9100    76.5010    15.1110    13.1560    11.7510    24.7570     2.4180 
  159.6250   -17.0170    81.1300    15.1970    13.1990    11.1150    24.7680     2.4210 
  159.7500   -17.1150    85.1750    16.1600    13.8770    12.5080    24.7830     2.4190 
  159.8750   -17.2270    85.8410    17.8860    15.2160    15.1180    24.7420     2.4090 
  160.0000   -17.3380    82.8130    19.9920    17.0280    18.6330    24.6380     2.3950 
  160.1250   -17.4570    80.2380    21.8070    18.8630    23.6720    24.5920     2.3850 
  160.2500   -17.5770    80.7870    22.8780    20.2140    25.5170    24.5910     2.3840 
  160.3750   -17.6960    82.1620    23.1560    20.8710    22.1260    24.5980     2.3890 
  160.5000   -17.7850    83.0850    22.8750    20.9030    17.9740    24.6090     2.3960 
  160.6250   -17.8930    85.8540    22.1680    20.3820    18.3950    24.6270     2.3980 
  160.7500   -18.0080    88.4440    21.0820    19.4420    21.3550    24.5860     2.3970 
  160.8750   -18.0990    88.8110    19.6700    18.1940    20.7360    24.5060     2.3990 
  161.0000   -18.1880    87.4400    18.2660    16.9360    15.9370    24.4800     2.4080 
  161.1250   -18.2620    87.2210    17.6620    16.2410    12.5730    24.5280     2.4180 
  161.2500   -18.3320    89.4400    20.0190    16.6000    12.3110    24.5320     2.4200 
  161.3750   -18.3840    91.4370    25.0150    18.6770    17.2290    24.4780     2.4100 
  161.5000   -18.4630    89.9450    32.1880    23.3800    26.2220    24.4420     2.3910 
  161.6250   -18.5020    84.7230    44.7070    32.6860    41.5750    24.4610     2.3650 
  161.7500   -18.5280    77.2080    62.4610    46.9590    61.9590    24.5180     2.3360 
  161.8750   -18.5540    68.1570    84.5920    65.6710    86.6800    24.5570     2.3060 
  162.0000   -18.5920    61.4210   107.8760    86.1350   117.9420    24.5730     2.2820 
  162.1250   -18.6220    64.2840   126.0990   103.3480   146.5500    24.5900     2.2720 
  162.2500   -18.6600    70.3000   136.7220   114.7680   150.0540    24.6140     2.2700 
  162.3750   -18.6980    72.5780   140.2750   120.1060   140.5040    24.6390     2.2720 
  162.5000   -18.7330    72.2810   138.5840   120.2820   135.4130    24.6470     2.2750 
  162.6250   -18.7900    72.1330   133.3340   116.4840   132.0190    24.7090     2.2810 
  162.7500   -18.8380    70.8870   126.7330   111.0940   124.3980    24.7450     2.2900 
  162.8750   -18.8800    68.0980   119.7490   105.3740   110.0680    24.7410     2.2960 
  163.0000   -18.9110    66.9550   113.1020   100.2220    96.2090    24.6880     2.2990 
  163.1250   -18.9370    69.0590   107.4100    96.3490    87.3760    24.6150     2.3040 
