~V
VERS. 2.00: Ver 2.00
~W
STRT.M 50.0000:
STOP.M 220.0000:
STEP.M 0.1250:
NULL. -999.2500:
UWI. F11004:
~C
DEPT.M :
SP.MV :
GR.API :
RML.OHMM :
RI. :
RXO.OHMM :
CALI.CM :
DEN.GM/CC :
~A
# ...
  140.0000   -18.6330    67.5670   171.9880   158.7870    45.2750    23.4300     2.2320 
  140.1250   -18.5630    66.7200   166.7860   153.9100    54.1280    23.4960     2.2430 
  140.2500   -18.4700    66.8420   161.2380   149.1640    69.4700    23.6750     2.2500 
  140.3750   -18.3370    69.3610   153.8510   143.3400    83.2150    23.8470     2.2550 
  140.5000   -18.2230    73.5290   143.2680   135.0630    90.7920    23.8740     2.2620 
  140.6250   -18.0860    75.7340   130.8270   125.0030    96.7380    23.8830     2.2680 
  140.7500   -17.9480    74.0420   118.2640   114.4370   101.5050    23.9790     2.2660 
  140.8750   -17.8170    70.7450   107.0040   104.6400    99.9460    24.1350     2.2560 
  141.0000   -17.6790    68.2940    97.9160    96.5390    91.0650    24.3440     2.2450 
  141.1250   -17.5780    67.7340    90.4650    89.8500    84.7110    24.6080     2.2390 
  141.2500   -17.5730    69.4740    84.3550    84.3490    82.8370    24.8380     2.2420 
  141.3750   -17.6330    71.6670    79.5530    79.9970    82.7380    24.9130     2.2480 
  141.5000   -17.6840    70.9950    76.5680    77.2510    80.1120    24.8590     2.2530 
  141.6250   -17.7510    69.4680    75.3470    76.0910    75.6900    24.8060     2.2560 
  141.7500   -17.8730    69.2030    75.7030    76.4110    73.8130    24.7470     2.2570 
  141.8750   -18.0590    68.1840    76.9380    77.6510    77.3620    24.6870     2.2590 
  142.0000   -18.2320    64.7590    77.7250    78.5980    84.5140    24.6720     2.2620 
  142.1250   -18.3720    62.8500    77.0290    78.1260    89.4880    24.7020     2.2620 
  142.2500   -18.5170    63.4350    74.7470    75.9540    92.8710    24.7330     2.2610 
  142.3750   -18.6740    65.4980    71.8220    72.8380    95.0880    24.7210     2.2590 
  142.5000   -18.8220    69.5650    70.3030    70.6070    92.1370    24.6530     2.2600 
  142.6250   -18.9450    72.9850    71.7130    70.8470    88.4840    24.5530     2.2630 
  142.7500   -19.0590    72.8990    76.8970    74.5420    86.9330    24.4610     2.2660 
  142.8750   -19.2220    69.4020    85.8800    81.9850    88.2330    24.4390     2.2660 
  143.0000   -19.4400    69.4180    97.7710    92.7140    94.2400    24.5390     2.2600 
  143.1250   -19.6280    75.3060   109.2120   103.6410   104.4550    24.6600     2.2520 
  143.2500   -19.7830    80.6320   116.7420   111.4370   113.5050    24.6920     2.2480 
  143.3750   -19.9720    77.1060   117.9400   113.5500   101.7410    24.6230     2.2520 
  143.5000   -20.1620    66.2470   112.7650   109.4120    72.5300    24.5260     2.2580 
  143.6250   -20.3250    61.0980   105.8930   103.0920    56.9050    24.4680     2.2610 
  143.7500   -20.4880    64.8050   100.6260    97.7160    58.7000    24.4870     2.2600 
  143.8750   -20.6360    71.9120    98.8290    95.2720    74.9480    24.5860     2.2590 
  144.0000   -20.7660    74.9490   101.4510    96.9530   100.7740    24.6290     2.2610 
  144.1250   -20.9130    74.2620   106.7710   101.4220   110.2910    24.4990     2.2630 
  144.2500   -21.0750    72.6420   112.9000   107.0750   115.5550    24.3170     2.2620 
  144.3750   -21.2330    72.0440   117.4960   111.7400   114.0600    24.2840     2.2590 
  144.5000   -21.4190    73.2620   117.9160   112.7030   114.2270    24.4680     2.2550 
  144.6250   -21.6200    75.7730   114.7220   110.0160   111.4500    24.6950     2.2500 
  144.7500   -21.7940    76.4580   109.6780   105.0670   111.7700    24.8820     2.2450 
  144.8750   -21.9770    72.6290   105.0160    99.9480   114.4290    25.0010     2.2400 
  145.0000   -22.2220    67.7290   103.0290    96.9540   116.0510    25.1910     2.2380 
  145.1250   -22.4650    66.6830   104.2790    96.8560   114.9460    25.5400     2.2350 
  145.2500   -22.6610    68.5320   109.0110    99.9190   113.5940    25.7670     2.2280 
  145.3750   -22.8490    70.3200   117.3480   106.2210   115.3030    25.5740     2.2200 
  145.5000   -23.0530    71.6400   130.2520   116.6410   119.5530    25.0880     2.2160 
  145.6250   -23.2360    70.1120   147.3240   130.9160   127.2250    24.7190     2.2130 
  145.7500   -23.3500    64.6300   168.1590   148.7130   134.9120    24.4430     2.2090 
  145.8750   -23.3910    60.4090   191.2690   168.6340   136.1980    24.2030     2.2080 
  146.0000   -23.3780    59.6550   213.0970   187.5590   122.7720    24.2660     2.2120 
  146.1250   -23.3380    58.9460   229.6020   202.1210   127.7100    24.5620     2.2200 
  146.2500   -23.2390    56.7960   238.3520   210.3480   123.8860    24.8230     2.2240 
  146.3750   -23.0540    55.8230   239.3590   212.1850   129.8840    24.9140     2.2250 
  146.5000   -22.8290    57.6620   233.5090   208.2340   148.7290    24.9220     2.2260 
  146.6250   -22.5960    57.7330   223.8440   200.9460   166.5850    24.9190     2.2280 
  146.7500   -22.3530    56.4870   212.0010   191.6450   169.9640    24.8710     2.2320 
  146.8750   -22.0760    57.9040   199.2290   181.4100   151.7360    24.7810     2.2380 
  147.0000   -21.7970    63.0530   186.1600   170.7870   123.4590    24.7030     2.2490 
  147.1250   -21.5450    67.4860   172.9380   159.8800   105.0280    24.6860     2.2620 
  147.2500   -21.3160    70.2730   159.4110   148.5080    93.3870    24.6760     2.2750 
  147.3750   -21.0860    73.0970   145.5120   136.5620    80.6640    24.4980     2.2880 
  147.5000   -20.8330    72.7830   131.8740   124.4710    67.9970    24.0420     2.3060 
  147.6250   -20.6040    68.8370   119.7520   113.3550    58.3630    23.5690     2.3220 
  147.7500   -20.4250    64.8650   110.3620   104.2910    55.5600    23.3430     2.3300 
  147.8750   -20.2370    62.2830   104.6800    98.1890    58.1480    23.5850     2.3320 
  148.0000   -19.9910    59.9990   104.2720    96.5580    57.1200    24.3150     2.3350 
  148.1250   -19.7700    58.7850   109.0130    99.5170    64.0660    24.8570     2.3420 
  148.2500   -19.5890    58.3180   119.3650   107.6200    78.1030    24.7640     2.3500 
  148.3750   -19.3880    56.9400   135.6290   121.2160    87.4700    24.2430     2.3570 
  148.5000   -19.1540    55.8100   158.2330   140.7760    95.1340    23.8340     2.3560 
  148.6250   -18.9480    56.5040   183.8620   163.4400   115.3710    23.6620     2.3400 
  148.7500   -18.7600    57.5520   208.1570   185.6940   155.1310    23.6580     2.3130 
  148.8750   -18.5930    60.2710   226.0060   203.4250   183.6520    23.8570     2.2840 
  149.0000   -18.3940    66.0880   232.9820   212.6550   155.0680    24.1540     2.2650 
  149.1250   -18.1840    69.8400   232.6950   215.4290   132.9440    24.4410     2.2500 
  149.2500   -18.0370    68.4530   228.5850   214.2970   136.8750    24.7510     2.2340 
  149.3750   -17.9690    64.5880   221.6400   210.4740   165.9960    25.0160     2.2180 
  149.5000   -17.9430    61.8130   206.7240   199.9740   187.9010    25.0480     2.2090 
  149.6250   -17.9050    61.0710   179.8160   178.1270   182.1300    24.9700     2.2070 
  149.7500   -17.8760    62.6020   142.6110   144.2860   172.8940    24.9230     2.2130 
  149.8750   -17.8580    65.9030   103.6500   105.8000   145.8440    24.9310     2.2290 
  150.0000   -17.8840    69.1750    73.1960    74.5100    97.1180    24.9300     2.2520 
  150.1250   -17.9190    74.5920    52.6620    53.5870    57.1280    24.8930     2.2760 
  150.2500   -17.9350    82.3570    40.6580    41.5260    33.1600    24.8120     2.2980 
  150.3750   -17.9550    86.9440    35.3190    35.8570    22.2720    24.6970     2.3100 
  150.5000   -18.0190    84.5570    36.1890    35.5890    21.4540    24.5670     2.3030 
  150.6250   -18.1100    80.5260    42.0200    39.6340    28.9020    24.4180     2.2840 
  150.7500   -18.2380    77.5470    53.2060    48.8290    43.5410    24.2890     2.2650 
  150.8750   -18.4360    74.9440    70.3250    64.5480    60.4710    24.2430     2.2490 
  151.0000   -18.6570    69.9140    93.7240    88.1330    78.9590    24.4210     2.2350 
  151.1250   -18.8510    65.5500   118.3350   114.0300    98.1370    24.7600     2.2230 
