~V
VERS. 2.00: Ver 2.00
~W
STRT.M 55.0000:
STOP.M 277.0000:
STEP.M 0.1250:
NULL. -999.2500:
UWI. F11037:
~C
DEPT.M :
SP.MV :
GR.API :
RML.OHMM :
RI. :
RXO.OHMM :
CALI.CM :
DEN.GM/CC :
~A
# ...
   88.7500   -14.8850    72.5370    17.1770    12.7530    38.0310    24.9060     2.5260 
   88.8750   -15.3790    69.4810    18.4450    15.0700    50.8590    24.8680     2.6040 
   89.0000   -16.2740    65.3490    17.2410    15.0250    35.2870    24.7090     2.6180 
   89.1250   -17.3490    62.9060    14.0740    12.6420    18.7170    24.4250     2.5430 
   89.2500   -18.5150    64.7390    10.8770    10.0520    10.7680    24.1570     2.4220 
   89.3750   -19.7370    68.8510     8.6450     8.1520     8.5860    24.0520     2.2980 
   89.5000   -20.7370    71.7220     7.5740     7.0880     8.3580    24.0820     2.2070 
   89.6250   -21.4500    71.5020     7.4960     6.7740     8.7100    24.1540     2.1690 
   89.7500   -21.9200    71.4900     7.8550     6.8510     9.1750    24.1810     2.1610 
   89.8750   -22.0870    73.1780     8.3240     7.1060     9.5470    24.1800     2.1680 
   90.0000   -21.9450    75.7990     8.6490     7.3690     9.7500    24.1740     2.1780 
   90.1250   -21.6540    76.8950     8.6630     7.5500     9.8130    24.2210     2.1860 
   90.2500   -21.4690    75.9850     8.4800     7.6670     9.8370    24.2900     2.1930 
   90.3750   -21.2280    75.2260     8.2630     7.7450     9.9250    24.3580     2.1980 
   90.5000   -21.0860    76.1740     8.1770     7.8060    10.0870    24.4040     2.1990 
   90.6250   -21.0320    76.9980     8.3310     7.8560    10.0400    24.4260     2.1950 
   90.7500   -20.8840    74.8140     8.6300     7.8930     9.8660    24.3870     2.1900 
   90.8750   -20.8390    70.7030     8.9400     7.9140     9.6600    24.2900     2.1860 
   91.0000   -20.9740    69.0390     9.1270     7.9150     9.7490    24.1820     2.1870 
   91.1250   -21.1500    71.6420     9.0750     7.8840     9.9620    24.1470     2.1910 
   91.2500   -21.2230    74.0070     8.8640     7.8290    10.1780    24.1480     2.1940 
   91.3750   -21.2350    74.3560     8.6310     7.7600    10.3280    24.1450     2.1950 
   91.5000   -21.2230    73.6280     8.4870     7.6940    10.5140    24.1420     2.1910 
   91.6250   -21.2510    72.0310     8.4620     7.6370    11.1600    24.1510     2.1860 
   91.7500   -21.3010    69.6530     8.4920     7.5770    11.9180    24.1590     2.1820 
   91.8750   -21.2990    69.4730     8.5430     7.5020    11.3950    24.1310     2.1810 
   92.0000   -21.1860    73.0740     8.5870     7.4110    10.6050    24.0860     2.1840 
   92.1250   -21.1280    74.8470     8.5990     7.3300    10.4620    24.0670     2.1890 
   92.2500   -21.1230    71.6090     8.5890     7.2820    10.5440    24.0620     2.1940 
   92.3750   -21.1650    68.1430     8.5900     7.2680    10.5060    24.0570     2.1960 
   92.5000   -21.2790    68.9330     8.6360     7.2740    10.4720    24.0420     2.1940 
   92.6250   -21.4100    71.2880     8.7430     7.2730    10.6560    24.0090     2.1870 
   92.7500   -21.5720    70.3660     8.8370     7.2480    10.6850    23.9800     2.1780 
   92.8750   -21.7520    67.2880     8.8240     7.2000    10.5300    23.9390     2.1710 
   93.0000   -21.9760    65.6900     8.6390     7.1310    10.4260    23.8920     2.1660 
   93.1250   -22.2110    66.8350     8.2910     7.0320    10.3540    23.8720     2.1640 
   93.2500   -22.4000    69.4860     7.9470     6.9050    10.2270    23.8630     2.1630 
   93.3750   -22.5320    72.7830     7.7640     6.7660     9.9770    23.8490     2.1630 
   93.5000   -22.6420    75.7110     7.8300     6.6500     9.8170    23.8140     2.1630 
   93.6250   -22.7050    77.1190     8.1210     6.6080     9.7380    23.7740     2.1640 
   93.7500   -22.6300    76.2020     8.4360     6.6430     9.8370    23.7310     2.1640 
   93.8750   -22.5230    72.4300     8.6480     6.7360    10.0300    23.7030     2.1630 
   94.0000   -22.5050    67.7040     8.7430     6.8500    10.2680    23.6960     2.1600 
   94.1250   -22.4090    65.6800     8.7910     6.9470    10.3680    23.6760     2.1560 
   94.2500   -22.2970    66.7820     8.8370     7.0280    10.4570    23.6950     2.1520 
   94.3750   -22.3390    68.7060     8.8640     7.1150    10.5520    23.7230     2.1480 
   94.5000   -22.3440    70.1310     8.8680     7.2150    10.5790    23.7510     2.1450 
   94.6250   -22.3420    70.8950     8.8680     7.2950    10.1300    23.7900     2.1440 
   94.7500   -22.3870    71.3880     8.8330     7.3120     9.6700    23.8240     2.1460 
   94.8750   -22.3900    71.6970     8.7010     7.2410     9.9170    23.8610     2.1510 
   95.0000   -22.3620    71.5860     8.4860     7.0920    10.4440    23.8830     2.1580 
   95.1250   -22.3400    69.7870     8.2730     6.9170    10.6080    23.8590     2.1640 
   95.2500   -22.3440    70.0790     8.1070     6.7860    10.1820    23.8160     2.1690 
   95.3750   -22.2530    72.1810     7.9250     6.7110     9.6320    23.7710     2.1730 
   95.5000   -22.1190    72.6250     7.7150     6.6550     9.3830    23.7370     2.1770 
   95.6250   -22.0250    71.2820     7.6340     6.5720     9.3820    23.6890     2.1840 
   95.7500   -21.9420    70.5620     7.7570     6.4600     9.4970    23.5920     2.1920 
   95.8750   -21.8780    70.3320     7.9810     6.3490     9.6490    23.4140     2.2000 
   96.0000   -21.6840    67.6190     8.1160     6.2940     9.4000    23.1480     2.2040 
   96.1250   -21.3910    64.7640     8.0060     6.3420     9.2760    22.9290     2.2050 
   96.2500   -21.0890    66.2710     7.7060     6.4320     9.4370    22.8330     2.2060 
   96.3750   -20.6940    70.8810     7.2890     6.4750     9.3150    22.8410     2.2100 
   96.5000   -20.1460    75.1030     6.8750     6.4010     8.8100    22.9910     2.2160 
   96.6250   -19.5050    76.4100     6.6050     6.1850     8.2530    23.3440     2.2240 
   96.7500   -18.7920    76.9610     6.5010     5.9080     7.8770    23.6000     2.2330 
   96.8750   -17.8740    80.1100     6.5080     5.6380     7.5930    23.7330     2.2460 
   97.0000   -16.9090    84.5770     6.5320     5.4170     7.2790    23.8150     2.2650 
   97.1250   -15.9890    85.7820     6.4870     5.2500     6.7370    23.9240     2.2900 
   97.2500   -14.9820    85.3600     6.3910     5.1270     6.2850    24.0720     2.3120 
   97.3750   -14.1380    87.0430     6.3010     5.0560     6.1220    24.2230     2.3280 
   97.5000   -13.5160    91.2120     6.2770     5.0410     6.1970    24.3290     2.3330 
   97.6250   -12.9730    93.4340     6.3740     5.0830     6.2650    24.3310     2.3300 
   97.7500   -12.5760    94.8880     6.5940     5.1690     6.3820    24.2960     2.3230 
   97.8750   -12.4640    97.3020     6.9480     5.3190     6.6960    24.3170     2.3110 
   98.0000   -12.6500    96.8330     7.4330     5.5760     7.6290    24.4360     2.2980 
   98.1250   -13.0570    88.2190     8.0090     6.0040     8.9440    24.5670     2.2920 
   98.2500   -13.6060    77.0090     8.5560     6.5440     8.8700    24.5510     2.2990 
   98.3750   -14.2580    69.5610     8.9640     7.0860     8.0800    24.4340     2.3150 
   98.5000   -15.0160    67.5500     9.1510     7.4940     8.7740    24.2450     2.3270 
   98.6250   -15.9530    68.1590     9.0600     7.6340    10.8490    23.9680     2.3170 
   98.7500   -16.9490    69.2370     8.8040     7.5620    10.8200    23.7570     2.2840 
   98.8750   -17.9870    68.1760     8.5000     7.3770    10.2650    23.6700     2.2420 
   99.0000   -18.8630    64.9230     8.2750     7.2090     9.9920    23.6420     2.2100 
   99.1250   -19.4520    63.6260     8.2570     7.2060    10.0330    23.6240     2.2030 
   99.2500   -20.0490    65.2200     8.4380     7.3850    10.1000    23.6600     2.2120 
   99.3750   -20.5580    67.4610     8.7600     7.7050    11.2200    23.7920     2.2250 
   99.5000   -20.9550    67.8720     9.1240     8.0600    14.7000    24.0050     2.2310 
   99.6250   -21.2900    67.4970     9.4130     8.3080    20.0240    24.0460     2.2250 
   99.7500   -21.6650    68.0130     9.5780     8.4020    16.2950    24.0200     2.2150 
   99.8750   -22.0170    68.7700     9.5970     8.3630    11.6460    23.9970     2.2060 
