~V
VERS. 2.00: Ver 2.00
~W
STRT.M 54.0000:
STOP.M 281.0000:
STEP.M 0.1250:
NULL. -999.2500:
UWI. F11055:
~C
DEPT.M :
SP.MV :
GR.API :
RML.OHMM :
RI. :
RXO.OHMM :
CALI.CM :
DEN.GM/CC :
~A
# ...
  267.7500    -2.0680    49.8660    12.6690    11.6060    14.1890    24.2180     2.3990 
  267.8750    -2.1340    50.7410    12.7100    11.6160    14.3830    24.2180     2.4080 
  268.0000    -2.2260    52.7600    12.8330    11.7000    14.3060    24.2190     2.4320 
  268.1250    -2.2320    55.1470    13.0090    11.8350    14.4960    24.2120     2.4420 
  268.2500    -2.2560    55.8210    13.1850    11.9700    14.6030    24.2040     2.4320 
  268.3750    -2.2530    54.5240    13.3290    12.0780    14.0500    24.2040     2.4180 
  268.5000    -2.2680    52.3850    13.4280    12.1460    13.5640    24.2030     2.4170 
  268.6250    -2.3080    50.6410    13.4810    12.1760    13.4890    24.1940     2.4380 
  268.7500    -2.3930    49.1260    13.5100    12.1940    13.4980    24.1990     2.4670 
  268.8750    -2.4870    48.4060    13.5370    12.2180    13.6190    24.2040     2.4890 
  269.0000    -2.5790    48.9700    13.5780    12.2650    13.3050    24.1940     2.5020 
  269.1250    -2.6840    50.5970    13.6570    12.3620    12.9930    24.1970     2.5040 
  269.2500    -2.7890    51.4280    13.7890    12.5150    13.1590    24.2040     2.4990 
  269.3750    -2.8940    51.9390    13.9910    12.7280    13.5330    24.1970     2.4930 
  269.5000    -2.9930    53.2420    14.2670    12.9970    14.2340    24.1940     2.4930 
  269.6250    -3.0780    52.8400    14.6110    13.3080    14.8840    24.2030     2.4990 
  269.7500    -3.1670    50.6130    14.9660    13.6230    15.4460    24.1860     2.5070 
  269.8750    -3.1730    50.2790    15.2770    13.9070    15.4040    24.1410     2.5150 
  270.0000    -3.1820    52.8140    15.5060    14.1370    15.8230    24.0870     2.5240 
  270.1250    -3.2550    54.6960    15.6470    14.3010    16.3150    24.0660     2.5330 
  270.2500    -3.2760    54.9770    15.7610    14.4270    17.1760    24.0600     2.5410 
  270.3750    -3.2610    54.9770    15.8950    14.5440    19.3700    24.0600     2.5460 
  270.5000    -3.2850    54.9770    16.0730    14.6830    24.6990    24.0600     2.5480 
  270.6250    -3.3140    54.9770    16.2710    14.8570    29.4680    24.0590     2.5470 
  270.7500    -3.2880    54.9770    16.4280    15.0350    28.1600    24.0530     2.5430 
  270.8750    -3.2980    54.9770    16.5040    15.1750    23.6910    24.0420     2.5360 
  271.0000    -3.3090    54.9770    16.5050    15.2460    20.8630    24.0400     2.5250 
  271.1250    -3.3120    54.9770    16.4720    15.2470    19.7910    24.0520     2.5110 
  271.2500    -3.3450    54.9770    16.4590    15.2310    19.6760    24.0510     2.4990 
  271.3750    -3.3920    54.9770    16.4900    15.2450    19.8270    24.0390     2.4920 
  271.5000    -3.4000    54.9770    16.5610    15.3110    20.3920    24.0360     2.4910 
  271.6250    -3.4030    54.9770    16.6410    15.4240    20.8320    24.0450     2.5030 
  271.7500    -3.4240    54.9770    16.6920    15.5360    20.8140    24.0460     2.5240 
  271.8750    -3.4540    54.9770    16.6970    15.6130    20.8280    24.0500     2.5430 
  272.0000    -3.4910    54.9770    16.6580    15.6430    21.7420    24.0520     2.5540 
  272.1250    -3.4690    54.9770    16.5990    15.6320    23.1470    24.0400     2.5570 
  272.2500    -3.4350    54.9770    16.5580    15.6180    25.1920    24.0210     2.5580 
  272.3750    -3.4240    54.9770    16.5570    15.6240    26.0030    24.0180     2.5560 
  272.5000    -3.4110    54.9770    16.5910    15.6550    24.0770    24.0060     2.5510 
  272.6250    -3.3720    54.9770    16.6440    15.7010    23.2380    24.0170     2.5430 
  272.7500    -3.3610    54.9770    16.6920    15.7570    22.5080    24.0280     2.5360 
  272.8750    -3.3740    54.9770    16.7300    15.8280    22.2340    24.0160     2.5330 
  273.0000    -3.3370    54.9770    16.7530    15.9070    21.2760    24.0120     2.5340 
  273.1250    -3.3200    54.9770    16.7500    15.9680    20.8280    24.0370     2.5330 
  273.2500    -3.3210    54.9770    16.7140    15.9830    19.9800    24.0370     2.5300 
  273.3750    -3.3640    54.9770    16.6430    15.9430    18.7360    24.0160     2.5270 
  273.5000    -3.3790    54.9770    16.5420    15.8670    17.7430    24.0030     2.5290 
  273.6250    -3.3820    54.9770    16.4400    15.7920    18.2840    24.0100     2.5360 
  273.7500    -3.4030    54.9770    16.3640    15.7440    18.7370    24.0080     2.5410 
  273.8750    -3.4430    54.9770    16.3240    15.7230    18.8660    24.0240     2.5400 
  274.0000    -3.5370    54.9770    16.3130    15.7180    19.4090    24.0280     2.5310 
  274.1250    -3.5730    54.9770    16.3120    15.7180    19.4660    24.0130     2.5200 
  274.2500    -3.6130    54.9770    16.3100    15.7180    18.7910    24.0200     2.5130 
  274.3750    -3.6110    54.9770    16.3020    15.7180    18.0020    24.0230     2.5100 
  274.5000    -3.5970    54.9770    16.2890    15.7170    17.5240    23.9860     2.5110 
  274.6250    -3.6460    54.9770    16.2780    15.7160    17.8450    23.9400     2.5180 
  274.7500    -3.6700    54.9770    16.2720    15.7150    18.0730    23.9120     2.5260 
  274.8750    -3.6630    54.9770    16.2710    15.7140    18.0820    23.9050     2.5350 
  275.0000    -3.6030    54.9770    16.2730    15.7120    18.3730    23.9020     2.5460 
  275.1250    -3.5970    54.9770    16.2780    15.7110    18.9760    23.8940     2.5530 
  275.2500    -3.5960    54.9770    16.2860    15.7100    19.1590    23.8820     2.5560 
  275.3750    -3.6380    54.9770    16.2960    15.7100    18.8370    23.8780     2.5550 
  275.5000    -3.7000    54.9770    16.2980    15.7090    18.5130    23.8860     2.5550 
  275.6250    -3.7040    54.9770    16.0510    15.6670    17.7650    23.8860     2.5560 
  275.7500    -3.7330    54.9770    15.2800    15.5170    17.0410    23.8820     2.5540 
  275.8750    -3.7300    54.9770    14.0490    15.2660    17.1810    23.8910     2.5470 
  276.0000    -3.7240    54.9770    12.7260    15.0000    18.2850    23.8980     2.5360 
  276.1250    -3.7630    54.9770    11.9910    15.1560    19.6480    23.8900     2.5290 
  276.2500    -3.8000    54.9770    11.9910    15.1560    20.0120    23.8760     2.5300 
  276.3750    -3.8130    54.9770    11.9910    15.1560    19.7000    23.8730     2.5410 
  276.5000    -3.8270    54.9770    11.9910    15.1560    20.3150    23.8780     2.5610 
  276.6250  -999.2500    54.9770    11.9910    15.1560    26.1380    23.8750     2.5830 
  276.7500  -999.2500    54.9770    11.9910    15.1560    32.1720    23.8790     2.5940 
  276.8750  -999.2500    54.9770    11.9910    15.1560    29.7100    23.8780     2.5940 
  277.0000  -999.2500    54.9770    11.9910    15.1560    27.0690    23.8670     2.5870 
  277.1250  -999.2500    54.9770    11.9910    15.1560    27.2490    23.8580     2.5730 
  277.2500  -999.2500    54.9770    11.9910    15.1560    27.1150    23.8650     2.5490 
  277.3750  -999.2500    54.9770    11.9910    15.1560    26.0870    23.8690     2.5180 
  277.5000  -999.2500    54.9770    11.9910    15.1560    25.7890    23.8450     2.4850 
  277.6250  -999.2500    54.9770    11.9910    15.1560    25.5870    23.7750     2.4470 
  277.7500  -999.2500    54.9770    11.9910    15.1560    25.1320    23.7160     2.3950 
  277.8750  -999.2500    54.9770    11.9910    15.1560    26.7170    23.6390     2.3180 
  278.0000  -999.2500    54.9770    11.9910    15.1560    29.8290    23.5660     2.2080 
  278.1250  -999.2500    54.9770    11.9910    15.1560    31.2800    23.4700     2.0920 
  278.2500  -999.2500    54.9770    11.9910    15.1560    33.3890    23.3540     2.0120 
  278.3750  -999.2500    54.9770    11.9910    15.1560    34.3960    23.2820     1.9750 
  278.5000  -999.2500    54.9770    11.9910    15.1560    34.4440    23.2620     1.9680 
  278.6250  -999.2500    54.9770    11.9910    15.1560    34.4510    23.2620     1.9680 
  278.7500  -999.2500    54.9770    11.9910    15.1560    34.5040    23.2620     1.9670 
  278.8750  -999.2500    54.9770    11.9910    15.1560    34.5280    23.2630     1.9660 
