~V
VERS. 2.00: Ver 2.00
~W
STRT.M 40.0000:
STOP.M 275.0000:
STEP.M 0.1250:
NULL. -999.2500:
UWI. F11027:
~C
DEPT.M :
DEN.GM/CC :
GR.API :
RML.OHMM :
RI. :
RXO.OHMM :
CALI.CM :
SP.MV :
~A
# ...
  208.7500     2.3660    67.4540    55.2270    43.9670    46.6050    24.1100    -5.9260 
  208.8750     2.3550    66.4770    59.3590    47.9940    36.3980    24.1450    -6.4420 
  209.0000     2.3350    62.1930    63.2750    51.5750    33.2720    24.3080    -6.9460 
  209.1250     2.3120    60.4240    67.7040    55.4060    41.2950    24.3320    -7.4130 
  209.2500     2.2890    64.9650    72.8110    59.8770    52.2790    24.2160    -7.8060 
  209.3750     2.2640    70.0390    78.2490    64.9520    57.9250    24.0430    -8.1590 
  209.5000     2.2380    69.0480    83.0940    70.0030    60.4540    23.9870    -8.4660 
  209.6250     2.2160    63.4600    85.6030    73.4000    62.2630    24.0530    -8.6730 
  209.7500     2.2030    58.9380    85.2220    74.2090    58.4230    24.1740    -8.7890 
  209.8750     2.2020    56.6310    82.2490    72.4570    48.9460    24.3300    -8.8040 
  210.0000     2.2120    57.1990    77.8330    69.0740    39.8470    24.4370    -8.7890 
  210.1250     2.2280    61.0270    73.5740    65.4520    37.2780    24.4060    -8.7800 
  210.2500     2.2430    63.2670    70.5670    62.7610    39.7600    24.3650    -8.7980 
  210.3750     2.2540    60.9140    69.1840    61.4580    43.9800    24.3250    -8.7660 
  210.5000     2.2600    57.8780    69.3320    61.5910    44.8800    24.3300    -8.6360 
  210.6250     2.2630    58.0910    70.6220    63.0050    42.7010    24.3940    -8.4550 
  210.7500     2.2680    56.2140    72.0430    64.7840    42.9700    24.4090    -8.3220 
  210.8750     2.2730    51.4960    72.8240    66.0930    45.9340    24.3340    -8.3360 
  211.0000     2.2740    49.4080    72.4850    66.2930    48.9570    24.2220    -8.4470 
  211.1250     2.2630    52.8290    70.9990    65.1220    48.5900    24.2090    -8.5690 
  211.2500     2.2420    56.5260    69.3010    63.4180    46.2490    24.2730    -8.5720 
  211.3750     2.2160    58.5940    68.2930    62.1120    44.4370    24.3600    -8.4470 
  211.5000     2.1940    59.5290    68.6980    62.0750    44.9350    24.4230    -8.3010 
  211.6250     2.1860    59.9990    71.0840    64.0750    49.7010    24.4390    -8.2340 
  211.7500     2.1940    59.1880    74.6910    67.6590    55.8350    24.4310    -8.2370 
  211.8750     2.2140    57.8920    79.7670    72.1870    59.8380    24.4310    -8.2260 
  212.0000     2.2390    56.6620    86.5110    76.7100    60.4060    24.4250    -8.1910 
  212.1250     2.2590    55.2650    93.0060    80.0190    62.7510    24.4260    -8.1130 
  212.2500     2.2670    54.4860    96.6080    81.8650    69.4480    24.4150    -8.0080 
  212.3750     2.2620    53.9630    97.0760    82.5070    75.4990    24.4160    -7.9940 
  212.5000     2.2460    55.8150    96.0360    82.4140    74.3160    24.4320    -8.1240 
  212.6250     2.2280    60.5660    94.5690    81.8850    69.7690    24.4380    -8.3650 
  212.7500     2.2150    64.3410    92.6190    81.0430    68.9040    24.4440    -8.6150 
  212.8750     2.2100    62.7510    90.1880    79.7710    69.5050    24.4510    -8.7830 
  213.0000     2.2120    58.5410    87.3100    78.0060    67.7200    24.4550    -8.8070 
  213.1250     2.2170    65.9970    84.1560    75.8640    63.4980    24.4560    -8.8200 
  213.2500     2.2200    78.0320    81.0540    73.7090    60.3640    24.4540    -8.9660 
  213.3750     2.2210    79.3760    78.1550    71.7420    58.9600    24.4530    -9.2130 
  213.5000     2.2220    68.5570    75.4120    69.9680    58.6470    24.4530    -9.3810 
  213.6250     2.2210    61.7350    72.5170    68.1000    59.0800    24.4530    -9.3890 
  213.7500     2.2180    62.0260    69.1630    65.7340    58.6300    24.4530    -9.3110 
  213.8750     2.2140    59.9300    65.2760    62.6190    55.7120    24.4530    -9.2280 
  214.0000     2.2130    56.4480    61.1350    58.8640    51.6810    24.4480    -9.2590 
  214.1250     2.2190    57.4660    57.5210    55.1150    49.4340    24.4320    -9.3570 
  214.2500     2.2330    61.0570    55.1920    52.2560    48.3100    24.4090    -9.3810 
  214.3750     2.2510    64.1750    54.7300    50.9670    47.6950    24.3810    -9.3050 
  214.5000     2.2670    66.8060    56.4520    51.7030    49.2450    24.3210    -9.2220 
  214.6250     2.2730    66.3490    60.6940    55.0170    56.1920    24.2040    -9.2390 
  214.7500     2.2690    62.5840    66.6870    60.3370    66.0220    24.0520    -9.3600 
  214.8750     2.2560    57.4420    73.7570    67.0980    73.2520    23.9270    -9.5350 
  215.0000     2.2410    54.4000    81.0420    74.4190    75.3430    23.9040    -9.6190 
  215.1250     2.2300    56.2030    87.4740    81.0520    71.3270    24.0130    -9.5900 
  215.2500     2.2270    59.3220    92.5760    86.2720    61.8480    24.2050    -9.6860 
  215.3750     2.2320    60.8230    96.2580    89.9210    52.0720    24.2830    -9.9290 
  215.5000     2.2400    59.4770    98.7400    92.2320    48.2360    24.2430   -10.2660 
  215.6250     2.2450    58.1970   100.3510    93.4970    52.7720    24.1770   -10.6090 
  215.7500     2.2460    57.7950   101.7380    94.3810    60.6420    24.1580   -10.9100 
  215.8750     2.2410    56.3230   103.3160    95.3800    68.3920    24.1620   -11.2010 
  216.0000     2.2330    54.3900   105.3430    96.8740    75.5710    24.1760   -11.5300 
  216.1250     2.2250    53.7610   107.8610    99.0300    82.9960    24.2030   -11.8670 
  216.2500     2.2190    53.8130   110.4840   101.4880    89.6220    24.1860   -12.1030 
  216.3750     2.2150    53.9500   112.8150   103.9020    91.4770    24.1580   -12.2440 
  216.5000     2.2120    53.7710   114.4420   105.9690    89.2630    24.1440   -12.3410 
  216.6250     2.2040    54.4160   114.6160   107.1840    92.0300    24.1630   -12.3320 
  216.7500     2.1940    56.0320   112.9610   106.9650   101.1030    24.2100   -12.1830 
  216.8750     2.1850    58.2360   109.1980   104.5900   108.8220    24.2510   -11.9320 
  217.0000     2.1830    60.3460   103.6210    99.9020   106.8220    24.2600   -11.6640 
  217.1250     2.1940    61.5930    97.2260    93.7230    95.0760    24.2400   -11.4300 
  217.2500     2.2150    61.4210    91.4210    87.9040    83.9480    24.1950   -11.1600 
  217.3750     2.2380    60.9100    86.7910    83.4080    78.9770    24.1520   -10.8080 
  217.5000     2.2550    62.5200    83.1310    80.2510    81.5780    24.1300   -10.3330 
  217.6250     2.2620    65.7650    79.5310    77.4870    88.7520    24.1330    -9.8300 
  217.7500     2.2650    66.7200    75.1440    73.8520    89.3990    24.1360    -9.4390 
  217.8750     2.2660    64.8290    69.9100    68.9650    76.5210    24.1410    -9.1900 
  218.0000     2.2640    62.3790    64.4970    63.3880    60.7330    24.1660    -9.0270 
  218.1250     2.2560    61.5750    60.2590    58.6040    53.6420    24.2410    -8.9140 
  218.2500     2.2420    61.2320    57.9060    55.6530    53.7350    24.3360    -8.7590 
  218.3750     2.2270    62.3300    57.5580    54.8450    57.1020    24.3890    -8.6120 
  218.5000     2.2170    64.2730    58.7740    55.8840    61.6720    24.4020    -8.5390 
  218.6250     2.2180    64.0840    60.7790    58.0840    67.3020    24.4020    -8.5450 
  218.7500     2.2270    62.4930    62.5930    60.2680    69.4390    24.3990    -8.6000 
  218.8750     2.2390    61.7560    63.7440    61.8080    66.9210    24.3930    -8.6000 
  219.0000     2.2520    62.6800    64.0690    62.5230    63.7860    24.3810    -8.5200 
  219.1250     2.2640    62.4180    63.4850    62.3650    61.7170    24.3870    -8.3560 
  219.2500     2.2750    59.3830    62.2600    61.4800    59.2390    24.3610    -8.2340 
  219.3750     2.2840    57.4950    60.5860    59.9660    57.4650    24.2890    -8.1760 
  219.5000     2.2910    59.1400    58.7300    58.1100    57.6290    24.1990    -8.1970 
  219.6250     2.2940    60.6190    57.0160    56.3150    56.3580    24.1340    -8.2870 
  219.7500     2.2910    58.1420    55.5710    54.8050    55.4120    24.0490    -8.3220 
  219.8750     2.2830    56.0340    54.3490    53.5570    58.6270    24.0130    -8.3250 
