~V
VERS. 2.00: Ver 2.00
~W
STRT.M 50.0000:
STOP.M 283.0000:
STEP.M 0.1250:
NULL. -999.2500:
UWI. F11066:
~C
DEPT.M :
GR.API :
RML.OHMM :
RI. :
RXO.OHMM :
CALI.CM :
DEN.GM/CC :
SP.MV :
~A
# ...
  196.2500    68.9130    42.5100    42.4930    39.4040    25.1860     2.2710    -8.5410 
  196.3750    68.5650    39.8600    40.3890    37.4640    25.1790     2.2830    -8.4010 
  196.5000    68.7050    36.8930    37.8110    35.4940    25.1610     2.2960    -8.2460 
  196.6250    70.2990    33.7380    34.8220    33.5580    25.1620     2.3060    -8.1120 
  196.7500    73.2500    30.7060    31.7910    31.1490    25.1680     2.3150    -7.9970 
  196.8750    76.9220    28.0120    28.9760    27.5820    25.1830     2.3210    -7.8910 
  197.0000    78.1720    25.8650    26.6230    25.9250    25.3120     2.3090    -7.8210 
  197.1250    77.1460    24.6420    25.1040    24.2850    25.6410     2.2700    -7.7880 
  197.2500    75.3460    24.4400    24.4860    23.5890    25.8900     2.2310    -7.8250 
  197.3750    71.5390    25.5660    24.9700    23.9840    25.8320     2.2180    -7.9080 
  197.5000    67.5200    28.5800    26.9720    26.1610    25.6150     2.2280    -8.0430 
  197.6250    66.9490    34.7440    31.6200    29.6690    25.4160     2.2360    -8.1870 
  197.7500    69.7960    44.3760    39.3600    35.4340    25.2720     2.2310    -8.3730 
  197.8750    72.1750    57.9320    50.8230    44.2930    25.2260     2.2170    -8.6100 
  198.0000    70.1790    75.2190    66.0910    73.6090    25.2650     2.2000    -8.8690 
  198.1250    64.4940    94.5500    83.7590    86.5330    25.3090     2.1910    -9.1550 
  198.2500    59.7310   111.8730    99.8310   100.4110    25.2480     2.1930    -9.4220 
  198.3750    58.9310   124.2340   111.4000    97.5650    25.1440     2.2000    -9.6940 
  198.5000    60.5110   131.0210   117.6970   100.3700    25.0810     2.1990    -9.9510 
  198.6250    60.9200   133.4760   119.5250   104.4300    25.0600     2.1950   -10.2160 
  198.7500    59.9360   134.8070   119.7880   106.7030    25.0550     2.1950   -10.4710 
  198.8750    58.5120   136.7210   120.1810   105.6260    25.0660     2.1980   -10.7130 
  199.0000    57.4480   139.9820   121.6060   105.0790    25.0640     2.2000   -10.9420 
  199.1250    56.9260   144.7070   124.5030   112.9150    25.0410     2.2020   -11.1460 
  199.2500    56.4690   148.9970   127.6550   117.6390    25.0160     2.2050   -11.3280 
  199.3750    56.6020   149.7490   128.7580   118.6350    24.9930     2.2130   -11.4780 
  199.5000    57.3290   144.1700   125.4010   120.0620    24.9790     2.2230   -11.6160 
  199.6250    60.1720   132.2420   116.7200   116.3450    24.9310     2.2360   -11.7350 
  199.7500    63.7580   120.0690   106.8540   109.9220    24.9130     2.2490   -11.8240 
  199.8750    65.1430   112.7220   100.0170    97.3920    24.8980     2.2570   -11.9000 
  200.0000    62.8670   113.3170    99.4270    80.7430    24.8910     2.2540   -11.9780 
  200.1250    59.8960   124.1480   107.6750   104.5390    24.8910     2.2420   -12.0430 
  200.2500    58.7070   142.2840   122.4790   149.7930    24.8830     2.2280   -12.1250 
  200.3750    57.8290   163.7930   140.6310   210.2860    24.8770     2.2190   -12.2400 
  200.5000    56.2470   181.8310   156.7580   259.5350    24.8830     2.2190   -12.3890 
  200.6250    55.5170   187.2150   163.4820   250.2790    24.9120     2.2230   -12.5700 
  200.7500    55.1020   181.7690   161.0900   205.1420    25.0830     2.2250   -12.7840 
  200.8750    54.2360   171.4840   153.4720   171.3350    25.7650     2.2240   -13.0160 
  201.0000    53.1750   161.7650   145.0710   159.5910    26.8700     2.2220   -13.2640 
  201.1250    54.3090   155.2270   138.7550   144.1850    26.7310     2.2190   -13.5370 
  201.2500    57.2790   150.9100   134.4550   134.6270    25.4990     2.2160   -13.8020 
  201.3750    60.0000   147.6770   131.4420   135.0020    24.8430     2.2120   -14.0210 
  201.5000    61.4920   144.7210   129.0930   137.1770    24.8720     2.2020   -14.1940 
  201.6250    59.7410   141.8250   127.2600   135.6120    25.1090     2.1850   -14.3270 
  201.7500    56.2830   139.1270   125.9450   133.0970    25.5010     2.1710   -14.4360 
  201.8750    53.0060   136.7430   125.1930   129.7340    25.7560     2.1690   -14.5170 
  202.0000    52.8770   134.6290   124.8980   127.2060    25.2610     2.1800   -14.5800 
  202.1250    55.5230   132.5550   124.7500   128.0280    24.8190     2.1940   -14.5950 
  202.2500    56.7950   130.2360   124.3160   129.3520    24.6060     2.1990   -14.5720 
  202.3750    55.3240   127.2940   123.1880   128.0370    24.6590     2.1950   -14.5640 
  202.5000    53.5890   122.8980   120.5980   124.3610    24.8170     2.1880   -14.5890 
  202.6250    56.1130   115.1780   114.7290   108.6290    24.9680     2.1810   -14.6030 
  202.7500    59.5320   103.8680   105.1360    99.3380    25.0610     2.1790   -14.6450 
  202.8750    61.2090    89.8610    92.3800    91.7560    25.1400     2.1810   -14.6950 
  203.0000    61.9320    75.2660    78.3160    85.5990    25.2300     2.1910   -14.7430 
  203.1250    64.2750    62.9660    65.7700    76.5150    25.2270     2.2110   -14.8060 
  203.2500    68.5700    54.2570    56.4320    61.3480    25.2220     2.2360   -14.8690 
  203.3750    71.6290    49.7200    51.0490    49.9280    25.2000     2.2580   -14.9000 
  203.5000    71.9520    49.6760    49.9470    48.0460    25.1920     2.2680   -14.8980 
  203.6250    69.8390    55.6050    54.5530    51.5090    25.2080     2.2600   -14.9010 
  203.7500    66.5260    67.5900    65.1760    66.6910    25.2560     2.2390   -14.8900 
  203.8750    62.7440    86.1940    82.6690   119.6680    25.3130     2.2080   -14.8740 
  204.0000    58.4840   110.4810   106.2820   220.9600    25.3490     2.1760   -14.8690 
  204.1250    55.8620   134.6730   130.6640   305.6700    25.3880     2.1500   -14.8670 
  204.2500    53.9550   148.2010   145.8940   264.7220    25.4370     2.1360   -14.8740 
  204.3750    51.3580   144.7830   145.5770   192.8890    25.4830     2.1360   -14.9630 
  204.5000    49.7070   128.0870   131.5420   121.7240    25.4940     2.1470   -15.0910 
  204.6250    53.1570   108.2780   112.1680    90.9920    25.4350     2.1690   -15.2930 
  204.7500    59.3930    92.7510    95.7900    79.5370    25.3290     2.1970   -15.4890 
  204.8750    64.8880    83.2640    85.0440    72.9920    25.2470     2.2220   -15.6710 
  205.0000    68.1670    79.8510    80.3440    80.0180    25.2380     2.2360   -15.8380 
  205.1250    70.6710    82.5980    81.9750    88.9350    25.2240     2.2360   -15.9880 
  205.2500    70.5370    88.9980    87.7130    93.8490    25.2260     2.2320   -16.1600 
  205.3750    66.4810    96.3830    95.3080   117.0670    25.2640     2.2270   -16.2580 
  205.5000    61.5080   101.1140   101.3430   132.5340    25.2750     2.2230   -16.2920 
  205.6250    60.3440    99.2870   101.4720   127.3990    25.2440     2.2220   -16.2040 
  205.7500    61.3590    92.5940    96.1950   109.5560    25.2080     2.2240   -16.0580 
  205.8750    63.4420    84.1780    88.0370    87.6790    25.1790     2.2260   -15.9030 
  206.0000    64.9690    76.9870    80.0650    75.7220    25.1250     2.2250   -15.7320 
  206.1250    64.7590    73.4420    75.1720    71.4200    25.0610     2.2250   -15.5760 
  206.2500    63.1930    73.8520    74.1040    68.8430    25.0250     2.2300   -15.4040 
  206.3750    60.6170    78.7450    77.3490    69.6190    24.9980     2.2400   -15.2730 
  206.5000    56.0730    89.1460    85.8010    79.1110    24.9760     2.2490   -15.2040 
  206.6250    50.9190   108.6080   103.1340    96.0910    25.4740     2.2550   -15.2410 
  206.7500    48.2720   138.8970   131.2290   170.5930    26.1780     2.2530   -15.3630 
  206.8750    47.9760   181.7380   170.9490   354.8930    25.9560     2.2340   -15.5450 
  207.0000    47.8060   232.9510   216.9730   515.9070    25.3490     2.1940   -15.7790 
  207.1250    48.2510   268.6370   248.8040   442.4250    24.9880     2.1540   -16.0530 
  207.2500    49.7580   265.1650   248.7780   365.4410    25.1220     2.1320   -16.3660 
  207.3750    49.8880   228.0260   219.0170   314.0310    25.4480     2.1280   -16.6840 
