~V
VERS. 2.00: Ver 2.00
~W
STRT.M 58.0000:
STOP.M 272.0000:
STEP.M 0.1250:
NULL. -999.2500:
UWI. F11073:
~C
DEPT.M :
GR.API :
RML.OHMM :
RI. :
RXO.OHMM :
CALI.CM :
DEN.GM/CC :
SP.MV :
~A
# ...
  181.7500    65.5440   237.7920   214.5130   161.0270    22.6250     2.2070   -23.7710 
  181.8750    64.5710   245.0110   221.1440   167.5290    22.5970     2.2110   -23.8330 
  182.0000    63.8010   249.2410   225.2120   173.8510    22.5050     2.2130   -23.7600 
  182.1250    63.5970   251.9730   227.6380   179.0960    22.3720     2.2130   -23.7250 
  182.2500    64.8910   256.0000   230.7410   171.9770    22.2570     2.2110   -23.7920 
  182.3750    66.7940   263.2280   236.2360   157.4240    22.2630     2.2070   -23.8440 
  182.5000    67.2840   274.3390   244.9080   169.2750    22.3600     2.2020   -23.8170 
  182.6250    65.6220   288.4720   256.3210   182.1230    22.5000     2.2010   -23.6650 
  182.7500    65.1940   302.4360   267.9200   194.2120    22.6760     2.2030   -23.5010 
  182.8750    67.4160   313.8530   277.7120   199.9270    22.8590     2.2070   -23.4740 
  183.0000    68.9610   321.7920   284.7410   202.9470    23.0600     2.2100   -23.5080 
  183.1250    66.0180   327.1950   289.5110   194.4620    23.2280     2.2090   -23.3380 
  183.2500    61.7510   332.8380   294.2490   183.1510    23.3080     2.2050   -23.1130 
  183.3750    58.6450   339.9520   300.1080   181.2210    23.2800     2.1970   -22.9930 
  183.5000    56.7540   348.1290   307.0470   197.4960    23.2420     2.1890   -22.9610 
  183.6250    55.7280   355.0740   313.7180   220.1110    23.2380     2.1850   -22.9250 
  183.7500    57.3440   357.6920   317.8540   226.7540    23.2460     2.1870   -22.7670 
  183.8750    61.8790   353.0640   316.9270   216.6360    23.2460     2.1950   -22.4940 
  184.0000    66.4460   339.9530   309.2390   208.5040    23.2540     2.2060   -22.2740 
  184.1250    68.9980   318.5360   293.9800   212.6420    23.2730     2.2150   -22.1050 
  184.2500    70.0340   292.4130   273.8630   220.5910    23.2470     2.2220   -21.8540 
  184.3750    70.7250   263.2320   250.2910   208.1890    23.1940     2.2260   -21.5340 
  184.5000    71.0570   232.8010   224.7460   182.5830    23.1130     2.2290   -21.2320 
  184.6250    69.6290   203.8730   199.3710   179.4910    23.0480     2.2330   -21.0730 
  184.7500    67.6770   178.3130   176.0630   178.5630    22.9230     2.2380   -21.0440 
  184.8750    67.8880   157.0520   155.9640   158.2780    22.7050     2.2420   -20.9840 
  185.0000    69.2940   140.2150   139.6160   129.6210    22.4860     2.2470   -20.7890 
  185.1250    69.7270   127.8750   127.4610   113.4630    22.3080     2.2490   -20.7180 
  185.2500    70.9010   118.7270   118.4770   108.9430    22.1230     2.2500   -20.8390 
  185.3750    74.1660   112.5630   112.4770    98.1520    21.9400     2.2520   -20.9830 
  185.5000    76.3470   109.4750   109.4190    88.0320    21.7870     2.2550   -21.0170 
  185.6250    73.4320   110.1520   109.6930    89.0570    21.8340     2.2560   -20.9150 
  185.7500    69.9780   114.2060   112.8680    90.9550    22.0660     2.2540   -20.8290 
  185.8750    69.6210   121.5840   119.0560    97.0890    22.4610     2.2490   -20.8750 
  186.0000    71.1030   131.6020   127.8850   111.1620    22.9750     2.2430   -20.9710 
  186.1250    71.0150   142.5790   138.0180   125.1810    23.4260     2.2370   -20.9450 
  186.2500    70.3060   152.2030   147.1270   132.6430    23.7730     2.2300   -20.8770 
  186.3750    69.4730   159.4660   153.9420   135.6710    23.9950     2.2240   -20.8690 
  186.5000    68.4110   164.8080   158.5080   138.1990    24.1130     2.2180   -20.9360 
  186.6250    69.0360   170.1870   162.2580   138.0400    24.2050     2.2120   -21.0180 
  186.7500    70.5520   177.7990   167.3790   137.8760    24.3060     2.2100   -20.9950 
  186.8750    70.4570   188.6130   174.9960   146.5650    24.3310     2.2110   -20.8860 
  187.0000    67.7900   202.1260   184.9920   168.6430    24.2930     2.2110   -20.8650 
  187.1250    64.1680   216.0660   195.6820   191.1910    24.2500     2.2090   -20.9440 
  187.2500    60.9710   227.2390   204.2840   196.0700    24.2710     2.2080   -20.9000 
  187.3750    58.7350   233.9400   209.1920   192.1900    24.2980     2.2120   -20.7330 
  187.5000    58.7200   236.7450   210.7150   186.7280    24.2880     2.2160   -20.5380 
  187.6250    58.9650   238.6100   211.2790   190.9350    24.2580     2.2150   -20.4520 
  187.7500    58.3480   243.1070   214.0880   188.0500    24.2880     2.2080   -20.4840 
  187.8750    58.6660   252.0210   220.9650   178.1820    24.2990     2.1990   -20.4850 
  188.0000    59.6750   265.4600   232.3700   182.4780    24.1270     2.1890   -20.3330 
  188.1250    59.9600   281.3780   247.0140   217.2510    23.9650     2.1830   -20.1910 
  188.2500    60.9810   294.7270   260.5810   239.5780    23.8920     2.1830   -20.1690 
  188.3750    62.2630   300.3960   268.6260   243.3630    23.8820     2.1850   -20.1880 
  188.5000    61.7740   294.7410   267.4720   235.2000    23.9000     2.1870   -20.1580 
  188.6250    59.6040   276.4390   254.8250   225.7670    24.0140     2.1850   -19.9650 
  188.7500    59.5450   250.5260   234.5320   213.8150    24.2690     2.1840   -19.6950 
  188.8750    60.7730   219.3910   208.6390   210.3920    24.5250     2.1890   -19.5360 
  189.0000    59.7810   185.7510   179.2950   205.2580    24.4910     2.1990   -19.5250 
  189.1250    59.1710   154.8610   150.6690   174.2230    24.4420     2.2090   -19.3950 
  189.2500    62.1020   130.5960   126.9440   126.4840    24.4200     2.2170   -19.1570 
  189.3750    65.4620   114.2190   110.0390    83.5400    24.4110     2.2260   -18.9750 
  189.5000    66.0770   105.1120   100.0450    61.3390    24.4190     2.2400   -18.9230 
  189.6250    65.9250   101.9170    96.1960    70.8370    24.4810     2.2550   -19.0110 
  189.7500    67.4430   101.0250    95.0510   100.7830    24.5420     2.2620   -19.0590 
  189.8750    69.8480   100.6090    94.6940   116.4270    24.5830     2.2580   -19.0150 
  190.0000    72.3500   100.0970    94.2870   100.6580    24.4420     2.2530   -18.9810 
  190.1250    73.8820   100.7390    94.5040    80.0880    24.1970     2.2550   -19.0700 
  190.2500    71.8740   104.4360    96.9250    67.5120    24.0800     2.2590   -19.1710 
  190.3750    66.3120   112.7120   103.0690    68.3000    24.0530     2.2570   -19.1900 
  190.5000    61.0910   125.7390   113.3970    82.9240    24.0970     2.2500   -19.1420 
  190.6250    59.8480   141.6210   126.5610   106.4850    24.2460     2.2380   -19.1280 
  190.7500    61.6290   155.7660   138.6140   115.1740    24.4470     2.2260   -19.2400 
  190.8750    64.3080   164.7680   146.4910   120.4980    24.5350     2.2170   -19.3800 
  191.0000    65.7820   167.4390   148.8420   115.8130    24.5610     2.2150   -19.3820 
  191.1250    66.0740   164.8800   146.1950   116.7080    24.5950     2.2210   -19.3230 
  191.2500    65.7580   160.7020   141.7430   123.2860    24.5980     2.2310   -19.3920 
  191.3750    65.7650   156.5830   137.1600   136.0810    24.5520     2.2430   -19.5160 
  191.5000    65.9450   153.4070   133.4270   135.0540    24.4990     2.2570   -19.5800 
  191.6250    64.4060   152.1460   131.5140   116.8510    24.4510     2.2690   -19.5070 
  191.7500    61.8370   152.7710   131.4010   104.8390    24.4670     2.2730   -19.3880 
  191.8750    59.7900   154.8500   132.7700   112.3500    24.4820     2.2680   -19.3340 
  192.0000    59.3530   157.4160   134.8930   130.6430    24.5010     2.2580   -19.3070 
  192.1250    59.8920   158.5050   136.1930   131.6860    24.5210     2.2440   -19.2220 
  192.2500    59.8140   156.4040   135.0760   129.2280    24.5370     2.2320   -19.0850 
  192.3750    59.5250   150.2750   130.6810   125.8400    24.5360     2.2260   -18.9850 
  192.5000    59.7680   140.4920   123.1950   125.6940    24.5200     2.2280   -18.9550 
  192.6250    61.1550   127.9860   113.2790   115.7840    24.5210     2.2340   -18.9470 
  192.7500    62.4220   114.5770   102.4360    98.0140    24.5210     2.2370   -18.8310 
  192.8750    62.8820   101.3830    91.5890    83.0290    24.4930     2.2400   -18.6020 
