~V
VERS. 2.00: Ver 2.00
~W
STRT.M 57.0000:
STOP.M 276.0000:
STEP.M 0.1250:
NULL. -999.2500:
UWI. F11063:
~C
DEPT.M :
DEN.GM/CC :
GR.API :
RML.OHMM :
RI. :
RXO.OHMM :
CALI.CM :
SP.MV :
~A
# ...
  248.2500     2.2970    78.9770    22.9850    20.7140    30.2030    24.0700   -12.6410 
  248.3750     2.2640    77.5390    27.1800    24.6160    35.5660    24.1320   -12.6200 
  248.5000     2.2430    75.8690    32.2830    29.3730    50.6960    24.1080   -12.6050 
  248.6250     2.2590    74.5890    38.4260    35.1320    60.7080    24.0780   -12.5160 
  248.7500     2.3000    76.3270    45.0640    41.3630    64.4960    24.1330   -12.4090 
  248.8750     2.3470    81.5050    51.5620    47.3970    60.4960    24.2790   -12.2980 
  249.0000     2.3800    84.3730    57.2420    52.5160    56.8810    24.4090   -12.1410 
  249.1250     2.3920    80.4850    61.7080    56.3430    64.1800    24.4860   -12.0000 
  249.2500     2.4000    75.9650    65.7450    59.7570    75.1700    24.5470   -11.8940 
  249.3750     2.4120    76.2020    70.1830    63.6320    82.8520    24.5500   -11.7500 
  249.5000     2.4320    80.1760    75.6040    68.5380    87.2980    24.4670   -11.6340 
  249.6250     2.4540    83.0220    82.3880    74.8140    87.0610    24.3200   -11.4920 
  249.7500     2.4620    83.4510    90.1810    82.0420    91.6890    24.2230   -11.3140 
  249.8750     2.4480    83.0430    98.7650    89.9960   103.9660    24.1850   -11.1810 
  250.0000     2.4250    82.6560   108.2390    98.8570   124.5130    24.2250   -11.0120 
  250.1250     2.4230    81.4060   119.7620   109.8320   148.5040    24.2520   -10.8100 
  250.2500     2.4470    79.1880   134.2340   123.6620   166.1180    24.2620   -10.6550 
  250.3750     2.4870    76.4410   151.4960   140.0730   177.0750    24.2700   -10.4670 
  250.5000     2.5310    72.6260   167.2480   155.5860   199.1050    24.3450   -10.2550 
  250.6250     2.5760    67.2800   165.6080   158.4900   269.9480    24.3790   -10.0860 
  250.7500     2.6180    62.7270   138.7770   140.5530   253.0490    24.3420    -9.8980 
  250.8750     2.6440    58.6400    97.5160   104.9660   157.1760    24.2550    -9.7330 
  251.0000     2.6420    54.9100    60.1960    66.5420    79.0410    24.1490    -9.6080 
  251.1250     2.6120    51.4310    36.6460    39.5920    37.7190    24.1210    -9.4310 
  251.2500     2.5610    50.1910    22.6270    23.5350    18.7490    24.1880    -9.2780 
  251.3750     2.4940    51.7800    14.7260    14.8320    10.5410    24.2710    -9.1950 
  251.5000     2.4270    54.6820    10.4790    10.2770     7.9190    24.3490    -9.0770 
  251.6250     2.3790    57.2300     8.5600     8.1220     7.3740    24.4500    -9.0370 
  251.7500     2.3470    58.0430     7.7080     7.0500     7.1420    24.5340    -9.0220 
  251.8750     2.3250    58.4760     7.4560     6.6430     7.0120    24.5740    -8.9750 
  252.0000     2.3090    59.5700     7.5190     6.6260     6.9090    24.5690    -9.0160 
  252.1250     2.3040    62.6000     7.7120     6.7990     6.9370    24.5780    -9.1000 
  252.2500     2.3070    65.3920     7.8790     6.9810     7.3150    24.5740    -9.1590 
  252.3750     2.3180    64.1320     7.9590     7.0980     8.4270    24.5750    -9.2690 
  252.5000     2.3390    59.8380     7.9370     7.1170    10.1550    24.5640    -9.3940 
  252.6250     2.3670    57.7530     7.8240     7.0220    10.3990    24.5160    -9.5000 
  252.7500     2.3920    59.2330     7.6520     6.8640     9.6380    24.4750    -9.5930 
  252.8750     2.4100    61.1170     7.4580     6.6860     8.7580    24.4550    -9.7000 
  253.0000     2.4210    61.6060     7.3060     6.5180     8.2950    24.4440    -9.8100 
  253.1250     2.4240    60.6740     7.2800     6.3730     8.0140    24.4300    -9.8970 
  253.2500     2.4220    58.8150     7.3620     6.2420     7.7930    24.4210    -9.9410 
  253.3750     2.4140    56.6120     7.4780     6.1180     7.5980    24.4360    -9.9710 
  253.5000     2.3970    54.3650     7.5390     6.0040     7.4030    24.4870    -9.9930 
  253.6250     2.3690    53.2350     7.5080     5.9110     7.2210    24.6200    -9.9360 
  253.7500     2.3370    54.2210     7.4380     5.8390     7.0270    24.7970    -9.9380 
  253.8750     2.3150    56.2770     7.3620     5.7870     6.6410    24.9160    -9.9030 
  254.0000     2.3080    57.3630     7.2830     5.7540     6.0620    24.9340    -9.7850 
  254.1250     2.3120    55.7270     7.1980     5.7480     5.9490    24.9150    -9.7240 
  254.2500     2.3200    54.1580     7.1350     5.7640     6.0990    24.9170    -9.6630 
  254.3750     2.3290    53.5080     7.1320     5.7950     6.2740    24.9600    -9.5660 
  254.5000     2.3380    52.7970     7.2010     5.8230     6.3570    25.0090    -9.5110 
  254.6250     2.3450    52.1770     7.3040     5.8290     6.3010    25.0240    -9.4740 
  254.7500     2.3470    50.8290     7.3770     5.8110     6.3090    25.0450    -9.4470 
  254.8750     2.3500    49.9710     7.4010     5.7780     6.4160    25.0640    -9.4370 
  255.0000     2.3550    50.5920     7.3820     5.7480     6.6000    25.0490    -9.4310 
  255.1250     2.3590    53.6380     7.3410     5.7400     6.7810    25.0490    -9.4740 
  255.2500     2.3580    56.8040     7.3370     5.7620     6.8260    25.0430    -9.5630 
  255.3750     2.3570    57.1060     7.4340     5.8090     6.6730    25.0440    -9.6600 
  255.5000     2.3600    55.1190     7.6470     5.8720     6.5290    25.0390    -9.8040 
  255.6250     2.3690    54.1850     7.9190     5.9440     6.5440    25.0090    -9.9620 
  255.7500     2.3790    56.2320     8.1540     6.0200     6.5560    24.9680   -10.1300 
  255.8750     2.3880    59.2520     8.3200     6.1080     6.6170    24.8990   -10.3670 
  256.0000     2.3950    60.1730     8.4430     6.2270     6.9050    24.8340   -10.5910 
  256.1250     2.3980    57.3930     8.5550     6.3970     7.7480    24.7400   -10.7510 
  256.2500     2.3980    52.7940     8.6620     6.6020     8.8860    24.5860   -10.9390 
  256.3750     2.4000    49.1950     8.7700     6.8230     9.6390    24.4020   -11.1040 
  256.5000     2.4050    47.8320     8.9050     7.0390     9.9610    24.2680   -11.2500 
  256.6250     2.4120    47.0510     9.1280     7.2360    10.2660    24.3690   -11.3770 
  256.7500     2.4170    45.6100     9.4510     7.4130    10.6290    24.5620   -11.4430 
  256.8750     2.4160    45.2060     9.8410     7.5830    10.8110    24.6150   -11.4900 
  257.0000     2.4120    47.2150    10.2340     7.7620    10.8310    24.4730   -11.5370 
  257.1250     2.4100    50.1950    10.5380     7.9630    10.9070    24.2750   -11.5590 
  257.2500     2.4150    51.2920    10.7210     8.1770    10.8840    24.1450   -11.5710 
  257.3750     2.4290    49.7520    10.7850     8.3890    10.7750    24.0740   -11.5690 
  257.5000     2.4560    46.2440    10.7330     8.5810    10.9450    24.0200   -11.5490 
  257.6250     2.4880    44.4360    10.6000     8.7260    11.4100    24.0330   -11.5460 
  257.7500     2.5030    45.1650    10.4880     8.8250    11.7530    24.0490   -11.5250 
  257.8750     2.4880    46.8390    10.4620     8.8710    11.4510    23.9490   -11.4940 
  258.0000     2.4530    47.4130    10.5310     8.8570    11.3930    23.7180   -11.4580 
  258.1250     2.4180    47.1760    10.6350     8.7680    11.8390    23.4610   -11.4460 
  258.2500     2.3960    47.9120    10.6840     8.6360    12.0740    23.3650   -11.3630 
  258.3750     2.3860    51.0210    10.6120     8.4930    11.8970    23.5250   -11.2950 
  258.5000     2.3840    54.4630    10.4050     8.3750    11.2360    23.8190   -11.2080 
  258.6250     2.3870    53.9860    10.1370     8.3160    10.2810    23.9780   -11.1040 
  258.7500     2.3950    50.4060     9.9380     8.3230    10.2000    24.0290   -11.0370 
  258.8750     2.4070    47.8710     9.8840     8.3880    10.4200    23.9470   -10.9060 
  259.0000     2.4180    48.2880     9.9970     8.4920    10.7630    23.7290   -10.8350 
  259.1250     2.4210    49.3100    10.2490     8.6060    11.1030    23.4480   -10.7360 
  259.2500     2.4150    49.0470    10.4990     8.7000    11.3370    23.3710   -10.6250 
  259.3750     2.4040    49.0270    10.6480     8.7650    11.7930    23.6060   -10.5360 
