~V
VERS. 2.00: Ver 2.00
~W
STRT.M 54.0000:
STOP.M 281.0000:
STEP.M 0.1250:
NULL. -999.2500:
UWI. F11055:
~C
DEPT.M :
SP.MV :
GR.API :
RML.OHMM :
RI. :
RXO.OHMM :
CALI.CM :
DEN.GM/CC :
~A
# ...
   65.2500    -8.2960    95.9120     7.8470     6.3870     6.4290    24.1280     2.2550 
   65.3750    -8.4410    94.5860     8.0930     6.4970     7.2020    24.1250     2.2490 
   65.5000    -8.5290    94.9900     8.1510     6.4830     8.0500    24.1250     2.2470 
   65.6250    -8.5360    96.8830     7.8570     6.2400     7.8460    24.1230     2.2490 
   65.7500    -8.5550    99.6480     7.3110     5.8250     6.8180    24.1250     2.2570 
   65.8750    -8.5230   103.1040     6.7130     5.3580     5.6980    24.1270     2.2690 
   66.0000    -8.5130   104.3420     6.3380     5.0080     5.2330    24.1260     2.2840 
   66.1250    -8.4650   100.9910     6.5530     5.0040     5.4600    24.1270     2.2990 
   66.2500    -8.4540    95.8780     7.4210     5.4180     5.9900    24.1400     2.3180 
   66.3750    -8.4380    91.4410     8.9050     6.2870     7.0130    24.1600     2.3480 
   66.5000    -8.4610    86.7440    10.7420     7.5300     9.8330    24.1640     2.3820 
   66.6250    -8.5170    82.1990    12.2010     8.7560    15.6020    24.1450     2.3830 
   66.7500    -8.4960    79.8310    12.5190     9.3330    14.4950    24.0920     2.3360 
   66.8750    -8.4980    79.4900    11.4850     8.9460    10.3370    24.0660     2.2770 
   67.0000    -8.4700    81.2430     9.6320     7.8370     7.9440    24.0610     2.2430 
   67.1250    -8.3510    88.1170     7.8950     6.6030     6.5990    24.0680     2.2390 
   67.2500    -8.2270    99.1520     6.8240     5.6980     5.5620    24.0780     2.2390 
   67.3750    -8.0980   106.6240     6.5060     5.2500     5.1740    24.0720     2.2290 
   67.5000    -7.9780   102.6010     6.8190     5.2470     5.4120    24.0400     2.2070 
   67.6250    -7.8860    92.5750     7.6080     5.6490     6.0350    23.9850     2.1850 
   67.7500    -7.8450    88.1440     8.5590     6.2570     7.0010    23.9270     2.1730 
   67.8750    -7.8050    87.9170     9.4210     6.9040     7.7300    23.8780     2.1710 
   68.0000    -7.7490    84.0160     9.9400     7.3910     8.2100    23.8850     2.1740 
   68.1250    -7.7340    75.9390     9.8590     7.4900     8.3910    23.8980     2.1830 
   68.2500    -7.6800    73.0330     9.3200     7.2370     8.5090    23.8910     2.2030 
   68.3750    -7.5940    79.7970     8.5530     6.7610     8.3560    23.8500     2.2360 
   68.5000    -7.5190    91.9940     7.8770     6.2710     7.5970    23.8350     2.2760 
   68.6250    -7.4480    97.7500     7.6920     6.0330     6.5470    23.8580     2.3080 
   68.7500    -7.3860    95.2260     8.1110     6.1580     6.4730    23.8470     2.3270 
   68.8750    -7.3700    89.8150     9.1250     6.6870     7.5760    23.8330     2.3360 
   69.0000    -7.3820    85.1730    10.5620     7.5700    10.1460    23.8660     2.3450 
   69.1250    -7.4590    80.4480    11.9660     8.6070    14.5040    23.8750     2.3380 
   69.2500    -7.5510    76.2210    12.7510     9.3890    16.6890    23.8410     2.2960 
   69.3750    -7.6710    74.7370    12.6390     9.6350    12.8190    23.7950     2.2320 
   69.5000    -7.7380    74.9750    11.8350     9.3540     9.9120    23.7710     2.1850 
   69.6250    -7.8090    74.1140    10.8940     8.8120     9.4020    23.7590     2.1730 
   69.7500    -7.8370    71.2190    10.2560     8.3500     9.6760    23.7340     2.1750 
   69.8750    -7.7690    68.7760     9.9980     8.0900     9.8210    23.6830     2.1790 
   70.0000    -7.7170    68.8160    10.0180     8.0260     9.7520    23.6560     2.1840 
   70.1250    -7.5910    70.3300    10.1510     8.0850     9.9430    23.6770     2.1900 
   70.2500    -7.4650    71.4980    10.2670     8.1580     9.9110    23.7050     2.1900 
   70.3750    -7.3160    73.1660    10.3530     8.2180     9.9430    23.6760     2.1850 
   70.5000    -7.1940    75.2410    10.4190     8.2620     9.8220    23.6540     2.1790 
   70.6250    -7.0180    73.8190    10.4520     8.2780     9.7420    23.6790     2.1780 
   70.7500    -6.8480    69.3460    10.4220     8.2420     9.6590    23.7240     2.1830 
   70.8750    -6.7090    66.3480    10.2850     8.1220     9.4930    23.7210     2.1890 
   71.0000    -6.5320    67.9660    10.0070     7.8980     9.1110    23.6890     2.1940 
   71.1250    -6.3580    73.4310     9.5670     7.5570     8.8080    23.7630     2.1980 
   71.2500    -6.1850    78.3630     9.0500     7.1510     8.3650    23.9130     2.2060 
   71.3750    -6.0120    80.2300     8.5950     6.7670     7.9060    24.0050     2.2260 
   71.5000    -5.8810    80.8010     8.4210     6.5440     7.4850    23.9840     2.2620 
   71.6250    -5.7290    82.2670     8.8550     6.7130     7.1980    23.9790     2.3090 
   71.7500    -5.6290    84.4620     9.9090     7.3290     7.6370    24.0220     2.3590 
   71.8750    -5.5840    83.8410    11.4550     8.3770    10.0910    24.0770     2.4030 
   72.0000    -5.5970    78.4070    13.1090     9.6650    16.7100    24.0860     2.4220 
   72.1250    -5.7000    69.9690    14.0750    10.6850    26.2170    24.0400     2.3790 
   72.2500    -5.8240    63.5780    13.9480    11.0000    22.3330    23.9790     2.2970 
   72.3750    -5.9760    62.0930    12.9140    10.5790    13.0360    23.9570     2.2250 
   72.5000    -6.0880    63.9120    11.5920     9.7610     9.3110    23.9690     2.2000 
   72.6250    -6.2230    66.1180    10.6340     8.9840     9.0200    23.9770     2.2160 
   72.7500    -6.3120    66.7590    10.1820     8.4730     9.4710    23.9730     2.2360 
   72.8750    -6.3830    66.6140    10.1270     8.2470     9.6210    23.9600     2.2420 
   73.0000    -6.3830    66.8330    10.2670     8.2330     9.4990    23.9570     2.2320 
   73.1250    -6.3720    64.6330    10.4250     8.3290     9.5280    23.9650     2.2190 
   73.2500    -6.3300    60.3980    10.5530     8.4360     9.7440    23.9590     2.2070 
   73.3750    -6.2600    57.9100    10.6590     8.5250    10.0620    23.9470     2.1950 
   73.5000    -6.1790    58.8880    10.7220     8.5760    10.2260    23.9450     2.1830 
   73.6250    -6.1360    62.2410    10.6800     8.5520    10.4030    23.9550     2.1760 
   73.7500    -6.0700    65.5020    10.5430     8.4650    10.2620    23.9670     2.1710 
   73.8750    -6.0170    67.3710    10.3670     8.3500     9.8880    23.9650     2.1670 
   74.0000    -5.9680    67.0350    10.2280     8.2520     9.6460    23.9540     2.1630 
   74.1250    -5.8540    67.3910    10.1940     8.2050     9.6870    23.9450     2.1640 
   74.2500    -5.7580    70.5240    10.2490     8.1970     9.8440    23.9410     2.1700 
   74.3750    -5.6490    73.0510    10.3500     8.2070     9.9840    23.9410     2.1770 
   74.5000    -5.5550    72.5470    10.4470     8.2070    10.0680    23.9410     2.1810 
   74.6250    -5.4080    70.0020    10.4990     8.1810     9.9590    23.9220     2.1800 
   74.7500    -5.3400    66.7660    10.5110     8.1360     9.7850    23.8950     2.1770 
   74.8750    -5.2400    64.4360    10.5040     8.0850     9.6710    23.9020     2.1710 
   75.0000    -5.1790    64.6320    10.4970     8.0390     9.6100    23.9250     2.1680 
   75.1250    -5.1190    67.8730    10.5030     8.0080     9.6870    23.9400     2.1680 
   75.2500    -5.0740    71.2520    10.5170     7.9840     9.6360    23.9380     2.1690 
   75.3750    -5.0380    73.1440    10.5290     7.9600     9.4700    23.9370     2.1690 
   75.5000    -5.0170    72.8560    10.5240     7.9310     9.4240    23.9370     2.1710 
   75.6250    -4.9720    69.9960    10.4780     7.8970     9.6930    23.9400     2.1790 
   75.7500    -4.9240    66.2200    10.4160     7.8700    10.0740    23.9400     2.1900 
   75.8750    -4.8670    62.9290    10.4160     7.8890    10.3380    23.9280     2.2050 
   76.0000    -4.7450    61.7920    10.5770     8.0020    10.4870    23.9080     2.2230 
   76.1250    -4.6510    65.6850    10.9600     8.2480    10.5770    23.8970     2.2510 
   76.2500    -4.5020    72.8720    11.4350     8.5600    11.1390    23.9780     2.2890 
   76.3750    -4.3670    78.4200    11.8160     8.8340    13.0340    24.0860     2.3260 
