~V
VERS. 2.00: Ver 2.00
~W
STRT.M 58.0000:
STOP.M 272.0000:
STEP.M 0.1250:
NULL. -999.2500:
UWI. F11073:
~C
DEPT.M :
GR.API :
RML.OHMM :
RI. :
RXO.OHMM :
CALI.CM :
DEN.GM/CC :
SP.MV :
~A
# ...
  125.5000    88.2620     8.4690     7.2940     7.5670    23.7580     2.2200   -14.8540 
  125.6250    85.4140     8.4860     7.1960     7.6270    23.6420     2.2330   -15.1880 
  125.7500    84.3990     8.6520     7.2370     8.3140    23.5950     2.2390   -15.5140 
  125.8750    86.1950     8.9090     7.3780     8.9820    23.5800     2.2350   -15.8300 
  126.0000    85.8760     9.1950     7.5760     9.5520    23.5510     2.2250   -16.2400 
  126.1250    82.6770     9.4310     7.7800     9.2720    23.5030     2.2090   -16.6360 
  126.2500    80.4580     9.5790     7.9430     8.8190    23.4510     2.1940   -16.8940 
  126.3750    78.8320     9.6420     8.0460     8.6710    23.4450     2.1850   -17.1200 
  126.5000    76.2340     9.6540     8.0900     8.8160    23.4980     2.1820   -17.2910 
  126.6250    74.3260     9.6500     8.0800     9.1270    23.6280     2.1830   -17.2330 
  126.7500    75.8920     9.6470     8.0440     9.3320    23.7510     2.1830   -17.0230 
  126.8750    78.5410     9.6390     8.0000     9.3310    23.8250     2.1810   -16.7390 
  127.0000    79.5130     9.6220     7.9600     9.1960    23.8310     2.1770   -16.4190 
  127.1250    80.3180     9.5940     7.9300     9.0500    23.7390     2.1740   -16.0350 
  127.2500    81.8380     9.5710     7.9100     8.9490    23.6660     2.1730   -15.6500 
  127.3750    81.1100     9.5800     7.9120     8.8020    23.6660     2.1720   -15.3120 
  127.5000    76.3400     9.6410     7.9490     8.6730    23.7120     2.1690   -14.9240 
  127.6250    73.0580     9.7580     8.0330     8.8160    23.7890     2.1620   -14.4810 
  127.7500    73.6830     9.8930     8.1450     9.1100    23.9660     2.1530   -14.0240 
  127.8750    75.8280     9.9990     8.2510     9.3680    24.2340     2.1430   -13.5780 
  128.0000    77.5740     9.9910     8.2840     9.2930    24.4580     2.1360   -12.9780 
  128.1250    80.2970     9.7250     8.1160     8.7320    24.5090     2.1380   -12.1970 
  128.2500    83.5010     9.1970     7.7300     8.0690    24.4710     2.1490   -11.4340 
  128.3750    85.7100     8.4740     7.1670     7.6030    24.4150     2.1680   -10.5570 
  128.5000    88.2610     7.6850     6.5260     6.9050    24.3850     2.1930    -9.5980 
  128.6250    92.3530     6.9960     5.9350     5.6370    24.3590     2.2260    -8.7340 
  128.7500    95.6640     6.4880     5.4700     4.7780    24.3550     2.2710    -8.0080 
  128.8750    97.0020     6.1820     5.1490     5.1960    24.3690     2.3200    -7.3410 
  129.0000    96.9790     6.0450     4.9560     5.2530    24.3730     2.3500    -6.7660 
  129.1250    96.5490     6.0340     4.8730     4.8900    24.3510     2.3460    -6.4020 
  129.2500    95.7330     6.0680     4.8520     4.5720    24.3200     2.3300    -6.1010 
  129.3750    95.6350     6.1090     4.8670     4.5030    24.2750     2.3190    -5.8650 
  129.5000    97.3040     6.1420     4.9050     4.6870    24.2450     2.3110    -5.7360 
  129.6250    98.7430     6.1600     4.9520     4.7220    24.2450     2.2990    -5.6950 
  129.7500    99.7330     6.1440     4.9790     4.7790    24.2690     2.2880    -5.6320 
  129.8750    98.9740     6.0610     4.9480     4.7950    24.2890     2.2840    -5.5380 
  130.0000    96.3140     5.8890     4.8370     4.7900    24.2840     2.2860    -5.5230 
  130.1250    94.2760     5.6330     4.6510     4.5890    24.2540     2.2910    -5.4440 
  130.2500    95.7350     5.3540     4.4460     4.2400    24.2520     2.2970    -5.3000 
  130.3750   101.0650     5.1230     4.2720     3.9030    24.2790     2.3070    -5.2490 
  130.5000   104.8760     5.0120     4.1810     3.8880    24.3150     2.3200    -5.2490 
  130.6250   104.9550     5.1110     4.2380     4.1860    24.3690     2.3310    -5.1710 
  130.7500   104.4510     5.3820     4.4290     4.4500    24.3890     2.3400    -5.0630 
  130.8750   103.0200     5.7410     4.7110     4.6110    24.2950     2.3540    -5.0240 
  131.0000    98.7090     6.0570     4.9950     5.0100    24.1530     2.3820    -5.0060 
  131.1250    92.5490     6.1450     5.1400     5.4950    24.0820     2.4170    -4.9840 
  131.2500    91.4280     5.9800     5.0880     5.3580    24.0590     2.4410    -4.9970 
  131.3750    93.7960     5.6290     4.8600     4.7890    24.0280     2.4420    -5.0320 
  131.5000    96.1240     5.2150     4.5360     4.1870    23.9620     2.4280    -5.0490 
  131.6250   100.1930     4.8730     4.2260     3.9060    23.9470     2.4160    -5.0370 
  131.7500   104.3830     4.6570     4.0060     3.6370    23.9800     2.4110    -5.0800 
  131.8750   105.1850     4.5740     3.9050     3.5150    24.0260     2.4110    -5.1640 
  132.0000   101.4930     4.6030     3.9170     3.5100    24.0390     2.4110    -5.2020 
  132.1250    99.5540     4.7030     4.0100     3.6390    24.0080     2.4120    -5.2410 
  132.2500   100.2000     4.8080     4.1150     3.7980    23.9590     2.4090    -5.3650 
  132.3750    99.0660     4.8720     4.1900     3.9280    23.9320     2.4030    -5.4240 
  132.5000    94.6340     4.8690     4.2070     4.0240    23.9110     2.3990    -5.4170 
  132.6250    91.2470     4.7970     4.1580     3.7060    23.8980     2.4060    -5.5130 
  132.7500    95.7450     4.7050     4.0840     3.4960    23.8750     2.4180    -5.6310 
  132.8750   105.1140     4.6320     4.0300     3.5900    23.8210     2.4300    -5.6840 
  133.0000   111.9800     4.5990     4.0230     3.8650    23.7810     2.4380    -5.6920 
  133.1250   111.4580     4.6140     4.0690     4.2740    23.7680     2.4370    -5.7440 
  133.2500   108.5160     4.6420     4.1230     4.3250    23.8130     2.4330    -5.7480 
  133.3750   107.5750     4.6370     4.1350     4.0260    23.9400     2.4260    -5.7280 
  133.5000   106.7110     4.5610     4.0670     3.7770    24.0390     2.4200    -5.7850 
  133.6250   103.5390     4.3830     3.8950     3.4970    24.0760     2.4160    -5.8720 
  133.7500   101.6480     4.1360     3.6540     3.2250    24.0920     2.4140    -5.9380 
  133.8750   105.4680     3.8540     3.3770     2.8440    24.0970     2.4070    -5.9580 
  134.0000   113.4930     3.5710     3.1020     2.4040    24.0790     2.3910    -6.0660 
  134.1250   118.1710     3.3490     2.8810     2.2740    24.0770     2.3760    -6.2100 
  134.2500   117.2400     3.2730     2.7760     2.4200    24.0940     2.3720    -6.3290 
  134.3750   110.6510     3.4860     2.8830     2.7620    24.1100     2.3790    -6.5440 
  134.5000   100.6250     4.1930     3.3390     3.3090    24.0890     2.3900    -6.8360 
  134.6250    92.4920     5.8330     4.4770     4.7610    24.0200     2.4060    -7.1170 
  134.7500    84.9550     8.5750     6.5270     9.4740    23.9270     2.4420    -7.3580 
  134.8750    77.0030    12.4310     9.7180    18.5640    23.8230     2.5040    -7.6910 
  135.0000    70.8290    16.7400    13.7990    30.5630    23.7690     2.5740    -8.1000 
  135.1250    70.5080    19.3700    17.0320    33.2440    23.7700     2.6040    -8.4920 
  135.2500    72.6850    19.0150    17.6550    26.6210    23.7740     2.5810    -8.9370 
  135.3750    72.7050    16.3950    15.9200    18.5090    23.7230     2.5200    -9.4130 
  135.5000    71.9350    13.3280    13.3680    12.9730    23.6120     2.4380    -9.8280 
  135.6250    73.3400    11.2330    11.2980    10.6150    23.5640     2.3430   -10.1660 
  135.7500    76.0450    10.1530     9.9560    10.0970    23.5750     2.2580   -10.5850 
  135.8750    75.7960     9.8310     9.2460    10.2220    23.6390     2.2010   -10.9550 
  136.0000    72.9960     9.9960     9.0230    10.2270    23.6880     2.1780   -11.1410 
  136.1250    73.1450    10.4930     9.2120    10.0860    23.6990     2.1820   -11.3630 
  136.2500    74.3460    11.1510     9.6470    10.2560    23.6700     2.1920   -11.5380 
  136.3750    72.1340    11.8990    10.2510    10.7460    23.5930     2.1970   -11.5360 
  136.5000    67.1620    12.6730    10.9530    11.5630    23.5200     2.1980   -11.5020 
  136.6250    64.0200    13.3570    11.6510    12.4530    23.4700     2.2080   -11.5570 
