~V
VERS. 2.00: Ver 2.00
~W
STRT.M 63.0000:
STOP.M 273.0000:
STEP.M 0.1250:
NULL. -999.2500:
UWI. F11030:
~C
DEPT.M :
DEN.GM/CC :
GR.API :
RML.OHMM :
RI. :
RXO.OHMM :
CALI.CM :
SP.MV :
~A
   63.0000     2.5000    57.2880    -0.0270     0.1600     3.5500    26.2220    53.5950 
   63.1250     2.3000    63.5820     0.4470     0.3990     4.4740    27.4880    46.0060 
   63.2500     2.0580    65.8700     1.3850     0.9460     5.9690    28.9860    38.4230 
   63.3750     1.8860    66.2870     2.9620     2.0240     8.8310    28.9400    30.8060 
   63.5000     1.8550    68.0480     5.0320     3.8030    15.0040    27.5530    23.1580 
   63.6250     1.9670    70.4660     6.7880     5.9060    18.3900    25.8060    15.7870 
   63.7500     2.1170    72.5520     7.5130     7.2830    15.9660    24.6750     9.3270 
   63.8750     2.2330    74.6570     7.2010     7.5900    10.9500    24.0700     4.3940 
   64.0000     2.2820    78.6850     6.4020     7.2040     8.7430    24.0130     0.9780 
   64.1250     2.2780    86.1400     5.7380     6.6130     8.0620    24.3990    -1.4090 
   64.2500     2.2670    94.9200     5.3970     6.1590     7.0250    24.7290    -3.5090 
   64.3750     2.2690   101.4200     5.3540     5.9700     6.2800    24.9080    -5.4950 
   64.5000     2.2800   103.5400     5.5390     6.0620     6.3950    24.9370    -7.3780 
   64.6250     2.2880   100.3610     5.8810     6.3820     7.4240    24.9050    -9.0000 
   64.7500     2.2830    94.5140     6.2820     6.7960     8.1510    24.8860   -10.4080 
   64.8750     2.2680    88.8620     6.6930     7.2360     8.3430    24.8880   -11.7170 
   65.0000     2.2490    84.4270     7.0810     7.6510     8.3750    24.9080   -13.0060 
   65.1250     2.2360    79.5270     7.4010     7.9880     8.8600    24.9670   -14.3250 
   65.2500     2.2290    74.7400     7.6210     8.2260     9.0000    25.0400   -15.5780 
   65.3750     2.2290    73.0030     7.6930     8.3180     9.0850    25.1160   -16.5610 
   65.5000     2.2330    74.9210     7.5650     8.1990     9.2190    25.1900   -17.0780 
   65.6250     2.2430    77.6020     7.1810     7.7810     9.2750    25.2600   -17.0380 
   65.7500     2.2600    82.9690     6.6440     7.1580     8.8290    25.3210   -16.5890 
   65.8750     2.2820    92.5450     6.0930     6.4670     7.7950    25.3980   -15.8600 
   66.0000     2.3060   103.8330     5.7110     5.8930     6.5100    25.4860   -15.0420 
   66.1250     2.3250   110.5020     5.7550     5.7010     5.9460    25.5020   -14.3470 
   66.2500     2.3430   110.8920     6.2960     5.9800     6.1560    25.4410   -13.8380 
   66.3750     2.3680   104.9670     7.3510     6.7690     7.6090    25.3390   -13.5980 
   66.5000     2.4010    94.4140     8.7790     7.9980    10.8770    25.2570   -13.7650 
   66.6250     2.4270    82.0190    10.1280     9.3400    15.8670    25.2020   -14.4960 
   66.7500     2.4270    71.7100    10.8600    10.2030    15.3160    25.1960   -15.6970 
   66.8750     2.3960    66.5670    10.7490    10.2500    11.5180    25.2000   -17.2470 
   67.0000     2.3460    67.5390     9.9830     9.6140     9.4530    25.1530   -18.9870 
   67.1250     2.3050    70.9620     9.0580     8.7500     9.2370    25.0920   -20.7420 
   67.2500     2.2880    70.1410     8.4100     8.0840     9.2620    25.0800   -22.4170 
   67.3750     2.2880    65.9250     8.1500     7.7490     9.3120    25.1770   -23.9170 
   67.5000     2.2900    64.1960     8.2300     7.7300     9.2970    25.3990   -25.1540 
   67.6250     2.2780    65.9160     8.5510     7.9470     9.2490    25.6580   -26.1240 
   67.7500     2.2530    66.2210     8.9360     8.2450     9.3410    25.7310   -26.9970 
   67.8750     2.2240    63.1490     9.2770     8.5370     9.5730    25.6210   -27.8100 
   68.0000     2.2030    59.5860     9.4860     8.7430     9.9340    25.4700   -28.4940 
   68.1250     2.1960    59.4320     9.4870     8.7770    10.1920    25.3860   -29.0150 
   68.2500     2.2020    62.3270     9.3250     8.6520    10.1600    25.3210   -29.4220 
   68.3750     2.2140    65.9180     9.0540     8.4030     9.8690    25.2730   -29.7750 
   68.5000     2.2280    68.9710     8.7440     8.0870     9.5610    25.2330   -30.0970 
   68.6250     2.2370    69.2660     8.4780     7.7710     9.5190    25.2270   -30.2850 
   68.7500     2.2390    66.5590     8.3130     7.5180     9.5910    25.2430   -30.2800 
   68.8750     2.2360    63.1190     8.2860     7.3730     9.6760    25.2500   -30.1010 
   69.0000     2.2290    63.5110     8.4060     7.3620     9.6770    25.2250   -29.8840 
   69.1250     2.2220    68.2370     8.6650     7.4940     9.7080    25.1780   -29.6820 
   69.2500     2.2200    73.0140     8.9830     7.7170    10.1880    25.1210   -29.4720 
   69.3750     2.2220    75.0550     9.2940     7.9820    11.3700    24.9770   -29.2820 
   69.5000     2.2300    75.2160     9.5330     8.2270    12.6760    24.8070   -29.1530 
   69.6250     2.2430    76.1730     9.6360     8.3780    11.0390    24.6900   -29.1490 
   69.7500     2.2580    78.1290     9.6120     8.4220    10.4090    24.7060   -29.2420 
   69.8750     2.2700    77.9660     9.4760     8.3530    10.6940    24.7810   -29.4250 
   70.0000     2.2750    75.5470     9.2610     8.1860    10.7320    24.7840   -29.6780 
   70.1250     2.2690    74.5080     9.0150     7.9520    10.5380    24.7550   -30.0510 
   70.2500     2.2550    74.6580     8.7950     7.7060    10.2170    24.7990   -30.5230 
   70.3750     2.2370    73.6810     8.6400     7.4820    10.0820    24.8630   -30.9900 
   70.5000     2.2200    71.5310     8.5690     7.3130     9.9750    24.8690   -31.4210 
   70.6250     2.2100    71.7340     8.5760     7.2330     9.9230    24.8320   -31.7840 
   70.7500     2.2070    73.5930     8.5950     7.2040     9.9730    24.8110   -32.0870 
   70.8750     2.2080    74.0600     8.5630     7.1770    10.1530    24.8200   -32.3240 
   71.0000     2.2090    72.5050     8.4340     7.0950    10.3050    24.8840   -32.4260 
   71.1250     2.2060    72.0720     8.1920     6.9130    10.1960    24.9200   -32.2710 
   71.2500     2.2020    75.4580     7.9270     6.6730     9.8610    24.8820   -31.8640 
   71.3750     2.2100    79.6320     7.7600     6.4560     9.2170    24.8380   -31.2470 
   71.5000     2.2370    81.6250     7.8240     6.3720     8.2430    24.8340   -30.5230 
   71.6250     2.2820    80.5830     8.2680     6.5720     7.3270    24.8200   -29.9180 
   71.7500     2.3260    78.2210     8.9960     7.0440     7.4470    24.7600   -29.5120 
   71.8750     2.3490    75.9460     9.8300     7.7020     8.4380    24.7310   -29.2560 
   72.0000     2.3430    74.4890    10.5080     8.3650     9.4600    24.7390   -29.0990 
   72.1250     2.3110    74.1910    10.6840     8.7100    10.4440    24.6180   -29.1260 
   72.2500     2.2750    73.5080    10.3430     8.6030    10.2890    24.4400   -29.3160 
   72.3750     2.2440    72.8240     9.6310     8.1110     9.9380    24.2790   -29.6800 
   72.5000     2.2260    72.5800     8.8100     7.4490     9.6370    24.1930   -30.1570 
   72.6250     2.2200    72.5030     8.1710     6.8590     9.3570    24.1630   -30.6030 
   72.7500     2.2240    70.7310     7.8010     6.4460     9.2340    24.1730   -30.9260 
   72.8750     2.2340    68.4630     7.6700     6.2190     9.3180    24.1900   -31.1630 
   73.0000     2.2480    69.1200     7.6890     6.1370     9.4420    24.2370   -31.3950 
   73.1250     2.2590    72.1210     7.7610     6.1440     9.5610    24.3820   -31.6640 
   73.2500     2.2630    72.2870     7.8210     6.1820     9.7240    24.5580   -32.0470 
   73.3750     2.2560    69.5680     7.8560     6.2320     9.8850    24.6470   -32.5290 
   73.5000     2.2400    67.8120     7.8660     6.2810     9.9320    24.6930   -33.0640 
   73.6250     2.2180    67.6150     7.8480     6.3080     9.6390    24.9320   -33.5780 
   73.7500     2.1980    67.1310     7.8040     6.3020     9.3730    25.3720   -34.0890 
   73.8750     2.1820    67.2280     7.7360     6.2620     9.3470    25.7260   -34.6000 
   74.0000     2.1690    68.4180     7.6550     6.1940     9.4460    25.8690   -35.1000 
   74.1250     2.1580    69.0930     7.5800     6.1100     9.5620    25.8870   -35.5190 
