~V
VERS. 2.00: Ver 2.00
~W
STRT.M 55.0000:
STOP.M 277.0000:
STEP.M 0.1250:
NULL. -999.2500:
UWI. F11037:
~C
DEPT.M :
SP.MV :
GR.API :
RML.OHMM :
RI. :
RXO.OHMM :
CALI.CM :
DEN.GM/CC :
~A
# ...
  178.7500   -21.0080    68.2330   144.1310   127.4110    73.5270    24.5020     2.2530 
  178.8750   -21.0550    69.0400   143.8710   125.7960    81.0560    24.6350     2.2450 
  179.0000   -21.0050    67.3640   146.4820   127.2760   107.8720    24.7390     2.2440 
  179.1250   -21.0070    64.0200   151.0530   131.4070   114.4060    24.7640     2.2500 
  179.2500   -20.8560    62.4040   154.2280   135.1550   121.4860    24.7250     2.2560 
  179.3750   -20.7090    63.5140   153.2040   135.7600   125.4750    24.7430     2.2570 
  179.5000   -20.5820    65.9940   146.7850   131.7900   109.2510    24.7940     2.2530 
  179.6250   -20.2810    67.0130   135.7160   123.5900   113.6930    24.8360     2.2470 
  179.7500   -19.9500    66.3330   123.6150   114.1640   119.2510    24.8580     2.2430 
  179.8750   -19.6980    65.8680   112.7020   105.4800   104.5660    24.8520     2.2450 
  180.0000   -19.4860    67.0010   103.8730    98.6970    94.1130    24.8120     2.2540 
  180.1250   -19.2870    68.2750    96.3760    93.8080    90.7310    24.7830     2.2710 
  180.2500   -19.1340    68.7960    87.7030    88.2000    87.4240    24.7040     2.2940 
  180.3750   -18.9400    69.8500    76.0360    78.7880    81.8920    24.6410     2.3210 
  180.5000   -18.7330    73.7090    61.2690    64.2270    78.7290    24.6080     2.3500 
  180.6250   -18.6470    79.4470    45.6650    47.3590    60.3180    24.5550     2.3790 
  180.7500   -18.6050    85.7580    32.4350    33.1960    36.7630    24.4470     2.4060 
  180.8750   -18.7130    91.6830    23.0760    23.4690    18.9570    24.3350     2.4290 
  181.0000   -18.8630    94.4340    17.5710    17.7750    11.4610    24.2890     2.4460 
  181.1250   -19.1250    92.4800    15.3630    15.2880    11.2650    24.4040     2.4520 
  181.2500   -19.5230    89.3980    14.8880    14.4950    12.3520    24.6340     2.4510 
  181.3750   -19.9730    87.2280    15.4810    14.8780    12.9920    24.8080     2.4460 
  181.5000   -20.7310    84.1740    16.7220    16.1070    13.5760    24.8510     2.4390 
  181.6250   -21.7230    78.9560    18.3470    17.8660    14.8270    24.7980     2.4320 
  181.7500   -22.5960    74.7290    20.0100    19.6780    16.2150    24.8010     2.4250 
  181.8750   -23.1000    73.7260    21.4350    21.2810    17.1380    24.8740     2.4160 
  182.0000   -23.5140    75.6410    22.3660    22.4730    17.8310    24.9370     2.4080 
  182.1250   -23.8020    77.6650    22.5510    22.8830    18.9580    24.9820     2.4050 
  182.2500   -23.9120    79.3990    22.2170    22.4770    19.3930    24.9950     2.4070 
  182.3750   -23.9060    81.5950    21.7260    21.4810    18.6010    25.0010     2.4130 
  182.5000   -23.6140    83.3870    21.6050    20.4220    17.3390    24.9920     2.4170 
  182.6250   -23.1140    82.9810    22.6960    20.1190    16.7400    24.9630     2.4110 
  182.7500   -22.6420    82.0990    25.4470    21.0450    17.5970    24.9010     2.3920 
  182.8750   -22.4700    81.8100    30.2550    23.5910    21.1200    24.8100     2.3660 
  183.0000   -22.3250    81.2090    37.2410    28.0790    33.2840    24.6790     2.3380 
  183.1250   -22.1540    79.8600    46.2520    34.8930    48.1500    24.6580     2.3170 
  183.2500   -22.0910    77.8820    55.8920    43.0600    57.0020    24.6760     2.3020 
  183.3750   -22.0670    75.4730    64.8750    51.3370    59.3720    24.6990     2.2900 
  183.5000   -22.1320    72.4900    72.1550    58.3650    60.0770    24.7190     2.2790 
  183.6250   -22.2190    71.8530    77.0860    63.1960    60.1660    24.7360     2.2670 
  183.7500   -22.4030    74.3610    80.5200    66.6390    63.3560    24.7730     2.2580 
  183.8750   -22.7220    78.3490    83.1440    69.4730    67.4280    24.7860     2.2510 
  184.0000   -23.0530    80.8850    85.4350    72.1690    72.2560    24.7710     2.2490 
  184.1250   -23.3240    79.2300    87.4910    74.7240    77.4470    24.7860     2.2490 
  184.2500   -23.5820    74.7800    89.1400    76.8710    81.6140    24.8320     2.2520 
  184.3750   -23.9020    69.9970    90.0130    78.2250    86.7220    24.8680     2.2550 
  184.5000   -24.1860    66.1810    89.7180    78.4750    91.2030    24.8940     2.2570 
  184.6250   -24.6390    63.0410    87.8780    77.3710    90.9130    24.9450     2.2560 
  184.7500   -25.3040    60.5590    85.0040    75.4210    84.0850    25.0170     2.2520 
  184.8750   -25.8940    61.6290    81.4470    73.1380    69.0850    25.0470     2.2470 
  185.0000   -26.3720    67.9140    77.1410    70.6260    62.3450    25.0450     2.2440 
  185.1250   -26.7840    75.3760    71.1910    66.6410    62.2070    25.0890     2.2450 
  185.2500   -26.9350    79.5300    63.4580    60.2800    80.0770    25.1250     2.2470 
  185.3750   -26.7780    80.8810    54.6820    52.0360    89.9620    24.9740     2.2480 
  185.5000   -26.6210    80.8420    46.4770    43.7350    81.4380    24.6660     2.2490 
  185.6250   -26.2130    79.3820    41.1730    37.7890    50.8320    24.5050     2.2500 
  185.7500   -25.4970    76.9310    39.4790    35.0870    34.0100    24.6950     2.2510 
  185.8750   -24.7810    74.7650    41.5060    36.0320    40.1490    24.8640     2.2520 
  186.0000   -24.1240    73.9110    46.6800    40.5660    57.7340    24.9570     2.2530 
  186.1250   -23.5610    75.4140    53.7570    48.3450    68.5070    24.9680     2.2550 
  186.2500   -23.3180    77.4120    60.2920    56.8260    65.3900    24.9700     2.2570 
  186.3750   -23.3230    76.4910    64.5790    63.2880    60.7660    24.9950     2.2590 
  186.5000   -23.3270    73.0110    66.0330    65.9340    57.1170    25.0350     2.2590 
  186.6250   -23.2770    71.3430    65.3260    65.1020    53.4890    25.0710     2.2580 
  186.7500   -23.2590    71.9590    64.2810    63.4750    53.0330    25.1070     2.2560 
  186.8750   -23.2120    74.2040    63.5850    62.0970    55.7930    25.1570     2.2570 
  187.0000   -23.0970    77.5630    63.1340    61.0050    57.2850    25.1960     2.2600 
  187.1250   -23.0630    78.8640    62.3210    59.7430    56.9260    25.2050     2.2670 
  187.2500   -23.1000    77.4680    60.8070    57.8800    55.7840    25.1900     2.2750 
  187.3750   -23.1790    76.5720    58.7140    55.2900    52.0110    25.1590     2.2810 
  187.5000   -23.2900    78.3430    56.6310    52.3870    46.9190    25.1310     2.2800 
  187.6250   -23.6380    79.2660    55.7500    50.3160    43.5780    25.1240     2.2690 
  187.7500   -23.9810    77.8470    56.8790    49.9700    42.3750    25.1780     2.2510 
  187.8750   -24.1550    77.1550    60.6340    52.0100    40.1810    25.2510     2.2340 
  188.0000   -24.5410    77.0980    67.3560    56.9960    41.5300    25.2570     2.2260 
  188.1250   -24.9470    74.4930    77.4570    65.8500    68.5350    25.2640     2.2290 
  188.2500   -24.9490    69.1270    89.7760    77.6210   113.1980    25.2160     2.2390 
  188.3750   -24.8520    64.8060   103.2510    91.1330   117.9750    25.1270     2.2470 
  188.5000   -24.7530    63.0970   116.8260   105.0110    95.1400    25.0340     2.2470 
  188.6250   -24.3640    61.3710   129.8020   118.3520    89.1190    24.9900     2.2370 
  188.7500   -24.0060    60.0730   142.0690   131.1870   107.1070    24.9650     2.2240 
  188.8750   -23.7880    61.5830   152.8160   143.2020   118.6740    24.9520     2.2140 
  189.0000   -23.3650    64.6280   159.9280   152.5670   137.9200    24.9020     2.2100 
  189.1250   -22.9410    63.0000   159.4000   154.4620   164.1170    24.8560     2.2130 
  189.2500   -22.7540    58.2050   151.5450   148.0210   172.7340    24.9080     2.2220 
  189.3750   -22.5860    56.4950   138.7190   135.5080   145.3110    24.9770     2.2350 
  189.5000   -22.4740    59.8110   124.7520   121.1970   103.1960    25.0040     2.2470 
  189.6250   -22.3900    64.9960   113.5610   109.2850    85.7400    24.9870     2.2560 
  189.7500   -22.1880    67.1070   106.1590   101.1080    78.5760    24.9510     2.2600 
  189.8750   -21.9620    66.1530   102.3290    96.7420    82.3420    24.9040     2.2620 
