~V
VERS. 2.00: Ver 2.00
~W
STRT.M 55.0000:
STOP.M 236.0000:
STEP.M 0.1250:
NULL. -999.2500:
UWI. F11015:
~C
DEPT.M :
GR.API :
RML.OHMM :
RI. :
RXO.OHMM :
CALI.CM :
DEN.GM/CC :
SP.MV :
~A
# ...
   77.5000    68.8280     8.7160     6.9280     9.0450    23.5220     2.1310   -30.9620 
   77.6250    66.6820     8.6870     6.9430     9.0940    23.4470     2.1290   -30.6820 
   77.7500    64.8510     8.7350     7.0050     9.2080    23.3700     2.1300   -30.3050 
   77.8750    63.7220     8.8670     7.1110     9.2300    23.3460     2.1290   -29.7770 
   78.0000    65.3960     9.0580     7.2410     9.0290    23.3470     2.1200   -29.0750 
   78.1250    68.0810     9.2090     7.3240     8.8760    23.3460     2.1060   -28.1720 
   78.2500    67.7650     9.1840     7.2630     8.7880    23.3470     2.0980   -27.1070 
   78.3750    66.5000     8.8850     6.9800     8.7510    23.4090     2.1040   -25.9000 
   78.5000    69.0080     8.2900     6.4670     8.2630    23.5870     2.1280   -24.5890 
   78.6250    79.3520     7.4640     5.7880     7.1470    23.8380     2.1690   -23.2280 
   78.7500    90.4890     6.6200     5.1120     5.7840    24.0530     2.2170   -21.9640 
   78.8750    97.6540     5.9580     4.5720     4.9310    24.1910     2.2600   -20.8790 
   79.0000    99.3840     5.6920     4.2960     4.6790    24.2110     2.2880   -19.9990 
   79.1250    96.2950     6.1150     4.4700     4.8590    24.1120     2.2960   -19.4040 
   79.2500    91.2360     7.1900     5.1010     5.4030    24.0120     2.3000   -19.0800 
   79.3750    84.5930     8.7860     6.1750     6.9740    23.9820     2.3040   -19.0500 
   79.5000    79.0160    10.5380     7.5370    11.5760    24.0600     2.3110   -19.3030 
   79.6250    77.7720    11.6800     8.7150    18.4220    24.0590     2.3180   -19.7940 
   79.7500    77.1380    11.7730     9.2170    16.3750    23.7710     2.3080   -20.2730 
   79.8750    73.6860    10.9400     8.9500    10.4700    23.3720     2.2680   -20.5780 
   80.0000    69.2910     9.7310     8.2130     8.1090    23.1250     2.2080   -20.7000 
   80.1250    69.8910     8.7050     7.3950     7.7800    23.1160     2.1680   -20.6280 
   80.2500    75.4510     7.9920     6.7000     7.7610    23.1800     2.1570   -20.4010 
   80.3750    82.7050     7.4900     6.1360     7.3560    23.3490     2.1710   -20.0540 
   80.5000    89.2770     7.0340     5.6410     6.4180    23.6500     2.2010   -19.6260 
   80.6250    93.7400     6.5650     5.1870     5.1810    23.9400     2.2370   -19.1310 
   80.7500    95.7770     6.2010     4.8290     4.4920    24.1130     2.2640   -18.6760 
   80.8750    96.8210     6.0840     4.6570     4.2350    24.1110     2.2760   -18.3680 
   81.0000    95.9930     6.2880     4.7310     4.4680    23.9410     2.2730   -18.2460 
   81.1250    90.1400     6.8300     5.0940     5.3380    23.6390     2.2580   -18.3250 
   81.2500    82.5940     7.5390     5.6420     6.6510    23.3290     2.2350   -18.5480 
   81.3750    76.8160     8.2600     6.2710     7.4960    23.0980     2.2120   -18.8800 
   81.5000    72.7370     8.8520     6.8560     7.6740    22.9590     2.1960   -19.2340 
   81.6250    71.9440     9.1900     7.2650     7.6210    22.9610     2.1870   -19.4650 
   81.7500    74.1280     9.2740     7.4610     7.6740    23.0800     2.1760   -19.5150 
   81.8750    75.5470     9.0880     7.4120     7.7930    23.2560     2.1590   -19.4050 
   82.0000    73.2640     8.6380     7.1150     7.8260    23.4550     2.1400   -19.1360 
   82.1250    73.5550     7.9560     6.5860     7.4160    23.6560     2.1290   -18.7040 
   82.2500    79.0050     7.2250     5.9770     6.4070    23.8490     2.1280   -18.1990 
   82.3750    84.0210     6.6100     5.4200     5.3010    24.0180     2.1360   -17.6570 
   82.5000    85.4690     6.2400     5.0230     4.8200    24.1180     2.1500   -17.1400 
   82.6250    86.2340     6.2290     4.8810     5.0600    24.0650     2.1680   -16.8040 
   82.7500    85.5590     6.4950     4.9520     5.2710    23.8610     2.1860   -16.7340 
   82.8750    81.6630     6.9390     5.1860     5.6600    23.5770     2.2010   -16.8840 
   83.0000    78.0800     7.4080     5.4920     5.8990    23.3800     2.2130   -17.1520 
   83.1250    77.0720     7.6550     5.7110     6.2430    23.3120     2.2280   -17.4830 
   83.2500    77.8950     7.5760     5.7370     6.6600    23.3430     2.2440   -17.8110 
   83.3750    80.2160     7.2670     5.5940     6.5660    23.4940     2.2600   -18.1210 
   83.5000    82.7530     7.0220     5.4430     5.9530    23.7580     2.2790   -18.4640 
   83.6250    84.6510     7.2860     5.5570     5.6200    23.9500     2.3030   -18.9190 
   83.7500    84.6260     8.2060     6.0750     5.9500    24.0530     2.3280   -19.4800 
   83.8750    82.1440     9.7650     7.0550     7.9890    24.0840     2.3490   -20.1510 
   84.0000    75.1310    11.6550     8.3990    14.1850    24.0290     2.3680   -20.9660 
   84.1250    66.5040    13.0400     9.6450    20.0230    23.7930     2.3740   -21.9590 
   84.2500    64.9460    13.2650    10.2060    16.5900    23.4610     2.3410   -23.0780 
   84.3750    68.9020    12.3800     9.9390    11.6340    23.2140     2.2690   -24.2690 
   84.5000    70.4350    11.0460     9.1990     9.7110    23.1260     2.1960   -25.4760 
   84.6250    66.1380    10.0660     8.5060     9.3440    23.1320     2.1620   -26.5950 
   84.7500    61.9320     9.6790     8.1180     9.2650    23.1480     2.1550   -27.5330 
   84.8750    60.6010     9.7610     8.0310     9.3560    23.1740     2.1590   -28.2560 
   85.0000    60.6820    10.0330     8.1170     9.5560    23.1950     2.1620   -28.7780 
   85.1250    61.3060    10.2030     8.2010     9.7060    23.2240     2.1550   -29.1180 
   85.2500    63.2860    10.1910     8.1930     9.7880    23.2600     2.1430   -29.3640 
   85.3750    66.1830    10.0460     8.0980     9.8140    23.2800     2.1340   -29.5860 
   85.5000    67.3760     9.8560     7.9600     9.8640    23.2870     2.1350   -29.7790 
   85.6250    66.1450     9.7100     7.8330     9.7970    23.2790     2.1410   -29.8560 
   85.7500    64.4210     9.6400     7.7380     9.7380    23.2560     2.1450   -29.8120 
   85.8750    63.3080     9.6490     7.6720     9.6820    23.2330     2.1440   -29.7260 
   86.0000    62.1030     9.7260     7.6280     9.7600    23.2290     2.1400   -29.6810 
   86.1250    60.7600     9.8520     7.6080     9.9220    23.2660     2.1340   -29.6840 
   86.2500    61.1210     9.9740     7.6100     9.9920    23.3590     2.1290   -29.6830 
   86.3750    63.6260    10.0480     7.6200    10.0000    23.4650     2.1280   -29.6280 
   86.5000    66.1950    10.0480     7.6180     9.9450    23.4970     2.1320   -29.4790 
   86.6250    65.6380     9.9670     7.5850     9.9090    23.4380     2.1450   -29.2680 
   86.7500    63.4440     9.8530     7.5310    10.0090    23.4080     2.1570   -29.0670 
   86.8750    61.1530     9.7490     7.4730    10.1000    23.4140     2.1600   -28.8650 
   87.0000    59.2650     9.6820     7.4270    10.2270    23.3960     2.1570   -28.6300 
   87.1250    59.4880     9.6790     7.4090    10.3910    23.3220     2.1520   -28.3290 
   87.2500    61.8440     9.7380     7.4270    10.4910    23.2840     2.1480   -27.9980 
   87.3750    64.4440     9.8670     7.4870    10.4350    23.2700     2.1460   -27.6170 
   87.5000    64.5120    10.0670     7.5880    10.1990    23.2710     2.1460   -27.1650 
   87.6250    62.7730    10.2820     7.7000    10.0400    23.3220     2.1510   -26.6490 
   87.7500    61.6780    10.3560     7.7260    10.0190    23.3860     2.1570   -26.1450 
   87.8750    60.8650    10.1220     7.5530    10.0210    23.4320     2.1640   -25.6240 
   88.0000    59.8920     9.5140     7.1260     9.7810    23.4570     2.1730   -25.0220 
   88.1250    60.1630     8.6560     6.5040     8.6020    23.5110     2.1860   -24.3520 
   88.2500    63.9100     7.8950     5.9100     6.8850    23.5340     2.2010   -23.7070 
   88.3750    71.6360     7.4810     5.5110     5.8610    23.4970     2.2160   -23.2030 
   88.5000    79.3330     7.5460     5.4060     6.1870    23.3700     2.2240   -22.9710 
   88.6250    81.5270     8.1310     5.6630     8.0130    23.2030     2.2130   -23.0020 
