~V
VERS. 2.00: Ver 2.00
~W
STRT.M 58.0000:
STOP.M 272.0000:
STEP.M 0.1250:
NULL. -999.2500:
UWI. F11073:
~C
DEPT.M :
GR.API :
RML.OHMM :
RI. :
RXO.OHMM :
CALI.CM :
DEN.GM/CC :
SP.MV :
~A
# ...
  170.5000    91.7030     5.8250     4.5470     5.8740    23.6880     2.3790   -12.8740 
  170.6250    94.9560     5.7160     4.4800     5.5460    23.6150     2.3730   -13.0860 
  170.7500    98.0930     5.6400     4.4290     5.3930    23.5850     2.3640   -13.2710 
  170.8750    98.9130     5.6250     4.4050     5.4110    23.5540     2.3610   -13.4690 
  171.0000    99.0920     5.6620     4.4070     5.4760    23.5140     2.3610   -13.7040 
  171.1250    99.8450     5.7220     4.4180     5.4990    23.4760     2.3600   -13.8310 
  171.2500   100.1500     5.7710     4.4240     5.4850    23.4900     2.3580   -13.9060 
  171.3750    98.8710     5.8100     4.4290     5.4780    23.5240     2.3550   -14.0040 
  171.5000    96.3390     5.8580     4.4470     5.5070    23.5350     2.3500   -14.1390 
  171.6250    95.0780     5.9390     4.4970     5.6240    23.5130     2.3350   -14.2410 
  171.7500    96.8210     6.0470     4.5790     5.7860    23.4740     2.3180   -14.3130 
  171.8750    99.7090     6.1710     4.6950     5.8900    23.4770     2.3060   -14.3980 
  172.0000   100.3080     6.3060     4.8410     5.9650    23.4790     2.3060   -14.4870 
  172.1250    99.6260     6.4750     5.0190     6.1580    23.4490     2.3140   -14.5800 
  172.2500    99.7380     6.7070     5.2280     6.5530    23.4460     2.3250   -14.7040 
  172.3750    99.6880     7.0230     5.4830     7.0500    23.4790     2.3350   -14.8190 
  172.5000    98.8440     7.4360     5.8050     7.5710    23.5090     2.3390   -14.8790 
  172.6250    97.6700     7.9500     6.2300     7.7920    23.5070     2.3360   -14.9400 
  172.7500    96.9220     8.4930     6.7270     8.2950    23.4780     2.3300   -15.0130 
  172.8750    96.5400     8.9660     7.2220     9.2190    23.4600     2.3300   -15.0640 
  173.0000    96.2140     9.2600     7.6040    10.3010    23.4730     2.3360   -15.1240 
  173.1250    95.0520     9.2720     7.7400    10.0590    23.4680     2.3450   -15.1680 
  173.2500    92.7390     9.0870     7.6680     8.4210    23.4540     2.3560   -15.1570 
  173.3750    88.6470     8.8270     7.4870     7.1580    23.4710     2.3710   -15.1610 
  173.5000    84.2510     8.6200     7.3190     7.0020    23.4850     2.3900   -15.2220 
  173.6250    82.3820     8.5720     7.2790     7.7610    23.4710     2.4040   -15.3050 
  173.7500    83.5120     8.6780     7.3790     8.4590    23.4530     2.4090   -15.3660 
  173.8750    85.9650     8.9390     7.6130     8.6920    23.4650     2.4100   -15.4450 
  174.0000    88.7590     9.3710     7.9800     8.8960    23.4690     2.4120   -15.5580 
  174.1250    90.3270    10.0190     8.5120     9.5340    23.4540     2.4140   -15.7130 
  174.2500    88.2390    10.8690     9.2140    10.1580    23.4820     2.4060   -15.9340 
  174.3750    82.4970    11.9400    10.1230    10.4850    23.5700     2.3830   -16.1600 
  174.5000    77.5550    13.2400    11.2710    10.9370    23.7050     2.3510   -16.3530 
  174.6250    79.6950    14.7800    12.6890    11.8670    23.8370     2.3250   -16.5280 
  174.7500    83.9030    16.4440    14.2680    13.8510    23.9030     2.3150   -16.7440 
  174.8750    83.3360    18.0840    15.8730    17.4750    23.9450     2.3160   -16.9860 
  175.0000    79.7380    19.5010    17.3170    20.8080    23.9540     2.3250   -17.1960 
  175.1250    79.9930    20.5370    18.4140    23.3550    23.9310     2.3360   -17.4050 
  175.2500    81.8390    21.4420    19.3350    22.8070    23.9330     2.3480   -17.6140 
  175.3750    80.0030    22.6120    20.4000    23.0410    23.9440     2.3600   -17.8330 
  175.5000    76.4670    24.4820    21.9990    24.2990    23.9400     2.3680   -18.0630 
  175.6250    75.4860    29.4490    24.6880    28.0200    23.9280     2.3650   -18.3120 
  175.7500    74.4640    39.7080    28.5180    37.9220    23.9450     2.3500   -18.5580 
  175.8750    71.2690    45.8430    33.3260    51.5740    23.9560     2.3260   -18.7720 
  176.0000    68.3160    51.9480    38.5180    58.0920    23.9290     2.3010   -18.9550 
  176.1250    67.0450    56.4880    42.9370    56.9370    23.9140     2.2850   -19.1320 
  176.2500    67.8260    58.8450    45.8110    54.2920    23.9180     2.2780   -19.2940 
  176.3750    70.6570    59.0490    46.9290    58.0500    23.9190     2.2770   -19.4290 
  176.5000    73.6810    57.4590    46.4420    65.9640    23.9080     2.2770   -19.5360 
  176.6250    75.3910    54.0160    44.2600    63.1910    23.9090     2.2770   -19.6090 
  176.7500    75.1270    49.2770    40.8570    53.7160    23.9230     2.2790   -19.6490 
  176.8750    74.7710    44.0730    36.8880    46.6920    23.9290     2.2870   -19.6890 
  177.0000    78.0250    39.6410    33.3210    45.2950    23.9130     2.2960   -19.7870 
  177.1250    83.2170    37.7150    31.4460    36.0970    23.9070     2.3030   -19.8780 
  177.2500    84.3210    38.9870    31.8690    28.9360    23.9100     2.3070   -19.9240 
  177.3750    79.2920    44.0690    35.2290    30.1880    23.9040     2.3050   -19.9980 
  177.5000    72.7280    53.2660    42.0940    44.8110    23.8970     2.2930   -20.1600 
  177.6250    69.6830    66.4710    52.9420    74.6940    23.9020     2.2730   -20.4000 
  177.7500    69.6440    80.0030    65.0280   102.5140    23.9010     2.2580   -20.6090 
  177.8750    71.7410    88.7520    74.2090   107.7250    23.8720     2.2540   -20.7400 
  178.0000    74.1780    89.0160    76.8340    99.6230    23.8040     2.2620   -20.8870 
  178.1250    73.8840    82.3680    72.7990    87.1150    23.7740     2.2810   -21.0810 
  178.2500    72.0340    75.6730    67.4730    80.7070    23.7220     2.2990   -21.2200 
  178.3750    71.9640    72.2330    64.0940    69.8020    23.6440     2.3120   -21.2900 
  178.5000    73.6030    73.1670    64.1920    56.3840    23.5630     2.3130   -21.3090 
  178.6250    72.3330    78.9360    68.6180    61.4540    23.4520     2.3020   -21.3540 
  178.7500    68.0630    87.7310    76.0420    70.0370    23.3190     2.2840   -21.4990 
  178.8750    65.0470    97.9400    85.2170    78.0050    23.1940     2.2650   -21.6450 
  179.0000    66.1180   107.5430    94.4650    81.6170    23.1520     2.2530   -21.6590 
  179.1250    68.9030   114.0970   101.6090    87.9480    23.1970     2.2470   -21.6840 
  179.2500    69.2950   117.3230   105.9510    99.5400    23.2810     2.2440   -21.8130 
  179.3750    66.6930   117.8130   107.6460   111.9820    23.3840     2.2430   -21.9640 
  179.5000    63.3710   116.4370   107.3050   115.9260    23.4690     2.2450   -22.0640 
  179.6250    62.3240   113.6940   105.3620   104.9860    23.4820     2.2480   -22.0460 
  179.7500    62.6430   110.3490   102.6150    98.2640    23.4600     2.2540   -21.9830 
  179.8750    63.5790   106.9550    99.5490    94.9230    23.4720     2.2600   -22.0110 
  180.0000    66.0230   104.1570    96.6820    92.6060    23.4850     2.2660   -22.1460 
  180.1250    71.3390   103.0370    95.0010    86.7000    23.4710     2.2690   -22.2100 
  180.2500    77.1300   104.2150    95.3470    85.6790    23.4510     2.2670   -22.2600 
  180.3750    80.3230   108.3440    98.5310    86.8890    23.4460     2.2620   -22.3640 
  180.5000    80.2570   115.9590   105.1300    84.2330    23.3900     2.2560   -22.5570 
  180.6250    76.0870   127.8080   115.8050    80.7860    23.2060     2.2510   -22.8050 
  180.7500    71.3090   142.4710   129.1400    85.9340    22.9790     2.2450   -22.9880 
  180.8750    68.7770   158.2000   143.5580    93.4780    22.8020     2.2410   -23.0940 
  181.0000    67.9410   172.9010   157.2130    97.0480    22.6960     2.2380   -23.2430 
  181.1250    67.1090   184.9140   168.4720    99.6590    22.6480     2.2380   -23.4840 
  181.2500    66.6880   195.2500   177.8830   107.2870    22.6360     2.2350   -23.6190 
  181.3750    67.7840   205.3680   186.6480   120.0070    22.6450     2.2260   -23.6350 
  181.5000    68.4370   216.3210   195.9000   134.9040    22.6500     2.2140   -23.6110 
  181.6250    67.1030   227.7430   205.6660   149.5900    22.6380     2.2060   -23.6550 
