~V
VERS. 2.00: Ver 2.00
~W
STRT.M 49.0000:
STOP.M 284.0000:
STEP.M 0.1250:
NULL. -999.2500:
UWI. F11034:
~C
DEPT.M :
GR.API :
RML.OHMM :
RI. :
RXO.OHMM :
CALI.CM :
DEN.GM/CC :
SP.MV :
~A
# ...
  229.0000    63.5090    47.3610    45.8030    39.2210    25.1650     2.2240   -15.7740 
  229.1250    61.9390    45.7320    44.7520    44.0700    25.1470     2.2480   -15.2270 
  229.2500    61.9440    43.1710    42.7070    47.6310    25.1150     2.2950   -14.6340 
  229.3750    63.7230    39.3690    39.2920    48.7990    25.0130     2.3620   -14.0420 
  229.5000    65.5810    34.1670    34.2800    46.7930    24.9130     2.4380   -13.5160 
  229.6250    65.8800    28.0900    28.2480    40.8130    24.8760     2.5020   -13.0760 
  229.7500    65.6640    21.8770    22.0600    33.1710    24.8650     2.5360   -12.6950 
  229.8750    66.2240    16.3060    16.5850    28.5560    24.8130     2.5310   -12.3590 
  230.0000    67.7360    12.1650    12.5600    23.9840    24.7320     2.4920   -12.1040 
  230.1250    69.3940     9.5060     9.9210    17.3920    24.7410     2.4450   -11.9460 
  230.2500    69.3330     8.1120     8.4350    12.1960    24.9090     2.4100   -11.9040 
  230.3750    68.4760     7.6520     7.8360    10.6230    25.1790     2.3930   -11.9540 
  230.5000    70.2290     7.8590     7.9110    10.3380    25.3520     2.3930   -12.0440 
  230.6250    74.9500     8.3650     8.3280     9.9640    25.4210     2.3930   -12.1390 
  230.7500    80.1960     8.9320     8.8390     9.5890    25.4270     2.3820   -12.2490 
  230.8750    83.0330     9.4580     9.2580     9.5230    25.3860     2.3610   -12.4080 
  231.0000    84.3100     9.6860     9.4430     9.6200    25.3190     2.3380   -12.6420 
  231.1250    85.8360     9.6570     9.4150     9.5860    25.2680     2.3260   -12.9120 
  231.2500    87.8690     9.5320     9.2440     9.3930    25.2630     2.3300   -13.1800 
  231.3750    90.8280     9.3600     9.0110     9.1860    25.2980     2.3460   -13.4420 
  231.5000    94.8690     9.2220     8.8130     9.0780    25.3180     2.3680   -13.7050 
  231.6250    97.9630     9.1810     8.7500     9.3080    25.2740     2.3880   -13.9700 
  231.7500    99.1130     9.3820     8.9060     9.9150    25.2080     2.3990   -14.2510 
  231.8750   100.5920     9.9420     9.3570    10.9610    25.1590     2.4010   -14.5500 
  232.0000   101.7960    11.1510    10.1960    12.6700    25.1130     2.3940   -14.8200 
  232.1250    99.4270    12.7740    11.3870    14.9930    25.0670     2.3820   -15.0540 
  232.2500    93.1570    14.6420    12.8630    17.7350    25.0230     2.3690   -15.2770 
  232.3750    86.4540    16.6090    14.5140    20.4290    24.9610     2.3570   -15.4920 
  232.5000    81.0510    18.4890    16.1820    22.8360    24.9100     2.3490   -15.7100 
  232.6250    75.5130    20.1620    17.7170    24.8490    24.9350     2.3440   -15.9250 
  232.7500    70.8160    21.5760    19.0300    26.6460    25.0230     2.3430   -16.1000 
  232.8750    68.2660    22.7300    20.0910    28.2040    25.0870     2.3450   -16.2180 
  233.0000    67.4950    23.6210    20.8880    29.1570    25.0900     2.3470   -16.3070 
  233.1250    66.0950    24.3070    21.4870    29.7730    25.0670     2.3500   -16.4000 
  233.2500    64.3220    24.8210    21.9340    30.2470    25.0420     2.3490   -16.4990 
  233.3750    63.3480    25.1830    22.2670    30.5410    25.0280     2.3480   -16.5870 
  233.5000    63.5740    25.4120    22.5130    30.6920    25.0270     2.3460   -16.6400 
  233.6250    64.5390    25.5920    22.7370    30.8350    25.0280     2.3470   -16.6540 
  233.7500    65.8320    25.8480    23.0230    31.0040    25.0300     2.3490   -16.6560 
  233.8750    69.1200    26.3300    23.4850    30.8850    25.0290     2.3550   -16.6580 
  234.0000    73.0660    27.2140    24.2720    30.5350    25.0140     2.3600   -16.6680 
  234.1250    73.1900    28.4330    25.3480    30.9750    24.9790     2.3630   -16.6640 
  234.2500    68.7300    29.7370    26.5340    32.8270    24.9570     2.3610   -16.6190 
  234.3750    63.8670    30.7090    27.5000    35.3640    24.9960     2.3510   -16.5510 
  234.5000    63.4440    30.7100    27.6970    36.6190    25.0690     2.3400   -16.4710 
  234.6250    65.4940    29.5480    26.8970    35.3560    25.1240     2.3320   -16.4080 
  234.7500    67.6880    27.4670    25.2340    33.1520    25.1540     2.3330   -16.3730 
  234.8750    70.4850    25.1460    23.2390    31.0360    25.1650     2.3410   -16.3650 
  235.0000    73.6760    23.6960    21.7990    28.8520    25.1540     2.3500   -16.4000 
  235.1250    75.9610    23.8340    21.5280    27.5650    25.1180     2.3530   -16.4620 
  235.2500    74.8490    25.9050    22.7860    29.4880    25.0640     2.3470   -16.5780 
  235.3750    69.1020    29.9150    25.7520    36.5110    25.0080     2.3370   -16.7450 
  235.5000    63.2620    35.6510    30.5730    46.3750    24.9580     2.3280   -16.9780 
  235.6250    60.8100    42.1690    36.6180    54.6490    24.8940     2.3240   -17.2620 
  235.7500    60.2000    48.4690    43.0160    59.8110    24.8270     2.3230   -17.5630 
  235.8750    60.6570    53.6430    48.7500    64.8080    24.7720     2.3230   -17.8630 
  236.0000    64.2910    56.8400    52.6740    72.5640    24.7200     2.3220   -18.1370 
  236.1250    68.7000    58.2190    54.6700    78.9790    24.6530     2.3210   -18.4010 
  236.2500    68.3600    58.2390    55.0990    79.6240    24.6020     2.3210   -18.6580 
  236.3750    63.1770    57.4430    54.4940    74.3580    24.6550     2.3200   -18.9090 
  236.5000    59.3850    56.4250    53.4360    67.6560    24.7480     2.3180   -19.1280 
  236.6250    58.1680    55.7030    52.5020    63.2520    24.8090     2.3120   -19.3040 
  236.7500    58.0860    55.4940    51.9830    61.2410    24.8530     2.3050   -19.4590 
  236.8750    58.3870    55.7200    51.8960    59.8540    24.9240     2.2980   -19.6190 
  237.0000    59.7270    56.1160    52.0810    58.5640    24.9580     2.2940   -19.7920 
  237.1250    62.0920    56.4210    52.3160    57.7130    24.9100     2.2950   -19.9740 
  237.2500    64.1380    56.6520    52.5310    57.7580    24.8140     2.3010   -20.1490 
  237.3750    64.8500    57.0930    52.8020    58.2420    24.7630     2.3100   -20.3010 
  237.5000    63.0050    58.1640    53.3610    59.3450    24.8150     2.3180   -20.4400 
  237.6250    59.8430    60.2290    54.4140    61.6520    24.9140     2.3190   -20.5660 
  237.7500    57.2490    63.3430    56.1320    64.5100    25.0410     2.3110   -20.6970 
  237.8750    56.6280    66.8340    58.6220    67.5460    25.2220     2.2950   -20.8140 
  238.0000    57.8140    70.7630    61.9630    70.6700    25.3580     2.2750   -20.9120 
  238.1250    58.6650    74.6960    65.8290    74.9910    25.4420     2.2570   -20.9760 
  238.2500    59.9860    78.2530    69.6600    80.7210    25.4800     2.2470   -20.9860 
  238.3750    62.6970    80.5580    72.6230    86.3050    25.4620     2.2470   -20.9710 
  238.5000    62.9730    80.1470    73.3430    89.2570    25.3740     2.2570   -20.9460 
  238.6250    59.8440    76.6410    71.2650    87.8040    25.2910     2.2720   -20.9290 
  238.7500    57.0680    70.5050    66.5700    81.2500    25.2540     2.2870   -20.8920 
  238.8750    56.6910    63.0510    60.2790    70.2180    25.2290     2.2970   -20.8180 
  239.0000    57.7050    56.2760    54.1440    55.6830    25.1430     2.2980   -20.7040 
  239.1250    59.3390    51.5310    49.5550    43.2970    25.0010     2.2930   -20.5800 
  239.2500    61.7040    49.2910    47.1070    37.7940    24.8630     2.2840   -20.4920 
  239.3750    62.7380    49.4210    46.8160    38.0890    24.8030     2.2750   -20.4470 
  239.5000    62.0460    51.5570    48.5300    42.5160    24.9540     2.2680   -20.4220 
  239.6250    62.1700    54.7880    51.5080    48.9710    25.3280     2.2650   -20.3850 
  239.7500    62.3750    58.5010    55.1860    55.4680    25.6760     2.2660   -20.3340 
  239.8750    60.3590    62.4570    59.2490    61.2440    25.8070     2.2710   -20.2910 
  240.0000    57.2190    66.9330    63.8130    66.8280    25.6930     2.2780   -20.2870 
  240.1250    57.0600    72.4150    69.2420    72.6980    25.4610     2.2860   -20.3020 
