~V
VERS. 2.00: Ver 2.00
~W
STRT.M 58.0000:
STOP.M 271.0000:
STEP.M 0.1250:
NULL. -999.2500:
UWI. F11072:
~C
DEPT.M :
DEN.GM/CC :
GR.API :
RML.OHMM :
RI. :
RXO.OHMM :
CALI.CM :
SP.MV :
~A
# ...
  114.2500     2.3080    57.6780     9.6480     8.5400     9.6520    24.6570   -15.1930 
  114.3750     2.2780    58.5070     9.3970     8.3350     9.3850    24.4150   -15.1470 
  114.5000     2.2390    58.0770     9.1850     8.1260     9.3230    24.2390   -15.1420 
  114.6250     2.2060    58.7720     9.0750     7.9710     9.3710    24.1650   -15.1880 
  114.7500     2.1760    57.7690     9.0520     7.8840     9.1820    24.1610   -15.2720 
  114.8750     2.1500    54.1260     9.0800     7.8550     9.4230    24.1750   -15.3800 
  115.0000     2.1310    50.9890     9.1090     7.8570     9.5930    24.1570   -15.4870 
  115.1250     2.1250    51.5070     9.0920     7.8550     9.4880    24.1150   -15.5640 
  115.2500     2.1300    54.9550     9.0310     7.8330     9.3680    24.0400   -15.5920 
  115.3750     2.1420    59.1730     8.9490     7.8000     9.3460    23.8680   -15.5570 
  115.5000     2.1590    61.1620     8.8700     7.7650     9.3470    23.6250   -15.4520 
  115.6250     2.1730    59.6670     8.8030     7.7360     9.2490    23.3940   -15.2680 
  115.7500     2.1830    58.4190     8.7370     7.7030     9.0670    23.1680   -15.0190 
  115.8750     2.1910    58.3480     8.6520     7.6520     9.0410    22.9930   -14.7210 
  116.0000     2.1980    56.7670     8.5340     7.5690     9.0910    22.8540   -14.4000 
  116.1250     2.2090    55.2050     8.3850     7.4510     8.9460    22.6990   -14.0890 
  116.2500     2.2200    56.7680     8.2410     7.3250     8.5860    22.5870   -13.8160 
  116.3750     2.2310    59.6370     8.1330     7.2170     7.9720    22.5620   -13.5970 
  116.5000     2.2380    61.5350     8.0810     7.1430     7.4520    22.6190   -13.4380 
  116.6250     2.2400    63.2970     8.0840     7.1120     7.5140    22.8250   -13.3600 
  116.7500     2.2390    64.7150     8.0990     7.0980     8.0390    23.0950   -13.3610 
  116.8750     2.2380    63.3450     8.1010     7.0870     8.5110    23.3370   -13.4430 
  117.0000     2.2370    60.6960     8.0890     7.0740     8.6240    23.5330   -13.5970 
  117.1250     2.2370    61.5960     8.0990     7.0820     8.6890    23.6890   -13.8230 
  117.2500     2.2340    63.3770     8.1710     7.1350     8.7250    23.7510   -14.1040 
  117.3750     2.2260    62.5400     8.3230     7.2480     8.7690    23.7260   -14.4220 
  117.5000     2.2110    61.3240     8.5380     7.4170     9.0550    23.6570   -14.7560 
  117.6250     2.1880    63.1450     8.7600     7.6080     9.2680    23.6280   -15.0870 
  117.7500     2.1640    66.4350     8.9250     7.7670     9.4090    23.6660   -15.4000 
  117.8750     2.1430    67.5690     9.0000     7.8640     9.5160    23.7480   -15.6790 
  118.0000     2.1290    65.4160     8.9880     7.8900     9.6790    23.8800   -15.9150 
  118.1250     2.1260    61.8680     8.9250     7.8600     9.7630    24.0320   -16.0870 
  118.2500     2.1300    61.1430     8.8760     7.8230     9.7470    24.1110   -16.1790 
  118.3750     2.1390    63.2880     8.8780     7.8100     9.7380    24.1660   -16.1790 
  118.5000     2.1500    64.9580     8.9370     7.8310     9.7730    24.2460   -16.0940 
  118.6250     2.1620    64.2230     9.0330     7.8770     9.8540    24.2750   -15.9240 
  118.7500     2.1720    62.7810     9.1170     7.9190     9.9220    24.2850   -15.6980 
  118.8750     2.1780    61.0910     9.1470     7.9280     9.9760    24.2630   -15.4300 
  119.0000     2.1810    59.2000     9.0990     7.8860    10.0210    24.1630   -15.1250 
  119.1250     2.1800    58.1550     8.9640     7.7790     9.9460    23.9240   -14.7860 
  119.2500     2.1800    57.6060     8.7920     7.6370     9.7720    23.5350   -14.4390 
  119.3750     2.1820    55.8710     8.6300     7.4910     9.5430    23.0840   -14.0990 
  119.5000     2.1850    53.4090     8.5230     7.3760     9.3240    22.7960   -13.7770 
  119.6250     2.1890    54.9780     8.5020     7.3220     9.1460    22.6770   -13.4880 
  119.7500     2.1920    60.1720     8.5440     7.3180     9.0480    22.6380   -13.2350 
  119.8750     2.1940    64.9880     8.6180     7.3500     9.0860    22.6490   -13.0270 
  120.0000     2.1980    66.5730     8.6910     7.3960     9.0630    22.6500   -12.8730 
  120.1250     2.2010    65.3130     8.7400     7.4420     8.9200    22.6480   -12.7820 
  120.2500     2.2030    62.5750     8.7710     7.4830     8.7370    22.6730   -12.7400 
  120.3750     2.2040    59.6040     8.8020     7.5270     8.7200    22.7070   -12.7330 
  120.5000     2.2020    58.4890     8.8460     7.5800     8.8660    22.7470   -12.7520 
  120.6250     2.1980    59.8130     8.8980     7.6450     9.0360    22.7950   -12.7800 
  120.7500     2.1920    61.3390     8.9310     7.7040     9.0750    22.8690   -12.7970 
  120.8750     2.1860    61.2360     8.9200     7.7380     9.0750    23.0260   -12.7810 
  121.0000     2.1830    59.9700     8.8550     7.7320     9.1380    23.3030   -12.7250 
  121.1250     2.1860    59.6560     8.7410     7.6800     9.1230    23.7460   -12.6200 
  121.2500     2.1920    62.0840     8.6160     7.6060     8.8970    24.2250   -12.4850 
  121.3750     2.1990    67.0710     8.5110     7.5350     8.5480    24.4850   -12.3250 
  121.5000     2.2040    71.7200     8.4430     7.4860     8.3210    24.5270   -12.1330 
  121.6250     2.2060    70.9470     8.4060     7.4630     8.2730    24.5200   -11.8910 
  121.7500     2.2070    65.8780     8.3570     7.4390     8.3120    24.5130   -11.5990 
  121.8750     2.2100    61.8400     8.2530     7.3800     8.4260    24.4980   -11.2540 
  122.0000     2.2190    63.2370     8.0720     7.2600     8.5330    24.5070   -10.8550 
  122.1250     2.2320    69.6530     7.8350     7.0750     8.4780    24.5020   -10.3970 
  122.2500     2.2420    75.6680     7.6320     6.8890     8.2790    24.4980    -9.8850 
  122.3750     2.2490    78.6980     7.5330     6.7620     7.8990    24.5220    -9.3260 
  122.5000     2.2550    77.7070     7.5530     6.7210     7.3930    24.5450    -8.7280 
  122.6250     2.2700    74.7290     7.6120     6.7300     7.0420    24.5630    -8.0960 
  122.7500     2.2950    72.9150     7.5490     6.6740     7.1850    24.5990    -7.4610 
  122.8750     2.3270    74.5520     7.2480     6.4570     7.6690    24.6120    -6.8510 
  123.0000     2.3540    80.6730     6.6810     6.0370     7.7090    24.5660    -6.2950 
  123.1250     2.3660    88.4220     5.9400     5.4570     6.7190    24.4510    -5.8170 
  123.2500     2.3680    93.1430     5.2520     4.8850     5.2080    24.2630    -5.3990 
  123.3750     2.3670    92.9470     4.7640     4.4410     4.5700    24.0260    -5.0350 
  123.5000     2.3690    92.2880     4.5260     4.1800     4.3900    23.8000    -4.7320 
  123.6250     2.3730    96.4310     4.5200     4.1170     4.4000    23.6290    -4.5100 
  123.7500     2.3720   101.0180     4.6140     4.1610     4.4680    23.5280    -4.3530 
  123.8750     2.3640   103.4880     4.7230     4.2470     4.5420    23.4860    -4.2490 
  124.0000     2.3490   104.6160     4.7970     4.3240     4.5750    23.4610    -4.1810 
  124.1250     2.3290   105.2880     4.8160     4.3640     4.5640    23.4630    -4.1370 
  124.2500     2.3080   102.2330     4.8080     4.3740     4.5380    23.4770    -4.1110 
  124.3750     2.2880    97.2950     4.7940     4.3670     4.5140    23.4890    -4.1090 
  124.5000     2.2710    97.7500     4.7920     4.3550     4.5090    23.5340    -4.1320 
  124.6250     2.2600   103.2290     4.8090     4.3470     4.5710    23.6070    -4.1860 
  124.7500     2.2540   105.0430     4.8360     4.3380     4.7090    23.6900    -4.2620 
  124.8750     2.2540   102.4230     4.8650     4.3270     4.9000    23.8390    -4.3590 
  125.0000     2.2590    98.6970     4.8950     4.3150     5.0660    24.0760    -4.4680 
  125.1250     2.2680    97.4210     4.9400     4.3170     5.0540    24.3830    -4.5940 
  125.2500     2.2770    95.3550     5.0190     4.3520     4.9830    24.6610    -4.7490 
  125.3750     2.2850    94.1230     5.1550     4.4380     4.9890    24.7970    -4.9390 
