~V
VERS. 2.00: Ver 2.00
~W
STRT.M 50.0000:
STOP.M 281.0000:
STEP.M 0.1250:
NULL. -999.2500:
UWI. F11064:
~C
DEPT.M :
SP.MV :
GR.API :
RML.OHMM :
RI. :
RXO.OHMM :
CALI.CM :
DEN.GM/CC :
~A
# ...
  106.2500   -15.3750    54.4500     8.4260     6.7300     6.4010    22.0430     2.1170 
  106.3750   -15.1880    54.8430     8.3990     6.7960     6.5190    22.1360     2.1170 
  106.5000   -14.9770    56.7480     8.3330     6.8330     6.5940    22.1670     2.1240 
  106.6250   -14.7440    59.6640     8.2330     6.8090     6.7050    22.3100     2.1310 
  106.7500   -14.5120    62.0600     8.0700     6.6950     6.8560    22.6410     2.1320 
  106.8750   -14.3070    62.3880     7.7850     6.4610     7.0240    23.0960     2.1280 
  107.0000   -14.1440    61.7040     7.3410     6.0980     7.1390    23.6170     2.1240 
  107.1250   -14.0250    66.1550     6.7670     5.6360     6.9990    24.1550     2.1210 
  107.2500   -13.9390    74.0140     6.2210     5.1830     6.5120    24.6450     2.1200 
  107.3750   -13.9260    78.1550     5.8280     4.8270     5.8710    24.9780     2.1220 
  107.5000   -14.0140    76.8360     5.6560     4.6310     5.6210    24.9330     2.1340 
  107.6250   -14.1890    75.9120     5.7230     4.6350     5.5290    24.4790     2.1640 
  107.7500   -14.4060    77.7650     5.9000     4.7560     5.5550    24.0110     2.1990 
  107.8750   -14.6420    78.2520     6.0820     4.9160     5.6050    24.0360     2.2210 
  108.0000   -14.8900    75.9020     6.1920     5.0380     5.6990    24.5590     2.2150 
  108.1250   -15.1160    73.9620     6.2210     5.0870     5.8590    25.3400     2.1850 
  108.2500   -15.2920    73.8010     6.2490     5.1090     5.9220    25.8230     2.1600 
  108.3750   -15.4090    74.7590     6.3320     5.1490     5.8710    25.5380     2.1560 
  108.5000   -15.4370    76.1920     6.4640     5.2220     5.7640    24.5240     2.1750 
  108.6250   -15.4050    77.8720     6.5550     5.2830     5.6340    23.6150     2.2020 
  108.7500   -15.3320    80.1310     6.5170     5.2740     5.5090    23.7190     2.2150 
  108.8750   -15.2320    82.0910     6.3440     5.1770     5.5760    24.6260     2.2040 
  109.0000   -15.1300    83.8020     6.1350     5.0450     5.7650    25.6770     2.1830 
  109.1250   -15.0450    84.8950     6.0940     4.9990     6.0710    25.6430     2.1800 
  109.2500   -14.9580    82.8040     6.3590     5.1440     6.3940    24.4620     2.2030 
  109.3750   -14.8520    76.9400     7.0040     5.5510     6.5710    23.1060     2.2440 
  109.5000   -14.7790    69.3740     8.0150     6.2430     7.0930    22.5680     2.2870 
  109.6250   -14.7590    64.7070     9.2640     7.1820     7.8570    22.7560     2.3130 
  109.7500   -14.7630    64.8030    10.3990     8.1340     8.3500    22.9810     2.3180 
  109.8750   -14.7710    67.7780    11.1090     8.8510     8.3140    22.9420     2.3010 
  110.0000   -14.7650    70.0340    11.2080     9.1300     7.8770    22.7160     2.2710 
  110.1250   -14.7870    68.1890    10.6910     8.8790     7.2550    22.5240     2.2410 
  110.2500   -14.8610    65.2620     9.9470     8.3620     6.8650    22.3960     2.2120 
  110.3750   -14.9670    64.6820     9.2470     7.7900     6.7030    22.2660     2.1870 
  110.5000   -15.0740    66.5680     8.7580     7.3130     6.6920    22.1560     2.1650 
  110.6250   -15.1540    67.8880     8.5600     7.0280     6.6070    22.0580     2.1530 
  110.7500   -15.2220    68.5360     8.5560     6.9020     6.4060    22.0120     2.1470 
  110.8750   -15.2530    68.6340     8.6600     6.8910     6.2060    21.9700     2.1490 
  111.0000   -15.2240    67.3310     8.7820     6.9430     6.1230    21.9430     2.1550 
  111.1250   -15.1300    63.8540     8.8490     7.0170     6.1790    21.9310     2.1610 
  111.2500   -14.9880    62.3440     8.8580     7.0860     6.2860    21.9190     2.1630 
  111.3750   -14.7990    65.2750     8.8380     7.1380     6.4090    21.8900     2.1610 
  111.5000   -14.5740    69.7650     8.8200     7.1640     6.5030    21.8700     2.1590 
  111.6250   -14.3480    70.5760     8.8260     7.1630     6.5410    21.8750     2.1590 
  111.7500   -14.1430    68.1390     8.8500     7.1510     6.5930    21.8980     2.1540 
  111.8750   -13.9650    63.9390     8.8780     7.1420     6.6690    21.9250     2.1380 
  112.0000   -13.8330    60.0860     8.8920     7.1450     6.7210    21.9550     2.1140 
  112.1250   -13.7340    59.2100     8.8870     7.1520     6.7260    22.0200     2.0920 
  112.2500   -13.6920    62.2750     8.9010     7.1700     6.7410    22.1030     2.0730 
  112.3750   -13.6960    66.3880     8.9870     7.2300     6.8010    22.1610     2.0600 
  112.5000   -13.7150    68.0670     9.1920     7.3710     6.8410    22.1940     2.0550 
  112.6250   -13.7130    65.8720     9.5290     7.6180     6.8830    22.2280     2.0670 
  112.7500   -13.6800    62.2050     9.9020     7.9150     7.1090    22.2780     2.0850 
  112.8750   -13.6520    58.8640    10.1940     8.1860     7.6730    22.3170     2.0990 
  113.0000   -13.6150    56.7710    10.2980     8.3440     8.3530    22.3650     2.1040 
  113.1250   -13.5610    56.7880    10.1470     8.3080     8.1200    22.4330     2.1090 
  113.2500   -13.4700    58.7030     9.8510     8.1340     7.7980    22.5800     2.1200 
  113.3750   -13.3380    61.3140     9.5290     7.8950     7.6450    22.8340     2.1320 
  113.5000   -13.1490    63.2970     9.2790     7.6720     7.7110    23.0940     2.1390 
  113.6250   -12.9080    63.0880     9.1590     7.5350     7.7890    23.2870     2.1430 
  113.7500   -12.6650    62.4110     9.1190     7.4730     7.8640    23.4180     2.1490 
  113.8750   -12.4360    63.0920     9.1010     7.4500     7.9330    23.5080     2.1610 
  114.0000   -12.2250    64.2140     9.0490     7.4180     7.9200    23.6020     2.1750 
  114.1250   -12.0180    65.2670     8.9260     7.3420     7.7730    23.7320     2.1830 
  114.2500   -11.8200    65.7120     8.7530     7.2260     7.6880    23.8780     2.1820 
  114.3750   -11.6600    65.5270     8.5640     7.0900     7.6810    24.0430     2.1700 
  114.5000   -11.6000    64.9350     8.3990     6.9620     7.7790    24.1810     2.1510 
  114.6250   -11.6310    64.2970     8.3040     6.8830     7.8890    24.2120     2.1340 
  114.7500   -11.6750    65.1430     8.2920     6.8690     7.9380    24.1810     2.1230 
  114.8750   -11.7270    66.5600     8.3570     6.9270     7.8970    24.1210     2.1190 
  115.0000   -11.7920    66.8100     8.4720     7.0470     7.8850    23.9940     2.1210 
  115.1250   -11.8470    64.9410     8.5950     7.2000     7.8460    23.7280     2.1280 
  115.2500   -11.8800    63.2150     8.6830     7.3330     7.8230    23.4350     2.1390 
  115.3750   -11.9130    64.1000     8.7160     7.4080     7.7760    23.3140     2.1570 
  115.5000   -11.9430    66.6950     8.6910     7.4050     7.7160    23.3150     2.1740 
  115.6250   -11.9730    66.6370     8.5990     7.3130     7.6920    23.4020     2.1800 
  115.7500   -12.0050    66.1950     8.4380     7.1570     7.6450    23.5850     2.1770 
  115.8750   -12.0340    67.3480     8.1910     6.9430     7.6500    23.8050     2.1740 
  116.0000   -12.0680    69.0010     7.8550     6.6820     7.6870    24.0280     2.1720 
  116.1250   -12.1380    70.8570     7.4540     6.3910     7.4570    24.2920     2.1680 
  116.2500   -12.2110    74.3840     7.0760     6.1100     7.0720    24.5520     2.1600 
  116.3750   -12.2740    77.4530     6.8010     5.8800     6.8780    24.6020     2.1540 
  116.5000   -12.3590    76.8380     6.6810     5.7330     6.9720    24.4030     2.1530 
  116.6250   -12.4570    75.4650     6.7390     5.7010     6.9880    24.1870     2.1520 
  116.7500   -12.5620    77.0060     6.9020     5.7580     6.8190    23.8950     2.1500 
  116.8750   -12.6530    76.9400     7.1070     5.8760     6.7750    23.4920     2.1560 
  117.0000   -12.7350    72.6020     7.2960     6.0120     6.9040    23.1660     2.1730 
  117.1250   -12.8150    68.8410     7.4050     6.1050     7.1150    23.0370     2.1950 
  117.2500   -12.8950    68.0220     7.4100     6.1250     7.1610    22.9850     2.2120 
  117.3750   -12.9530    69.0500     7.3020     6.0650     7.0870    22.9420     2.2240 
