~V
VERS. 2.00: Ver 2.00
~W
STRT.M 55.0000:
STOP.M 236.0000:
STEP.M 0.1250:
NULL. -999.2500:
UWI. F11015:
~C
DEPT.M :
GR.API :
RML.OHMM :
RI. :
RXO.OHMM :
CALI.CM :
DEN.GM/CC :
SP.MV :
~A
# ...
  122.5000    75.1370     7.1290     6.4430     6.9670    24.0020     2.2520   -11.3220 
  122.6250    77.3080     6.8400     6.0430     6.3730    24.0890     2.2740   -10.7210 
  122.7500    79.3250     6.7950     5.8680     6.5910    24.1250     2.2840   -10.1960 
  122.8750    82.5080     6.8600     5.8230     6.9960    24.1210     2.2820    -9.6940 
  123.0000    83.8590     6.9030     5.8050     7.0800    24.1270     2.2770    -9.2280 
  123.1250    82.0550     6.7940     5.7080     6.6200    24.1670     2.2740    -8.8570 
  123.2500    82.4710     6.5430     5.5150     6.1190    24.2240     2.2710    -8.6050 
  123.3750    85.2900     6.2210     5.2620     5.7980    24.2550     2.2680    -8.5180 
  123.5000    86.9190     5.9360     5.0250     5.7870    24.2700     2.2650    -8.5870 
  123.6250    85.5290     5.8270     4.9100     5.7940    24.2790     2.2650    -8.7290 
  123.7500    84.0490     5.9330     4.9540     5.9420    24.2560     2.2640    -8.8430 
  123.8750    83.1010     6.2470     5.1630     6.2210    24.1820     2.2620    -8.9480 
  124.0000    81.0370     6.7370     5.5190     6.8610    23.9920     2.2560    -9.0750 
  124.1250    77.3440     7.3660     6.0000     7.7830    23.7090     2.2500    -9.2290 
  124.2500    74.1000     8.0170     6.5200     8.1190    23.4820     2.2460    -9.3800 
  124.3750    72.2040     8.5550     6.9860     7.9030    23.3920     2.2460    -9.5170 
  124.5000    70.5070     8.8400     7.2800     7.8780    23.3690     2.2480    -9.5990 
  124.6250    68.1990     8.7120     7.2580     9.0110    23.3210     2.2550    -9.6120 
  124.7500    66.2660     8.2440     6.9540     9.7790    23.3040     2.2680    -9.5990 
  124.8750    67.6050     7.5810     6.4590     8.4560    23.3740     2.2850    -9.5960 
  125.0000    71.9510     6.9280     5.9250     7.0600    23.5490     2.2950    -9.6420 
  125.1250    75.6380     6.5320     5.5400     6.3790    23.7940     2.2870    -9.7670 
  125.2500    77.0350     6.4970     5.4110     6.4820    23.9160     2.2650    -9.9860 
  125.3750    76.1500     6.8860     5.6060     7.1500    23.7570     2.2320   -10.2700 
  125.5000    72.5530     7.6910     6.1480     8.0410    23.4110     2.1920   -10.5630 
  125.6250    67.0680     8.8080     7.0130     9.1170    23.1570     2.1560   -10.7580 
  125.7500    63.9680     9.8620     7.9370     9.9330    23.0840     2.1350   -10.8410 
  125.8750    64.8880    10.4570     8.5920    10.1940    23.0630     2.1380   -10.8180 
  126.0000    68.5860    10.2790     8.6640    10.2770    23.0070     2.1610   -10.6790 
  126.1250    73.3000     9.2460     7.9870     9.9670    22.9550     2.1940   -10.3800 
  126.2500    77.6350     7.9100     6.9620     8.4390    23.0210     2.2230    -9.9190 
  126.3750    81.7410     6.7000     5.9270     6.4420    23.1810     2.2450    -9.2880 
  126.5000    86.2630     5.8770     5.1110     5.5440    23.4090     2.2630    -8.5540 
  126.6250    89.2520     5.5670     4.6500     5.6020    23.6560     2.2720    -7.8710 
  126.7500    88.6350     5.6080     4.4700     5.8110    23.9990     2.2670    -7.3490 
  126.8750    85.4790     5.8640     4.5040     5.8500    24.3150     2.2490    -7.0010 
  127.0000    83.1330     6.1730     4.6610     5.9380    24.4610     2.2230    -6.7720 
  127.1250    81.9170     6.3550     4.8310     6.0930    24.3940     2.2030    -6.6500 
  127.2500    80.3850     6.4030     4.9580     6.1980    24.2120     2.1960    -6.6070 
  127.3750    79.5300     6.4380     5.0810     6.3130    24.0680     2.2060    -6.6190 
  127.5000    79.4640     6.6490     5.2950     6.3660    24.0260     2.2350    -6.6680 
  127.6250    80.3180     7.2500     5.7350     6.5100    24.0590     2.2760    -6.7640 
  127.7500    79.6470     8.1680     6.3960     7.4920    24.0970     2.3190    -6.8690 
  127.8750    76.3370     9.1740     7.1720     9.3060    24.1120     2.3650    -6.9560 
  128.0000    71.8750     9.8910     7.8220    11.1270    24.1190     2.4090    -7.0150 
  128.1250    72.5170     9.8190     7.9430    12.3070    24.1440     2.4380    -7.0520 
  128.2500    78.8300     9.0540     7.5080    10.4310    24.2110     2.4360    -7.0730 
  128.3750    84.6670     7.9690     6.7340     7.4370    24.3070     2.3990    -7.1170 
  128.5000    86.4720     6.9930     5.9290     6.1720    24.4260     2.3430    -7.2350 
  128.6250    87.7590     6.4150     5.3240     6.0360    24.5040     2.2990    -7.4410 
  128.7500    89.4870     6.1480     4.9300     6.1130    24.5380     2.2760    -7.6530 
  128.8750    89.0290     6.0870     4.7230     6.4220    24.5540     2.2640    -7.8100 
  129.0000    86.6500     6.1610     4.6850     6.6410    24.5630     2.2550    -7.9490 
  129.1250    86.6540     6.3750     4.8370     6.2220    24.5570     2.2530    -8.1100 
  129.2500    85.5210     6.7410     5.1500     5.9850    24.4880     2.2660    -8.3270 
  129.3750    81.1710     7.2680     5.6080     7.1980    24.3390     2.2940    -8.6070 
  129.5000    77.2560     7.9360     6.1920    10.2090    24.2000     2.3300    -8.9000 
  129.6250    76.5490     8.7170     6.8980    13.3510    24.1960     2.3500    -9.0540 
  129.7500    76.1040     9.5100     7.6570    11.6630    24.2950     2.3350    -9.0470 
  129.8750    74.2830    10.1820     8.3590    10.0370    24.3940     2.2930    -8.9520 
  130.0000    72.8260    10.5600     8.8360    11.0800    24.4430     2.2590    -8.8080 
  130.1250    73.0700    10.3730     8.8260    15.1160    24.3910     2.2600    -8.6010 
  130.2500    75.0190     9.6550     8.3330    16.4260    24.3010     2.2780    -8.3290 
  130.3750    78.4910     8.5850     7.4920    11.1590    24.1870     2.2880    -7.9840 
  130.5000    83.0260     7.4670     6.5460     7.4620    24.1130     2.2810    -7.5570 
  130.6250    88.2370     6.6270     5.7560     6.5370    24.0970     2.2700    -7.1070 
  130.7500    93.2130     6.1390     5.2250     6.1940    24.1120     2.2690    -6.6990 
  130.8750    95.5990     5.9670     4.9680     5.9410    24.1520     2.2760    -6.3420 
  131.0000    94.5700     5.9980     4.9300     5.9040    24.2540     2.2830    -6.0370 
  131.1250    92.6530     6.0870     5.0170     5.9880    24.3930     2.2840    -5.8050 
  131.2500    91.4200     6.1340     5.1150     5.9810    24.5460     2.2790    -5.6370 
  131.3750    89.8300     6.1200     5.1790     5.8090    24.6000     2.2710    -5.5190 
  131.5000    88.1550     6.0500     5.1890     5.6770    24.5340     2.2660    -5.4080 
  131.6250    87.6980     5.9450     5.1430     5.6650    24.3740     2.2670    -5.2960 
  131.7500    88.7850     5.8760     5.0920     5.6250    24.2630     2.2700    -5.2550 
  131.8750    90.7410     5.8990     5.0780     5.5660    24.2830     2.2730    -5.3010 
  132.0000    91.4130     6.0250     5.1180     5.5940    24.4040     2.2770    -5.3710 
  132.1250    88.2570     6.1970     5.1970     6.1690    24.5130     2.2860    -5.4010 
  132.2500    83.4550     6.3040     5.2530     7.7340    24.5600     2.3000    -5.3550 
  132.3750    81.6430     6.2630     5.2310     9.3080    24.5820     2.3170    -5.2090 
  132.5000    84.0100     6.0730     5.1190     7.7220    24.6390     2.3280    -5.0650 
  132.6250    89.6180     5.9090     5.0070     6.4000    24.6790     2.3230    -5.0320 
  132.7500    93.4390     6.0400     5.0690     6.2180    24.6960     2.3140    -5.0350 
  132.8750    91.5660     6.6720     5.4690     7.1770    24.6910     2.3200    -5.0060 
  133.0000    85.0070     7.9230     6.3410     8.3960    24.6800     2.3470    -4.9430 
  133.1250    78.5310     9.8670     7.8570    12.9420    24.6530     2.3880    -4.8860 
  133.2500    74.2460    12.1490     9.8430    18.5540    24.5940     2.4370    -4.8540 
  133.3750    70.0110    14.3290    11.9940    21.7510    24.5330     2.4830    -4.8590 
  133.5000    66.0970    15.9350    13.8460    18.8620    24.4710     2.5060    -4.8940 
  133.6250    64.2180    16.6080    14.9080    16.1640    24.4390     2.4960    -4.9430 
