~V
VERS. 2.00: Ver 2.00
~W
STRT.M 55.0000:
STOP.M 281.0000:
STEP.M 0.1250:
NULL. -999.2500:
UWI. F11051:
~C
DEPT.M :
SP.MV :
GR.API :
RML.OHMM :
RI. :
RXO.OHMM :
CALI.CM :
DEN.GM/CC :
~A
# ...
  212.5000    -9.6900    63.1460    30.2450    20.6000    27.2690    24.4110     2.3530 
  212.6250    -9.8540    64.5010    33.6870    23.0320    29.3590    24.3200     2.3220 
  212.7500   -10.0180    66.4930    36.3800    25.1990    32.5270    24.2720     2.3070 
  212.8750   -10.1860    65.9850    38.2410    26.9010    35.0480    24.3060     2.3180 
  213.0000   -10.3700    63.4480    39.5710    28.1980    36.0710    24.3970     2.3410 
  213.1250   -10.5550    63.4440    40.8480    29.3410    35.0170    24.4400     2.3450 
  213.2500   -10.7430    65.0910    42.4070    30.6030    35.9510    24.4690     2.3230 
  213.3750   -10.9540    64.7080    44.3220    32.1010    37.8910    24.5120     2.2840 
  213.5000   -11.1720    63.2040    46.4630    33.8160    44.6420    24.5400     2.2470 
  213.6250   -11.4390    63.4340    48.5770    35.6160    46.9340    24.4560     2.2280 
  213.7500   -11.7100    63.2230    50.6140    37.4170    46.1350    24.2070     2.2200 
  213.8750   -11.9530    62.1930    52.7540    39.3230    44.5600    23.9310     2.2140 
  214.0000   -12.1990    63.3080    55.1680    41.4770    44.3300    23.8800     2.2050 
  214.1250   -12.4140    66.8060    57.7720    43.8930    50.1030    24.0030     2.1940 
  214.2500   -12.6220    66.7350    60.0330    46.2040    62.8030    24.0580     2.1880 
  214.3750   -12.8300    62.7280    61.2510    47.8920    78.0870    24.0370     2.1890 
  214.5000   -13.0140    58.7390    60.8920    48.4890    79.2280    24.0220     2.1970 
  214.6250   -13.1940    56.9650    59.0310    47.8760    60.8460    24.0230     2.2040 
  214.7500   -13.3810    57.6630    56.9440    46.9000    51.8980    24.1120     2.2030 
  214.8750   -13.5630    59.9280    55.5340    46.2370    48.5740    24.2060     2.1900 
  215.0000   -13.7420    61.1720    55.1880    46.2720    48.1370    24.2780     2.1740 
  215.1250   -13.9200    60.8650    55.7040    47.0120    49.4260    24.4220     2.1770 
  215.2500   -14.0880    60.3570    56.1260    47.8450    55.6890    24.4900     2.2040 
  215.3750   -14.2660    59.8380    55.7810    48.2330    64.7660    24.4320     2.2400 
  215.5000   -14.4650    57.9180    54.5300    47.9040    62.1810    24.2810     2.2650 
  215.6250   -14.6530    55.5910    52.8860    47.0320    55.3380    24.1740     2.2560 
  215.7500   -14.8570    54.7700    51.8610    46.3790    45.2540    24.1830     2.2290 
  215.8750   -15.0880    57.0930    52.2880    46.6790    39.8700    24.2030     2.2000 
  216.0000   -15.3460    61.9520    54.7100    48.4900    39.8880    24.1330     2.1790 
  216.1250   -15.6330    64.2730    59.6140    52.3680    44.3430    24.0070     2.1640 
  216.2500   -15.9640    62.0740    66.2640    57.8390    55.9840    23.9100     2.1490 
  216.3750   -16.2850    58.3470    73.9070    64.3690    72.6050    23.8030     2.1380 
  216.5000   -16.6240    54.6880    81.6510    71.2470    79.5340    23.6800     2.1360 
  216.6250   -16.9920    52.3400    88.9000    77.9570    75.8880    23.6090     2.1420 
  216.7500   -17.3240    52.4900    96.1090    84.7610    75.9330    23.7300     2.1490 
  216.8750   -17.6690    55.4760   104.0490    92.2390    86.1100    23.9180     2.1510 
  217.0000   -17.9870    59.0910   113.2970   100.8150   102.1050    23.8190     2.1490 
  217.1250   -18.2730    60.4090   123.9370   110.5960   113.7970    23.3700     2.1490 
  217.2500   -18.5530    59.3980   134.6140   120.5010   125.3740    23.0360     2.1570 
  217.3750   -18.8100    56.5950   143.8830   129.2370   136.3290    23.0470     2.1750 
  217.5000   -19.0210    55.2120   150.8320   135.8460   148.4000    23.2700     2.1970 
  217.6250   -19.2050    56.9960   155.5210   140.1770   171.5830    23.6950     2.2140 
  217.7500   -19.3610    57.6110   159.5770   143.7010   183.7800    24.1110     2.2190 
  217.8750   -19.4850    54.1780   164.2720   147.6040   179.7010    24.4660     2.2150 
  218.0000   -19.6030    50.2740   170.7560   152.9710   162.3530    24.7020     2.2050 
  218.1250   -19.7050    51.6390   180.0530   160.9260   155.8980    24.7150     2.1960 
  218.2500   -19.7940    55.6550   190.5500   170.3830   191.1800    24.6250     2.1860 
  218.3750   -19.8650    57.9740   198.9600   178.7630   231.3760    24.5890     2.1770 
  218.5000   -19.9540    58.1340   201.3910   182.6500   274.0970    24.6250     2.1730 
  218.6250   -20.0340    59.1230   196.0670   179.6390   288.1800    24.7030     2.1840 
  218.7500   -20.1290    61.2980   188.9680   174.0530   258.7110    24.7420     2.2040 
  218.8750   -20.2150    63.2380   186.1550   171.2880   220.2100    24.7540     2.2230 
  219.0000   -20.2610    63.4760   191.7190   175.8420   202.9070    24.7550     2.2270 
  219.1250   -20.3330    60.7030   206.9290   190.1760   221.3210    24.7130     2.2110 
  219.2500   -20.3570    57.2560   224.0040   207.9050   227.6120    24.6560     2.1880 
  219.3750   -20.3670    55.8760   232.4710   219.7660   228.0490    24.6990     2.1710 
  219.5000   -20.3730    56.5280   223.6250   216.9310   220.7740    24.8150     2.1670 
  219.6250   -20.3360    56.6340   197.6460   196.5370   210.8790    24.8260     2.1790 
  219.7500   -20.2830    55.9850   169.1720   170.5900   169.5520    24.7000     2.1960 
  219.8750   -20.2390    56.4200   146.7770   148.0090   126.5830    24.5890     2.2100 
  220.0000   -20.1860    57.8080   133.1680   133.0780   119.9690    24.5550     2.2120 
  220.1250   -20.0970    58.1430   127.7460   126.4700   120.6090    24.5670     2.2000 
  220.2500   -20.0350    57.9160   126.0780   124.0700   118.7350    24.5730     2.1820 
  220.3750   -19.9500    57.3920   125.8270   123.4160   115.8480    24.5740     2.1640 
  220.5000   -19.8530    57.7430   125.8010   123.0190   115.6710    24.5770     2.1540 
  220.6250   -19.7930    59.6330   126.2620   122.7000   117.7970    24.5780     2.1570 
  220.7500   -19.7170    59.7300   128.3350   123.4580   117.8640    24.5650     2.1680 
  220.8750   -19.6550    57.0330   133.1670   126.5430   119.4780    24.5230     2.1820 
  221.0000   -19.6050    54.1320   141.4470   132.8460   131.0130    24.4160     2.1910 
  221.1250   -19.5400    53.9590   153.6670   143.0110   152.8850    24.3670     2.1880 
  221.2500   -19.4750    54.7680   168.1070   155.4410   193.6050    24.3840     2.1770 
  221.3750   -19.4280    56.8550   182.8330   168.2880   271.2780    24.4300     2.1670 
  221.5000   -19.3880    61.2580   196.0100   179.7470   306.8890    24.4650     2.1640 
  221.6250   -19.2980    61.1990   207.1420   189.3270   376.9770    24.4640     2.1710 
  221.7500   -19.2390    56.7600   217.9680   198.8040   331.6860    24.5700     2.1770 
  221.8750   -19.1580    53.9860   229.0450   208.9980   244.8270    24.6640     2.1730 
  222.0000   -19.0670    55.9600   238.1710   218.2890   239.3410    24.7620     2.1590 
  222.1250   -19.0260    58.1780   237.9820   220.3730   377.7410    24.9330     2.1420 
  222.2500   -18.9550    59.1780   224.7100   211.1230   627.5370    25.0320     2.1320 
  222.3750   -18.8930    61.0250   200.4100   191.1380   410.7580    25.0220     2.1340 
  222.5000   -18.8370    62.9660   172.6340   166.3980   169.7210    24.9350     2.1460 
  222.6250   -18.7680    63.5650   150.0530   145.0140   118.2680    24.8350     2.1610 
  222.7500   -18.6770    64.1510   135.0870   130.3670    95.7260    24.7970     2.1760 
  222.8750   -18.5900    63.4340   126.8590   122.2420    94.5950    24.7690     2.1870 
  223.0000   -18.4920    59.7520   122.5040   118.1750   110.0210    24.7320     2.1940 
  223.1250   -18.3810    54.9400   118.0480   114.3350   124.1040    24.6710     2.1960 
  223.2500   -18.3070    53.7590   111.1660   108.1640   121.5940    24.6170     2.1960 
  223.3750   -18.2230    57.2730   102.5220   100.0120   109.6370    24.5740     2.1980 
  223.5000   -18.1520    62.2570    94.5580    92.0470    94.9670    24.5400     2.2030 
  223.6250   -18.1530    64.5520    90.7970    87.5640    78.9020    24.5040     2.2120 
