~V
VERS. 2.00: Ver 2.00
~W
STRT.M 60.0000:
STOP.M 279.0000:
STEP.M 0.1250:
NULL. -999.2500:
UWI. F11060:
~C
DEPT.M :
GR.API :
RML.OHMM :
RI. :
RXO.OHMM :
CALI.CM :
DEN.GM/CC :
SP.MV :
~A
   60.0000    40.2930     0.4050     0.4030     0.2960    24.9700     2.1840   102.3950 
   60.1250    42.3170     0.3890     0.3910     0.2930    24.8400     2.1870   102.1590 
   60.2500    40.2540     0.3760     0.3580     0.3120    24.7120     2.1830   101.9050 
   60.3750    36.7400     0.3790     0.3450     0.3480    24.6230     2.1780   101.7380 
   60.5000    35.1380     0.4210     0.3510     0.3800    24.6030     2.1750   101.6540 
   60.6250    36.3170     0.4270     0.3500     0.3580    24.6030     2.1740   101.5960 
   60.7500    38.1230     0.4150     0.3280     0.3310    24.6440     2.1710   101.5360 
   60.8750    39.0640     0.3770     0.3040     0.2730    24.7490     2.1700   101.4530 
   61.0000    38.7500     0.3370     0.3080     0.2470    24.9200     2.1730   101.3580 
   61.1250    38.4560     0.3210     0.3170     0.2370    25.0420     2.1800   101.3120 
   61.2500    38.5690     0.3110     0.3240     0.2340    25.0600     2.1880   101.1640 
   61.3750    38.7800     0.3080     0.3290     0.2360    25.0630     2.1960   100.9170 
   61.5000    39.9580     0.3090     0.3250     0.2410    25.0650     2.2070   100.6720 
   61.6250    41.8090     0.3110     0.3120     0.2490    25.0300     2.2230   100.4420 
   61.7500    42.6470     0.3140     0.2910     0.2540    24.9400     2.2340   100.1240 
   61.8750    41.9100     0.3200     0.2810     0.2520    24.8190     2.2340    99.6870 
   62.0000    40.1130     0.3440     0.2810     0.2450    24.7050     2.2210    99.1250 
   62.1250    39.4610     0.3520     0.2850     0.2400    24.5910     2.2010    98.4390 
   62.2500    40.6880     0.3530     0.2870     0.2360    24.4560     2.1790    97.6590 
   62.3750    42.5330     0.3290     0.2790     0.2380    24.3010     2.1620    96.6360 
   62.5000    44.7350     0.3110     0.2690     0.2470    24.0820     2.1540    95.2530 
   62.6250    47.3400     0.2910     0.2640     0.2620    23.8410     2.1550    93.5200 
   62.7500    50.0960     0.2730     0.2640     0.2470    23.5950     2.1580    91.4860 
   62.8750    52.0150     0.2690     0.2670     0.2280    23.3460     2.1700    89.0160 
   63.0000    53.7580     0.2730     0.2640     0.2180    23.1120     2.2020    86.0710 
   63.1250    55.2170     0.2830     0.2610     0.2160    22.9540     2.2580    82.5280 
   63.2500    53.8250     0.2830     0.2510     0.2170    22.9740     2.3310    78.4520 
   63.3750    50.8140     0.2750     0.2370     0.2210    23.1040     2.4170    73.8360 
   63.5000    50.7530     0.2370     0.2300     0.2210    23.2640     2.5090    68.5570 
   63.6250    55.8790     0.2330     0.1750     0.2130    23.3410     2.5700    62.3680 
   63.7500    61.1830     0.2240     0.0470     0.2440    23.3780     2.5670    55.5800 
   63.8750    63.9760     0.2300     0.0780     1.2900    23.3210     2.4980    48.3940 
   64.0000    66.0970     0.3010     0.1950     2.3190    23.2510     2.3930    40.9420 
   64.1250    69.2160     1.0080     0.5030     4.4860    23.3690     2.3000    33.5730 
   64.2500    71.6770     1.9320     1.1290     6.9160    23.5900     2.2490    26.5430 
   64.3750    71.9980     3.4010     2.2090     9.1150    23.7730     2.2410    20.0070 
   64.5000    69.8080     5.1910     3.7030    11.7540    23.8570     2.2580    14.1760 
   64.6250    68.6160     6.4420     5.1630    10.9340    23.8530     2.2780     9.3370 
   64.7500    70.1410     6.8050     6.1010     9.4340    23.9260     2.2780     5.3860 
   64.8750    72.2480     6.6320     6.4690     8.6290    24.0810     2.2400     2.3500 
   65.0000    71.6850     6.3490     6.4750     8.6050    24.2110     2.1780     0.1050 
   65.1250    69.1760     6.1670     6.3370     8.4800    24.2800     2.1330    -1.5710 
   65.2500    69.1810     6.0930     6.2180     8.1280    24.3750     2.1180    -2.8480 
   65.3750    69.8810     6.1050     6.1660     7.6870    24.5250     2.1210    -3.7440 
   65.5000    68.5310     6.1770     6.1830     7.3470    24.6190     2.1300    -4.3040 
   65.6250    66.6230     6.3080     6.2540     7.2770    24.6560     2.1380    -4.5950 
   65.7500    66.7010     6.5150     6.3700     7.5750    24.7730     2.1390    -4.7390 
   65.8750    67.3000     6.8100     6.5460     7.6040    24.9500     2.1330    -4.7460 
   66.0000    67.6750     7.1540     6.7650     7.3020    24.9490     2.1270    -4.6180 
   66.1250    69.5920     7.4130     6.9510     7.0740    24.6590     2.1310    -4.4130 
   66.2500    73.2970     7.4660     6.9940     7.5020    24.4240     2.1470    -4.1860 
   66.3750    76.9180     7.2590     6.8120     7.9280    24.3380     2.1730    -3.9370 
   66.5000    80.4390     6.8510     6.4180     7.2660    24.2770     2.2020    -3.6500 
   66.6250    85.9710     6.4230     5.9370     5.8370    24.1950     2.2250    -3.3150 
   66.7500    93.2010     6.1500     5.5450     5.2440    24.0800     2.2340    -3.0810 
   66.8750    98.7910     6.0990     5.3280     5.2130    23.9600     2.2280    -2.9890 
   67.0000   100.2580     6.2600     5.3070     5.5670    23.8670     2.2160    -3.0000 
   67.1250    97.1560     6.5530     5.4540     6.1610    23.8210     2.2070    -3.1290 
   67.2500    92.0690     6.7960     5.6270     6.6190    23.7960     2.2060    -3.3640 
   67.3750    86.9890     6.8570     5.7130     6.5320    23.7850     2.2090    -3.6870 
   67.5000    84.4060     6.7040     5.6570     6.4420    23.8360     2.2120    -4.0890 
   67.6250    84.9570     6.4310     5.4860     6.3830    23.9670     2.2100    -4.5400 
   67.7500    87.7670     6.2460     5.3350     6.1850    24.1700     2.2060    -4.9510 
   67.8750    90.3060     6.2970     5.3240     5.7080    24.3460     2.2060    -5.4400 
   68.0000    90.6090     6.6570     5.5310     5.7820    24.4430     2.2100    -5.9960 
   68.1250    85.1380     7.3380     5.9890     7.0680    24.4550     2.2150    -6.5000 
   68.2500    77.4840     8.1250     6.5590     9.1000    24.2330     2.2340    -7.0410 
   68.3750    72.4030     8.7620     7.0790    10.9780    23.7790     2.2670    -7.6230 
   68.5000    71.0670     8.9850     7.3770    10.5990    23.3870     2.2890    -8.2140 
   68.6250    72.1330     8.6590     7.3200     8.8500    23.2630     2.2640    -8.7730 
   68.7500    72.7880     8.1270     7.0470     8.0430    23.2660     2.2170    -9.2590 
   68.8750    72.5740     7.6910     6.7130     7.6730    23.3370     2.1810    -9.6530 
   69.0000    72.1020     7.5300     6.4490     7.4270    23.5440     2.1610   -10.0350 
   69.1250    72.6310     7.6960     6.3370     7.2980    23.7860     2.1510   -10.3690 
   69.2500    73.4780     8.0070     6.3450     7.2500    23.9270     2.1440   -10.5950 
   69.3750    72.5960     8.3100     6.4300     7.4110    23.9780     2.1420   -10.8120 
   69.5000    68.4070     8.4990     6.5380     7.7990    23.9820     2.1430   -11.0880 
   69.6250    64.4630     8.5450     6.6220     7.9850    23.9560     2.1460   -11.3870 
   69.7500    64.6600     8.5320     6.6710     7.6930    23.9330     2.1510   -11.6570 
   69.8750    66.7260     8.5310     6.7080     7.5240    23.9510     2.1560   -11.8250 
   70.0000    67.6990     8.5850     6.7580     7.6910    23.9920     2.1620   -11.9260 
   70.1250    66.7540     8.7060     6.8390     7.8810    24.0230     2.1720   -12.0400 
   70.2500    65.8820     8.8640     6.9410     8.0460    24.0540     2.1790   -12.0620 
   70.3750    65.5740     9.0350     7.0470     8.1690    24.0860     2.1770   -11.9740 
   70.5000    65.5290     9.1810     7.1280     8.2260    24.1260     2.1650   -11.8190 
   70.6250    67.2060     9.2090     7.1170     8.1520    24.1260     2.1570   -11.6260 
   70.7500    70.5320     9.0480     6.9710     8.1910    24.1100     2.1620   -11.3990 
   70.8750    74.4100     8.6850     6.6770     8.2630    24.1270     2.1760   -11.1410 
   71.0000    79.2880     8.1930     6.2840     7.9770    24.1660     2.1980   -10.8330 
   71.1250    86.0820     7.7270     5.8990     6.8170    24.2060     2.2230   -10.5630 
