~V
VERS. 2.00: Ver 2.00
~W
STRT.M 59.0000:
STOP.M 291.0000:
STEP.M 0.1250:
NULL. -999.2500:
UWI. F11077:
~C
DEPT.M :
DEN.GM/CC :
GR.API :
RML.OHMM :
RI. :
RXO.OHMM :
CALI.CM :
SP.MV :
~A
# ...
  227.7500     2.2410    63.3880    16.9930    15.5890    18.0810    24.7560   -22.4780 
  227.8750     2.2090    63.7560    17.0210    15.7320    18.7560    24.9330   -22.5040 
  228.0000     2.1870    64.2740    17.0260    15.8430    18.8960    24.9980   -22.4080 
  228.1250     2.1750    65.6490    17.0890    15.9820    17.6320    24.9510   -22.2480 
  228.2500     2.1730    66.9110    17.2630    16.1950    16.8480    24.9190   -22.0820 
  228.3750     2.1790    67.1290    17.5300    16.4670    17.7640    24.9470   -21.9380 
  228.5000     2.1920    66.4760    17.7950    16.7180    20.3370    25.0070   -21.8460 
  228.6250     2.2070    64.3260    17.9570    16.8560    23.1380    25.0730   -21.8540 
  228.7500     2.2200    59.5720    17.9140    16.7860    23.3170    25.1210   -21.9590 
  228.8750     2.2280    54.1270    17.6440    16.4780    20.9310    25.0810   -22.1130 
  229.0000     2.2320    51.3340    17.2390    16.0180    19.2230    24.8810   -22.2940 
  229.1250     2.2280    51.9040    16.7890    15.4980    18.2230    24.5820   -22.4580 
  229.2500     2.2160    54.0210    16.3450    14.9980    17.6770    24.4110   -22.5800 
  229.3750     2.1990    55.3510    15.9260    14.5650    17.7070    24.4960   -22.6910 
  229.5000     2.1840    55.2720    15.6040    14.2630    18.0120    24.6770   -22.7990 
  229.6250     2.1840    55.1340    15.5900    14.2370    18.0880    24.6890   -22.8900 
  229.7500     2.2060    56.4820    16.3070    14.7760    18.2070    24.4560   -22.9660 
  229.8750     2.2460    57.9510    18.2500    16.2350    18.8130    24.2230   -23.0540 
  230.0000     2.2970    57.1590    21.6900    18.8870    21.2960    24.1930   -23.1810 
  230.1250     2.3520    55.0870    26.5830    22.8700    29.6110    24.3480   -23.3300 
  230.2500     2.4000    53.9980    31.8930    27.5770    41.7700    24.5260   -23.4710 
  230.3750     2.4330    53.1050    35.3520    31.1490    48.8070    24.5260   -23.5890 
  230.5000     2.4430    50.7690    34.8900    31.4860    51.9980    24.4260   -23.6310 
  230.6250     2.4230    49.1390    30.4780    28.2160    50.4070    24.4660   -23.5900 
  230.7500     2.3780    50.2840    24.3240    23.1220    39.1250    24.7310   -23.4590 
  230.8750     2.3260    52.4120    18.9970    18.4900    24.2470    25.0650   -23.2590 
  231.0000     2.2850    52.9580    15.5940    15.3590    15.9000    25.2520   -23.0500 
  231.1250     2.2720    53.0400    14.0700    13.7290    13.0970    25.3080   -22.8610 
  231.2500     2.2880    54.0980    14.0570    13.3690    14.0580    25.3130   -22.7030 
  231.3750     2.3230    56.1450    14.9450    13.8890    17.7980    25.2980   -22.5680 
  231.5000     2.3580    58.9620    15.8870    14.6490    20.3180    25.2490   -22.4540 
  231.6250     2.3770    62.1340    16.2560    15.0750    18.9600    25.1700   -22.3540 
  231.7500     2.3730    64.5270    15.7420    14.7760    15.8770    25.0900   -22.2580 
  231.8750     2.3530    65.7160    14.5990    13.8670    12.9960    25.0350   -22.1670 
  232.0000     2.3290    66.8790    13.4360    12.8460    11.3080    25.0170   -22.0370 
  232.1250     2.3140    68.8130    12.6280    12.0420    10.8650    25.0270   -21.8670 
  232.2500     2.3120    71.4810    12.3110    11.6080    11.0790    25.0490   -21.6710 
  232.3750     2.3170    73.7100    12.3790    11.5080    11.5530    25.0740   -21.4620 
  232.5000     2.3210    74.3810    12.5770    11.5590    11.9830    25.1020   -21.2450 
  232.6250     2.3190    73.9070    12.7200    11.6070    12.0010    25.1020   -21.0540 
  232.7500     2.3130    73.7000    12.6990    11.5420    11.4920    25.0590   -20.9630 
  232.8750     2.3110    74.9510    12.5230    11.3540    10.7510    25.0110   -21.0170 
  233.0000     2.3160    78.3590    12.2960    11.1220    10.1240    24.9860   -21.1660 
  233.1250     2.3210    82.1310    12.1160    10.9230     9.7250    24.9630   -21.3500 
  233.2500     2.3180    81.7750    12.0590    10.8230     9.9880    24.9210   -21.5820 
  233.3750     2.3070    76.9160    12.1500    10.8450    10.7490    24.8650   -21.8520 
  233.5000     2.2930    73.4670    12.3440    10.9550    11.1650    24.7840   -22.1450 
  233.6250     2.2860    74.5860    12.5910    11.1110    11.5770    24.6170   -22.4360 
  233.7500     2.2920    76.1290    12.8250    11.2640    11.8780    24.4060   -22.6270 
  233.8750     2.3050    73.7950    12.9880    11.3730    12.0800    24.3130   -22.6290 
  234.0000     2.3170    70.4170    13.0660    11.4250    12.2520    24.3790   -22.5390 
  234.1250     2.3230    69.8420    13.0790    11.4330    12.1930    24.5480   -22.4420 
  234.2500     2.3210    71.0490    13.0620    11.4170    11.9640    24.8080   -22.3300 
  234.3750     2.3110    70.7870    13.0590    11.4040    11.9790    25.0500   -22.2070 
  234.5000     2.2990    69.8240    13.0920    11.4120    12.4240    25.1370   -22.1030 
  234.6250     2.2870    69.7500    13.1510    11.4410    13.0340    25.0950   -22.0390 
  234.7500     2.2810    69.8890    13.2080    11.4730    13.5230    25.0230   -22.0670 
  234.8750     2.2790    70.5230    13.2330    11.4860    13.9790    25.0440   -22.2260 
  235.0000     2.2820    73.1490    13.2200    11.4740    14.1780    25.1620   -22.4420 
  235.1250     2.2880    75.2060    13.1930    11.4540    13.7280    25.2660   -22.6800 
  235.2500     2.2970    74.0300    13.2040    11.4580    13.1990    25.2780   -22.9120 
  235.3750     2.3070    71.5890    13.2910    11.5170    13.1860    25.2140   -23.1210 
  235.5000     2.3160    69.8430    13.4470    11.6310    13.8440    25.1320   -23.2910 
  235.6250     2.3200    67.7820    13.6390    11.7780    15.0910    25.0650   -23.4150 
  235.7500     2.3200    66.9740    13.8070    11.9180    16.0160    25.0160   -23.4780 
  235.8750     2.3190    69.6260    13.8960    12.0070    15.6800    24.9920   -23.4750 
  236.0000     2.3180    72.9650    13.8970    12.0300    14.8130    24.9970   -23.4490 
  236.1250     2.3210    74.5010    13.8310    12.0010    14.1570    24.9960   -23.3860 
  236.2500     2.3250    75.3000    13.7410    11.9490    13.7580    24.9970   -23.3280 
  236.3750     2.3280    76.3530    13.6680    11.9140    13.5390    25.0540   -23.3180 
  236.5000     2.3300    76.5170    13.6290    11.9190    13.4210    25.1380   -23.3470 
  236.6250     2.3310    75.7400    13.6180    11.9680    13.3350    25.1760   -23.4060 
  236.7500     2.3280    75.4910    13.6350    12.0600    13.3910    25.1900   -23.5070 
  236.8750     2.3210    75.4150    13.6960    12.1970    13.6150    25.2160   -23.6150 
  237.0000     2.3110    73.5470    13.8250    12.3790    13.6590    25.2460   -23.7000 
  237.1250     2.3000    68.7180    14.0390    12.6050    13.4900    25.2560   -23.7760 
  237.2500     2.2920    63.2930    14.3290    12.8530    13.3340    25.2640   -23.8230 
  237.3750     2.2880    62.0550    14.6440    13.0790    13.4560    25.2670   -23.8110 
  237.5000     2.2870    65.7880    14.9020    13.2290    13.8520    25.2500   -23.7440 
  237.6250     2.2890    69.8610    15.0410    13.2580    14.1000    25.2190   -23.6230 
  237.7500     2.2910    69.6110    15.0260    13.1460    13.8940    25.1940   -23.4150 
  237.8750     2.2940    66.8270    14.8850    12.9330    13.5120    25.1850   -23.1120 
  238.0000     2.2970    66.8400    14.7080    12.7130    13.3770    25.1830   -22.6880 
  238.1250     2.3010    70.3430    14.5970    12.5840    13.5340    25.1850   -22.1220 
  238.2500     2.3100    73.4360    14.7640    12.7120    13.9110    25.1950   -21.3550 
  238.3750     2.3300    72.4510    15.5920    13.3470    14.3850    25.2080   -20.3720 
  238.5000     2.3710    68.0550    17.6290    14.8440    14.8240    25.2000   -19.2000 
  238.6250     2.4390    64.0990    21.6590    17.8370    15.6750    25.1610   -17.8290 
  238.7500     2.5310    64.2950    28.7090    23.3680    19.3950    25.1350   -16.2680 
  238.8750     2.6280    67.0790    38.7160    31.6970    33.8570    25.1690   -14.5690 
