~V
VERS. 2.00: Ver 2.00
~W
STRT.M 55.0000:
STOP.M 275.0000:
STEP.M 0.1250:
NULL. -999.2500:
UWI. F11036:
~C
DEPT.M :
GR.API :
RML.OHMM :
RI. :
RXO.OHMM :
CALI.CM :
DEN.GM/CC :
SP.MV :
~A
# ...
  122.5000    80.7800     8.4730     7.5660     7.9010    23.3450     2.2640   -19.4960 
  122.6250    86.0140     7.6160     6.8460     7.3780    23.3680     2.2680   -18.9720 
  122.7500    89.9540     7.0580     6.3560     6.6440    23.3210     2.2640   -18.5290 
  122.8750    89.4060     6.8580     6.1530     6.3060    23.3000     2.2550   -18.2300 
  123.0000    86.9870     7.0110     6.2530     6.6170    23.3260     2.2450   -18.0830 
  123.1250    84.8680     7.4720     6.6620     7.4720    23.3110     2.2350   -18.1560 
  123.2500    82.3350     8.0440     7.2390     8.5640    23.2950     2.2260   -18.4470 
  123.3750    78.0050     8.5770     7.8570     9.6390    23.3210     2.2180   -18.9130 
  123.5000    73.3300     8.9430     8.3760     9.9180    23.4060     2.2120   -19.4270 
  123.6250    71.1420     9.0230     8.6390     9.7270    23.4720     2.2160   -19.7070 
  123.7500    71.2470     8.8480     8.6320     9.4180    23.5380     2.2280   -19.5940 
  123.8750    72.9140     8.4600     8.3740     9.4630    23.5920     2.2460   -19.1050 
  124.0000    75.6230     7.9330     7.9280     9.1790    23.6290     2.2620   -18.3490 
  124.1250    81.4530     7.3750     7.3890     7.9470    23.6570     2.2700   -17.4020 
  124.2500    88.3150     6.8940     6.8840     6.5310    23.7620     2.2720   -16.3600 
  124.3750    90.8400     6.5380     6.4750     5.8160    23.9720     2.2740   -15.2630 
  124.5000    87.9230     6.3050     6.1750     5.6770    24.0960     2.2800   -14.1670 
  124.6250    87.3130     6.1660     5.9730     5.7780    24.1600     2.2880   -13.2260 
  124.7500    91.8170     6.0850     5.8360     5.8740    24.2370     2.2940   -12.5360 
  124.8750    94.9320     6.0950     5.7750     5.8850    24.3370     2.3020   -12.0890 
  125.0000    91.0390     6.2740     5.8460     5.7470    24.3850     2.3200   -11.7970 
  125.1250    81.8340     6.7500     6.1520     5.8190    24.3310     2.3540   -11.5710 
  125.2500    74.9650     7.4760     6.6930     6.5390    24.1980     2.3980   -11.3390 
  125.3750    69.9720     8.3370     7.4180     7.8100    24.0870     2.4430   -11.1020 
  125.5000    65.5240     9.1480     8.1940     9.8110    23.9460     2.4840   -10.9100 
  125.6250    63.9170     9.7220     8.8100    11.2640    23.8320     2.5190   -10.7870 
  125.7500    64.0090    10.1400     9.2420    11.2470    23.8920     2.5550   -10.6880 
  125.8750    63.5570    10.6350     9.6440    10.6590    24.0520     2.5900   -10.5760 
  126.0000    61.4440    11.4910    10.2510    10.4210    24.1700     2.6190   -10.4480 
  126.1250    60.0710    13.0850    11.3820    11.8110    24.1080     2.6350   -10.3640 
  126.2500    59.0980    15.4060    13.0910    13.6650    23.8800     2.6390   -10.3730 
  126.3750    58.0830    18.1620    15.2820    16.5920    23.7190     2.6370   -10.4620 
  126.5000    57.3540    20.7500    17.5880    17.9990    23.6730     2.6320   -10.5670 
  126.6250    56.9040    22.4210    19.3490    17.4470    23.6790     2.6280   -10.6280 
  126.7500    57.0810    23.1700    20.3100    18.0130    23.6620     2.6250   -10.6740 
  126.8750    58.0910    23.2620    20.5840    18.8130    23.6000     2.6220   -10.7510 
  127.0000    58.6790    23.0580    20.5010    18.2410    23.5360     2.6200   -10.8940 
  127.1250    57.5800    22.9280    20.4230    18.0400    23.5480     2.6220   -11.0750 
  127.2500    54.9720    23.0180    20.5250    18.1090    23.7110     2.6230   -11.2230 
  127.3750    51.9810    23.3060    20.7940    19.7320    24.0570     2.6220   -11.3210 
  127.5000    50.5580    23.7080    21.1650    21.3200    24.3540     2.6200   -11.3780 
  127.6250    51.6310    24.1530    21.5890    20.9420    24.5960     2.6170   -11.4180 
  127.7500    53.8870    24.6060    22.0330    21.1540    24.6910     2.6150   -11.4310 
  127.8750    56.6030    25.0720    22.4900    22.0360    24.7120     2.6140   -11.3950 
  128.0000    58.9640    25.5480    22.9570    22.9410    24.7040     2.6110   -11.3280 
  128.1250    59.5740    25.9600    23.4050    25.2160    24.7020     2.6080   -11.2680 
  128.2500    57.2160    26.1900    23.7470    26.9590    24.7120     2.6050   -11.2080 
  128.3750    53.4240    26.1250    23.8740    24.6890    24.7330     2.6060   -11.1390 
  128.5000    50.1820    25.7250    23.7250    21.8740    24.7430     2.6100   -11.0880 
  128.6250    50.5640    25.0230    23.3110    20.9040    24.7530     2.6120   -11.0560 
  128.7500    53.8970    24.2110    22.7830    21.9970    24.7480     2.6110   -11.0210 
  128.8750    58.1790    23.4230    22.2470    21.6240    24.7360     2.6080   -10.9690 
  129.0000    60.8440    22.7570    21.7820    20.2190    24.7320     2.6050   -10.8710 
  129.1250    59.6580    22.3100    21.4580    19.4310    24.7270     2.6010   -10.7360 
  129.2500    57.2860    22.0550    21.2650    19.7580    24.7100     2.5910   -10.6250 
  129.3750    55.8210    21.8940    21.1620    20.1870    24.6960     2.5700   -10.5640 
  129.5000    55.7420    21.6280    20.9860    20.5970    24.6810     2.5400   -10.5230 
  129.6250    55.6850    20.9530    20.3940    20.7040    24.6530     2.5090   -10.4990 
  129.7500    56.1770    19.8790    19.3520    20.6680    24.6290     2.4910   -10.5370 
  129.8750    57.1640    18.6380    18.0940    19.6690    24.6100     2.4950   -10.6700 
  130.0000    58.5640    17.6360    17.0130    16.3130    24.6570     2.5190   -10.8680 
  130.1250    61.6550    17.4040    16.5900    12.8620    24.7140     2.5510   -11.0950 
  130.2500    63.8200    17.9880    16.9100    12.6270    24.7320     2.5740   -11.2950 
  130.3750    61.5410    19.2200    17.9000    17.0920    24.7160     2.5830   -11.4460 
  130.5000    55.8950    20.7240    19.2910    22.0210    24.7050     2.5800   -11.5550 
  130.6250    52.4990    21.9790    20.6190    22.8450    24.7030     2.5730   -11.6280 
  130.7500    52.3360    22.7280    21.4970    20.7880    24.7020     2.5680   -11.6440 
  130.8750    54.2300    22.9990    21.8500    18.7870    24.7030     2.5660   -11.5970 
  131.0000    56.7190    23.0000    21.8790    18.3510    24.7050     2.5640   -11.5480 
  131.1250    57.6470    22.9240    21.8410    20.2170    24.6990     2.5600   -11.5560 
  131.2500    57.5620    22.7970    21.7710    22.5000    24.6630     2.5550   -11.6220 
  131.3750    57.0180    22.5420    21.5620    22.1970    24.6130     2.5550   -11.7500 
  131.5000    56.6280    22.1350    21.1810    21.5780    24.5220     2.5600   -11.9710 
  131.6250    58.0090    21.6680    20.7040    19.7490    24.3780     2.5680   -12.2650 
  131.7500    60.3600    21.2900    20.2770    18.5040    24.2400     2.5720   -12.5830 
  131.8750    60.9050    21.0500    19.9810    18.1860    24.2050     2.5650   -12.9110 
  132.0000    59.2520    20.8880    19.7910    20.0690    24.2690     2.5470   -13.2260 
  132.1250    57.5180    20.6580    19.5710    20.8030    24.2200     2.5230   -13.4720 
  132.2500    57.1170    20.2930    19.2380    18.5510    24.1500     2.5030   -13.6470 
  132.3750    58.1680    19.8360    18.8360    16.8070    24.1060     2.4940   -13.7500 
  132.5000    60.3890    19.3850    18.4490    16.9670    24.1120     2.4990   -13.7390 
  132.6250    61.2080    19.0680    18.1770    16.5480    24.1860     2.5190   -13.6650 
  132.7500    60.0050    18.9320    18.0660    17.3250    24.3300     2.5420   -13.6040 
  132.8750    59.0280    19.0170    18.1500    18.4470    24.4360     2.5600   -13.5290 
  133.0000    59.6380    19.3590    18.4510    19.0400    24.4000     2.5670   -13.4150 
  133.1250    59.5690    20.0310    19.0360    17.6120    24.3330     2.5600   -13.2350 
  133.2500    58.8580    20.9220    19.8460    16.8880    24.3060     2.5470   -13.0280 
  133.3750    57.7960    21.8320    20.7390    18.4120    24.2480     2.5350   -12.8260 
  133.5000    57.3560    22.4590    21.4460    22.0790    24.2690     2.5320   -12.6600 
  133.6250    59.3560    22.4160    21.5670    22.5590    24.4090     2.5400   -12.5070 
