~V
VERS. 2.00: Ver 2.00
~W
STRT.M 55.0000:
STOP.M 275.0000:
STEP.M 0.1250:
NULL. -999.2500:
UWI. F11036:
~C
DEPT.M :
GR.API :
RML.OHMM :
RI. :
RXO.OHMM :
CALI.CM :
DEN.GM/CC :
SP.MV :
~A
# ...
  156.2500    71.3700    61.5360    61.9770    83.0580    25.2460     2.2570   -18.7480 
  156.3750    73.9810    53.3310    53.8190    76.0110    25.2690     2.2760   -18.5280 
  156.5000    78.2390    43.0450    42.9290    53.2940    25.2330     2.2920   -18.3400 
  156.6250    82.7930    33.1720    32.5960    31.6260    25.0870     2.3000   -18.1230 
  156.7500    86.2110    25.5850    24.9680    20.5470    24.8540     2.3000   -17.8430 
  156.8750    87.0670    20.7850    20.2800    17.2830    24.5980     2.2930   -17.5680 
  157.0000    86.4510    18.5400    18.0070    17.1240    24.3680     2.2820   -17.3340 
  157.1250    85.6660    18.6690    17.8550    17.4300    24.2720     2.2700   -17.1650 
  157.2500    85.1320    20.3020    19.1640    19.9470    24.3660     2.2640   -17.0580 
  157.3750    83.7650    22.8590    21.5900    24.5560    24.6950     2.2630   -16.9700 
  157.5000    82.5260    25.5540    24.4860    29.1460    25.0610     2.2660   -16.8720 
  157.6250    81.4700    27.2270    26.5900    31.8630    25.2560     2.2710   -16.7870 
  157.7500    78.2630    27.3280    27.0130    31.5780    25.2790     2.2760   -16.7280 
  157.8750    74.5930    25.8710    25.6560    28.8570    25.2200     2.2790   -16.6690 
  158.0000    74.6210    23.4120    23.1720    25.2720    25.1590     2.2810   -16.6080 
  158.1250    78.8630    20.8020    20.5340    21.0100    25.1340     2.2840   -16.5400 
  158.2500    82.3370    18.7080    18.4000    18.5880    25.1370     2.2870   -16.4820 
  158.3750    83.8530    17.3450    16.9460    17.6640    25.1410     2.2900   -16.4320 
  158.5000    85.7430    16.6780    16.1460    17.5490    25.1430     2.2900   -16.3910 
  158.6250    88.3110    16.5770    15.9200    17.5540    25.1540     2.2890   -16.3490 
  158.7500    88.6240    16.6970    15.9630    17.6620    25.1650     2.2880   -16.2950 
  158.8750    86.6020    16.8330    16.0790    17.9330    25.1480     2.2900   -16.2500 
  159.0000    84.7260    16.8430    16.1170    18.2320    25.0930     2.2940   -16.2040 
  159.1250    84.4890    16.6310    15.9600    17.9560    24.9960     2.3010   -16.1550 
  159.2500    83.8370    16.2400    15.6280    17.3810    24.8920     2.3050   -16.0810 
  159.3750    84.7370    15.7270    15.1570    16.8460    24.8400     2.3100   -15.9850 
  159.5000    89.3230    15.1680    14.6100    16.1830    24.8420     2.3180   -15.8920 
  159.6250    94.9260    14.6520    14.0620    15.0360    24.8640     2.3310   -15.8080 
  159.7500    96.3110    14.2260    13.5740    13.7740    24.8710     2.3470   -15.7240 
  159.8750    94.6460    13.8910    13.1640    13.4450    24.8840     2.3580   -15.6490 
  160.0000    91.8180    13.6140    12.8160    13.7230    24.8970     2.3570   -15.6100 
  160.1250    90.5710    13.3450    12.4980    13.8580    24.8560     2.3440   -15.5970 
  160.2500    91.0810    13.0660    12.1870    13.1620    24.8000     2.3280   -15.6240 
  160.3750    91.5200    12.8150    11.9020    12.3740    24.7730     2.3170   -15.7000 
  160.5000    90.6660    12.6730    11.7030    11.6820    24.7770     2.3140   -15.8000 
  160.6250    89.7790    12.7830    11.7120    11.5810    24.7910     2.3160   -15.9100 
  160.7500    91.3840    13.1710    11.9700    12.0640    24.7930     2.3200   -16.0170 
  160.8750    93.7540    13.8100    12.4720    12.7050    24.8030     2.3210   -16.1110 
  161.0000    93.2470    14.6030    13.1540    13.3640    24.8130     2.3190   -16.1750 
  161.1250    90.8580    15.3830    13.8750    14.2820    24.8110     2.3140   -16.2000 
  161.2500    89.5290    15.9880    14.4590    14.9330    24.7980     2.3100   -16.2070 
  161.3750    89.2250    16.3320    14.8010    15.2330    24.7910     2.3080   -16.1970 
  161.5000    89.4380    16.4070    14.8730    15.3090    24.8070     2.3100   -16.1860 
  161.6250    90.5710    16.2640    14.7130    15.2410    24.8480     2.3160   -16.2000 
  161.7500    91.5880    16.0670    14.4780    15.1560    24.9120     2.3220   -16.2240 
  161.8750    90.8230    15.9270    14.2690    14.6880    24.9840     2.3250   -16.2570 
  162.0000    89.3750    15.9220    14.1540    14.1630    25.0340     2.3220   -16.3040 
  162.1250    87.2140    16.1170    14.1820    14.0300    25.0330     2.3150   -16.3830 
  162.2500    83.2850    16.4610    14.3280    14.0990    25.0290     2.3060   -16.4890 
  162.3750    82.5310    16.8930    14.5580    14.1520    25.0330     2.2990   -16.6040 
  162.5000    86.8360    17.3190    14.8150    14.4830    25.0490     2.2960   -16.7210 
  162.6250    88.3900    17.6200    15.0110    14.8780    25.0670     2.2970   -16.8260 
  162.7500    85.3500    17.7750    15.1060    15.3290    25.0600     2.3000   -16.9240 
  162.8750    83.6820    17.8580    15.1390    15.0780    25.0230     2.3040   -16.9780 
  163.0000    84.5790    18.0550    15.2460    14.1270    24.9670     2.3050   -17.0130 
  163.1250    82.1890    18.7180    15.7030    13.5190    24.8730     2.3020   -17.0680 
  163.2500    80.0680    20.0330    16.6720    13.7390    24.7220     2.2980   -17.1110 
  163.3750    80.7640    22.0850    18.2740    15.2940    24.6200     2.2970   -17.1630 
  163.5000    80.1450    24.7540    20.5060    18.9790    24.6220     2.2990   -17.2330 
  163.6250    76.7490    27.5970    23.1460    21.8590    24.6980     2.2990   -17.3270 
  163.7500    74.8110    29.8490    25.5260    22.7110    24.7560     2.2930   -17.4240 
  163.8750    72.0620    30.8170    26.9170    22.7560    24.7820     2.2820   -17.5520 
  164.0000    67.9520    30.0610    26.7070    23.1310    24.8000     2.2740   -17.6750 
  164.1250    66.6510    27.4300    24.5700    23.3590    24.8020     2.2760   -17.7370 
  164.2500    70.3360    23.8980    21.4950    21.9750    24.8010     2.2870   -17.7430 
  164.3750    75.5880    20.2880    18.3300    18.1100    24.7920     2.3000   -17.7170 
  164.5000    80.8370    17.2780    15.6870    13.4220    24.7510     2.3100   -17.6730 
  164.6250    87.4380    15.4320    14.0010    11.4440    24.7100     2.3120   -17.6100 
  164.7500    92.7250    14.6110    13.1500    11.5250    24.7030     2.3100   -17.5380 
  164.8750    93.0210    14.6030    13.0110    12.4810    24.7020     2.3040   -17.4660 
  165.0000    89.1010    15.0680    13.3780    13.8720    24.6470     2.2990   -17.4090 
  165.1250    85.9890    15.5800    13.9460    16.8210    24.5660     2.2980   -17.3680 
  165.2500    85.7060    15.8010    14.3240    21.5010    24.5880     2.3020   -17.3630 
  165.3750    85.2970    15.6430    14.3380    24.7540    24.6950     2.3100   -17.3850 
  165.5000    84.9780    15.2320    14.0550    25.4530    24.7920     2.3160   -17.4250 
  165.6250    87.8220    14.8890    13.7430    24.2370    24.8420     2.3140   -17.4860 
  165.7500    90.1730    14.9170    13.6840    24.3210    24.8790     2.3040   -17.5560 
  165.8750    88.8140    15.4800    14.0330    26.8190    24.9280     2.2910   -17.6040 
  166.0000    86.2180    16.6000    14.8490    31.5710    24.9690     2.2810   -17.6150 
  166.1250    85.2860    18.1490    16.1130    38.7750    24.9980     2.2780   -17.6110 
  166.2500    83.4670    19.6950    17.4810    45.4860    25.0100     2.2830   -17.5730 
  166.3750    81.3360    20.8580    18.5840    50.5590    25.0140     2.2940   -17.4810 
  166.5000    81.2360    21.3760    19.1130    50.0370    25.0140     2.3050   -17.3450 
  166.6250    83.6790    21.1790    18.9270    46.0880    25.0220     2.3130   -17.1620 
  166.7500    88.9060    20.7750    18.4600    39.6810    25.0400     2.3140   -16.9820 
  166.8750    95.7470    20.7250    18.1880    34.3940    25.0620     2.3090   -16.8470 
  167.0000    99.3300    21.5930    18.5660    32.3710    25.0770     2.3000   -16.7930 
  167.1250    94.4670    24.0300    20.1610    32.9660    25.0810     2.2880   -16.8380 
  167.2500    87.3440    27.7980    23.0170    34.1220    25.0820     2.2750   -16.9900 
  167.3750    82.6170    32.2950    26.9590    40.4870    25.0820     2.2660   -17.2410 
