~V
VERS. 2.00: Ver 2.00
~W
STRT.M 57.0000:
STOP.M 283.0000:
STEP.M 0.1250:
NULL. -999.2500:
UWI. F11039:
~C
DEPT.M :
SP.MV :
GR.API :
RML.OHMM :
RI. :
RXO.OHMM :
CALI.CM :
DEN.GM/CC :
~A
# ...
  147.0000    -4.5920    46.9350    21.2020    19.5470    24.7020    24.5160     2.5420 
  147.1250    -4.7500    47.9260    20.7630    18.9860    22.1100    24.5130     2.5400 
  147.2500    -4.8920    49.8410    20.5620    18.6230    21.3430    24.5300     2.5390 
  147.3750    -5.0300    48.9980    20.6230    18.5270    21.9050    24.5580     2.5410 
  147.5000    -5.1650    45.9160    20.8320    18.6180    22.0210    24.5550     2.5440 
  147.6250    -5.3040    44.1900    21.0880    18.8180    21.1890    24.5250     2.5500 
  147.7500    -5.4190    45.4910    21.3060    19.0470    20.8290    24.5280     2.5570 
  147.8750    -5.4970    45.6350    21.4160    19.2320    20.7780    24.5680     2.5640 
  148.0000    -5.5300    44.5020    21.4150    19.3360    20.6670    24.5940     2.5710 
  148.1250    -5.5120    43.5440    21.2830    19.3230    20.6870    24.6190     2.5730 
  148.2500    -5.4640    41.7800    20.9840    19.1430    20.8140    24.6290     2.5720 
  148.3750    -5.4080    39.7670    20.4320    18.7030    20.7200    24.6290     2.5630 
  148.5000    -5.3240    40.2970    19.6550    18.0330    20.1120    24.6630     2.5490 
  148.6250    -5.2040    44.1560    18.7240    17.1990    19.3300    24.7170     2.5300 
  148.7500    -5.0570    49.2830    17.7800    16.3330    18.5720    24.7310     2.5070 
  148.8750    -4.9170    53.0190    17.0470    15.6320    17.1260    24.6710     2.4860 
  149.0000    -4.7980    55.0480    16.6200    15.1860    15.3080    24.5860     2.4720 
  149.1250    -4.6980    54.8060    16.4970    15.0030    14.6900    24.5100     2.4660 
  149.2500    -4.6130    54.0370    16.5860    15.0120    15.5420    24.4680     2.4640 
  149.3750    -4.5190    53.8240    16.7370    15.0940    16.8030    24.4740     2.4640 
  149.5000    -4.4610    53.9480    16.7970    15.1150    17.0350    24.4820     2.4630 
  149.6250    -4.4450    55.0100    16.6860    15.0070    16.5460    24.5050     2.4610 
  149.7500    -4.4620    55.4610    16.3770    14.7530    15.7910    24.4990     2.4620 
  149.8750    -4.4780    54.2060    15.8680    14.3600    15.4400    24.4800     2.4660 
  150.0000    -4.5090    52.6400    15.2520    13.8990    15.8540    24.4950     2.4700 
  150.1250    -4.5720    53.3790    14.6170    13.4290    15.8910    24.5210     2.4730 
  150.2500    -4.6350    55.2520    14.0760    13.0180    14.7940    24.5010     2.4740 
  150.3750    -4.6830    54.5110    13.7890    12.7790    13.9610    24.5190     2.4750 
  150.5000    -4.7370    52.4160    13.8000    12.7560    13.2440    24.5350     2.4770 
  150.6250    -4.7770    49.6550    14.1040    12.9670    13.0040    24.5220     2.4810 
  150.7500    -4.8260    46.1670    14.6290    13.3760    13.7920    24.5040     2.4830 
  150.8750    -4.8890    43.0750    15.2410    13.8980    15.0200    24.4970     2.4840 
  151.0000    -4.9400    42.6250    15.7650    14.3760    15.8050    24.5080     2.4850 
  151.1250    -4.9540    45.1880    16.0790    14.6920    15.9470    24.5010     2.4880 
  151.2500    -4.9810    48.5530    16.1160    14.7690    15.9010    24.4960     2.4940 
  151.3750    -5.0220    52.1790    15.8650    14.5750    16.6340    24.5040     2.5000 
  151.5000    -5.0360    55.0640    15.4970    14.2520    16.9600    24.5420     2.5010 
  151.6250    -5.0460    55.3870    15.1680    13.9330    16.1450    24.6170     2.4980 
  151.7500    -5.0440    53.6610    15.0180    13.7440    15.0590    24.6800     2.4910 
  151.8750    -5.0530    53.2570    15.1500    13.7950    13.8920    24.7210     2.4880 
  152.0000    -5.0350    55.3330    15.4710    14.0380    13.9810    24.7410     2.4910 
  152.1250    -4.9950    56.8940    15.8540    14.3870    13.9150    24.7450     2.4970 
  152.2500    -4.9170    56.5720    16.1600    14.7310    13.6860    24.7340     2.5030 
  152.3750    -4.8060    57.3740    16.2830    14.9600    13.2110    24.7150     2.5030 
  152.5000    -4.7140    60.2340    16.2990    15.0850    12.5740    24.6930     2.5000 
  152.6250    -4.6170    63.1140    16.3100    15.1610    11.7100    24.6600     2.4980 
  152.7500    -4.5100    64.4000    16.3570    15.2190    11.3020    24.6150     2.5020 
  152.8750    -4.3630    63.7050    16.2790    15.1390    11.8970    24.5450     2.5090 
  153.0000    -4.2000    62.3570    15.8180    14.7320    13.3010    24.4360     2.5110 
  153.1250    -4.0460    61.9550    14.8140    13.8590    14.6600    24.2890     2.4990 
  153.2500    -3.9320    63.0400    13.3590    12.5780    15.7480    24.1540     2.4670 
  153.3750    -3.8670    64.6920    11.9080    11.2410    15.3130    24.0940     2.4170 
  153.5000    -3.8260    67.5040    11.0690    10.3070    13.9020    24.1690     2.3630 
  153.6250    -3.8270    71.0990    11.2110    10.0520    12.2650    24.3040     2.3140 
  153.7500    -3.8430    72.5110    12.4750    10.6090    12.1710    24.4120     2.2750 
  153.8750    -3.8750    70.8690    14.8370    12.1100    15.0640    24.4900     2.2490 
  154.0000    -3.9560    70.2810    17.7280    14.2640    18.7100    24.5790     2.2330 
  154.1250    -4.0700    71.1410    20.3860    16.7780    21.6060    24.6750     2.2230 
  154.2500    -4.1860    70.8460    22.6230    19.2360    22.6020    24.7450     2.2180 
  154.3750    -4.3030    67.7660    23.8820    21.0520    24.2940    24.7880     2.2150 
  154.5000    -4.4190    63.8500    24.1860    22.0290    25.9110    24.8030     2.2130 
  154.6250    -4.5080    62.9360    23.7220    22.2190    27.3870    24.7750     2.2130 
  154.7500    -4.5850    67.2530    22.8160    21.8480    27.8700    24.7070     2.2160 
  154.8750    -4.6800    72.4570    21.8270    21.1690    25.7300    24.6310     2.2200 
  155.0000    -4.7570    73.5430    21.0430    20.4810    22.2850    24.5810     2.2240 
  155.1250    -4.8340    71.7490    20.5290    19.8870    20.1350    24.5640     2.2280 
  155.2500    -4.9100    70.2310    20.1470    19.3270    19.7740    24.5600     2.2310 
  155.3750    -4.9820    69.8210    19.5470    18.5430    18.9360    24.5460     2.2300 
  155.5000    -5.0330    71.2390    18.4490    17.3270    18.0330    24.5140     2.2300 
  155.6250    -5.0840    73.8550    16.7490    15.5970    18.2710    24.4490     2.2320 
  155.7500    -5.1260    75.7530    14.5860    13.4820    17.9080    24.3380     2.2400 
  155.8750    -5.1480    76.9600    12.4340    11.4060    15.7850    24.2260     2.2550 
  156.0000    -5.1970    78.6820    10.8980     9.8510    13.8130    24.1420     2.2700 
  156.1250    -5.2280    80.4200    10.4720     9.1530    12.9290    24.0670     2.2810 
  156.2500    -5.2380    79.8050    11.5670     9.5800    12.2630    23.9880     2.2810 
  156.3750    -5.2460    76.4810    14.8430    11.6920    12.4990    24.0340     2.2700 
  156.5000    -5.2540    70.6060    20.0620    15.5460    16.3470    24.2150     2.2530 
  156.6250    -5.2620    62.2740    26.8310    21.1510    25.0600    24.5130     2.2350 
  156.7500    -5.2820    55.1620    34.2530    28.0360    36.3470    24.8320     2.2200 
  156.8750    -5.3020    52.4330    40.7550    34.9970    44.1680    24.9940     2.2100 
  157.0000    -5.3080    52.9320    45.2390    40.4880    48.6890    24.9950     2.2030 
  157.1250    -5.3260    54.6990    47.4830    43.7010    52.2290    24.9000     2.1990 
  157.2500    -5.3820    57.8420    48.2100    44.9530    54.8940    24.7810     2.1980 
  157.3750    -5.4370    61.6100    48.6500    45.3000    56.2220    24.6400     2.1990 
  157.5000    -5.4930    61.1240    49.7240    45.8050    55.1420    24.5200     2.2020 
  157.6250    -5.5430    57.2640    51.7370    46.8740    52.2770    24.4840     2.2020 
  157.7500    -5.6030    55.1820    54.7650    48.7220    52.2350    24.5300     2.2010 
  157.8750    -5.6880    56.8070    58.7910    51.5240    58.4130    24.6960     2.1990 
  158.0000    -5.7720    58.6060    63.1840    54.8670    64.8780    24.8280     2.1970 
  158.1250    -5.8520    58.2240    67.1450    58.1400    68.9070    24.8860     2.1970 
