~V
VERS. 2.00: Ver 2.00
~W
STRT.M 53.0000:
STOP.M 287.0000:
STEP.M 0.1250:
NULL. -999.2500:
UWI. F11059:
~C
DEPT.M :
GR.API :
RML.OHMM :
RI. :
RXO.OHMM :
CALI.CM :
DEN.GM/CC :
SP.MV :
~A
# ...
   86.7500    74.9360    13.0390    10.4940    10.8140    24.7840     2.3120   -11.0420 
   86.8750    73.7530    12.7000    10.7460    11.7670    24.8510     2.3230   -11.3360 
   87.0000    74.1930    12.8450    11.3290    16.9470    24.8590     2.3540   -11.5480 
   87.1250    74.6990    13.3590    11.9020    25.3790    24.7920     2.3630   -11.6800 
   87.2500    75.4000    13.7990    11.9550    22.9920    24.6610     2.3340   -11.7620 
   87.3750    77.7870    13.5310    11.0970    15.7260    24.5950     2.2820   -11.8180 
   87.5000    81.1490    12.5530     9.8190    11.2570    24.5780     2.2400   -11.8880 
   87.6250    83.8270    11.2310     8.6190     8.8930    24.5770     2.2180   -11.9430 
   87.7500    84.0730    10.0600     7.8060     8.3990    24.5560     2.2100   -12.0140 
   87.8750    81.6590     9.4710     7.5390     8.8920    24.4990     2.2010   -12.1380 
   88.0000    78.1900     9.4080     7.6400     9.5560    24.4550     2.1870   -12.3200 
   88.1250    73.8840     9.7010     7.9250    10.3520    24.4370     2.1760   -12.5170 
   88.2500    70.3330    10.1010     8.1880    10.6360    24.4270     2.1750   -12.7240 
   88.3750    71.2610    10.3260     8.2350    10.2320    24.4090     2.1920   -12.9040 
   88.5000    76.5290    10.2980     8.0910     9.6540    24.3920     2.2190   -13.0700 
   88.6250    81.2230    10.1030     7.8630     9.1000    24.3970     2.2460   -13.2570 
   88.7500    81.0680     9.9110     7.6810     8.6750    24.4120     2.2620   -13.4640 
   88.8750    77.2090     9.8980     7.6590     8.7730    24.4470     2.2570   -13.6710 
   89.0000    74.6140    10.0500     7.7720     9.4420    24.5130     2.2370   -13.8680 
   89.1250    73.4690    10.2680     7.9510    10.3370    24.6060     2.2100   -14.0730 
   89.2500    72.2390    10.4260     8.1060    11.0110    24.6680     2.1840   -14.2720 
   89.3750    70.6740    10.4100     8.1470    10.7910    24.6890     2.1660   -14.4700 
   89.5000    71.0820    10.2560     8.0780    10.4630    24.6890     2.1590   -14.6520 
   89.6250    72.3700    10.0280     7.9290    10.2630    24.6860     2.1660   -14.7830 
   89.7500    71.4620     9.8030     7.7650     9.9450    24.6930     2.1870   -14.8750 
   89.8750    66.9310     9.6910     7.7310     9.8390    24.7160     2.2100   -14.9360 
   90.0000    62.9840     9.7800     7.9540     9.9750    24.7470     2.2170   -14.9920 
   90.1250    62.0300    10.1760     8.5190    10.3960    24.7980     2.1950   -15.0320 
   90.2500    61.8510    10.9540     9.4220    12.6510    24.9590     2.1450   -15.0490 
   90.3750    61.3450    12.0960    10.4850    23.4090    25.2340     2.0870   -15.0460 
   90.5000    61.2790    13.2220    11.2680    47.4360    25.3300     2.0510   -15.0330 
   90.6250    60.8350    13.8940    11.4120    52.8190    25.0110     2.0480   -15.0420 
   90.7500    59.1740    13.8000    10.8640    28.0150    24.5640     2.0730   -15.0560 
   90.8750    57.9120    12.9210     9.9290    14.2000    24.3460     2.1060   -15.0710 
   91.0000    59.8370    11.8440     9.0940    10.3950    24.3690     2.1320   -15.0800 
   91.1250    63.8700    11.0140     8.5830     9.9060    24.4350     2.1490   -15.0890 
   91.2500    65.8070    10.6700     8.4620     9.8540    24.4460     2.1610   -15.1030 
   91.3750    64.9130    10.8610     8.6990    10.4320    24.4360     2.1700   -15.1170 
   91.5000    64.5020    11.2760     9.0650    11.0790    24.4440     2.1790   -15.1170 
   91.6250    65.8640    11.6470     9.3820    11.3830    24.4680     2.1900   -15.0720 
   91.7500    67.3470    11.7680     9.5330    11.2410    24.4860     2.2050   -14.9740 
   91.8750    68.1870    11.5520     9.4720    10.9480    24.4750     2.2190   -14.8240 
   92.0000    69.2070    11.1930     9.3050    10.3240    24.4450     2.2250   -14.6500 
   92.1250    69.8210    10.8660     9.1170     9.6360    24.4420     2.2150   -14.4690 
   92.2500    70.3980    10.6780     8.9660    10.8590    24.5060     2.1860   -14.2980 
   92.3750    71.1330    10.6430     8.8690    14.9730    24.5350     2.1450   -14.1430 
   92.5000    71.4080    10.6520     8.7830    17.1910    24.4520     2.1110   -14.0040 
   92.6250    71.7560    10.6370     8.6760    13.1150    24.3210     2.0980   -13.8860 
   92.7500    72.7400    10.5820     8.5430     9.5660    24.1890     2.1110   -13.7970 
   92.8750    74.6390    10.5260     8.4050     8.5740    24.0510     2.1450   -13.7330 
   93.0000    75.7780    10.5100     8.2880     8.7280    23.9560     2.1770   -13.7130 
   93.1250    76.1630    10.5320     8.2060     9.5980    23.9530     2.1940   -13.7080 
   93.2500    75.0800    10.5590     8.1550     9.1600    23.9830     2.1900   -13.6880 
   93.3750    72.6940    10.5390     8.1260     9.2150    23.9880     2.1740   -13.6770 
   93.5000    71.0940    10.4700     8.1200     9.0390    23.9780     2.1590   -13.6720 
   93.6250    72.2100    10.3850     8.1470     9.1700    23.9870     2.1510   -13.6880 
   93.7500    75.7920    10.3230     8.2110     9.3940    24.0240     2.1490   -13.7540 
   93.8750    77.4310    10.3000     8.2930     9.9570    24.0930     2.1490   -13.8600 
   94.0000    75.1480    10.2760     8.3550    10.1510    24.2130     2.1460   -13.9330 
   94.1250    70.8630    10.2070     8.3670    10.1200    24.3630     2.1430   -13.9840 
   94.2500    67.7100    10.0730     8.3260     9.8560    24.4720     2.1410   -14.0250 
   94.3750    66.5690     9.9110     8.2680     9.6460    24.5110     2.1430   -14.0240 
   94.5000    66.1500     9.8080     8.2590     9.3460    24.5280     2.1520   -14.0090 
   94.6250    66.3200     9.8350     8.3380     9.4200    24.5270     2.1700   -13.9640 
   94.7500    66.6440    10.0200     8.4970    10.0130    24.4990     2.1960   -13.8760 
   94.8750    66.2070    10.3250     8.6700    12.3450    24.4340     2.2210   -13.7830 
   95.0000    65.3410    10.6110     8.7620    16.0210    24.3580     2.2340   -13.7040 
   95.1250    66.9310    10.7640     8.7120    16.3410    24.2970     2.2300   -13.6400 
   95.2500    70.3730    10.7300     8.5240    12.5850    24.2350     2.2120   -13.6000 
   95.3750    71.5490    10.5310     8.2540    10.7630    24.1690     2.1930   -13.5900 
   95.5000    70.2430    10.2980     7.9990    10.2780    24.1390     2.1790   -13.5840 
   95.6250    69.8530    10.1180     7.8050     9.7000    24.1310     2.1740   -13.6160 
   95.7500    71.2280    10.0260     7.6770     9.2600    24.1310     2.1730   -13.6960 
   95.8750    69.8420    10.0050     7.5950     9.3660    24.1380     2.1730   -13.7540 
   96.0000    66.2830     9.9910     7.5240     9.4660    24.1430     2.1700   -13.7920 
   96.1250    63.9430     9.9510     7.4540     9.2440    24.1430     2.1650   -13.8310 
   96.2500    65.2910     9.8870     7.3920     8.8350    24.1360     2.1600   -13.8590 
   96.3750    68.8140     9.8420     7.3470     8.6140    24.1270     2.1590   -13.9030 
   96.5000    70.0190     9.8500     7.3240     8.3410    24.1030     2.1620   -13.9660 
   96.6250    69.3490     9.9150     7.3280     7.9050    24.0560     2.1670   -14.0210 
   96.7500    69.7000    10.0090     7.3610     7.7830    23.9790     2.1690   -14.0720 
   96.8750    70.4530    10.0830     7.4180     8.1510    23.9390     2.1660   -14.1490 
   97.0000    69.2970    10.1060     7.4740     8.7210    23.9340     2.1640   -14.2370 
   97.1250    67.3220    10.0810     7.5150     9.0420    23.9340     2.1670   -14.3240 
   97.2500    66.8910    10.0280     7.5390     9.1000    23.9370     2.1750   -14.4110 
   97.3750    66.9500     9.9780     7.5590     9.1020    23.9980     2.1800   -14.4400 
   97.5000    65.4600     9.9490     7.5870     9.2310    24.1600     2.1750   -14.4250 
   97.6250    62.8040     9.9360     7.6170     9.4760    24.3710     2.1570   -14.3800 
   97.7500    59.7730     9.9060     7.6310     9.7300    24.5310     2.1340   -14.2820 
   97.8750    59.6280     9.8000     7.5840     9.5980    24.5760     2.1130   -14.1350 
