~V
VERS. 2.00: Ver 2.00
~W
STRT.M 62.0000:
STOP.M 273.0000:
STEP.M 0.1250:
NULL. -999.2500:
UWI. F11050:
~C
DEPT.M :
SP.MV :
GR.API :
RML.OHMM :
RI. :
RXO.OHMM :
CALI.CM :
DEN.GM/CC :
~A
# ...
  219.5000   -13.7210    68.6070   114.4000   113.1980   133.9830    24.7340     2.2460 
  219.6250   -13.6970    72.5020    98.0960    96.6070   121.0020    24.6720     2.2560 
  219.7500   -13.6710    71.9460    87.5800    85.5600    94.3410    24.5620     2.2670 
  219.8750   -13.6710    68.5370    81.9170    79.3340    75.0000    24.4830     2.2800 
  220.0000   -13.6810    67.0770    79.9530    76.8620    74.3550    24.4760     2.2890 
  220.1250   -13.7090    68.2650    80.6430    77.2090    79.5580    24.5330     2.2880 
  220.2500   -13.7130    68.3730    82.1410    78.6540    80.5590    24.5550     2.2790 
  220.3750   -13.7080    66.7590    83.2280    80.0720    82.8400    24.5650     2.2700 
  220.5000   -13.6960    65.0370    82.9810    80.4610    91.2620    24.5660     2.2620 
  220.6250   -13.6930    64.9180    80.9780    79.1020    96.5780    24.5190     2.2580 
  220.7500   -13.6890    66.7910    78.1890    76.6470    88.7060    24.4360     2.2570 
  220.8750   -13.6800    68.5890    75.5350    73.9030    76.0660    24.3800     2.2570 
  221.0000   -13.6630    66.9570    73.7520    71.6860    67.9600    24.3480     2.2590 
  221.1250   -13.6330    62.8730    73.4440    70.8360    67.1230    24.2930     2.2600 
  221.2500   -13.6460    61.8030    74.3780    71.3820    66.7370    24.2610     2.2550 
  221.3750   -13.6910    63.2890    76.3080    73.1160    67.2880    24.2190     2.2450 
  221.5000   -13.7640    64.2700    78.9240    75.6070    66.7350    24.1590     2.2350 
  221.6250   -13.8530    64.3110    82.0320    78.4200    68.5890    24.1470     2.2280 
  221.7500   -13.9240    65.1450    85.3890    81.2560    79.7130    24.2340     2.2250 
  221.8750   -13.9990    66.2580    88.6990    83.9500    99.0910    24.3980     2.2210 
  222.0000   -14.0780    65.9830    91.3390    86.0640   113.8620    24.5550     2.2150 
  222.1250   -14.1580    64.2370    92.2000    86.6430   117.3870    24.6490     2.2100 
  222.2500   -14.2380    63.7030    91.2920    85.5980   109.3400    24.7300     2.2050 
  222.3750   -14.3040    64.0890    89.4030    83.5030    90.3950    24.7740     2.2050 
  222.5000   -14.3490    65.2360    88.0330    81.5900    67.6550    24.7840     2.2120 
  222.6250   -14.3760    67.4590    89.5110    81.8920    59.6930    24.7720     2.2230 
  222.7500   -14.4000    68.2570    94.8710    85.5400    64.2710    24.7740     2.2320 
  222.8750   -14.4190    65.0160   104.5870    93.2140    85.4940    24.7770     2.2310 
  223.0000   -14.4620    59.1230   118.1700   104.7230   113.0190    24.7170     2.2220 
  223.1250   -14.4870    55.9070   132.0390   118.5950   118.8700    24.5520     2.2110 
  223.2500   -14.5430    56.0290   140.3740   131.2180   111.8500    24.4660     2.2030 
  223.3750   -14.5760    57.9910   148.6230   139.7310   114.7410    24.5410     2.2030 
  223.5000   -14.6120    59.6040   151.0410   142.9010   131.3010    24.6660     2.2040 
  223.6250   -14.6250    58.6470   148.4590   141.1540   139.2620    24.7350     2.2040 
  223.7500   -14.6440    57.8030   143.9830   137.2610   133.0330    24.7530     2.2030 
  223.8750   -14.6310    60.1930   139.0420   132.5410   130.6260    24.7440     2.2060 
  224.0000   -14.5780    63.7470   134.3110   127.7030   131.0430    24.7260     2.2140 
  224.1250   -14.4490    64.0980   130.2030   123.3000   132.8040    24.7240     2.2250 
  224.2500   -14.2530    63.0270   126.8320   119.6720   126.5840    24.7350     2.2330 
  224.3750   -14.0020    62.9090   124.3510   117.0240   118.4900    24.7410     2.2360 
  224.5000   -13.7270    63.8570   122.8890   115.3850   114.9170    24.7670     2.2350 
  224.6250   -13.4250    64.4360   122.6440   114.7990   117.1690    24.7750     2.2300 
  224.7500   -13.1210    64.4080   123.3610   114.9640   118.5430    24.7510     2.2230 
  224.8750   -12.8260    64.9620   124.8810   115.7770   120.6930    24.7210     2.2140 
  225.0000   -12.5400    65.6970   126.9520   117.1630   122.4280    24.7140     2.2060 
  225.1250   -12.3140    64.7140   129.3800   119.1340   121.1970    24.7270     2.2030 
  225.2500   -12.1750    63.3820   132.0570   121.5670   118.0270    24.7180     2.2050 
  225.3750   -12.0720    63.6340   135.0890   124.4370   118.0220    24.7070     2.2100 
  225.5000   -12.0420    64.0800   138.6870   127.7800   121.5180    24.7100     2.2110 
  225.6250   -12.0410    62.2360   143.1250   131.7140   128.6070    24.7390     2.2060 
  225.7500   -12.1110    60.3270   147.4670   135.5290   136.5250    24.7730     2.2060 
  225.8750   -12.2030    59.5200   148.9620   137.0840   136.2280    24.7720     2.2140 
  226.0000   -12.3260    58.6920   143.3400   132.8580   129.9120    24.7460     2.2260 
  226.1250   -12.4580    59.2210   126.6180   118.9890   130.2360    24.7630     2.2340 
  226.2500   -12.6230    63.0080   104.4230    99.4580   128.6130    24.7970     2.2420 
  226.3750   -12.8070    66.8200    83.4320    79.8410   100.4820    24.7860     2.2580 
  226.5000   -13.0060    68.3840    68.3920    64.7740    61.0100    24.7340     2.2790 
  226.6250   -13.2100    68.4710    62.1910    57.3870    39.5660    24.7110     2.2950 
  226.7500   -13.3950    69.0060    63.0930    56.4500    35.9480    24.7120     2.2970 
  226.8750   -13.5950    70.2410    70.1500    61.2510    50.5580    24.7160     2.2860 
  227.0000   -13.8030    70.2010    82.0620    70.7800    84.8530    24.7070     2.2690 
  227.1250   -14.0020    67.7400    96.2570    83.0690   124.5090    24.7050     2.2560 
  227.2500   -14.1770    65.1360   107.8870    93.8250   120.2360    24.7130     2.2500 
  227.3750   -14.3380    64.1020   113.6670    99.9140   101.5710    24.7260     2.2460 
  227.5000   -14.4650    64.4370   113.5860   100.6930    89.9720    24.7370     2.2450 
  227.6250   -14.5700    63.4640   110.4860    97.9660    92.4170    24.7490     2.2470 
  227.7500   -14.6650    61.4700   107.7760    94.9200    95.4180    24.7460     2.2480 
  227.8750   -14.7280    59.2330   106.5200    92.7910    92.4730    24.7330     2.2450 
  228.0000   -14.7550    58.6130   106.7720    91.8140    84.9890    24.7250     2.2400 
  228.1250   -14.7740    60.6310   108.1310    91.6810    88.8170    24.7270     2.2330 
  228.2500   -14.7500    61.8430   109.6480    91.6900    96.4440    24.7090     2.2280 
  228.3750   -14.7220    60.2830   110.5760    91.4500   102.3130    24.7010     2.2230 
  228.5000   -14.6970    59.1170   110.3200    90.7040   100.2530    24.7310     2.2230 
  228.6250   -14.6670    59.9380   108.4920    89.2450    95.9820    24.7500     2.2270 
  228.7500   -14.6160    59.6420   105.7640    87.2820    96.7380    24.7550     2.2330 
  228.8750   -14.5420    56.8340   102.9440    85.2170   101.8780    24.7610     2.2450 
  229.0000   -14.4500    54.4650   101.0260    83.7380   106.8710    24.7540     2.2720 
  229.1250   -14.3470    56.2170   101.5480    84.0570   107.7740    24.7360     2.3250 
  229.2500   -14.2010    60.7640   105.3890    86.9540   100.1380    24.6960     2.4020 
  229.3750   -14.0280    65.3250   113.6110    93.4270    91.3090    24.6520     2.4970 
  229.5000   -13.8180    67.4620   126.3860   103.9590    94.6200    24.6130     2.6060 
  229.6250   -13.5960    65.4030   139.4960   116.0020   120.4650    24.6050     2.7060 
  229.7500   -13.3530    61.5650   140.8980   120.2660   151.1670    24.6180     2.7640 
  229.8750   -13.1050    60.2620   120.4810   107.1080   179.6490    24.6280     2.7590 
  230.0000   -12.8320    63.5640    84.2520    78.0440   188.2710    24.6050     2.7050 
  230.1250   -12.5660    70.4850    51.5840    48.5850   101.8920    24.5090     2.6380 
  230.2500   -12.3210    76.9850    30.2650    28.5150    35.7260    24.3340     2.5790 
  230.3750   -12.0760    81.4500    18.4070    17.2000    13.4810    24.1890     2.5260 
  230.5000   -11.8220    82.8320    12.5540    11.5210     8.5350    24.2400     2.4780 
  230.6250   -11.5570    80.6320    10.3400     9.1460     8.5040    24.3800     2.4440 
