~V
VERS. 2.00: Ver 2.00
~W
STRT.M 57.0000:
STOP.M 276.0000:
STEP.M 0.1250:
NULL. -999.2500:
UWI. F11063:
~C
DEPT.M :
DEN.GM/CC :
GR.API :
RML.OHMM :
RI. :
RXO.OHMM :
CALI.CM :
SP.MV :
~A
# ...
   79.5000     2.1980    59.5060    10.8810     8.0590     7.6100    24.4240   -17.7560 
   79.6250     2.2250    62.2880    10.7200     7.9850     7.5520    24.2550   -17.6390 
   79.7500     2.2240    65.4600    10.3980     7.8270     7.6300    24.1720   -17.4880 
   79.8750     2.2000    64.5880    10.0710     7.6800     7.7810    24.1800   -17.2910 
   80.0000     2.1870    62.7190     9.8870     7.6330     7.9430    24.2310   -17.0540 
   80.1250     2.2030    64.9570     9.9320     7.7390     8.0150    24.2560   -16.7830 
   80.2500     2.2270    67.8630    10.0920     7.9350     8.1520    24.2130   -16.4710 
   80.3750     2.2320    68.3230    10.2220     8.1320     8.5610    24.1030   -16.1240 
   80.5000     2.2050    67.6890    10.2150     8.2410     8.9640    23.9780   -15.7480 
   80.6250     2.1610    67.3100    10.0650     8.2110     8.3880    23.8560   -15.3500 
   80.7500     2.1300    65.8830     9.9070     8.1090     7.6550    23.8220   -14.9240 
   80.8750     2.1210    64.5590     9.7970     7.9770     7.2120    23.8840   -14.4440 
   81.0000     2.1290    63.6280     9.6900     7.8210     7.0860    24.0110   -13.8990 
   81.1250     2.1490    64.0270     9.4620     7.6100     7.0590    24.1000   -13.3040 
   81.2500     2.1730    68.1780     9.0860     7.3380     7.1460    24.1430   -12.6930 
   81.3750     2.2050    76.4020     8.6000     7.0070     7.0690    24.1330   -12.0420 
   81.5000     2.2450    85.7520     8.0850     6.6320     6.6460    24.1430   -11.3660 
   81.6250     2.2870    92.8870     7.6120     6.2270     6.5020    24.2130   -10.7130 
   81.7500     2.3190    96.9830     7.1710     5.8030     6.5630    24.2850   -10.1270 
   81.8750     2.3340    99.4120     6.7580     5.3810     6.3610    24.3130    -9.6510 
   82.0000     2.3380   101.9760     6.4310     5.0230     5.5900    24.3810    -9.3210 
   82.1250     2.3400   101.9850     6.3350     4.8470     5.2340    24.5860    -9.1520 
   82.2500     2.3380    96.9510     6.4910     4.8820     5.2970    24.8140    -9.1110 
   82.3750     2.3330    89.7210     6.8340     5.1140     6.0340    24.9270    -9.2210 
   82.5000     2.3280    85.2110     7.2330     5.4720     7.7320    24.9000    -9.4560 
   82.6250     2.3310    83.7840     7.5800     5.8550     9.4320    24.7400    -9.7870 
   82.7500     2.3380    82.9810     8.0010     6.2570     8.9190    24.5730   -10.1760 
   82.8750     2.3450    82.6640     8.8140     6.8250     7.9480    24.5050   -10.6200 
   83.0000     2.3590    82.9060    10.3770     7.7970     7.9990    24.5390   -11.0910 
   83.1250     2.3920    82.4720    12.9840     9.4960    10.1170    24.6330   -11.6220 
   83.2500     2.4300    80.1180    16.0180    11.7270    15.1410    24.6680   -12.2140 
   83.3750     2.4470    75.8750    18.3550    13.8310    18.7310    24.6300   -12.8520 
   83.5000     2.4140    71.3780    18.6710    14.7030    16.5940    24.5290   -13.5210 
   83.6250     2.3300    69.1770    16.3580    13.5100    11.1410    24.3740   -14.2060 
   83.7500     2.2330    67.3360    13.1990    11.3910     8.7440    24.2200   -14.8630 
   83.8750     2.1480    64.6590    10.5100     9.3300     8.0770    24.1430   -15.4840 
   84.0000     2.0950    62.6010     8.8570     7.8350     7.7380    24.1440   -16.0780 
   84.1250     2.0900    63.7370     8.4220     7.1540     7.4640    24.2560   -16.5800 
   84.2500     2.1140    65.9710     8.8830     7.1390     7.5150    24.4990   -16.9750 
   84.3750     2.1450    66.5960    10.0990     7.7170     7.7620    24.8460   -17.2740 
   84.5000     2.1820    65.8690    11.8060     8.7470     8.1780    25.1180   -17.4760 
   84.6250     2.2360    66.1880    13.3750     9.9050    10.2380    25.0600   -17.5860 
   84.7500     2.2920    68.7050    14.0620    10.6440    13.7120    24.7470   -17.6680 
   84.8750     2.3070    70.9240    13.5460    10.6100    14.2340    24.4150   -17.7550 
   85.0000     2.2530    70.1390    12.1550     9.8650    10.9050    24.2130   -17.8600 
   85.1250     2.1780    67.8080    10.6780     8.8170     8.7150    24.1450   -17.9870 
   85.2500     2.1360    66.0190     9.6580     7.9170     8.0820    24.1220   -18.1260 
   85.3750     2.1240    65.2390     9.1730     7.3230     7.9570    24.1400   -18.2780 
   85.5000     2.1250    64.8030     9.0950     7.0420     7.7750    24.1650   -18.4650 
   85.6250     2.1250    64.5920     9.2560     6.9980     7.4460    24.1930   -18.6630 
   85.7500     2.1240    64.3210     9.4990     7.0260     7.1440    24.2260   -18.8460 
   85.8750     2.1250    63.1330     9.7870     7.0680     7.1010    24.2460   -18.9880 
   86.0000     2.1270    62.7210    10.0590     7.1140     7.2900    24.2010   -19.0750 
   86.1250     2.1260    63.5540    10.2030     7.1730     7.5110    24.1740   -19.1280 
   86.2500     2.1250    64.0460    10.2070     7.2470     7.5400    24.1540   -19.1760 
   86.3750     2.1240    64.7810    10.1450     7.3270     7.3920    24.1270   -19.2180 
   86.5000     2.1260    65.4040    10.1110     7.4000     7.1630    24.1120   -19.2640 
   86.6250     2.1310    63.4560    10.1510     7.4520     7.1170    24.1260   -19.3500 
   86.7500     2.1370    60.7070    10.2000     7.4770     7.0810    24.1630   -19.4810 
   86.8750     2.1440    60.3490    10.1830     7.4750     7.0940    24.2010   -19.6490 
   87.0000     2.1480    64.7900    10.0850     7.4500     6.8870    24.2440   -19.8440 
   87.1250     2.1480    70.3160     9.9930     7.4160     6.8360    24.2920   -20.0490 
   87.2500     2.1480    71.5810     9.9820     7.4020     6.9930    24.3170   -20.2290 
   87.3750     2.1460    68.0130    10.0550     7.4310     7.2970    24.4260   -20.3720 
   87.5000     2.1380    63.5590    10.1700     7.5120     7.4510    24.6990   -20.4790 
   87.6250     2.1250    64.2000    10.2550     7.6380     7.5080    25.0620   -20.5350 
   87.7500     2.1140    66.7280    10.2750     7.7650     7.7950    25.1550   -20.5520 
   87.8750     2.1130    66.5230    10.2300     7.8550     8.2320    25.0700   -20.5280 
   88.0000     2.1200    63.4700    10.1490     7.8710     8.6570    24.9300   -20.4730 
   88.1250     2.1320    62.4140    10.0720     7.7890     8.7530    24.7820   -20.3770 
   88.2500     2.1430    65.3080    10.0340     7.6480     8.4970    24.6810   -20.2500 
   88.3750     2.1510    67.7100    10.0410     7.4960     8.2010    24.6450   -20.1050 
   88.5000     2.1530    66.5690    10.0730     7.3830     8.0330    24.6520   -19.9420 
   88.6250     2.1460    63.9560    10.0940     7.3520     8.0710    24.7100   -19.7540 
   88.7500     2.1370    61.9570    10.0930     7.3820     8.2370    24.7860   -19.5330 
   88.8750     2.1290    60.8420    10.0840     7.4410     8.4270    24.7750   -19.2800 
   89.0000     2.1190    60.7670    10.0890     7.4860     8.5230    24.6560   -18.9840 
   89.1250     2.1030    60.5390    10.1040     7.4730     8.3840    24.5300   -18.6460 
   89.2500     2.0870    59.2700    10.0980     7.4010     8.1590    24.3860   -18.2880 
   89.3750     2.0750    58.1390    10.0450     7.2840     7.9700    24.1380   -17.8970 
   89.5000     2.0700    59.5360     9.9300     7.1430     7.8530    23.9030   -17.4640 
   89.6250     2.0730    61.8550     9.7270     7.0000     7.7200    23.8650   -16.9790 
   89.7500     2.0820    63.3460     9.4560     6.8750     7.5960    23.9230   -16.4510 
   89.8750     2.0950    64.7680     9.2130     6.8230     7.5310    24.0040   -15.8720 
   90.0000     2.1150    65.3170     9.1810     6.9400     7.6070    24.1010   -15.2540 
   90.1250     2.1480    64.6370     9.6080     7.3680     7.8280    24.1250   -14.5940 
   90.2500     2.1960    63.5340    10.4320     8.0500     8.0050    24.1250   -13.8990 
   90.3750     2.2600    63.1830    11.4020     8.8180     8.3970    24.1340   -13.1780 
   90.5000     2.3350    63.3310    12.0450     9.3530     9.6250    24.1220   -12.4410 
   90.6250     2.3910    63.9380    11.7090     9.1930    11.6780    24.0560   -11.7240 
