~V
VERS. 2.00: Ver 2.00
~W
STRT.M 50.0000:
STOP.M 276.0000:
STEP.M 0.1250:
NULL. -999.2500:
UWI. F11044:
~C
DEPT.M :
SP.MV :
GR.API :
RML.OHMM :
RI. :
RXO.OHMM :
CALI.CM :
DEN.GM/CC :
~A
# ...
  173.7500   -19.0970    69.3110   131.3770   130.0080   110.2020    25.2610     2.2090 
  173.8750   -19.0820    68.9070   132.7200   130.1330   117.0450    25.2130     2.1990 
  174.0000   -19.1060    70.5230   134.1850   130.2850   116.3410    25.1410     2.1910 
  174.1250   -19.1450    71.8360   137.4310   133.2470   113.1680    25.0460     2.1870 
  174.2500   -18.9780    68.8350   141.1450   137.8690   135.4040    24.8830     2.1880 
  174.3750   -18.8110    64.4430   142.8040   141.2130   187.5770    24.6710     2.1960 
  174.5000   -18.7410    63.3180   140.0950   140.1250   186.6820    24.5500     2.2090 
  174.6250   -18.5870    64.2410   131.9030   132.5760   166.7270    24.6140     2.2250 
  174.7500   -18.3950    63.3140   121.2010   121.8780   120.1420    24.7730     2.2360 
  174.8750   -18.3180    61.1610   110.5440   111.3030   100.0110    24.9570     2.2360 
  175.0000   -18.2020    59.8300   101.4450   102.7480   102.6830    25.1430     2.2240 
  175.1250   -17.9300    60.2630    94.1960    96.2050   111.8930    25.2680     2.2050 
  175.2500   -17.7950    61.2480    87.9770    90.2560   110.5980    25.3100     2.1910 
  175.3750   -17.7420    61.1460    82.7880    84.7000    94.9690    25.2560     2.1920 
  175.5000   -17.5290    61.2720    79.2240    80.3100    66.0070    25.1030     2.2080 
  175.6250   -17.3220    62.8530    78.4920    78.7070    45.2550    24.8510     2.2290 
  175.7500   -17.1960    62.9800    80.3180    80.1050    45.3020    24.6020     2.2440 
  175.8750   -16.9780    60.1350    83.8330    83.8880    80.7390    24.4340     2.2520 
  176.0000   -16.8110    56.9540    87.4510    88.2680   147.4710    24.3650     2.2580 
  176.1250   -16.7610    57.3410    89.2840    90.4280   135.0320    24.3510     2.2680 
  176.2500   -16.6600    61.3010    89.5180    89.6980    81.7440    24.3570     2.2830 
  176.3750   -16.5880    68.6870    89.9740    87.6810    60.6870    24.3650     2.2970 
  176.5000   -16.5610    75.3280    93.6120    87.5860    54.3030    24.3680     2.3030 
  176.6250   -16.4790    74.2160   105.1620    94.5160    62.7390    24.3680     2.2970 
  176.7500   -16.4770    68.3160   126.6160   111.1000    80.1540    24.3740     2.2800 
  176.8750   -16.5620    63.3620   159.8680   139.7820   109.0440    24.3880     2.2560 
  177.0000   -16.5420    60.4930   204.4040   181.3030   172.5030    24.3810     2.2300 
  177.1250   -16.5800    56.8070   252.4530   231.3280   237.0430    24.3740     2.2100 
  177.2500   -16.7180    52.8400   286.9620   272.6540   233.8770    24.3690     2.2010 
  177.3750   -16.7550    51.1130   294.7780   287.8830   170.8220    24.3690     2.2050 
  177.5000   -16.7790    52.4910   274.3290   271.8150   113.0280    24.3650     2.2180 
  177.6250   -16.9130    56.2470   236.1450   235.6400    98.5760    24.3540     2.2330 
  177.7500   -17.0000    59.1360   198.0990   198.9360    88.1500    24.3480     2.2420 
  177.8750   -17.0050    59.4150   166.6700   168.3320    84.3970    24.3610     2.2440 
  178.0000   -17.0740    59.8400   142.4870   144.5870    77.9360    24.3630     2.2420 
  178.1250   -17.1700    63.0030   124.7900   126.8710    77.0690    24.3570     2.2460 
  178.2500   -17.1990    66.3020   111.2600   112.9950    71.2280    24.3550     2.2570 
  178.3750   -17.3050    68.8010   101.2180   102.5140    70.3080    24.3350     2.2690 
  178.5000   -17.5480    69.9290    94.1380    95.1330    72.9140    24.3130     2.2750 
  178.6250   -17.6700    69.6500    89.8120    90.6870    70.9470    24.3170     2.2680 
  178.7500   -17.7570    68.3320    87.3590    88.1410    66.5350    24.3380     2.2560 
  178.8750   -18.0260    67.3040    86.5280    87.2120    58.8460    24.3480     2.2450 
  179.0000   -18.2920    66.0830    87.1300    87.8160    56.3930    24.3310     2.2410 
  179.1250   -18.4460    63.6820    89.0040    89.8860    62.6750    24.3140     2.2460 
  179.2500   -18.7410    62.4370    91.4940    92.6450    61.9620    24.3150     2.2540 
  179.3750   -19.0600    62.5260    94.1980    95.6310    66.1130    24.3290     2.2620 
  179.5000   -19.4080    62.5450    96.7840    98.5800    81.3110    24.3330     2.2660 
  179.6250   -19.8890    63.2610    98.7530   101.1230    79.1020    24.3330     2.2570 
  179.7500   -20.3500    66.4540    99.5850   102.7380    62.9890    24.3310     2.2390 
  179.8750   -20.7980    70.0630    98.5930   102.6290    62.4620    24.3580     2.2180 
  180.0000   -21.3760    70.3020    95.2500    99.8690    91.6520    24.4150     2.2090 
  180.1250   -21.9920    67.6240    89.4090    93.6880   106.6380    24.4770     2.2230 
  180.2500   -22.4700    66.6410    82.6940    85.8700    82.7100    24.5220     2.2530 
  180.3750   -23.0050    68.4240    76.7920    78.3940    58.5660    24.5420     2.2850 
  180.5000   -23.5120    69.0200    73.2950    73.0600    46.4000    24.6060     2.3030 
  180.6250   -23.9400    65.9280    74.0840    71.8870    48.6580    24.7190     2.2950 
  180.7500   -24.4130    62.9180    78.3530    74.9270    61.5520    24.8970     2.2710 
  180.8750   -24.8470    62.9800    84.7090    81.7800    84.9930    25.1400     2.2430 
  181.0000   -25.1280    65.4220    91.9110    91.0450   103.4360    25.2990     2.2210 
  181.1250   -25.3330    66.1340    99.4120   100.4600    94.7280    25.2910     2.2110 
  181.2500   -25.6280    64.0420   106.7280   108.3000    91.9140    25.2400     2.2100 
  181.3750   -25.8550    61.0450   113.5170   114.4780    96.1880    25.2230     2.2110 
  181.5000   -25.9800    60.6850   120.1190   119.9840   105.3120    25.2460     2.2110 
  181.6250   -26.1710    63.5120   127.6830   126.2870   108.1740    25.2970     2.2090 
  181.7500   -26.2950    64.1290   136.3670   133.8080   113.6320    25.3300     2.2070 
  181.8750   -26.2830    60.8450   145.7420   142.1290   123.2840    25.3290     2.2040 
  182.0000   -26.3400    57.4370   155.0170   150.4010   130.2540    25.3000     2.2000 
  182.1250   -26.3760    58.0610   163.0130   157.4590   134.3100    25.2740     2.1970 
  182.2500   -26.2630    60.6710   169.0800   162.6460   162.0960    25.2440     2.1920 
  182.3750   -26.1780    62.9790   172.8510   165.3900   179.8150    25.2220     2.1890 
  182.5000   -26.0570    64.4240   174.5180   165.5540   171.4350    25.2180     2.1890 
  182.6250   -25.8390    64.2140   174.8750   163.7280   146.1450    25.2380     2.1920 
  182.7500   -25.6980    63.6540   175.4630   161.7400   138.4770    25.2750     2.1980 
  182.8750   -25.5620    64.4070   177.2830   160.8330   146.9400    25.3070     2.2050 
  183.0000   -25.4290    65.1870   180.8360   161.8230   143.5490    25.3140     2.2100 
  183.1250   -25.4580    62.8220   186.1710   165.1410   138.8020    25.3270     2.2130 
  183.2500   -25.4960    57.6320   192.2480   169.5740   153.0520    25.3210     2.2130 
  183.3750   -25.4960    54.2500   198.3270   174.1220   163.5480    25.3140     2.2110 
  183.5000   -25.6660    55.5660   203.9890   178.3990   159.6050    25.2930     2.2100 
  183.6250   -25.7930    59.1640   208.8310   182.6510   156.6520    25.2850     2.2080 
  183.7500   -25.8230    60.0910   212.0160   186.6050   171.7530    25.2820     2.2040 
  183.8750   -25.9930    58.7550   211.4590   188.6740   173.6040    25.2920     2.1950 
  184.0000   -26.1090    58.3490   204.3380   186.0120   172.9880    25.3090     2.1840 
  184.1250   -25.9500    60.3800   187.5400   174.0140   198.6130    25.3080     2.1800 
  184.2500   -25.7660    62.0910   164.5980   154.3900   193.8170    25.2860     2.1930 
  184.3750   -25.5760    61.5970   140.4470   131.8520   140.5070    25.2540     2.2230 
  184.5000   -25.1730    60.5130   120.1370   112.0170    85.8540    25.1900     2.2610 
  184.6250   -24.6980    62.5060   107.7060    99.5670    62.1850    25.0880     2.2900 
  184.7500   -24.3290    65.7990   101.6150    93.7450    55.1300    25.0130     2.2980 
  184.8750   -23.9030    66.4130    99.6020    92.7330    63.4120    24.9870     2.2840 
