~V
VERS. 2.00: Ver 2.00
~W
STRT.M 40.0000:
STOP.M 275.0000:
STEP.M 0.1250:
NULL. -999.2500:
UWI. F11027:
~C
DEPT.M :
DEN.GM/CC :
GR.API :
RML.OHMM :
RI. :
RXO.OHMM :
CALI.CM :
SP.MV :
~A
# ...
  197.5000     2.2650    83.6270   146.1040   127.6410   122.1520    24.1280   -18.2860 
  197.6250     2.2600    82.1220   161.5190   141.0530   163.9720    24.1450   -17.8570 
  197.7500     2.2500    74.4800   176.4320   154.9700   200.4540    24.2230   -17.4320 
  197.8750     2.2390    62.5730   187.2290   166.3740   204.3380    24.2850   -17.0150 
  198.0000     2.2290    51.9640   190.4870   171.8440   189.8740    24.2670   -16.5710 
  198.1250     2.2250    49.7070   183.6110   167.7880   178.1330    24.1620   -16.1190 
  198.2500     2.2280    53.2860   170.7590   157.1490   165.1190    24.1080   -15.6400 
  198.3750     2.2380    57.6110   156.3740   144.0630   143.4640    24.0990   -15.1290 
  198.5000     2.2490    60.0640   144.4910   132.7990   119.2180    24.0550   -14.6790 
  198.6250     2.2530    59.6810   137.8360   127.1130   103.1850    23.9080   -14.3400 
  198.7500     2.2520    58.4130   133.9100   126.0900    98.6420    23.7950   -14.0560 
  198.8750     2.2590    58.4550   127.9150   125.7830   108.4130    23.8420   -13.7540 
  199.0000     2.2920    58.3080   114.4730   118.8240   127.6230    24.0320   -13.3360 
  199.1250     2.3600    57.1740    90.8410    96.8880   127.5710    24.2490   -12.7990 
  199.2500     2.4390    58.5420    64.0010    67.5000    91.9710    24.3490   -12.2500 
  199.3750     2.5050    63.6930    40.6770    41.3600    48.4430    24.4030   -11.7230 
  199.5000     2.5430    69.8340    24.3700    23.8230    21.3160    24.4650   -11.2180 
  199.6250     2.5520    76.8340    15.4730    14.9040    11.2060    24.3600   -10.7440 
  199.7500     2.5430    86.8580    10.7100    10.2680     7.9780    24.3440   -10.3670 
  199.8750     2.5200    94.6870     8.5520     7.9730     7.4680    24.3760   -10.1460 
  200.0000     2.4840    94.3580     7.9120     6.9840     7.4800    24.3950   -10.1680 
  200.1250     2.4400    89.8340     8.0410     6.8530     7.8940    24.2810   -10.5500 
  200.2500     2.4030    90.6530     8.3780     7.0930     9.4540    24.0130   -11.2670 
  200.3750     2.3840    96.2330     8.7130     7.4480    11.7810    23.7430   -12.3140 
  200.5000     2.3820   101.9940     8.8980     7.7190    12.8090    23.7240   -13.5740 
  200.6250     2.3890   105.7010     8.8560     7.7700    10.8340    24.0090   -14.9260 
  200.7500     2.3970   104.3460     8.6680     7.6410     8.7340    24.3500   -16.2290 
  200.8750     2.4030    96.4970     8.4150     7.3910     8.0030    24.5960   -17.4680 
  201.0000     2.4120    86.8180     8.1710     7.0980     7.8330    24.7580   -18.6580 
  201.1250     2.4250    85.0390     8.0080     6.8300     7.7710    24.8500   -19.7140 
  201.2500     2.4380    90.0660     7.9610     6.6320     7.8100    24.8880   -20.5690 
  201.3750     2.4490    93.6760     8.0810     6.5510     7.8890    24.9050   -21.2490 
  201.5000     2.4550    91.1300     8.4200     6.6490     7.8280    24.9210   -21.7710 
  201.6250     2.4590    84.5330     9.0310     7.0150     8.0930    24.9360   -22.1530 
  201.7500     2.4650    78.0240     9.7850     7.5910     9.2480    24.9440   -22.4400 
  201.8750     2.4750    72.1880    10.4870     8.2480    11.0620    24.9150   -22.5940 
  202.0000     2.4830    68.2460    10.8860     8.7430    12.1090    24.8500   -22.5830 
  202.1250     2.4870    70.9350    10.6940     8.7000    10.8020    24.7960   -22.4440 
  202.2500     2.4910    77.4710    10.0300     8.1340     8.5920    24.7990   -22.1800 
  202.3750     2.5020    84.3070     9.1280     7.2670     6.8760    24.8570   -21.7650 
  202.5000     2.5220    90.6430     8.2850     6.4020     6.0830    24.8920   -21.3440 
  202.6250     2.5290    96.3250     7.7840     5.8010     6.2950    24.8690   -21.1330 
  202.7500     2.4940    99.4490     7.6550     5.5030     7.0580    24.8490   -21.2310 
  202.8750     2.3990    99.4050     7.8870     5.5060     8.0760    24.9130   -21.6450 
  203.0000     2.2590    95.8640     8.4770     5.7930     9.0040    25.2040   -22.2530 
  203.1250     2.1340    89.3540     9.5430     6.4320     9.8850    25.8430   -22.8700 
  203.2500     2.0880    83.2500    11.0570     7.4460    10.6430    26.4200   -23.4280 
  203.3750     2.1520    80.5820    12.9150     8.8960    11.2960    26.2490   -23.9230 
  203.5000     2.3090    79.6120    14.7530    10.6940    13.0380    25.4810   -24.3100 
  203.6250     2.5040    76.5230    15.7370    12.2620    17.6930    24.9450   -24.4380 
  203.7500     2.6570    73.2700    15.3650    12.7170    21.8470    24.6460   -24.1940 
  203.8750     2.7280    73.4170    13.6200    11.6450    17.8870    24.4990   -23.4920 
  204.0000     2.7120    77.4840    11.0730     9.5280     9.8150    24.4210   -22.4000 
  204.1250     2.6300    78.9100     8.6570     7.3700     5.7630    24.4940   -21.0850 
  204.2500     2.5420    75.0360     6.9350     5.7540     4.5620    24.7390   -19.7810 
  204.3750     2.4780    69.1010     5.9640     4.7430     4.6910    24.9850   -18.5650 
  204.5000     2.4440    64.8500     5.5600     4.2280     5.0140    25.0490   -17.4380 
  204.6250     2.4120    63.4390     5.5000     4.0880     5.0770    24.4670   -16.3700 
  204.7500     2.3450    63.3950     5.5180     4.0890     5.0250    24.5330   -15.3200 
  204.8750     2.2330    65.1090     5.5030     4.1040     4.7840    24.6000   -14.3750 
  205.0000     2.1000    68.5560     5.4340     4.0750     4.3280    24.7330   -13.6290 
  205.1250     2.0070    72.1930     5.3650     4.0320     3.8410    24.8670   -13.1350 
  205.2500     1.9940    73.8400     5.3690     4.0470     3.5560    24.8670   -12.8390 
  205.3750     2.0600    73.1180     5.4770     4.1610     3.5470    24.8670   -12.7260 
  205.5000     2.1640    73.5250     5.6740     4.3740     3.8380    24.8670   -12.6890 
  205.6250     2.2470    78.3270     5.9050     4.6420     4.4770    24.8670   -12.6010 
  205.7500     2.2810    84.8690     6.0910     4.8680     5.0160    24.8670   -12.4820 
  205.8750     2.2760    88.3460     6.1810     4.9830     4.9250    24.7670   -12.3080 
  206.0000     2.2620    86.0760     6.1660     4.9590     4.2780    24.7330   -12.0970 
  206.1250     2.2670    82.0670     6.0800     4.8190     3.7520    24.5670   -11.8610 
  206.2500     2.2940    81.6650     6.0110     4.6550     3.5050    24.4670   -11.5600 
  206.3750     2.3320    84.9960     6.0240     4.5370     3.4560    24.4740   -11.1360 
  206.5000     2.3690    87.9180     6.1660     4.5150     3.6870    24.3870   -10.5710 
  206.6250     2.3950    87.6290     6.4730     4.6280     4.1590    24.2560    -9.9090 
  206.7500     2.4130    86.1360     6.9000     4.8440     4.5870    24.0840    -9.2350 
  206.8750     2.4250    85.4250     7.4070     5.1350     5.0330    24.0080    -8.6200 
  207.0000     2.4310    85.3970     7.9440     5.4740     5.6370    24.0030    -8.0380 
  207.1250     2.4320    86.1780     8.4440     5.8210     6.3390    23.9620    -7.4130 
  207.2500     2.4300    88.2770     8.8710     6.1250     7.0300    23.9440    -6.6800 
  207.3750     2.4280    91.3000     9.2480     6.3680     7.7360    23.9140    -5.8380 
  207.5000     2.4280    91.9850     9.6790     6.5830     8.1420    23.7950    -5.0050 
  207.6250     2.4280    87.9540    10.4390     6.9100     7.9910    23.6560    -4.3590 
  207.7500     2.4230    82.3610    11.7990     7.5360     8.5150    23.5350    -3.9120 
  207.8750     2.4080    77.1310    14.0780     8.7030    11.2290    23.4250    -3.6440 
  208.0000     2.3810    72.6730    17.5800    10.7150    16.8270    23.3960    -3.5030 
  208.1250     2.3500    68.2350    22.7630    14.1970    23.8610    23.5310    -3.5220 
  208.2500     2.3300    65.6430    29.2910    19.2380    28.2640    23.7910    -3.7480 
  208.3750     2.3290    65.2990    36.6440    25.6590    31.5910    24.1030    -4.1790 
  208.5000     2.3440    65.5770    43.9750    32.6640    38.6940    24.3020    -4.7550 
  208.6250     2.3620    66.2810    50.2210    38.9320    48.7530    24.2780    -5.3650 
