~V
VERS. 2.00: Ver 2.00
~W
STRT.M 51.0000:
STOP.M 240.0000:
STEP.M 0.1250:
NULL. -999.2500:
UWI. F11016:
~C
DEPT.M :
GR.API :
RML.OHMM :
RI. :
RXO.OHMM :
CALI.CM :
DEN.GM/CC :
SP.MV :
~A
# ...
   84.7500    65.5950     8.8740     6.9460     8.4980    22.9980     2.1900   -18.8210 
   84.8750    65.6670     8.9170     6.9410     8.6540    22.9980     2.1870   -18.7230 
   85.0000    63.8260     8.9660     6.9340     8.7620    22.9740     2.1850   -18.6080 
   85.1250    62.0860     9.0110     6.9170     8.7030    22.9100     2.1860   -18.4820 
   85.2500    61.6680     9.0410     6.8800     8.4950    22.8150     2.1870   -18.3390 
   85.3750    61.4900     9.0300     6.8100     8.3130    22.7350     2.1870   -18.1800 
   85.5000    60.8410     8.9580     6.7030     8.2420    22.6680     2.1860   -17.9980 
   85.6250    61.2540     8.8190     6.5620     8.3050    22.5970     2.1860   -17.7900 
   85.7500    64.0670     8.6400     6.4070     8.4620    22.5440     2.1870   -17.5710 
   85.8750    67.2190     8.5040     6.2870     8.5020    22.5260     2.1890   -17.3550 
   86.0000    68.5240     8.5140     6.2600     8.2910    22.5290     2.1930   -17.1740 
   86.1250    68.7160     8.7340     6.3680     7.8560    22.5310     2.1980   -17.0750 
   86.2500    68.6310     9.1640     6.6160     7.4110    22.5020     2.2020   -17.0720 
   86.3750    67.3350     9.7130     6.9690     7.4410    22.4180     2.2030   -17.1470 
   86.5000    64.9600    10.2170     7.3370     8.1200    22.2930     2.2010   -17.2720 
   86.6250    62.6590    10.5260     7.6250     8.8730    22.1660     2.1980   -17.4210 
   86.7500    60.6660    10.5730     7.7710     8.9550    22.0370     2.1960   -17.5860 
   86.8750    59.2820    10.3690     7.7470     8.6490    21.8960     2.1940   -17.7460 
   87.0000    59.5930    10.0240     7.5890     8.4680    21.7840     2.1950   -17.8680 
   87.1250    61.6440     9.6510     7.3560     8.4430    21.7320     2.1980   -17.9160 
   87.2500    64.7680     9.3040     7.0880     8.3760    21.7230     2.2020   -17.8860 
   87.3750    68.2990     9.0050     6.8180     8.0720    21.7350     2.2060   -17.8090 
   87.5000    70.0280     8.7630     6.5740     7.6080    21.7590     2.2090   -17.7420 
   87.6250    68.7320     8.6000     6.3900     7.2230    21.7890     2.2110   -17.7280 
   87.7500    66.8470     8.5410     6.2940     7.0460    21.8300     2.2110   -17.7920 
   87.8750    67.8700     8.5970     6.3030     7.1030    21.9010     2.2100   -17.9450 
   88.0000    70.3550     8.7280     6.3950     7.3660    22.0190     2.2070   -18.1860 
   88.1250    70.0960     8.8680     6.5210     7.8230    22.1850     2.2040   -18.5050 
   88.2500    66.9030     8.9650     6.6350     8.5370    22.3940     2.1980   -18.8820 
   88.3750    64.4630     8.9830     6.6990     9.3340    22.6310     2.1900   -19.3060 
   88.5000    63.7030     8.9400     6.7110     9.6170    22.8550     2.1790   -19.7360 
   88.6250    63.0970     8.8750     6.6940     9.2020    22.9980     2.1690   -20.1240 
   88.7500    62.3440     8.8250     6.6780     8.7580    23.0500     2.1610   -20.4380 
   88.8750    62.7300     8.8160     6.6940     8.6820    23.0440     2.1600   -20.6620 
   89.0000    63.7930     8.8460     6.7490     8.7600    22.9880     2.1650   -20.7960 
   89.1250    64.0580     8.8940     6.8350     8.8530    22.8850     2.1710   -20.8360 
   89.2500    63.2840     8.9340     6.9340     8.9630    22.7560     2.1780   -20.7910 
   89.3750    62.6450     8.9460     7.0290     9.0320    22.6420     2.1830   -20.6630 
   89.5000    63.2460     8.9270     7.1120     8.9980    22.5270     2.1850   -20.4520 
   89.6250    65.0410     8.8900     7.1840     8.9370    22.4040     2.1870   -20.1740 
   89.7500    67.0330     8.8510     7.2500     8.9480    22.2850     2.1880   -19.8260 
   89.8750    67.0240     8.8130     7.3080     9.1200    22.2120     2.1900   -19.3860 
   90.0000    64.2740     8.7650     7.3410     9.5020    22.1830     2.1920   -18.8330 
   90.1250    60.9030     8.6750     7.3240    10.0540    22.1650     2.1930   -18.1760 
   90.2500    59.3680     8.5150     7.2290    10.4980    22.1410     2.1940   -17.4160 
   90.3750    60.2890     8.2620     7.0320     9.4960    22.0890     2.1980   -16.5320 
   90.5000    62.5980     7.9380     6.7450     7.9400    21.9640     2.2070   -15.5590 
   90.6250    65.2460     7.5800     6.4020     7.0460    21.7930     2.2230   -14.5410 
   90.7500    67.4000     7.2150     6.0330     6.6190    21.7790     2.2440   -13.5040 
   90.8750    68.7820     6.8490     5.6630     6.2760    22.0800     2.2660   -12.5090 
   91.0000    70.1210     6.4790     5.3130     5.8960    22.5550     2.2850   -11.6130 
   91.1250    70.7750     6.1170     5.0020     5.5010    22.9800     2.2980   -10.8490 
   91.2500    70.5000     5.8200     4.7630     5.1600    23.2160     2.3040   -10.2570 
   91.3750    71.1450     5.7440     4.6820     4.9270    23.1910     2.3080    -9.8740 
   91.5000    73.3860     6.0780     4.8660     4.9520    22.9340     2.3170    -9.6760 
   91.6250    74.9350     6.9950     5.4330     5.4580    22.6070     2.3360    -9.6310 
   91.7500    73.5180     8.5920     6.4840     6.6290    22.3460     2.3690    -9.7390 
   91.8750    69.6970    10.7830     8.0550     8.7030    22.1500     2.4100    -9.9930 
   92.0000    65.4650    13.0980     9.8950    12.2300    21.9710     2.4460   -10.3710 
   92.1250    62.5920    14.8560    11.5420    17.4600    21.8630     2.4610   -10.8330 
   92.2500    61.1350    15.4690    12.4940    21.9350    21.8700     2.4470   -11.3440 
   92.3750    60.9980    14.6270    12.3290    21.9000    21.9260     2.4070   -11.8750 
   92.5000    62.8150    12.8600    11.2790    18.0450    21.9570     2.3560   -12.4120 
   92.6250    65.3090    11.0550     9.9760    13.8800    21.9480     2.3110   -12.9530 
   92.7500    65.4990     9.7990     8.9030    11.1070    21.9220     2.2790   -13.4850 
   92.8750    62.8760     9.3070     8.2970     9.7110    21.8950     2.2610   -13.9650 
   93.0000    61.1350     9.3460     8.0760     9.1950    21.8680     2.2510   -14.3680 
   93.1250    62.3210     9.5600     8.0520     9.2520    21.8500     2.2440   -14.7000 
   93.2500    64.2700     9.7000     8.0700     9.5730    21.8440     2.2360   -14.9560 
   93.3750    65.0520     9.6420     8.0320     9.6960    21.8430     2.2270   -15.1310 
   93.5000    64.6910     9.5050     7.9740     9.6010    21.8390     2.2220   -15.2360 
   93.6250    63.5310     9.5940     8.0580     9.5820    21.8270     2.2250   -15.2730 
   93.7500    61.4090    10.2800     8.5220     9.8340    21.8080     2.2470   -15.2370 
   93.8750    58.7680    11.9930     9.6940    10.7590    21.8560     2.2940   -15.1460 
   94.0000    56.5900    14.7410    11.6760    13.2440    22.0860     2.3640   -15.0320 
   94.1250    55.2120    18.0320    14.2350    18.1830    22.5210     2.4410   -14.9230 
   94.2500    54.3480    21.0010    16.8150    26.7400    22.9800     2.5070   -14.8640 
   94.3750    54.4670    22.3270    18.3980    36.7440    23.2230     2.5370   -14.8980 
   94.5000    55.2550    21.3140    18.2090    42.8470    23.2480     2.5210   -15.0380 
   94.6250    55.0460    18.3640    16.2910    41.4450    23.1340     2.4680   -15.2930 
   94.7500    53.9290    14.6590    13.4740    32.9190    22.8810     2.3960   -15.6500 
   94.8750    54.9520    11.5950    10.8870    21.7380    22.6060     2.3250   -16.0900 
   95.0000    58.4300     9.7460     9.0870    13.8180    22.4270     2.2730   -16.5960 
   95.1250    60.4170     8.9710     8.0770    10.6270    22.3460     2.2440   -17.1260 
   95.2500    58.8290     8.9420     7.6910    10.1070    22.3270     2.2360   -17.6400 
   95.3750    56.1870     9.3110     7.7480    10.6950    22.3650     2.2400   -18.1150 
   95.5000    55.2790     9.7490     8.0150    11.9410    22.4680     2.2450   -18.5280 
   95.6250    56.1320    10.0420     8.2970    13.3520    22.6050     2.2420   -18.8730 
   95.7500    57.0170    10.1210     8.4860    12.9810    22.7330     2.2300   -19.1760 
   95.8750    57.0190    10.0100     8.5440    11.4180    22.8520     2.2150   -19.4280 
