~V
VERS. 2.00: Ver 2.00
~W
STRT.M 52.0000:
STOP.M 269.0000:
STEP.M 0.1250:
NULL. -999.2500:
UWI. F11071:
~C
DEPT.M :
GR.API :
RML.OHMM :
RI. :
RXO.OHMM :
CALI.CM :
DEN.GM/CC :
SP.MV :
~A
# ...
  254.5000    83.9620     9.8160     8.0790     9.7390    25.1000     2.2990    -3.4110 
  254.6250    82.0450    10.5970     8.7740    10.2460    25.0840     2.2980    -3.1150 
  254.7500    81.7570    11.5270     9.6260    10.7390    25.0830     2.2950    -2.7550 
  254.8750    81.6500    12.5670    10.6590    12.2130    25.1050     2.2920    -2.3810 
  255.0000    80.4870    13.5570    11.7960    14.5090    25.1360     2.2940    -2.0190 
  255.1250    78.2780    14.1270    12.7190    15.2250    25.1550     2.3070    -1.6880 
  255.2500    76.9840    14.0400    13.0470    14.9330    25.1780     2.3280    -1.3960 
  255.3750    78.0920    13.2210    12.5390    16.0100    25.2160     2.3480    -1.1780 
  255.5000    81.0520    11.8340    11.2740    16.8330    25.2550     2.3630    -1.0670 
  255.6250    84.5340    10.2370     9.6340    12.3170    25.2580     2.3710    -1.1030 
  255.7500    87.7410     8.8490     8.1310     7.8070    25.2830     2.3810    -1.2650 
  255.8750    91.5460     7.9000     6.9940     6.3580    25.3410     2.3960    -1.5280 
  256.0000    97.0590     7.5330     6.3310     6.1510    25.3660     2.4100    -1.8480 
  256.1250   101.8060     7.9930     6.3180     6.0570    25.3310     2.4130    -2.1960 
  256.2500   101.4150     9.3060     6.9780     6.4590    25.2300     2.4050    -2.5680 
  256.3750    95.8680    11.6200     8.4820     7.8000    25.1520     2.3970    -2.9640 
  256.5000    89.3910    15.0700    11.0770    11.4610    25.1210     2.4020    -3.3800 
  256.6250    86.0190    19.8390    15.2750    20.9190    25.1260     2.4290    -3.7570 
  256.7500    83.2180    25.3120    20.7980    32.0900    25.1160     2.4670    -4.0580 
  256.8750    79.1620    30.5670    26.8930    39.3790    25.0970     2.5050    -4.2800 
  257.0000    75.1190    34.3290    32.0930    42.6500    25.0770     2.5350    -4.4180 
  257.1250    71.2030    34.9520    34.2010    52.4270    25.0850     2.5590    -4.4270 
  257.2500    64.7400    32.6840    32.9200    71.3570    25.1270     2.5830    -4.3110 
  257.3750    55.5660    28.3260    28.8940    88.1490    25.1490     2.6040    -4.0760 
  257.5000    46.0860    23.0950    23.5210    87.9390    25.1220     2.6130    -3.7400 
  257.6250    38.5500    18.2500    18.3630    49.4150    25.0880     2.5960    -3.4080 
  257.7500    34.5690    14.3970    14.2340    22.0980    25.0450     2.5570    -3.1330 
  257.8750    35.5740    11.6640    11.2820    10.6050    25.0210     2.5090    -2.8950 
  258.0000    40.1360     9.9390     9.3640     7.9950    25.0190     2.4660    -2.6780 
  258.1250    44.8540     9.0850     8.3260     8.3020    25.0250     2.4400    -2.5040 
  258.2500    47.2310     8.7000     7.7830     8.6100    25.0250     2.4290    -2.4370 
  258.3750    47.2560     8.5740     7.5560     8.7630    25.0250     2.4260    -2.4620 
  258.5000    45.3220     8.5450     7.4970     8.7240    25.0250     2.4270    -2.5130 
  258.6250    43.6980     8.4990     7.4870     8.2920    25.0250     2.4260    -2.5240 
  258.7500    43.8140     8.3950     7.4500     7.9520    25.0250     2.4220    -2.4740 
  258.8750    44.1100     8.2350     7.3670     7.6290    25.0250     2.4160    -2.4000 
  259.0000    43.3290     8.0440     7.2460     7.3790    25.0250     2.4100    -2.3180 
  259.1250    43.3290     7.8590     7.1150     7.0280    25.0250     2.4060    -2.2370 
  259.2500    43.3290     7.7140     7.0050     6.8450    25.0250     2.4070    -2.1290 
  259.3750    43.3290     7.6260     6.9260     6.9480    25.0250     2.4100    -2.0110 
  259.5000    43.3290     7.5930     6.8740     6.9760    25.0160     2.4170    -1.8970 
  259.6250    43.3290     7.5980     6.8380     7.0040    24.9840     2.4240    -1.7440 
  259.7500    43.3290     7.6100     6.8000     7.0970    24.9320     2.4290    -1.5550 
  259.8750    43.3290     7.6120     6.7520     7.4140    24.8850     2.4290    -1.3800 
  260.0000    43.3290     7.5950     6.6890     7.4630    24.8340     2.4240    -1.2810 
  260.1250    43.3290     7.5420     6.5930     7.2390    24.8190     2.4170    -1.2420 
  260.2500    43.3290     7.4440     6.4550     7.0010    24.8700     2.4120    -1.1950 
  260.3750    43.3290     7.2910     6.2710     6.8620    24.9220     2.4110    -1.1390 
  260.5000    43.3290     7.0910     6.0540     7.1040    24.9560     2.4120    -1.1160 
  260.6250    43.3290     6.8830     5.8390     6.8000    25.0300     2.4110    -1.1100 
  260.7500    43.3290     6.7290     5.6690     6.4380    25.1840     2.4100    -1.1160 
  260.8750    43.3290     6.6800     5.5760     5.9520    25.2880     2.4130    -1.1360 
  261.0000    43.3290     6.7640     5.5830     5.6330    25.3250     2.4200    -1.1520 
  261.1250    43.3290     6.9920     5.7100     5.5930    25.3400     2.4270    -1.1220 
  261.2500    43.3290     7.2870     5.9200     5.8950    25.3530     2.4290    -1.0640 
  261.3750    43.3290     7.5730     6.1690     6.1260    25.3270     2.4250    -1.0060 
  261.5000    43.3290     7.7770     6.3910     6.5190    25.2710     2.4190    -0.9020 
  261.6250    43.3290     7.8200     6.4930     6.6030    25.2680     2.4110    -0.7770 
  261.7500    43.3290     7.7220     6.4590     6.3740    25.2860     2.4020    -0.6760 
  261.8750    43.3290     7.5200     6.3090     6.0790    25.2750     2.3890    -0.5620 
  262.0000    43.3290     7.2700     6.0940     5.8170    25.2790     2.3760    -0.3530 
  262.1250    43.3290     7.0420     5.8730     5.8310    25.3090     2.3740    -0.0540 
  262.2500    43.3290     6.8770     5.6890     5.7690    25.3430     2.3870     0.2510 
  262.3750    43.3290     6.7850     5.5510     5.9430    25.3520     2.4060     0.5430 
  262.5000    43.3290     6.7590     5.4620     6.0420    25.3170     2.4180     0.7950 
  262.6250    43.3290     6.7950     5.4300     5.7410    25.3180     2.4120     0.9500 
  262.7500    43.3290     6.8770     5.4450     5.3790    25.3470     2.3940     1.0080 
  262.8750    43.3290     7.0060     5.5070     5.4470    25.3790     2.3760     1.0160 
  263.0000    43.3290     7.1760     5.6120     5.8960    25.3870     2.3670     0.9170 
  263.1250    43.3290     7.3540     5.7530     7.2560    25.3630     2.3700     0.6920 
  263.2500    43.3290     7.4880     5.8940     8.1170    25.3270     2.3790     0.4280 
  263.3750    43.3290     7.5350     6.0000     7.5600    25.2850     2.3900     0.1970 
  263.5000    43.3290     7.4750     6.0370     6.6970    25.2530     2.4010    -0.0170 
  263.6250    43.3290     7.3040     5.9680     6.3990    25.2570     2.4090    -0.2000 
  263.7500    43.3290     7.0720     5.8190     6.2800    25.2590     2.4110    -0.2760 
  263.8750    43.3290     6.8150     5.6240     5.7540    25.2650     2.4030    -0.2340 
  264.0000    43.3290     6.5620     5.4270     5.2690    25.2720     2.3830    -0.1030 
  264.1250    43.3290     6.3540     5.2730     4.8610    25.2830     2.3560     0.0760 
  264.2500    43.3290     6.2110     5.1740     4.6080    25.3160     2.3340     0.2700 
  264.3750    43.3290     6.1430     5.1220     4.4140    25.3690     2.3250     0.4500 
  264.5000    43.3290     6.1400     5.1030     4.3020    25.4400     2.3290     0.6240 
  264.6250    43.3290     6.1830     5.1010     4.4200    25.4760     2.3370     0.8040 
  264.7500    43.3290     6.2380     5.1040     4.4640    25.4870     2.3360     0.9010 
  264.8750    43.3290     6.2820     5.1080     4.4660    25.4960     2.3220     0.8850 
  265.0000    43.3290     6.3060     5.1090     4.5960    25.4940     2.3050     0.7760 
  265.1250    43.3290     6.3090     5.1090     4.9210    25.5190     2.3010     0.5960 
  265.2500    43.3290     6.3080     5.1090     5.1830    25.5630     2.3160     0.3860 
  265.3750    43.3290     6.3080     5.1090     5.3790    25.5720     2.3390     0.1250 
  265.5000    43.3290     6.3080     5.1090     5.6410    25.4910     2.3570    -0.1700 
  265.6250    43.3290     6.3080     5.1090     5.5940    25.4340     2.3580    -0.4780 
