~V
VERS. 2.00: Ver 2.00
~W
STRT.M 50.0000:
STOP.M 281.0000:
STEP.M 0.1250:
NULL. -999.2500:
UWI. F11064:
~C
DEPT.M :
SP.MV :
GR.API :
RML.OHMM :
RI. :
RXO.OHMM :
CALI.CM :
DEN.GM/CC :
~A
# ...
  230.0000    -4.3010    70.3240    62.8910    59.2030    40.2440    23.9370     2.2130 
  230.1250    -4.1110    73.0100    63.0400    59.1090    46.6160    23.9040     2.2150 
  230.2500    -3.8940    74.7780    63.3390    59.0980    53.8670    24.1580     2.2200 
  230.3750    -3.6630    74.3840    63.4380    58.9540    59.5110    24.4890     2.2300 
  230.5000    -3.4320    72.5850    62.9570    58.3610    65.0520    24.7330     2.2430 
  230.6250    -3.2040    71.7040    61.6970    57.0400    66.8440    24.6980     2.2510 
  230.7500    -2.9970    72.3490    60.2080    55.3420    64.7560    24.5250     2.2500 
  230.8750    -2.8180    73.0400    59.1560    53.8130    59.9090    24.3490     2.2410 
  231.0000    -2.6600    72.6330    59.1470    53.0470    55.2650    24.1850     2.2290 
  231.1250    -2.5440    70.1870    60.7390    53.6700    56.3820    24.1120     2.2210 
  231.2500    -2.4670    67.0770    63.5490    58.5720    57.7470    24.0650     2.2150 
  231.3750    -2.4130    64.4980    67.0200    64.3310    53.3560    23.9880     2.2120 
  231.5000    -2.3470    61.5610    70.3330    67.0210    48.5010    23.9360     2.2110 
  231.6250    -2.2790    58.9150    72.3970    68.6200    50.8610    23.9810     2.2130 
  231.7500    -2.2230    58.3600    72.9710    68.8550    58.0970    24.1720     2.2160 
  231.8750    -2.1770    59.1460    72.3330    67.9510    63.8480    24.4820     2.2150 
  232.0000    -2.1370    58.7850    71.1310    66.4740    66.5580    24.7340     2.2110 
  232.1250    -2.1070    58.0310    70.0350    65.0340    66.5100    24.9330     2.2070 
  232.2500    -2.0990    58.6960    69.3510    63.9850    68.0290    25.0170     2.2040 
  232.3750    -2.0950    59.7370    69.1300    63.4750    71.9880    24.9250     2.2020 
  232.5000    -2.0980    60.4850    69.3130    63.4980    80.2130    24.7810     2.1970 
  232.6250    -2.1380    61.6390    69.8560    64.0010    91.4990    24.8420     2.1920 
  232.7500    -2.2120    61.3200    70.7530    64.8590    90.6230    24.9170     2.1890 
  232.8750    -2.3180    59.0260    72.1790    66.1130    87.0550    24.9270     2.1920 
  233.0000    -2.4370    58.7650    74.2280    67.7690    83.4560    24.7900     2.2070 
  233.1250    -2.5720    62.9130    76.6040    69.6410    73.7390    24.4020     2.2300 
  233.2500    -2.7010    66.7250    78.2830    71.0970    59.8380    23.9060     2.2360 
  233.3750    -2.8350    65.7840    77.8700    71.1380    53.4360    23.4940     2.2230 
  233.5000    -2.9650    62.7470    74.1520    68.6700    53.7560    23.4050     2.2130 
  233.6250    -3.0520    62.9360    66.9560    63.0470    60.7990    23.6190     2.2080 
  233.7500    -3.1170    64.6360    58.8550    56.0450    59.2400    23.7810     2.2110 
  233.8750    -3.1500    65.0710    51.7520    49.3280    53.0240    23.9560     2.2150 
  234.0000    -3.1580    64.1750    46.7520    44.1610    41.9790    24.2510     2.2190 
  234.1250    -3.1300    64.6100    44.6670    41.6060    36.8610    24.5980     2.2230 
  234.2500    -3.0900    65.4570    44.9860    41.3600    41.2240    24.8650     2.2240 
  234.3750    -3.0450    65.9000    47.3340    43.1370    46.3910    24.9560     2.2230 
  234.5000    -3.0220    66.2040    51.1130    46.4470    46.2360    24.8670     2.2210 
  234.6250    -3.0380    65.8760    55.3970    50.5590    43.2050    24.6640     2.2130 
  234.7500    -3.0690    64.3940    59.0760    54.4010    46.2170    24.3530     2.2150 
  234.8750    -3.1010    62.9440    61.9480    57.6150    47.4090    24.1050     2.2360 
  235.0000    -3.1230    62.5850    64.9180    60.7230    46.9330    24.0260     2.2820 
  235.1250    -3.1380    62.2640    70.2340    65.5630    48.1470    24.0990     2.3680 
  235.2500    -3.1640    61.8270    79.0370    73.5540    58.7010    24.3740     2.4900 
  235.3750    -3.1960    61.7690    89.9760    83.9760    86.6180    24.6520     2.6210 
  235.5000    -3.2120    61.3160    96.2360    91.3460   162.1620    24.7350     2.7120 
  235.6250    -3.2080    58.8870    83.8680    83.0960   239.6180    24.6860     2.7270 
  235.7500    -3.1960    56.4450    58.3590    60.9840   212.4790    24.6610     2.6870 
  235.8750    -3.1740    57.8640    33.9950    36.9910    90.2860    24.6940     2.6010 
  236.0000    -3.1300    63.0000    18.0430    19.9210    25.8370    24.7310     2.4840 
  236.1250    -3.0730    66.8460    10.3580    11.3590     9.4350    24.6910     2.3740 
  236.2500    -3.0040    66.9550     6.5520     7.1100     5.5750    24.5210     2.3050 
  236.3750    -2.9390    66.3210     4.7270     5.0350     4.6080    24.2940     2.2790 
  236.5000    -2.8960    67.1270     3.8830     4.0020     4.3680    24.1820     2.2810 
  236.6250    -2.8470    67.7290     3.5870     3.5860     4.4520    24.0940     2.2810 
  236.7500    -2.7970    66.9970     3.5100     3.4490     4.3310    23.9360     2.2590 
  236.8750    -2.7660    67.1500     3.5470     3.4620     4.1960    23.6870     2.2350 
  237.0000    -2.7530    70.7670     3.6590     3.5650     4.1000    23.2900     2.2320 
  237.1250    -2.7400    78.7570     3.8540     3.7540     4.5490    23.3460     2.2270 
  237.2500    -2.7120    86.2690     4.1070     4.0090     5.2670    24.1840     2.2260 
  237.3750    -2.6660    88.0490     4.3860     4.3070     5.6040    25.4030     2.2480 
  237.5000    -2.5860    84.4330     4.6550     4.6040     5.4830    26.1570     2.2920 
  237.6250    -2.4480    82.8840     4.8810     4.8440     6.0850    26.3580     2.3310 
  237.7500    -2.2890    85.8180     5.0630     5.0080     6.4930    26.5700     2.3490 
  237.8750    -2.1480    89.0770     5.2060     5.0950     6.6740    26.8260     2.3540 
  238.0000    -2.0220    91.0610     5.3180     5.1220     7.1100    26.9640     2.3530 
  238.1250    -1.8930    94.5270     5.3900     5.1000     7.3830    26.9780     2.3430 
  238.2500    -1.7920    99.8180     5.4260     5.0490     7.2910    26.9870     2.3290 
  238.3750    -1.7180   104.3530     5.4400     4.9860     7.0470    27.0610     2.3190 
  238.5000    -1.6350   109.2610     5.4680     4.9410     6.8560    27.0900     2.3180 
  238.6250    -1.5750   116.5100     5.5720     4.9590     7.0100    26.8680     2.3290 
  238.7500    -1.5240   121.3320     5.7790     5.0650     7.2310    26.4490     2.3440 
  238.8750    -1.4680   119.6470     6.1070     5.2750     7.4890    26.0040     2.3620 
  239.0000    -1.4130   113.9890     6.5470     5.5870     7.8150    25.6780     2.3860 
  239.1250    -1.3570   109.1150     7.0580     5.9770     8.4780    25.4390     2.4150 
  239.2500    -1.2990   104.3830     7.5420     6.3660     9.7160    25.1820     2.4350 
  239.3750    -1.2360    98.9200     7.9210     6.6860    10.9730    24.9890     2.4370 
  239.5000    -1.1790    95.7460     8.1530     6.8900    11.2180    24.8920     2.4290 
  239.6250    -1.1250    96.1690     8.2310     6.9490    10.2940    24.8390     2.4180 
  239.7500    -1.0800    95.7910     8.2560     6.9360     9.8780    24.8450     2.4080 
  239.8750    -1.0350    96.0090     8.2900     6.9050     9.5570    24.9010     2.3960 
  240.0000    -0.9810   101.2790     8.3350     6.8770     9.4810    24.9220     2.3850 
  240.1250    -0.9220   109.0870     8.3210     6.8260     9.9340    24.8580     2.3830 
  240.2500    -0.8420   111.4770     8.2410     6.7450    10.4330    24.7200     2.3810 
  240.3750    -0.7710   108.5750     8.2080     6.6950    11.0390    24.6010     2.3670 
  240.5000    -0.7590   104.7440     8.4340     6.8050    10.6090    24.5800     2.3410 
  240.6250    -0.7530   101.8960     9.2960     7.3200     9.6290    24.6420     2.3230 
  240.7500    -0.7270    98.3780    10.8930     8.3430    11.8760    24.5770     2.3290 
  240.8750    -0.6870    94.2290    13.1900     9.9360    18.6890    24.3680     2.3520 
  241.0000    -0.6520    88.9950    15.8740    12.0000    29.6830    24.0780     2.3700 
  241.1250    -0.5850    81.4840    18.1660    14.0930    30.5540    23.7940     2.3560 
