~V
VERS. 2.00: Ver 2.00
~W
STRT.M 55.0000:
STOP.M 275.0000:
STEP.M 0.1250:
NULL. -999.2500:
UWI. F11036:
~C
DEPT.M :
GR.API :
RML.OHMM :
RI. :
RXO.OHMM :
CALI.CM :
DEN.GM/CC :
SP.MV :
~A
# ...
  235.0000    75.5820    78.7950    78.0310    64.9370    24.3110     2.4070    -9.0580 
  235.1250    74.2300    68.9950    68.9130    69.3280    24.2930     2.4060    -8.4080 
  235.2500    70.7340    60.0440    60.3390    66.8230    24.2630     2.3960    -7.8130 
  235.3750    69.6320    52.8190    53.3100    52.4470    24.2140     2.3830    -7.3160 
  235.5000    75.1480    47.9420    48.5320    41.5470    24.2550     2.3670    -6.8010 
  235.6250    81.7370    46.0740    46.6940    39.1770    24.3860     2.3430    -6.3160 
  235.7500    80.8980    46.5280    47.1970    40.7450    24.3960     2.3120    -5.9000 
  235.8750    73.4940    48.6640    49.5440    45.9970    24.3880     2.2800    -5.4530 
  236.0000    65.2460    51.4830    52.8480    55.6510    24.4340     2.2570    -5.0410 
  236.1250    62.0700    53.5150    55.5020    58.7420    24.4710     2.2480    -4.7330 
  236.2500    62.8530    53.8600    56.2090    57.1210    24.4780     2.2470    -4.4460 
  236.3750    65.4980    52.4260    54.6920    55.5940    24.4620     2.2490    -4.1090 
  236.5000    67.7260    49.8850    51.7250    52.8650    24.4270     2.2510    -3.7780 
  236.6250    68.7020    47.4250    48.7110    47.8880    24.3910     2.2530    -3.5050 
  236.7500    69.9410    45.9700    46.7150    43.6630    24.3240     2.2540    -3.3170 
  236.8750    69.4890    45.8450    46.0940    42.5830    24.2320     2.2560    -3.3030 
  237.0000    67.0730    46.9690    46.7900    45.3750    24.1720     2.2590    -3.3520 
  237.1250    66.8900    49.0550    48.5460    50.5530    24.1470     2.2600    -3.3920 
  237.2500    72.0300    51.4360    50.6640    53.5760    24.1400     2.2620    -3.4410 
  237.3750    78.0580    53.7300    52.7350    52.9970    24.1680     2.2650    -3.5930 
  237.5000    79.4070    55.7080    54.5300    53.1940    24.2400     2.2690    -3.7870 
  237.6250    78.3530    57.2010    55.8930    54.7850    24.3230     2.2730    -3.8960 
  237.7500    80.3730    58.2310    56.8480    57.5490    24.3460     2.2730    -3.9960 
  237.8750    85.0180    58.7310    57.3350    63.5670    24.3330     2.2690    -4.0510 
  238.0000    89.9540    58.6430    57.2500    68.9030    24.3200     2.2620    -4.0250 
  238.1250    92.7150    57.9800    56.5060    65.6520    24.3060     2.2570    -3.9800 
  238.2500    92.9730    57.1260    55.5140    60.4130    24.2440     2.2550    -3.9740 
  238.3750    90.6360    56.3810    54.6510    58.7420    24.3090     2.2570    -3.9400 
  238.5000    86.7130    55.8510    54.0790    58.3560    24.4890     2.2610    -3.8920 
  238.6250    81.3650    55.2740    53.5990    56.0790    24.5810     2.2640    -3.8040 
  238.7500    75.9980    54.1390    52.6870    57.5350    24.6060     2.2650    -3.5810 
  238.8750    73.6310    52.0240    50.8440    58.7990    24.6060     2.2660    -3.3300 
  239.0000    75.6840    48.8070    47.8620    53.7560    24.6060     2.2680    -3.1190 
  239.1250    77.1330    44.7380    43.9760    44.3670    24.6050     2.2750    -2.9590 
  239.2500    75.4030    40.6520    40.0680    39.8050    24.6010     2.2860    -2.7300 
  239.3750    74.5310    37.1810    36.7790    35.8300    24.5830     2.3030    -2.4780 
  239.5000    75.7190    34.7180    34.5060    32.0110    24.5440     2.3220    -2.2870 
  239.6250    75.7200    33.4350    33.4430    29.6050    24.5220     2.3360    -2.1760 
  239.7500    73.9490    32.7500    33.0170    28.5890    24.5280     2.3370    -2.1360 
  239.8750    71.2570    32.1110    32.6380    27.7950    24.4930     2.3250    -2.0790 
  240.0000    68.4320    31.0420    31.7350    25.9630    24.4050     2.3040    -1.9920 
  240.1250    65.9970    29.2430    29.9260    23.6770    24.4010     2.2950    -1.8780 
  240.2500    66.4920    27.0090    27.5940    22.3830    24.4940     2.3090    -1.8090 
  240.3750    69.1320    24.6980    25.1680    21.8510    24.5830     2.3420    -1.7220 
  240.5000    72.5990    22.6450    23.0030    20.9800    24.6290     2.3790    -1.5540 
  240.6250    77.2100    21.1350    21.3750    19.9870    24.6240     2.3930    -1.3980 
  240.7500    80.1670    20.1110    20.2270    18.1030    24.5200     2.3780    -1.3050 
  240.8750    80.4230    19.4990    19.4810    16.1680    24.3540     2.3420    -1.2790 
  241.0000    80.0450    19.2110    19.0440    15.4810    24.3000     2.3060    -1.3610 
  241.1250    79.5130    19.2210    18.8950    16.1980    24.3610     2.2920    -1.5810 
  241.2500    78.8630    19.4480    18.9630    17.4480    24.3990     2.3050    -1.8600 
  241.3750    79.1260    19.8610    19.2200    18.7620    24.4000     2.3360    -2.2020 
  241.5000    80.0560    20.4310    19.6250    19.0620    24.3890     2.3710    -2.6340 
  241.6250    78.2710    21.1570    20.1560    17.8070    24.3840     2.3890    -3.0670 
  241.7500    75.6770    22.0170    20.7860    16.7750    24.2930     2.3850    -3.5160 
  241.8750    76.2300    23.0180    21.5290    16.8870    24.1660     2.3650    -3.9820 
  242.0000    78.8970    24.1420    22.3950    18.4740    24.1560     2.3370    -4.4390 
  242.1250    79.0150    25.2990    23.3450    21.5560    24.2020     2.3090    -4.7860 
  242.2500    75.9610    26.3210    24.2310    24.7730    23.8300     2.2800    -5.1170 
  242.3750    72.4150    27.0750    24.9110    26.8140    23.5550     2.2460    -5.5210 
  242.5000    70.2870    27.5540    25.3230    27.2340    23.5370     2.2170    -5.9630 
  242.6250    69.3550    28.0280    25.6350    26.2830    23.8000     2.2190    -6.4230 
  242.7500    68.6990    29.0040    26.3020    25.9300    24.1960     2.2700    -6.8240 
  242.8750    70.0760    30.8720    27.7690    26.4680    24.4580     2.3670    -7.1610 
  243.0000    73.3090    33.6160    30.2250    29.6180    24.5740     2.4830    -7.4450 
  243.1250    73.7840    36.3600    33.1800    40.5500    24.5930     2.5620    -7.7360 
  243.2500    69.6730    37.6210    35.0330    61.8980    24.5790     2.5770    -7.9980 
  243.3750    64.2180    36.4150    34.3350    73.3940    24.5480     2.5320    -8.1470 
  243.5000    62.9550    32.8240    30.9160    53.5800    24.5500     2.4570    -8.2210 
  243.6250    66.9110    28.0350    26.2070    30.3580    24.5700     2.3890    -8.2540 
  243.7500    72.0360    23.8020    22.1030    18.5140    24.5950     2.3450    -8.2810 
  243.8750    75.1620    20.8780    19.2250    16.6260    24.6040     2.3240    -8.3250 
  244.0000    77.8670    19.3150    17.5780    17.3670    24.6060     2.3190    -8.3760 
  244.1250    80.4130    18.8250    16.9670    18.4370    24.6060     2.3180    -8.3960 
  244.2500    80.8950    18.7350    16.8190    18.0800    24.6050     2.3100    -8.3810 
  244.3750    79.6960    18.8130    16.8710    17.7780    24.5990     2.2950    -8.3340 
  244.5000    79.5580    19.1670    17.1170    17.5870    24.5830     2.2850    -8.2370 
  244.6250    81.3460    20.4470    17.9900    17.3010    24.5920     2.3120    -8.1290 
  244.7500    81.2360    23.1180    19.9590    17.3940    24.6290     2.3830    -7.9580 
  244.8750    76.8670    27.2770    23.3900    19.2530    24.6560     2.4810    -7.6930 
  245.0000    70.7490    32.0800    28.0090    23.8080    24.6220     2.5660    -7.2600 
  245.1250    65.5620    35.0210    31.6210    34.6450    24.5010     2.5890    -6.6930 
  245.2500    60.9920    34.2020    31.2430    52.4990    24.3850     2.5540    -6.0460 
  245.3750    57.3320    29.5340    26.4000    65.3040    24.3390     2.4900    -5.3170 
  245.5000    56.5160    22.7890    19.6980    53.7070    24.3310     2.4290    -4.5200 
  245.6250    57.8400    16.4500    14.2240    29.6950    24.3540     2.3950    -3.6070 
  245.7500    59.7360    11.7890    10.5970    14.7130    24.3630     2.3780    -2.6920 
  245.8750    65.2030     8.9820     8.4640     8.7650    24.3390     2.3650    -1.8790 
  246.0000    72.7750     7.7370     7.3750     7.1000    24.2510     2.3520    -1.2520 
  246.1250    75.5410     7.5860     7.0790     6.9760    24.1360     2.3440    -0.7300 
