~V
VERS. 2.00: Ver 2.00
~W
STRT.M 55.0000:
STOP.M 236.0000:
STEP.M 0.1250:
NULL. -999.2500:
UWI. F11015:
~C
DEPT.M :
GR.API :
RML.OHMM :
RI. :
RXO.OHMM :
CALI.CM :
DEN.GM/CC :
SP.MV :
~A
# ...
  178.7500    52.8600    10.7010    11.3010     9.5950    24.4140     2.5860   -14.2580 
  178.8750    54.0030     6.8310     6.8090     5.7660    24.3390     2.4890   -14.0970 
  179.0000    52.2470     5.2050     4.8510     4.7310    24.2990     2.4070   -14.0870 
  179.1250    50.2560     4.7970     4.2670     4.5850    24.2810     2.3580   -14.1480 
  179.2500    48.3520     4.8530     4.4540     4.6800    24.2580     2.3350   -14.1870 
  179.3750    45.7800     5.0930     4.6100     4.9090    24.2460     2.3390   -14.2450 
  179.5000    43.5730     5.3510     4.8920     5.1950    24.2400     2.3650   -14.4650 
  179.6250    45.3800     5.5600     5.1870     5.4110    24.2340     2.3990   -14.8780 
  179.7500    49.7550     5.7310     5.4490     5.5810    24.2330     2.4210   -15.2850 
  179.8750    52.9340     5.8740     5.6680     5.7910    24.2420     2.4240   -15.5870 
  180.0000    52.8480     5.9900     5.8340     6.0150    24.2510     2.4160   -15.8680 
  180.1250    48.9300     6.0690     5.9250     6.1550    24.2610     2.4050   -16.1850 
  180.2500    45.4200     6.1170     5.9410     6.0820    24.2590     2.3940   -16.5090 
  180.3750    45.5320     6.1410     5.8880     5.9270    24.2500     2.3900   -16.7450 
  180.5000    49.2090     6.1500     5.7850     5.7470    24.2490     2.3930   -16.7890 
  180.6250    52.9170     6.1540     5.6600     5.7450    24.2630     2.4010   -16.6670 
  180.7500    55.0220     6.1650     5.5490     5.9860    24.2750     2.4070   -16.5150 
  180.8750    56.6170     6.2000     5.4740     6.2720    24.2600     2.4100   -16.3480 
  181.0000    57.0360     6.2690     5.4440     6.4190    24.2390     2.4100   -16.0810 
  181.1250    56.2840     6.3690     5.4540     6.3070    24.2290     2.4120   -15.6930 
  181.2500    57.2620     6.4600     5.4660     6.3480    24.2280     2.4170   -15.3030 
  181.3750    59.1300     6.5000     5.4480     6.4790    24.2310     2.4260   -15.0310 
  181.5000    58.6600     6.4690     5.3820     6.4820    24.2400     2.4390   -14.8780 
  181.6250    55.8110     6.3920     5.2840     6.3280    24.2430     2.4480   -14.7470 
  181.7500    53.8710     6.3470     5.2080     6.0830    24.2380     2.4460   -14.6220 
  181.8750    53.5410     6.3970     5.1980     5.9010    24.2290     2.4330   -14.5970 
  182.0000    53.1900     6.5750     5.2850     5.9610    24.2260     2.4160   -14.7190 
  182.1250    51.4130     6.8790     5.4850     6.6100    24.2250     2.4030   -14.9380 
  182.2500    50.6410     7.2090     5.7340     7.1460    24.2180     2.3980   -15.1370 
  182.3750    52.7960     7.4820     5.9650     7.3620    24.2170     2.3960   -15.2460 
  182.5000    55.8350     7.6390     6.1210     7.3810    24.2200     2.3930   -15.3360 
  182.6250    55.9470     7.6750     6.1710     7.3100    24.2380     2.3910   -15.5320 
  182.7500    55.0520     7.6810     6.1640     7.1690    24.2620     2.3920   -15.8180 
  182.8750    56.4400     7.7190     6.1490     7.1690    24.2800     2.3990   -16.0840 
  183.0000    58.6360     7.8160     6.1580     7.4050    24.2960     2.4120   -16.2810 
  183.1250    61.2780     7.9690     6.2090     7.5340    24.3000     2.4300   -16.4700 
  183.2500    66.7830     8.1590     6.2950     7.5790    24.3020     2.4460   -16.7630 
  183.3750    75.1040     8.3880     6.4140     7.6000    24.3100     2.4550   -17.2120 
  183.5000    83.3000     8.6630     6.5620     7.5230    24.3420     2.4540   -17.7210 
  183.6250    87.4940     8.9780     6.7390     7.6230    24.3300     2.4390   -18.1900 
  183.7500    89.0320     9.2820     6.9220     8.1040    24.2940     2.4210   -18.6460 
  183.8750    90.0150     9.5230     7.0820     8.5290    24.2770     2.4060   -19.1750 
  184.0000    90.4930     9.6730     7.1910     8.4720    24.2670     2.4000   -19.7960 
  184.1250    92.4230     9.7260     7.2310     8.5070    24.2670     2.3990   -20.4310 
  184.2500    96.6820     9.7230     7.2210     8.5230    24.2710     2.3990   -21.0110 
  184.3750   101.4040     9.6730     7.1690     8.6210    24.2670     2.4020   -21.5490 
  184.5000   103.5720     9.5780     7.0800     8.6170    24.2620     2.4080   -22.1520 
  184.6250   101.1260     9.4360     6.9460     8.4700    24.2510     2.4150   -22.8580 
  184.7500    97.8860     9.2760     6.7890     8.3450    24.2420     2.4170   -23.5490 
  184.8750    95.4950     9.1410     6.6460     8.0830    24.2390     2.4100   -24.1580 
  185.0000    95.2020     9.0900     6.5670     7.8150    24.2490     2.3980   -24.7580 
  185.1250    99.2260     9.2010     6.6170     8.0440    24.2580     2.3890   -25.4350 
  185.2500   103.8160     9.4600     6.7850     8.3440    24.2670     2.3820   -26.1740 
  185.3750   104.7860     9.8240     7.0480     8.6350    24.2760     2.3740   -26.9030 
  185.5000   101.1640    10.2270     7.3600     8.9390    24.2610     2.3620   -27.4920 
  185.6250    97.8870    10.5660     7.6570     9.3530    24.2840     2.3520   -27.8300 
  185.7500    98.7550    10.7880     7.8810     9.4700    24.3640     2.3460   -28.0290 
  185.8750    99.7640    10.8960     8.0020     9.3070    24.4720     2.3440   -28.1450 
  186.0000    96.4990    10.9360     8.0280     9.1950    24.5370     2.3460   -28.0710 
  186.1250    93.1330    10.9490     7.9830     9.3910    24.5420     2.3560   -27.6790 
  186.2500    94.2080    10.9300     7.9060     9.2690    24.5310     2.3710   -27.0330 
  186.3750    97.5670    10.8150     7.7850     9.1380    24.5040     2.3870   -26.1680 
  186.5000    98.8230    10.5250     7.5780     9.2030    24.4680     2.4000   -25.2210 
  186.6250    98.5160     9.9950     7.2300     9.1850    24.4680     2.4130   -24.3360 
  186.7500    98.4550     9.3580     6.8060     8.5730    24.5140     2.4230   -23.4530 
  186.8750    98.3910     8.7970     6.4160     7.6210    24.5350     2.4310   -22.5120 
  187.0000    97.1050     8.5120     6.1880     6.6670    24.4300     2.4380   -21.6130 
  187.1250    94.5280     8.7370     6.2780     6.1210    24.1980     2.4470   -20.9110 
  187.2500    91.1760     9.4080     6.6740     5.9410    24.0230     2.4540   -20.3890 
  187.3750    89.2450    10.3430     7.3060     6.1720    23.9450     2.4510   -20.0460 
  187.5000    89.0540    11.1930     7.9830     6.6330    23.8660     2.4360   -19.7700 
  187.6250    86.8530    11.3880     8.3250     6.9890    23.6360     2.4150   -19.4800 
  187.7500    82.2400    10.7930     8.1400     7.4500    23.2640     2.3960   -19.2630 
  187.8750    76.2710     9.6120     7.4780     7.9830    22.9400     2.3860   -19.2150 
  188.0000    69.6340     8.2750     6.5980     7.4800    23.0370     2.3860   -19.3180 
  188.1250    63.7680     7.2350     5.8040     6.2000    23.5330     2.3940   -19.4790 
  188.2500    60.6990     6.6010     5.2330     5.4690    23.9310     2.3990   -19.6290 
  188.3750    60.0490     6.3330     4.9080     5.1230    24.0560     2.3940   -19.7460 
  188.5000    60.2980     6.3390     4.8070     5.0220    24.0330     2.3790   -19.8970 
  188.6250    63.9660     6.5410     4.9130     5.0820    23.9810     2.3570   -20.1730 
  188.7500    70.3390     6.8260     5.1400     5.1840    23.9600     2.3370   -20.5040 
  188.8750    75.4510     7.1370     5.4330     5.4210    23.9670     2.3320   -20.7570 
  189.0000    77.1790     7.4270     5.7360     6.0850    23.9870     2.3480   -20.8430 
  189.1250    77.6180     7.6140     5.9720     6.5210    23.9840     2.3730   -20.7590 
  189.2500    79.9670     7.6650     6.1000     5.9830    23.9640     2.3890   -20.5890 
  189.3750    83.2880     7.5910     6.1160     5.1820    23.9530     2.3960   -20.3790 
  189.5000    84.2220     7.4390     6.0460     4.8960    23.9510     2.4030   -20.1040 
  189.6250    82.4970     7.2640     5.9260     4.9980    23.9560     2.4130   -19.6380 
  189.7500    82.6200     7.1110     5.8000     5.0360    23.9900     2.4190   -19.0170 
  189.8750    86.2980     6.9840     5.6870     5.0330    24.0780     2.4170   -18.3730 
