~V
VERS. 2.00: Ver 2.00
~W
STRT.M 53.0000:
STOP.M 287.0000:
STEP.M 0.1250:
NULL. -999.2500:
UWI. F11059:
~C
DEPT.M :
GR.API :
RML.OHMM :
RI. :
RXO.OHMM :
CALI.CM :
DEN.GM/CC :
SP.MV :
~A
# ...
  154.2500    71.0100    11.6440     9.9370    13.5640    24.1150     2.3690   -11.0250 
  154.3750    75.6470    10.3200     8.7830     9.9940    24.0170     2.3200   -11.1730 
  154.5000    76.2510     9.1950     7.8660     8.8620    23.9650     2.2920   -11.2490 
  154.6250    75.7340     8.3730     7.2020     8.5200    24.1280     2.2900   -11.2500 
  154.7500    76.1790     7.8340     6.7520     8.1580    24.4790     2.3130   -11.1790 
  154.8750    79.9370     7.5120     6.4710     7.2710    24.6710     2.3530   -11.0520 
  155.0000    84.7210     7.2860     6.2680     6.6980    24.7090     2.3940   -10.8800 
  155.1250    88.2380     7.1120     6.0960     6.6370    24.6880     2.4230   -10.6720 
  155.2500    88.9590     6.9710     5.9260     6.6280    24.6660     2.4280   -10.4640 
  155.3750    92.1500     6.8540     5.7300     6.4350    24.6670     2.4050   -10.3000 
  155.5000    99.2810     6.7280     5.5060     6.0130    24.7040     2.3680   -10.1750 
  155.6250   104.7500     6.5700     5.2780     5.4620    24.7850     2.3350   -10.0940 
  155.7500   104.0420     6.3800     5.0820     5.1110    24.8890     2.3180   -10.0320 
  155.8750    97.7680     6.2130     4.9590     5.1950    24.9610     2.3240   -10.0140 
  156.0000    93.6990     6.1290     4.8910     5.3080    24.9330     2.3430   -10.0260 
  156.1250    95.1320     6.1530     4.8520     5.3380    24.8780     2.3640   -10.0600 
  156.2500    98.8480     6.2600     4.8160     5.3910    24.8480     2.3810   -10.0980 
  156.3750    99.1850     6.3800     4.7740     5.4960    24.8520     2.3880   -10.1360 
  156.5000    97.1040     6.4420     4.7360     5.5120    24.8600     2.3870   -10.1700 
  156.6250    95.2560     6.4250     4.7110     5.4810    24.8650     2.3790   -10.2040 
  156.7500    93.5650     6.3490     4.7020     5.4310    24.8630     2.3680   -10.2420 
  156.8750    91.7370     6.2590     4.7150     5.4100    24.8560     2.3560   -10.2710 
  157.0000    91.2680     6.1940     4.7490     5.3110    24.8510     2.3480   -10.3050 
  157.1250    92.2580     6.1620     4.8030     5.1930    24.8490     2.3420   -10.3230 
  157.2500    93.4990     6.1530     4.8690     5.1520    24.8530     2.3380   -10.3280 
  157.3750    93.9880     6.1580     4.9390     5.2700    24.8620     2.3380   -10.3150 
  157.5000    92.8700     6.1660     5.0010     5.4190    24.8630     2.3420   -10.2880 
  157.6250    91.7370     6.1720     5.0400     5.4530    24.8580     2.3510   -10.2600 
  157.7500    93.5560     6.1700     5.0370     5.4070    24.8530     2.3620   -10.2470 
  157.8750    97.5490     6.1470     4.9650     5.3680    24.8510     2.3670   -10.2370 
  158.0000    98.1890     6.1000     4.8370     5.2890    24.8520     2.3640   -10.2270 
  158.1250    95.9320     6.0300     4.6830     5.1880    24.8590     2.3560   -10.2090 
  158.2500    96.2250     5.9480     4.5340     5.1330    24.8610     2.3490   -10.1570 
  158.3750   102.7480     5.8770     4.4170     5.0780    24.8490     2.3510   -10.0760 
  158.5000   109.9430     5.8330     4.3240     4.9550    24.8260     2.3600   -10.0100 
  158.6250   112.6930     5.8210     4.2470     4.8070    24.8100     2.3690    -9.9430 
  158.7500   110.6430     5.8280     4.1830     4.7130    24.8030     2.3760    -9.8720 
  158.8750   105.4780     5.8280     4.1370     4.7350    24.8020     2.3750    -9.7980 
  159.0000   100.0720     5.8010     4.1090     4.8210    24.8080     2.3690    -9.7190 
  159.1250    96.7480     5.7400     4.1030     4.8930    24.8150     2.3610    -9.6620 
  159.2500    96.5080     5.6520     4.1180     5.0000    24.8180     2.3540    -9.6350 
  159.3750    97.6630     5.5570     4.1480     5.1120    24.8120     2.3540    -9.6200 
  159.5000    98.4470     5.4810     4.1820     4.9520    24.8060     2.3590    -9.5750 
  159.6250    98.7830     5.4370     4.2130     4.5900    24.8020     2.3680    -9.5160 
  159.7500    98.9400     5.4250     4.2360     4.3310    24.8030     2.3760    -9.4470 
  159.8750    99.3670     5.4300     4.2530     4.1910    24.8070     2.3800    -9.3640 
  160.0000    99.0330     5.4290     4.2750     4.2100    24.8130     2.3790    -9.2800 
  160.1250    96.4280     5.4190     4.3070     4.2720    24.8110     2.3780    -9.1890 
  160.2500    93.4450     5.4060     4.3460     4.3280    24.8030     2.3760    -9.0930 
  160.3750    95.8130     5.4110     4.3910     4.3840    24.8000     2.3750    -8.9980 
  160.5000   100.2510     5.4380     4.4490     4.4320    24.8020     2.3730    -8.9070 
  160.6250   101.8690     5.4820     4.5210     4.4510    24.8080     2.3700    -8.8230 
  160.7500   100.9810     5.5370     4.6010     4.4680    24.8070     2.3670    -8.7490 
  160.8750   100.1790     5.6110     4.6850     4.5480    24.7880     2.3630    -8.6900 
  161.0000    98.8300     5.7190     4.7640     4.6520    24.7700     2.3610    -8.6360 
  161.1250    94.8560     5.8660     4.8270     4.6710    24.7580     2.3600    -8.6030 
  161.2500    89.9980     6.0280     4.8600     4.7390    24.7500     2.3610    -8.5910 
  161.3750    89.1800     6.1280     4.8260     4.9610    24.7330     2.3640    -8.6150 
  161.5000    91.3680     6.0970     4.6970     5.2860    24.7120     2.3620    -8.6920 
  161.6250    93.3440     5.9140     4.4730     5.1280    24.7050     2.3560    -8.7990 
  161.7500    93.4550     5.6450     4.2200     4.9580    24.7110     2.3490    -8.9110 
  161.8750    93.9660     5.4750     4.1180     5.1980    24.7020     2.3530    -9.0370 
  162.0000    93.0000     5.6060     4.3500     5.8410    24.6580     2.3710    -9.1680 
  162.1250    87.1070     6.2410     5.1400     7.6440    24.5720     2.3910    -9.2850 
  162.2500    76.2290     7.6180     6.7900    12.1740    24.4800     2.3960    -9.3970 
  162.3750    66.9680    10.2520     9.8620    22.9840    24.4460     2.3670    -9.4890 
  162.5000    63.4820    14.0670    14.1030    31.4460    24.4730     2.3130    -9.5420 
  162.6250    64.0010    18.3620    18.3980    33.3470    24.5240     2.2530    -9.5660 
  162.7500    65.1410    21.6210    20.7720    32.4470    24.5850     2.2070    -9.5600 
  162.8750    68.0020    22.0550    19.9590    30.1890    24.6520     2.1890    -9.5350 
  163.0000    72.7900    20.4080    17.9340    25.4410    24.6960     2.1870    -9.5010 
  163.1250    74.7770    18.1750    16.1720    19.7430    24.7360     2.1900    -9.4730 
  163.2500    70.8220    16.6660    15.3500    16.2000    24.8210     2.1870    -9.4600 
  163.3750    67.2130    16.5880    15.7040    24.2590    24.9820     2.1780    -9.4670 
  163.5000    69.1200    17.5220    16.7270    36.2470    25.1080     2.1690    -9.4980 
  163.6250    72.7880    18.8950    17.7970    40.0900    25.1430     2.1700    -9.5440 
  163.7500    74.4860    19.8900    18.1350    32.0880    25.0840     2.1820    -9.6050 
  163.8750    75.1080    19.5430    17.0670    21.4680    25.0010     2.2080    -9.6680 
  164.0000    76.8970    17.9690    15.1560    16.6120    24.9900     2.2420    -9.7300 
  164.1250    79.3030    15.7360    13.0640    14.4960    25.0330     2.2800    -9.7860 
  164.2500    82.6580    13.5340    11.2350    12.3340    25.0830     2.3160    -9.8270 
  164.3750    86.1260    11.8690     9.8820     8.9960    25.1190     2.3430    -9.8800 
  164.5000    86.8590    10.7210     8.9380     7.1680    25.1420     2.3600    -9.9380 
  164.6250    86.0170    10.0070     8.3850     6.6390    25.1470     2.3670    -9.9960 
  164.7500    86.9990     9.6500     8.1880     6.8690    25.1250     2.3690   -10.0790 
  164.8750    89.4530     9.6360     8.3170     7.6860    25.0760     2.3680   -10.1810 
  165.0000    89.9590     9.8490     8.6110     8.5160    25.0320     2.3670   -10.2920 
  165.1250    89.8740    10.2080     8.9510     8.9330    25.0090     2.3670   -10.4110 
  165.2500    89.9040    10.6000     9.2310     8.9780    24.9990     2.3700   -10.5350 
  165.3750    89.5650    10.8650     9.3490     8.8790    24.9970     2.3750   -10.6180 
