~V
VERS. 2.00: Ver 2.00
~W
STRT.M 55.0000:
STOP.M 280.0000:
STEP.M 0.1250:
NULL. -999.2500:
UWI. F11032:
~C
DEPT.M :
DEN.GM/CC :
GR.API :
RML.OHMM :
RI. :
RXO.OHMM :
CALI.CM :
SP.MV :
~A
# ...
  178.7500     2.2140    62.0200    84.0190    77.4760    62.5470    24.8390   -25.5100 
  178.8750     2.2170    61.7070    85.6410    77.8190    63.7820    24.9190   -25.6180 
  179.0000     2.2180    60.7110    88.5640    79.9230    70.0220    25.0950   -25.8170 
  179.1250     2.2170    57.5250    91.2930    82.9160    77.6990    25.1170   -25.9770 
  179.2500     2.2140    53.6530    92.2800    85.2060    77.8440    25.0750   -26.1340 
  179.3750     2.2110    50.1520    90.6850    85.5870    74.0960    24.9440   -26.3310 
  179.5000     2.2080    49.0740    86.6690    83.5720    73.6090    24.6500   -26.4800 
  179.6250     2.2080    53.4740    81.3270    79.6020    69.7530    24.1130   -26.5730 
  179.7500     2.2100    59.5190    76.4070    75.3840    64.4890    23.9340   -26.6810 
  179.8750     2.2140    61.6030    72.8750    72.0930    61.4960    24.0030   -26.7610 
  180.0000     2.2190    59.9000    71.2680    70.5080    59.9390    24.0940   -26.8020 
  180.1250     2.2240    60.0270    72.1100    71.2490    56.7010    24.1120   -26.8470 
  180.2500     2.2260    61.7620    74.6470    73.6450    53.1990    24.1250   -26.8340 
  180.3750     2.2250    60.4540    77.8900    76.8080    54.6750    24.1670   -26.7480 
  180.5000     2.2210    56.4880    80.5050    79.5030    63.2490    24.1930   -26.6900 
  180.6250     2.2150    56.1910    81.0470    80.2890    70.9740    24.2380   -26.6620 
  180.7500     2.2100    60.9090    79.9920    79.3470    65.7810    24.3370   -26.5790 
  180.8750     2.2080    66.1960    78.7110    77.7440    59.4480    24.5020   -26.5100 
  181.0000     2.2090    67.9070    78.7670    77.0110    54.8070    24.8740   -26.4740 
  181.1250     2.2140    66.4230    81.1990    78.5980    58.1000    25.0880   -26.4200 
  181.2500     2.2190    62.9350    84.8790    81.8890    67.5340    25.1270   -26.3970 
  181.3750     2.2210    58.2860    88.3380    85.4920    88.4070    25.1280   -26.4650 
  181.5000     2.2180    55.1970    90.3110    87.7930   115.1570    25.1110   -26.5940 
  181.6250     2.2140    57.0560    90.5300    87.9400   111.9630    25.0550   -26.7070 
  181.7500     2.2110    59.8900    91.1540    87.9000    81.6430    25.0470   -26.8370 
  181.8750     2.2120    59.0890    94.8020    90.4240    63.1120    25.0450   -27.0050 
  182.0000     2.2120    55.1510   103.7440    98.1480    67.4490    25.0410   -27.1470 
  182.1250     2.2080    51.4780   120.3540   113.9700   134.9860    25.0140   -27.2510 
  182.2500     2.1990    48.0700   149.1550   136.6460   248.8750    24.9270   -27.3840 
  182.3750     2.1890    45.2670   182.5530   163.8780   261.8180    24.8340   -27.4590 
  182.5000     2.1810    45.5190   208.3690   190.6750   213.9080    24.5570   -27.3960 
  182.6250     2.1770    48.3340   220.6890   206.7690   238.7560    24.3840   -27.2640 
  182.7500     2.1720    50.4380   214.4710   205.8530   414.1980    24.2740   -27.0560 
  182.8750     2.1640    51.3520   190.9040   187.1670   751.1730    24.2140   -26.7200 
  183.0000     2.1560    52.2680   158.3840   157.3460   715.4170    24.0670   -26.3440 
  183.1250     2.1550    52.5000   129.3510   127.8630   323.0820    24.0430   -26.0000 
  183.2500     2.1620    51.5540   110.6920   106.7000   136.0730    24.0360   -25.6070 
  183.3750     2.1740    50.9500   103.7110    95.9540    72.5290    24.0360   -25.2100 
  183.5000     2.1830    51.2700   106.8470    94.8030    62.6020    24.0310   -24.9010 
  183.6250     2.1820    53.1030   115.2840   101.6120    83.0120    24.0070   -24.6520 
  183.7500     2.1720    54.6500   120.3020   111.1690   117.4900    23.9570   -24.4480 
  183.8750     2.1600    53.3250   128.3550   119.0380   129.0820    23.9460   -24.3230 
  184.0000     2.1530    51.3660   129.7320   121.7050   113.8330    23.9320   -24.2280 
  184.1250     2.1570    53.9640   124.8870   118.3510    94.7130    23.8590   -24.1230 
  184.2500     2.1680    58.0740   119.5300   113.3770    84.4200    23.8100   -24.0160 
  184.3750     2.1820    59.2920   117.0110   109.8920    85.7210    23.8030   -23.9270 
  184.5000     2.1930    58.7620   118.5380   109.3520    89.8080    23.8050   -23.8040 
  184.6250     2.1980    61.0050   124.1190   112.1490    85.6280    23.8050   -23.6480 
  184.7500     2.1980    63.8220   131.5360   116.8320    80.2960    23.8080   -23.5260 
  184.8750     2.1990    63.5320   139.3960   122.3560    79.8480    23.8200   -23.4080 
  185.0000     2.2020    60.3670   147.0880   127.9800    85.7580    23.8620   -23.2710 
  185.1250     2.2050    57.7950   154.7710   133.4200    93.9080    23.8690   -23.1520 
  185.2500     2.2050    56.1500   162.6880   138.7660   104.7240    23.8760   -23.0380 
  185.3750     2.2010    55.5810   170.7440   144.0910   120.0870    23.9090   -22.8970 
  185.5000     2.1920    55.8510   178.6270   149.3970   139.8520    24.0360   -22.7870 
  185.6250     2.1810    56.7810   185.9490   154.6400   154.9280    24.2730   -22.7100 
  185.7500     2.1730    57.2740   192.6860   159.8270   161.1330    24.5380   -22.5970 
  185.8750     2.1700    56.2270   198.8020   164.9870   159.7500    24.7910   -22.4700 
  186.0000     2.1730    55.0530   204.2780   170.2330   160.0190    24.8730   -22.3460 
  186.1250     2.1800    56.0340   209.3950   175.8350   164.0940    24.8480   -22.1850 
  186.2500     2.1850    57.7440   214.3330   181.6330   174.0940    24.7800   -22.0060 
  186.3750     2.1860    57.7350   217.2860   186.1960   180.3430    24.7300   -21.8450 
  186.5000     2.1850    55.8120   213.5370   185.8620   179.6780    24.6510   -21.6720 
  186.6250     2.1840    55.3270   194.7120   173.4190   172.9080    24.5470   -21.4520 
  186.7500     2.1860    57.1730   162.4100   148.5120   168.9340    24.3340   -21.2040 
  186.8750     2.1930    60.7150   123.6500   115.5170   149.0750    23.9360   -20.9430 
  187.0000     2.2070    65.0330    87.5780    82.4670    94.6060    24.1970   -20.6870 
  187.1250     2.2280    68.7580    61.5680    57.5470    49.6070    24.2090   -20.4070 
  187.2500     2.2540    70.3420    44.6510    41.2560    25.1930    24.1870   -20.1640 
  187.3750     2.2800    70.9210    35.1110    32.0620    15.5180    24.1740   -19.9440 
  187.5000     2.3030    72.1750    31.2700    28.0850    13.8450    24.1510   -19.7020 
  187.6250     2.3160    72.9570    32.4580    28.5570    17.6550    24.0320   -19.4940 
  187.7500     2.3170    70.9130    36.7090    32.0220    26.4520    24.0040   -19.3750 
  187.8750     2.3050    64.4450    42.4980    37.5440    39.1330    24.0270   -19.2870 
  188.0000     2.2840    58.3010    47.5480    43.2510    45.3050    24.0170   -19.2000 
  188.1250     2.2600    60.1150    48.5730    45.7470    48.3640    23.9050   -19.2220 
  188.2500     2.2430    65.8760    45.4440    44.0820    40.5350    23.7070   -19.2750 
  188.3750     2.2390    68.9240    39.8980    39.5350    32.6200    23.5070   -19.3280 
  188.5000     2.2460    66.8610    34.1330    34.1960    26.2000    23.5380   -19.4300 
  188.6250     2.2620    65.7960    29.5920    29.5970    21.9160    23.5480   -19.5680 
  188.7500     2.2800    68.1190    26.2350    25.9600    20.9820    23.5490   -19.6790 
  188.8750     2.2990    70.2120    23.9370    23.2340    18.6090    23.5290   -19.7850 
  189.0000     2.3170    71.5560    22.7860    21.4940    14.4360    23.4040   -19.8980 
  189.1250     2.3330    74.5180    23.3910    21.2030    13.4550    23.3370   -19.9550 
  189.2500     2.3450    76.3750    25.7660    22.4070    14.4180    23.3230   -19.9790 
  189.3750     2.3490    73.5880    29.6830    25.1060    15.9680    23.3150   -20.0170 
  189.5000     2.3430    68.1260    34.2000    28.8160    19.9850    23.3120   -20.0480 
  189.6250     2.3240    64.7990    37.1560    31.9450    31.3670    23.3150   -20.0720 
  189.7500     2.3010    62.0690    37.1870    32.8390    41.7700    23.3210   -20.1230 
  189.8750     2.2820    61.5880    34.8500    31.4400    37.0980    23.3220   -20.2250 
