~V
VERS. 2.00: Ver 2.00
~W
STRT.M 52.0000:
STOP.M 282.0000:
STEP.M 0.1250:
NULL. -999.2500:
UWI. F11052:
~C
DEPT.M :
SP.MV :
GR.API :
RML.OHMM :
RI. :
RXO.OHMM :
CALI.CM :
DEN.GM/CC :
~A
   52.0000   188.6140  -999.2500  -999.2500  -999.2500  -999.2500  -999.2500     2.0030 
   52.1250   188.6110    50.2180     1.2140     0.3250     1.4600    25.8390     1.9950 
   52.2500   188.6420    50.2180     1.2140     0.3250     1.4600    25.8390     1.9890 
   52.3750   188.6310    50.0690     1.2090     0.3230     1.4790    25.8270     1.9890 
   52.5000   188.6080    45.9030     1.2040     0.3210     1.5480    25.8080     1.9940 
   52.6250   188.5530    45.7780     1.1980     0.3210     1.5990    25.8080     2.0020 
   52.7500   188.4850    46.2260     1.1750     0.3200     1.6230    25.8080     2.0120 
   52.8750   188.4260    48.8200     1.1250     0.3170     1.5710    25.8080     2.0300 
   53.0000   188.4170    52.4790     1.0510     0.3120     1.4720    25.8080     2.0620 
   53.1250   188.4000    53.6520     0.9650     0.3070     1.3990    25.8090     2.1120 
   53.2500   188.3800    52.4160     0.8920     0.3040     1.3720    25.8100     2.1680 
   53.3750   188.3740    51.3560     0.8420     0.3040     1.3610    25.8100     2.2170 
   53.5000   188.3800    50.5530     0.8170     0.3060     1.3560    25.8080     2.2500 
   53.6250   188.3770    47.7060     0.8020     0.3100     1.3480    25.8080     2.2660 
   53.7500   188.4110    44.9320     0.7720     0.3130     1.2990    25.8080     2.2770 
   53.8750   188.4490    43.8910     0.7130     0.3130     1.2210    25.8080     2.2880 
   54.0000   188.4540    44.2720     0.6250     0.3120     1.1660    25.8180     2.2990 
   54.1250   188.5170    45.5360     0.5170     0.3090     1.1440    25.8610     2.3070 
   54.2500   188.5370    47.0790     0.4120     0.3040     1.1300    25.9320     2.3100 
   54.3750   188.5620    47.8790     0.3230     0.2970     1.1350    25.9800     2.3100 
   54.5000   188.5890    46.4750     0.2540     0.2900     1.1310    25.9900     2.3130 
   54.6250   188.6300    45.4680     0.2070     0.2820     1.1440    25.9590     2.3200 
   54.7500   188.7250    46.6330     0.1760     0.2740     1.1740    25.8990     2.3280 
   54.8750   188.8110    48.2930     0.1560     0.2650     1.2180    25.8270     2.3350 
   55.0000   188.9780    48.1070     0.1400     0.2560     1.2900    25.7510     2.3420 
   55.1250   189.1230    47.0100     0.1220     0.2520     1.3980    25.6150     2.3580 
   55.2500   189.3450    46.3520     0.0990     0.2530     1.4970    25.4310     2.3850 
   55.3750   189.6500    44.9240     0.0760     0.2580     1.5660    25.1730     2.4240 
   55.5000   190.0200    43.0300     0.0630     0.2640     1.6270    24.8990     2.4660 
   55.6250   190.5850    43.1110     0.0780     0.2680     1.6600    24.7720     2.5030 
   55.7500   191.2710    45.2100     0.1250     0.2720     1.6260    24.7500     2.5320 
   55.8750   192.1000    47.1370     0.2000     0.2810     1.5020    24.7280     2.5550 
   56.0000   193.0900    49.0270     0.2910     0.2950     1.4100    24.6410     2.5770 
   56.1250   194.2360    51.6480     0.3710     0.3110     1.3760    24.4900     2.6020 
   56.2500   195.2870    52.5070     0.4230     0.3230     1.3540    24.3760     2.6270 
   56.3750   196.1630    50.8430     0.4420     0.3280     1.3370    24.3280     2.6490 
   56.5000   196.7640    47.2370     0.4380     0.3260     1.3280    24.3100     2.6640 
   56.6250   196.8900    44.7570     0.4330     0.3190     1.3220    24.2840     2.6690 
   56.7500   196.5170    43.8280     0.4470     0.3130     1.2980    24.2270     2.6690 
   56.8750   195.4410    45.0020     0.4810     0.3090     1.2630    24.1470     2.6680 
   57.0000   193.5270    46.8970     0.5280     0.3100     1.2400    24.0770     2.6680 
   57.1250   190.5710    47.5460     0.5690     0.3160     1.2330    24.0500     2.6720 
   57.2500   186.7620    48.1110     0.5860     0.3190     1.2280    24.0460     2.6750 
   57.3750   182.1150    49.6150     0.5560     0.3120     1.2260    24.0460     2.6760 
   57.5000   176.7290    50.4660     0.4530     0.2890     1.2320    24.0460     2.6730 
   57.6250   170.2780    49.3520     0.2620     0.2430     1.2400    24.0460     2.6670 
   57.7500   162.6090    48.8610     0.0460     0.1850     1.2320    24.0460     2.6680 
   57.8750   153.9650    49.9950    -0.1320     0.1310     1.2130    24.0460     2.6930 
   58.0000   144.3960    52.2280    -0.2310     0.0910     1.2260    24.0470     2.7430 
   58.1250   133.3380    56.0110    -0.2350     0.0770     1.3270    24.0630     2.7880 
   58.2500   120.6160    61.5520    -0.1630     0.0940     1.5220    24.1620     2.7770 
   58.3750   106.2760    68.7850     0.0050     0.1680     1.8460    24.4330     2.6840 
   58.5000    91.0790    78.2180     0.3080     0.3420     3.0090    24.7710     2.5280 
   58.6250    76.0980    88.7420     0.8180     0.6990     4.0450    25.0150     2.3780 
   58.7500    62.1700    96.6930     1.4590     1.2400     4.6210    25.0060     2.2930 
   58.8750    49.4130   101.7160     2.0930     1.9010     4.7040    24.9470     2.2820 
   59.0000    37.8670   105.0550     2.5760     2.5480     4.9640    25.0060     2.3120 
   59.1250    28.4240   106.1590     2.8720     3.0820     5.2050    25.1190     2.3350 
   59.2500    21.3460   104.8110     3.1510     3.5900     5.3120    25.1010     2.3310 
   59.3750    16.5840   101.7490     3.5610     4.1960     5.6210    24.9490     2.3120 
   59.5000    13.4490    98.4170     4.1860     4.9860     6.3130    24.6980     2.3040 
   59.6250    11.2480    95.1650     5.0400     5.9990     7.7530    24.4790     2.3310 
   59.7500     9.3930    90.9690     5.9410     7.0760     9.9010    24.3990     2.3840 
   59.8750     7.7780    87.4770     6.6690     7.9740    13.2550    24.4030     2.4410 
   60.0000     6.3350    85.5950     7.0390     8.4350    13.4390    24.4530     2.4790 
   60.1250     5.0070    85.5790     6.9760     8.3220    10.1080    24.5220     2.4820 
   60.2500     3.7490    87.4870     6.7270     7.9250     8.8340    24.6200     2.4610 
   60.3750     2.5470    90.5590     6.4870     7.4750     9.6010    24.7390     2.4270 
   60.5000     1.3480    91.6230     6.3720     7.1240     8.9900    24.8400     2.3880 
   60.6250     0.1150    86.1330     6.4260     6.9650     7.9530    24.8150     2.3460 
   60.7500    -1.0720    81.1040     6.5840     6.9490     7.3230    24.7680     2.3040 
   60.8750    -2.2260    82.3490     6.7990     7.0200     7.2870    24.7260     2.2670 
   61.0000    -3.2630    86.1550     7.0290     7.1340     7.4700    24.7070     2.2390 
   61.1250    -4.1350    87.7680     7.2180     7.2530     7.3660    24.7030     2.2240 
   61.2500    -4.8630    88.4590     7.3090     7.3170     7.0980    24.7120     2.2160 
   61.3750    -5.3410    90.0440     7.2520     7.2660     6.8250    24.7190     2.2150 
   61.5000    -5.6240    91.9360     7.0300     7.0740     6.7370    24.7000     2.2190 
   61.6250    -5.5730    93.7990     6.6690     6.7450     6.8920    24.6990     2.2330 
   61.7500    -5.3590    97.1190     6.3020     6.3740     6.4140    24.8260     2.2550 
   61.8750    -5.0480   101.7800     6.0530     6.0650     6.0520    24.9820     2.2830 
   62.0000    -4.6930   106.8100     6.0270     5.9270     6.0070    25.0530     2.3110 
   62.1250    -4.5160   107.5340     6.3290     6.0830     5.9750    25.0330     2.3280 
   62.2500    -4.5390   102.6700     6.8650     6.4970     6.1560    24.9500     2.3310 
   62.3750    -4.7660    94.8060     7.4890     7.0770     6.7850    24.7430     2.3200 
   62.5000    -5.1190    88.9960     7.9840     7.6340     7.5440    24.4580     2.3010 
   62.6250    -5.5500    88.0850     8.0740     7.8730     7.9350    24.3530     2.2810 
   62.7500    -5.9200    90.6790     7.7770     7.7340     7.6450    24.3630     2.2680 
   62.8750    -6.2210    95.2650     7.2450     7.3170     6.9340    24.3390     2.2640 
   63.0000    -6.4190   101.6110     6.7040     6.8170     6.2510    24.2240     2.2670 
   63.1250    -6.4580   106.6890     6.3840     6.4510     6.2890    24.0770     2.2750 
