~V
VERS. 2.00: Ver 2.00
~W
STRT.M 50.0000:
STOP.M 281.0000:
STEP.M 0.1250:
NULL. -999.2500:
UWI. F11064:
~C
DEPT.M :
SP.MV :
GR.API :
RML.OHMM :
RI. :
RXO.OHMM :
CALI.CM :
DEN.GM/CC :
~A
# ...
   95.0000   -15.4110    62.6560     9.3540     7.7100     8.1250    22.9940     2.0770 
   95.1250   -15.4980    62.0910     8.2120     6.5780     7.0230    22.8280     2.0810 
   95.2500   -15.5750    63.4730     7.8240     5.9820     6.8130    22.7790     2.0860 
   95.3750   -15.6610    67.0390     7.8900     5.7800     6.8220    22.6590     2.0950 
   95.5000   -15.7630    70.1420     8.1580     5.8260     6.7370    22.3940     2.1110 
   95.6250   -15.8950    69.3830     8.4050     5.9750     6.5400    21.9020     2.1320 
   95.7500   -16.0550    66.9570     8.5150     6.0950     6.3600    21.3170     2.1490 
   95.8750   -16.2320    65.2460     8.4820     6.1450     6.2280    20.9660     2.1610 
   96.0000   -16.4010    64.0590     8.3490     6.1300     6.1680    20.8760     2.1660 
   96.1250   -16.5670    64.3860     8.1780     6.0710     6.1440    20.9160     2.1660 
   96.2500   -16.7330    67.1500     8.0240     6.0060     6.1910    20.9180     2.1640 
   96.3750   -16.8660    70.4440     7.9120     5.9540     6.2970    20.8920     2.1610 
   96.5000   -16.8990    71.0760     7.8450     5.9220     6.1670    20.8950     2.1640 
   96.6250   -16.8360    69.5450     7.8180     5.9020     6.0290    20.9650     2.1720 
   96.7500   -16.7390    69.4700     7.8140     5.8830     5.8660    21.0180     2.1750 
   96.8750   -16.6290    70.7400     7.8300     5.8670     5.7520    21.0410     2.1710 
   97.0000   -16.5000    71.0170     7.8770     5.8670     5.7040    21.0250     2.1670 
   97.1250   -16.3390    70.7190     7.9710     5.9100     5.7100    20.9720     2.1730 
   97.2500   -16.1390    71.5760     8.1130     6.0020     5.7120    20.9130     2.1810 
   97.3750   -15.9110    72.4240     8.2980     6.1320     5.7170    20.8960     2.1800 
   97.5000   -15.7100    71.7090     8.5070     6.2810     5.7140    20.9490     2.1670 
   97.6250   -15.5660    69.4270     8.7050     6.4160     5.7010    20.9780     2.1510 
   97.7500   -15.4800    68.1700     8.8460     6.5090     5.6830    20.9720     2.1430 
   97.8750   -15.4350    67.2370     8.8810     6.5400     5.6820    20.9540     2.1440 
   98.0000   -15.4210    65.2310     8.7720     6.4940     5.6820    20.9350     2.1530 
   98.1250   -15.4530    64.3270     8.5060     6.3580     5.6900    20.9270     2.1690 
   98.2500   -15.5510    66.0820     8.2080     6.1930     5.7000    20.9540     2.1950 
   98.3750   -15.7090    69.6170     8.0530     6.0940     5.6990    21.0530     2.2350 
   98.5000   -15.8640    73.4470     8.2280     6.1820     5.6650    21.2390     2.2830 
   98.6250   -15.9280    76.4630     8.9090     6.6000     5.7230    21.4380     2.3300 
   98.7500   -15.8900    77.4560     9.9400     7.2900     5.8790    21.7170     2.3660 
   98.8750   -15.7850    75.6730    11.0550     8.1050     6.1190    22.0450     2.3820 
   99.0000   -15.6120    73.6240    11.8550     8.7850     6.3120    22.2670     2.3720 
   99.1250   -15.3350    72.0600    11.8440     8.9580     6.2490    22.0640     2.3260 
   99.2500   -14.9820    70.0220    11.1390     8.6200     5.9730    21.6370     2.2650 
   99.3750   -14.5920    67.4230    10.0940     7.9640     5.8700    21.3410     2.2120 
   99.5000   -14.1870    63.7890     9.1170     7.2650     5.9190    21.2480     2.1820 
   99.6250   -13.8430    62.3440     8.5180     6.7730     5.9710    21.2620     2.1760 
   99.7500   -13.6000    64.7890     8.2710     6.5290     5.9930    21.3080     2.1750 
   99.8750   -13.4530    68.2450     8.2700     6.4900     6.0280    21.3680     2.1720 
  100.0000   -13.4090    67.3900     8.3830     6.5710     6.1170    21.4210     2.1690 
  100.1250   -13.4560    61.4040     8.4920     6.6830     6.1660    21.5110     2.1720 
  100.2500   -13.5670    58.3070     8.5370     6.7660     6.1800    21.6520     2.1790 
  100.3750   -13.7550    59.5320     8.5050     6.8050     6.1560    21.8150     2.1880 
  100.5000   -14.0420    61.9100     8.4050     6.7920     6.0900    21.9580     2.1970 
  100.6250   -14.3720    63.1370     8.2650     6.7220     6.0130    22.0080     2.2000 
  100.7500   -14.6810    65.1420     8.1260     6.6160     5.9390    21.9830     2.1980 
  100.8750   -14.9720    69.2770     8.0090     6.5020     5.8830    21.8770     2.1890 
  101.0000   -15.2420    71.9710     7.9420     6.4180     5.8520    21.7080     2.1710 
  101.1250   -15.4850    69.1560     7.9990     6.4290     5.8190    21.5380     2.1460 
  101.2500   -15.6830    64.6760     8.2100     6.5530     5.8750    21.4120     2.1230 
  101.3750   -15.8170    62.4840     8.5730     6.7880     6.0840    21.4000     2.1100 
  101.5000   -15.8860    62.3120     9.0150     7.0880     6.6850    21.5200     2.1080 
  101.6250   -15.8700    61.8850     9.3700     7.3550     8.3190    21.8130     2.1170 
  101.7500   -15.7750    62.0550     9.4930     7.4960    10.7150    22.0810     2.1310 
  101.8750   -15.6110    64.7130     9.3470     7.4680    10.9020    22.2000     2.1460 
  102.0000   -15.4080    69.6570     9.0110     7.2970     8.5010    22.2040     2.1560 
  102.1250   -15.2010    72.0450     8.6610     7.0630     7.3350    22.1880     2.1470 
  102.2500   -15.0010    69.6090     8.4330     6.8660     7.2290    22.1840     2.1250 
  102.3750   -14.8140    65.6520     8.3590     6.7540     7.5560    22.1750     2.1010 
  102.5000   -14.6910    65.5590     8.3970     6.7260     7.6870    22.1270     2.0900 
  102.6250   -14.6720    67.9410     8.4670     6.7550     7.5550    22.0730     2.0980 
  102.7500   -14.7210    66.1440     8.5110     6.7850     7.4300    22.0220     2.1120 
  102.8750   -14.7870    61.5660     8.5250     6.7980     7.3190    21.9760     2.1250 
  103.0000   -14.8540    58.7690     8.5330     6.7960     7.2170    21.9960     2.1360 
  103.1250   -14.9280    59.3820     8.5650     6.7970     7.1660    22.0330     2.1480 
  103.2500   -14.9900    59.5590     8.6200     6.8100     7.1360    22.1010     2.1600 
  103.3750   -14.9920    59.8140     8.6850     6.8330     7.1510    22.1840     2.1660 
  103.5000   -14.9060    61.8820     8.7440     6.8560     7.1680    22.2620     2.1640 
  103.6250   -14.7420    62.7310     8.7950     6.8660     7.1400    22.3140     2.1620 
  103.7500   -14.5420    61.2770     8.8440     6.8640     7.0020    22.3000     2.1640 
  103.8750   -14.3500    59.6550     8.8850     6.8510     6.8540    22.1960     2.1690 
  104.0000   -14.1650    60.4830     8.8890     6.8230     6.6350    22.0160     2.1770 
  104.1250   -14.0100    63.0770     8.8010     6.7610     6.4630    21.8230     2.1860 
  104.2500   -13.9110    64.4340     8.6190     6.6570     6.4220    21.6700     2.1930 
  104.3750   -13.8800    64.3130     8.3820     6.5220     6.3850    21.5680     2.1950 
  104.5000   -13.8880    63.4290     8.1610     6.3820     6.3040    21.4540     2.1930 
  104.6250   -13.9730    63.8500     8.0580     6.2840     6.2200    21.4030     2.1870 
  104.7500   -14.1520    65.7420     8.0880     6.2510     6.1850    21.3990     2.1800 
  104.8750   -14.3780    67.1670     8.2220     6.2850     6.1780    21.4490     2.1700 
  105.0000   -14.6240    67.4590     8.3930     6.3650     6.1780    21.5490     2.1610 
  105.1250   -14.8590    66.5520     8.5070     6.4560     6.2060    21.6670     2.1510 
  105.2500   -15.0960    64.9970     8.5240     6.5220     6.2350    21.7580     2.1420 
  105.3750   -15.3330    63.0820     8.4550     6.5480     6.2610    21.7450     2.1320 
  105.5000   -15.5490    60.6080     8.3450     6.5420     6.2800    21.5760     2.1240 
  105.6250   -15.6850    58.9330     8.2580     6.5240     6.2000    21.4040     2.1260 
  105.7500   -15.7310    58.8950     8.2280     6.5200     6.0910    21.3370     2.1360 
  105.8750   -15.7140    59.7150     8.2590     6.5400     6.0430    21.3770     2.1450 
  106.0000   -15.6510    59.1640     8.3310     6.5870     6.0900    21.5320     2.1420 
  106.1250   -15.5340    56.3240     8.4000     6.6560     6.2310    21.8300     2.1280 
