~V
VERS. 2.00: Ver 2.00
~W
STRT.M 50.0000:
STOP.M 257.0000:
STEP.M 0.1250:
NULL. -999.2500:
UWI. F11021:
~C
DEPT.M :
GR.API :
RML.OHMM :
RI. :
RXO.OHMM :
CALI.CM :
SP.MV :
DEN.GM/CC :
~A
# ...
  230.0000    88.9840    21.9090    17.5970    23.2190    24.6410   -12.5770     2.3990 
  230.1250    89.3290    22.8290    18.5820    24.8830    24.7380   -12.8740     2.3840 
  230.2500    89.6990    23.3610    19.2210    23.9250    24.7200   -12.9890     2.3670 
  230.3750    91.3150    23.5990    19.5780    22.0840    24.6490   -12.9570     2.3520 
  230.5000    93.4110    23.6430    19.7280    21.4940    24.5830   -12.8090     2.3430 
  230.6250    93.0730    23.5600    19.7230    21.8860    24.6160   -12.5020     2.3400 
  230.7500    90.3120    23.4080    19.6330    22.5180    24.7570   -12.1740     2.3370 
  230.8750    87.8260    23.1700    19.4700    22.5550    24.8390   -11.8730     2.3330 
  231.0000    87.8830    22.8210    19.2220    21.4120    24.8570   -11.5820     2.3290 
  231.1250    89.7510    22.3730    18.8920    20.9290    24.8650   -11.3470     2.3270 
  231.2500    90.7220    21.9630    18.5670    20.9500    24.8830   -11.2070     2.3270 
  231.3750    90.3800    21.7600    18.3670    20.9890    24.8980   -11.0850     2.3280 
  231.5000    89.6080    21.9350    18.4260    19.9270    24.8670   -10.9410     2.3250 
  231.6250    88.5610    22.7120    18.9410    19.4480    24.7940   -10.9430     2.3200 
  231.7500    86.6240    24.0360    19.9140    21.0820    24.7400   -10.9930     2.3160 
  231.8750    83.9540    25.8080    21.3180    23.7450    24.7040   -11.0160     2.3140 
  232.0000    81.8100    27.8050    23.0170    25.4530    24.6940   -11.0750     2.3150 
  232.1250    81.8600    29.6130    24.7170    26.9460    24.6950   -11.0810     2.3190 
  232.2500    83.3740    30.8590    26.0580    28.4720    24.6950   -11.0300     2.3200 
  232.3750    84.8580    31.3330    26.7990    30.2520    24.6910   -11.0280     2.3200 
  232.5000    85.7350    31.0510    26.8740    30.8760    24.6900   -11.0080     2.3170 
  232.6250    87.6950    30.2230    26.3750    28.6370    24.7050   -10.9030     2.3130 
  232.7500    92.0530    29.3340    25.7070    27.1130    24.7730   -10.8130     2.3110 
  232.8750    97.5290    28.6830    25.1430    26.2330    24.8370   -10.7090     2.3110 
  233.0000   100.8080    28.4250    24.8590    25.8150    24.8490   -10.5500     2.3140 
  233.1250    98.3860    28.6050    24.9570    25.7150    24.8240   -10.4060     2.3170 
  233.2500    92.3760    29.0100    25.3050    26.9340    24.7910   -10.2240     2.3180 
  233.3750    86.7680    29.4580    25.7710    28.3780    24.7880    -9.9510     2.3180 
  233.5000    85.0680    29.7820    26.2110    28.9600    24.8110    -9.7020     2.3180 
  233.6250    87.9700    29.8100    26.4600    28.7370    24.8350    -9.4260     2.3180 
  233.7500    91.5570    29.5310    26.4620    28.9080    24.8340    -9.0310     2.3180 
  233.8750    93.1190    28.9620    26.1990    29.8740    24.8120    -8.6170     2.3160 
  234.0000    91.8390    28.1800    25.7050    28.7360    24.7900    -8.2250     2.3130 
  234.1250    88.8840    27.3490    25.0810    26.3510    24.8110    -7.7830     2.3110 
  234.2500    87.0550    26.7230    24.5380    25.4100    24.7660    -7.3190     2.3110 
  234.3750    87.7630    26.5390    24.2830    26.3300    24.7540    -6.8910     2.3110 
  234.5000    90.2560    26.9810    24.5010    26.3440    24.7340    -6.4980     2.3130 
  234.6250    92.3830    28.1940    25.3920    25.2210    24.7150    -6.2110     2.3200 
  234.7500    93.6410    29.8740    26.7780    25.1680    24.6170    -6.0430     2.3330 
  234.8750    94.5950    31.6490    28.3970    28.7440    24.3690    -5.8840     2.3500 
  235.0000    95.0260    33.0560    29.8580    32.5000    24.0130    -5.7410     2.3670 
  235.1250    93.8900    33.5650    30.6370    34.4920    23.8540    -5.6620     2.3740 
  235.2500    91.8160    33.2770    30.6810    33.5090    24.0530    -5.5970     2.3690 
  235.3750    90.1510    32.5630    30.2100    32.2520    24.3050    -5.5110     2.3540 
  235.5000    89.9270    32.0040    29.6850    31.0510    24.4190    -5.3560     2.3350 
  235.6250    91.2910    32.3430    29.7660    28.3200    24.3700    -5.1120     2.3230 
  235.7500    92.7040    33.7470    30.7490    26.3980    24.3170    -4.8410     2.3250 
  235.8750    92.5040    36.0530    32.6420    27.7290    24.2750    -4.5740     2.3460 
  236.0000    89.6440    38.6980    35.0850    33.2070    24.2470    -4.2580     2.3850 
  236.1250    84.5960    40.5590    37.1790    42.1930    24.2100    -3.8630     2.4350 
  236.2500    79.8980    40.7960    38.0030    47.4120    24.1830    -3.4400     2.4820 
  236.3750    77.2380    39.1160    37.0790    48.1000    24.1660    -3.0260     2.5120 
  236.5000    76.9590    35.9140    34.5650    43.7680    24.1790    -2.6590     2.5180 
  236.6250    78.4130    32.1150    31.1600    34.4590    24.1880    -2.3110     2.4940 
  236.7500    80.5630    28.7980    27.9420    27.9070    24.1920    -1.9420     2.4530 
  236.8750    82.9040    26.4970    25.4850    24.4380    24.1940    -1.5810     2.4070 
  237.0000    84.4290    25.4560    24.0720    22.7750    24.1960    -1.2430     2.3700 
  237.1250    83.4860    25.9720    24.0090    22.1420    24.2030    -0.9790     2.3500 
  237.2500    80.5730    27.7530    25.1070    23.5150    24.2100    -0.8180     2.3380 
  237.3750    77.4680    30.5350    27.2360    26.6590    24.2020    -0.7130     2.3240 
  237.5000    76.2930    33.7590    30.0170    30.0150    24.1840    -0.5900     2.3040 
  237.6250    78.4510    36.3550    32.6050    35.4100    24.1870    -0.4580     2.2850 
  237.7500    81.7750    37.4540    34.0780    39.5400    24.2030    -0.3210     2.2780 
  237.8750    83.7790    36.7290    33.9550    39.3990    24.1990    -0.1840     2.2850 
  238.0000    83.5830    34.5390    32.3730    36.7960    24.1040    -0.0460     2.2970 
  238.1250    82.5810    31.7540    29.9720    29.2020    23.9530     0.1400     2.3030 
  238.2500    82.1930    29.3090    27.6610    24.8980    23.8590     0.4210     2.3070 
  238.3750    81.8210    27.4710    25.7730    26.5310    23.8540     0.7380     2.3200 
  238.5000    80.3050    26.0940    24.2760    31.1630    23.8940     1.0770     2.3490 
  238.6250    77.8910    24.8080    22.9310    30.9840    23.9110     1.4660     2.3880 
  238.7500    77.1410    23.3080    21.4850    26.2970    23.8540     1.8370     2.4160 
  238.8750    79.4200    21.5540    19.8750    21.1700    23.7110     2.1570     2.4230 
  239.0000    83.0850    19.6880    18.1800    17.1300    23.6140     2.4560     2.4110 
  239.1250    84.3890    17.9870    16.5960    15.8420    23.5940     2.7310     2.3890 
  239.2500    83.1280    16.6250    15.2770    16.2010    23.6010     2.9750     2.3680 
  239.3750    81.2890    15.6430    14.2770    16.0740    23.5990     3.2280     2.3510 
  239.5000    80.1600    14.9680    13.5640    14.5360    23.5840     3.4570     2.3340 
  239.6250    79.1820    14.4720    13.0590    13.1410    23.5620     3.6130     2.3210 
  239.7500    77.3000    13.9740    12.6080    14.7010    23.5330     3.7530     2.3210 
  239.8750    74.2000    13.3880    12.1220    15.2030    23.5160     3.8930     2.3400 
  240.0000    70.2100    12.6860    11.5570    13.0090    23.5320     4.0190     2.3760 
  240.1250    66.0770    11.8850    10.9040    10.2560    23.5440     4.1620     2.4110 
  240.2500    63.4860    11.0480    10.2070     9.2230    23.4510     4.3330     2.4240 
  240.3750    65.2130    10.2100     9.4980     6.9210    23.1720     4.5180     2.4110 
  240.5000    72.5740     9.4100     8.7960     5.7940    22.7830     4.7510     2.3840 
  240.6250    80.5860     8.6360     8.1190     6.0000    22.6060     5.0390     2.3620 
  240.7500    81.6080     7.8040     7.4810     6.2890    22.5370     5.3190     2.3530 
  240.8750    75.8880     6.9680     6.9130     5.7380    22.2860     5.5890     2.3530 
  241.0000    70.4270     6.3180     6.4570     5.0350    21.8790     5.8250     2.3550 
  241.1250    70.9520     6.0340     6.1640     4.7440    21.8900     5.9700     2.3560 
