~V
VERS. 2.00: Ver 2.00
~W
STRT.M 60.0000:
STOP.M 276.0000:
STEP.M 0.1250:
NULL. -999.2500:
UWI. F11026:
~C
DEPT.M :
DEN.GM/CC :
GR.API :
RML.OHMM :
RI. :
RXO.OHMM :
CALI.CM :
SP.MV :
~A
# ...
   82.5000     2.1560    54.3950     9.2050     6.8520     7.9770    25.6210   -28.7700 
   82.6250     2.1440    54.5420     9.3170     6.8920     8.0050    25.6560   -29.0010 
   82.7500     2.1320    57.6520     9.5490     7.0290     8.4160    25.4830   -29.2610 
   82.8750     2.1220    60.5780     9.7980     7.2000     9.7540    25.0830   -29.4970 
   83.0000     2.1140    62.5410     9.9600     7.3410    11.8370    24.6950   -29.7060 
   83.1250     2.1120    63.0330     9.9370     7.3900    10.7140    24.6620   -29.7720 
   83.2500     2.1140    62.2010     9.7700     7.3490     9.7370    24.7490   -29.5970 
   83.3750     2.1230    62.4770     9.5380     7.2360     9.4160    24.7750   -29.2690 
   83.5000     2.1380    65.4360     9.3370     7.0950     9.6110    24.7070   -28.9020 
   83.6250     2.1580    70.1860     9.2670     6.9900     9.5320    24.6260   -28.4210 
   83.7500     2.1720    73.0530     9.3330     6.9600     9.3810    24.6140   -27.7840 
   83.8750     2.1770    72.8080     9.4990     7.0090     9.1740    24.6410   -27.0790 
   84.0000     2.1700    70.0000     9.7060     7.1200     9.0920    24.6020   -26.4300 
   84.1250     2.1560    66.6410     9.8790     7.2550     9.5320    24.5400   -26.0340 
   84.2500     2.1410    65.1480     9.9760     7.3620     9.8060    24.4970   -25.9950 
   84.3750     2.1310    65.5880     9.9880     7.4100     9.5920    24.4990   -26.2120 
   84.5000     2.1240    67.7740     9.9330     7.3890     9.1570    24.4530   -26.3770 
   84.6250     2.1180    70.5340     9.8500     7.3180     9.1580    24.3000   -26.4020 
   84.7500     2.1090    71.8100     9.7930     7.2510     9.3090    24.2150   -26.4460 
   84.8750     2.1010    69.2580     9.8140     7.2230     9.2230    24.2090   -26.5550 
   85.0000     2.0950    65.1770     9.9740     7.2710     8.9570    24.2560   -26.6800 
   85.1250     2.1010    66.4580    10.3640     7.4750     8.7460    24.2830   -26.6160 
   85.2500     2.1240    69.9770    10.9450     7.8620     8.6330    24.1610   -26.3340 
   85.3750     2.1690    69.6380    11.6080     8.4050     8.7700    23.9720   -25.9490 
   85.5000     2.2290    65.0460    12.1630     8.9920     9.8310    23.7900   -25.5930 
   85.6250     2.2850    61.2210    12.3330     9.3940    13.5160    23.6120   -25.2400 
   85.7500     2.3210    61.1360    12.0790     9.4630    17.9620    23.5590   -24.8410 
   85.8750     2.3260    62.5230    11.4920     9.1890    15.8610    23.6870   -24.3490 
   86.0000     2.2990    63.6170    10.7760     8.7120    11.1640    23.9060   -23.7340 
   86.1250     2.2450    63.4600    10.1540     8.2140     9.4250    24.0470   -23.1040 
   86.2500     2.1870    62.6950     9.6890     7.7920     9.2160    24.2450   -22.3920 
   86.3750     2.1450    62.6820     9.3190     7.4390     9.3010    24.6370   -21.4090 
   86.5000     2.1360    64.9240     8.9350     7.1060     8.9200    25.0030   -20.0890 
   86.6250     2.1670    72.4950     8.4390     6.7160     7.5760    25.0140   -18.5510 
   86.7500     2.2130    82.2010     7.8580     6.2640     6.1290    24.8060   -17.0170 
   86.8750     2.2530    90.7480     7.2680     5.8040     5.6790    24.5960   -15.5910 
   87.0000     2.2750    96.2050     6.7450     5.3950     5.7480    24.5720   -14.3210 
   87.1250     2.2820    97.8580     6.3530     5.0760     5.6860    24.7480   -13.2310 
   87.2500     2.2920    96.3200     6.0830     4.8290     5.4500    24.8570   -12.3430 
   87.3750     2.3110    94.1520     5.9350     4.6500     5.2170    24.8670   -11.7270 
   87.5000     2.3350    95.6700     5.9060     4.5440     5.1940    24.8490   -11.5190 
   87.6250     2.3520   100.1360     6.0100     4.5420     5.1020    24.8420   -11.7450 
   87.7500     2.3550   102.2650     6.2080     4.6390     5.1250    24.8420   -12.0930 
   87.8750     2.3460   100.6890     6.4610     4.8280     5.3720    24.8420   -12.4060 
   88.0000     2.3290    96.2450     6.7180     5.0760     5.8950    24.8420   -12.5670 
   88.1250     2.3150    91.9010     6.9070     5.3160     6.0700    24.8420   -12.6050 
   88.2500     2.3100    89.0320     6.9930     5.4900     6.0410    24.8420   -12.7020 
   88.3750     2.3120    89.2020     6.9710     5.5640     6.3060    24.8460   -12.8640 
   88.5000     2.3160    90.5230     6.8820     5.5440     6.5460    24.8610   -12.9560 
   88.6250     2.3090    91.8220     6.8290     5.4930     6.3480    24.8910   -12.9730 
   88.7500     2.2880    93.1170     6.9200     5.5190     5.9350    24.9020   -13.1210 
   88.8750     2.2600    93.5110     7.2100     5.6940     5.9080    24.8490   -13.4820 
   89.0000     2.2360    91.3580     7.6920     6.0430     6.1460    24.6490   -14.0700 
   89.1250     2.2290    88.2750     8.2800     6.5380     6.8000    24.2490   -14.7460 
   89.2500     2.2340    85.8530     8.8000     7.0290     7.8400    23.8640   -15.3060 
   89.3750     2.2450    84.1340     9.1250     7.3710     8.3750    23.5280   -15.7480 
   89.5000     2.2520    82.9700     9.1900     7.4650     7.9350    23.1920   -16.0610 
   89.6250     2.2510    83.3770     8.9750     7.2820     7.3620    23.0190   -16.1650 
   89.7500     2.2480    84.9080     8.5800     6.9350     7.0850    23.0460   -15.9520 
   89.8750     2.2460    88.6300     8.0510     6.4730     7.0520    23.2140   -15.3540 
   90.0000     2.2480    94.5500     7.4310     5.9260     6.9640    23.4100   -14.4790 
   90.1250     2.2570    99.6160     6.8520     5.3580     6.4630    23.6340   -13.4570 
   90.2500     2.2780   102.5640     6.5480     4.9170     5.8380    23.8220   -12.4820 
   90.3750     2.3130   102.4820     6.8070     4.7850     5.4800    23.9470   -11.7340 
   90.5000     2.3640    98.6520     7.9080     5.1600     5.4550    23.9790   -11.3810 
   90.6250     2.4290    92.1820    10.1530     6.3660     8.2390    24.0400   -11.4400 
   90.7500     2.4910    84.5360    13.0890     8.3770    17.6060    24.1730   -11.8420 
   90.8750     2.5310    75.3120    15.8940    10.8980    34.0150    24.2870   -12.6700 
   91.0000     2.5350    67.2610    17.4710    13.0110    39.8610    24.2520   -13.8730 
   91.1250     2.4920    68.4150    16.8220    13.2670    22.4150    23.9520   -15.4030 
   91.2500     2.4250    75.2100    14.7850    12.0510    12.4640    23.6490   -17.0560 
   91.3750     2.3550    79.1780    12.4700    10.4020     9.3860    23.4680   -18.5910 
   91.5000     2.2990    79.0660    10.7550     9.0880     8.9730    23.4030   -19.8510 
   91.6250     2.2680    79.4360    10.0140     8.4170     9.2010    23.3760   -20.7490 
   91.7500     2.2510    80.0220     9.8300     8.1730     9.4810    23.3610   -21.3110 
   91.8750     2.2380    76.9860     9.8780     8.1630     9.6910    23.3770   -21.5620 
   92.0000     2.2240    71.4800     9.9310     8.2120     9.4700    23.4420   -21.5120 
   92.1250     2.2040    68.4230     9.8730     8.1980     9.0670    23.5670   -21.1300 
   92.2500     2.1810    68.7280     9.7250     8.1070     8.6930    23.7240   -20.5100 
   92.3750     2.1580    70.7130     9.5170     7.9560     8.6230    23.8310   -19.7520 
   92.5000     2.1380    71.6890     9.2620     7.7520     8.6610    23.8980   -18.8890 
   92.6250     2.1260    69.1960     8.9490     7.4850     8.3390    23.9740   -18.0530 
   92.7500     2.1250    66.4360     8.6010     7.1720     7.4740    24.1030   -17.4750 
   92.8750     2.1360    68.9600     8.2560     6.8400     6.5010    24.2660   -17.2180 
   93.0000     2.1580    77.6300     7.9670     6.5330     6.2310    24.3850   -17.2340 
   93.1250     2.1880    83.9790     7.8090     6.3110     6.7230    24.3140   -17.2720 
   93.2500     2.2140    83.4730     7.7980     6.1960     6.9390    24.1270   -17.1750 
   93.3750     2.2310    79.9440     7.9420     6.2070     6.8460    23.9630   -17.0730 
   93.5000     2.2350    78.2130     8.2260     6.3460     6.7170    23.8530   -17.0370 
   93.6250     2.2250    79.2270     8.6140     6.6050     6.8900    23.7680   -17.0090 
