~V
VERS. 2.00: Ver 2.00
~W
STRT.M 53.0000:
STOP.M 287.0000:
STEP.M 0.1250:
NULL. -999.2500:
UWI. F11059:
~C
DEPT.M :
GR.API :
RML.OHMM :
RI. :
RXO.OHMM :
CALI.CM :
DEN.GM/CC :
SP.MV :
~A
   53.0000    52.5510     0.5100     0.4440     0.6520    24.5130     0.0500  -999.2500 
   53.1250    50.8820     0.5040     0.4430     0.6420    24.5000     0.0500  -999.2500 
   53.2500    49.1290     0.4970     0.4370     0.6000    24.5210     2.1520  -999.2500 
   53.3750    47.0470     0.4900     0.4260     0.5900    24.6780     2.1370  -999.2500 
   53.5000    44.0360     0.4810     0.4240     0.5780    25.0040     2.1230  -999.2500 
   53.6250    40.5000     0.4720     0.4230     0.5670    25.3410     2.1150  -999.2500 
   53.7500    38.1780     0.4650     0.4180     0.5550    25.5120     2.1110  -999.2500 
   53.8750    37.6880     0.4630     0.4100     0.5370    25.5410     2.1050  -999.2500 
   54.0000    37.9050     0.4660     0.4020     0.5240    25.5410     2.0930  -999.2500 
   54.1250    38.4490     0.4700     0.3910     0.5160    25.5370     2.0790  -999.2500 
   54.2500    39.9100     0.4720     0.3870     0.5030    25.5280     2.0660     9.5000 
   54.3750    42.2510     0.4730     0.3820     0.5010    25.5250     2.0590     9.5000 
   54.5000    44.7400     0.4730     0.3840     0.5010    25.5200     2.0540    28.9230 
   54.6250    45.8920     0.4720     0.3870     0.5020    25.5010     2.0510    28.9180 
   54.7500    44.5720     0.4710     0.3890     0.5040    25.4470     2.0490    28.9190 
   54.8750    42.4380     0.4660     0.3990     0.5050    25.4750     2.0470    28.8810 
   55.0000    42.5890     0.4620     0.4210     0.5070    25.4780     2.0470    28.7640 
   55.1250    43.9650     0.4600     0.4280     0.5090    25.4790     2.0480    28.6030 
   55.2500    44.7230     0.4630     0.4300     0.5190    25.4850     2.0470    28.5110 
   55.3750    45.9370     0.4700     0.4260     0.5330    25.4860     2.0410    28.5580 
   55.5000    48.7080     0.4750     0.4140     0.5470    25.4830     2.0280    28.6690 
   55.6250    51.4800     0.4760     0.3840     0.5620    25.4780     2.0120    28.8450 
   55.7500    52.5140     0.4700     0.3630     0.5770    25.4780     1.9970    29.1290 
   55.8750    51.1100     0.4600     0.3610     0.5940    25.4860     1.9900    29.5150 
   56.0000    48.3530     0.4530     0.3630     0.6190    25.4860     1.9890    29.9750 
   56.1250    46.3520     0.4490     0.3640     0.6500    25.4780     1.9920    30.5510 
   56.2500    46.9510     0.4480     0.3650     0.7760    25.4720     1.9940    31.2310 
   56.3750    47.9640     0.4500     0.3730     0.7890    25.4760     1.9930    32.0340 
   56.5000    46.9890     0.4560     0.3790     0.7740    25.4840     1.9900    32.9600 
   56.6250    46.1670     0.4580     0.3740     0.7490    25.4800     1.9870    33.8930 
   56.7500    46.7730     0.4560     0.3570     0.7240    25.4690     1.9850    34.6900 
   56.8750    46.5710     0.4470     0.3560     0.6880    25.4630     1.9850    35.2230 
   57.0000    45.0990     0.4310     0.3690     0.6400    25.4580     1.9870    35.5060 
   57.1250    44.9020     0.4090     0.3500     0.5870    25.4480     1.9910    35.4900 
   57.2500    46.2410     0.3900     0.3340     0.5750    25.4370     1.9930    35.1710 
   57.3750    46.9990     0.3840     0.3270     0.5730    25.4300     1.9930    34.5070 
   57.5000    46.8120     0.3860     0.3340     0.5680    25.4260     1.9880    33.5700 
   57.6250    46.4600     0.3890     0.2940     0.5730    25.4270     1.9820    32.5020 
   57.7500    45.4120     0.3940     0.1980     0.6010    25.4260     1.9780    31.4330 
   57.8750    44.1500     0.3930     0.1750     0.5920    25.4150     1.9850    30.4620 
   58.0000    44.6330     0.3630     0.1580     0.5880    25.3920     2.0050    29.5930 
   58.1250    46.2710     0.2920     0.1500     0.5850    25.3750     2.0430    28.7830 
   58.2500    46.6140     0.2080     0.1480     0.5910    25.3560     2.1080    28.0270 
   58.3750    44.8180     0.1560     0.1430     0.5910    25.3170     2.2220    27.3540 
   58.5000    44.3850     0.1360     0.1360     0.5920    25.2500     2.3710    26.6950 
   58.6250    45.7160     0.1280     0.1300     0.5950    25.1260     2.5220    25.7510 
   58.7500    47.1240     0.1350     0.1260     0.7500    24.9360     2.6230    24.1130 
   58.8750    49.6070     0.1610     0.1520     1.6550    24.6330     2.6260    21.4040 
   59.0000    54.4140     0.2340     0.1880     4.1750    24.2650     2.5510    17.9230 
   59.1250    61.5440     0.4280     0.2970     7.1550    23.9730     2.4390    13.9810 
   59.2500    68.5990     0.8330     0.5100     9.7600    23.8480     2.3350     9.7800 
   59.3750    71.5590     1.5710     1.1940     9.4870    23.8380     2.2670     5.3710 
   59.5000    70.9600     2.5540     2.6900     9.6400    23.8380     2.2280     0.8790 
   59.6250    70.4090     3.5930     4.6690     9.8980    23.8400     2.2070    -3.3780 
   59.7500    73.0880     4.4630     5.8130    10.8650    23.8680     2.1950    -6.9660 
   59.8750    76.2380     5.0350     6.2580    10.8030    23.9540     2.1830    -9.5140 
   60.0000    75.0630     5.4640     6.5690    10.7540    24.0880     2.1690   -11.2910 
   60.1250    70.0670     5.8250     6.8250    10.8300    24.2200     2.1510   -12.5410 
   60.2500    65.4400     6.0960     7.0590    10.7070    24.2250     2.1350   -13.4780 
   60.3750    66.2390     6.2260     7.2610    10.6290    23.9730     2.1260   -14.1900 
   60.5000    70.2990     6.2720     7.4060    10.7720    23.5660     2.1260   -14.7700 
   60.6250    74.1310     6.3200     7.4760    10.8670    23.2660     2.1310   -15.2340 
   60.7500    76.0720     6.4440     7.4740    10.6510    23.2620     2.1400   -15.6430 
   60.8750    74.9670     6.6780     7.4310    10.6110    23.5350     2.1470   -16.0160 
   61.0000    71.9730     6.9510     7.3980    10.7260    23.8940     2.1510   -16.3600 
   61.1250    69.2420     7.1790     7.4000    10.7030    24.1760     2.1540   -16.6890 
   61.2500    67.8360     7.3020     7.4460    10.7140    24.3160     2.1570   -16.9980 
   61.3750    67.2030     7.3050     7.5330    11.1550    24.3420     2.1600   -17.2830 
   61.5000    67.6210     7.2670     7.6390    11.6320    24.3200     2.1640   -17.5250 
   61.6250    69.1280     7.2480     7.7420    11.7490    24.2680     2.1650   -17.7660 
   61.7500    69.7870     7.2900     7.8090    11.7910    24.2400     2.1620   -17.9820 
   61.8750    68.7110     7.4310     7.7870    11.7590    24.2810     2.1540   -18.1280 
   62.0000    67.5050     7.6500     7.6830    11.5550    24.3250     2.1440   -18.2600 
   62.1250    66.7350     7.8910     7.5340    11.1820    24.3420     2.1340   -18.3760 
   62.2500    66.4520     8.0600     7.4030    10.8760    24.3390     2.1230   -18.4780 
   62.3750    66.1760     8.0540     7.3630    10.9490    24.3370     2.1130   -18.5750 
   62.5000    65.7080     7.9190     7.4170    11.2360    24.3350     2.1050   -18.6480 
   62.6250    66.2380     7.7520     7.5350    11.5870    24.3310     2.1020   -18.6550 
   62.7500    69.2170     7.6450     7.6670    11.6280    24.3340     2.1070   -18.5730 
   62.8750    73.7260     7.6250     7.7590    11.4500    24.4120     2.1200   -18.4410 
   63.0000    75.4100     7.6140     7.7980    11.1690    24.5230     2.1340   -18.2160 
   63.1250    73.8380     7.5590     7.7840    10.7740    24.5680     2.1450   -17.8660 
   63.2500    71.4970     7.4660     7.7290    10.1300    24.5330     2.1490   -17.4190 
   63.3750    70.3300     7.4010     7.6570     9.2740    24.4620     2.1450   -16.8400 
   63.5000    70.7240     7.4230     7.5990     8.1020    24.3500     2.1380   -16.1530 
   63.6250    72.3550     7.5320     7.5640     7.5810    24.2100     2.1340   -15.3860 
   63.7500    74.1570     7.6650     7.5280     7.5400    24.0770     2.1400   -14.5450 
   63.8750    76.9320     7.6800     7.4190     7.7070    24.0050     2.1630   -13.6220 
   64.0000    83.5000     7.4970     7.1830     7.9220    23.9860     2.2010   -12.6500 
   64.1250    93.4380     7.1320     6.8060     7.9410    23.9880     2.2470   -11.6850 
