~V
VERS. 2.00: Ver 2.00
~W
STRT.M 52.0000:
STOP.M 271.0000:
STEP.M 0.1250:
NULL. -999.2500:
UWI. F11069:
~C
DEPT.M :
GR.API :
RML.OHMM :
RI. :
RXO.OHMM :
CALI.CM :
DEN.GM/CC :
SP.MV :
~A
   52.0000  -999.2500  -999.2500  -999.2500  -999.2500  -999.2500     2.0020   135.5270 
   52.1250  -999.2500  -999.2500  -999.2500  -999.2500  -999.2500     2.0190   134.1060 
   52.2500  -999.2500  -999.2500  -999.2500  -999.2500  -999.2500     2.0330   132.6490 
   52.3750  -999.2500  -999.2500  -999.2500  -999.2500  -999.2500     2.0420   131.1310 
   52.5000  -999.2500  -999.2500  -999.2500  -999.2500  -999.2500     2.0450   129.5800 
   52.6250  -999.2500  -999.2500  -999.2500  -999.2500  -999.2500     2.0420   128.0230 
   52.7500  -999.2500  -999.2500  -999.2500  -999.2500  -999.2500     2.0380   126.4000 
   52.8750  -999.2500  -999.2500  -999.2500  -999.2500  -999.2500     2.0360   124.7610 
   53.0000  -999.2500  -999.2500  -999.2500  -999.2500  -999.2500     2.0390   123.1600 
   53.1250  -999.2500  -999.2500  -999.2500  -999.2500  -999.2500     2.0450   121.5150 
   53.2500  -999.2500  -999.2500  -999.2500  -999.2500  -999.2500     2.0490   119.7860 
   53.3750  -999.2500  -999.2500  -999.2500  -999.2500  -999.2500     2.0480   118.0280 
   53.5000  -999.2500  -999.2500  -999.2500  -999.2500  -999.2500     2.0400   116.2380 
   53.6250  -999.2500  -999.2500  -999.2500  -999.2500  -999.2500     2.0240   114.2740 
   53.7500  -999.2500  -999.2500  -999.2500  -999.2500  -999.2500     2.0040   112.1990 
   53.8750  -999.2500  -999.2500  -999.2500  -999.2500  -999.2500     1.9820   110.0260 
   54.0000  -999.2500  -999.2500  -999.2500  -999.2500  -999.2500     1.9640   107.6700 
   54.1250  -999.2500  -999.2500  -999.2500  -999.2500  -999.2500     1.9540   104.9770 
   54.2500  -999.2500  -999.2500  -999.2500  -999.2500  -999.2500     1.9530   101.9660 
   54.3750    47.4560     1.2640     0.6040     3.6450    25.7930     1.9590    98.6850 
   54.5000    47.4560     1.2640     0.6040     3.6450    25.7930     1.9700    95.1280 
   54.6250    45.3990     1.1690     0.5950     3.0830    25.7820     1.9820    91.3290 
   54.7500    44.5860     1.1650     0.5860     2.1200    25.7730     1.9890    87.3720 
   54.8750    46.7180     1.2170     0.5770     1.4020    25.7560     1.9880    83.2270 
   55.0000    49.7770     1.2990     0.5690     1.1070    25.7280     1.9790    78.9510 
   55.1250    51.4890     1.3990     0.5650     1.1240    25.7180     1.9700    74.7270 
   55.2500    53.3320     1.4870     0.5660     1.3810    25.7260     1.9660    70.6150 
   55.3750    54.7360     1.5390     0.5680     2.2500    25.7460     1.9700    66.5970 
   55.5000    54.9480     1.5460     0.5680     2.4720    25.7500     1.9810    62.7420 
   55.6250    52.8210     1.5500     0.5620     2.3230    25.7030     1.9940    59.0490 
   55.7500    49.4450     1.5500     0.5480     1.4570    25.5980     2.0020    55.4080 
   55.8750    47.8580     1.5300     0.5220     1.0020    25.5050     2.0240    51.8860 
   56.0000    48.0930     1.3940     0.4750     0.7360    25.4550     2.0490    48.5220 
   56.1250    50.1440     1.0060     0.3990     0.5010    25.3470     2.0820    45.2350 
   56.2500    53.5020     0.4680     0.3110     0.3220    25.1680     2.1360    42.0280 
   56.3750    54.7900    -0.0330     0.2290     0.2330    24.9670     2.2300    38.8850 
   56.5000    53.7350    -0.3450     0.1620     0.2120    24.7510     2.3720    35.7020 
   56.6250    54.1360    -0.3920     0.1260     0.2440    24.4450     2.5380    32.4080 
   56.7500    57.7800    -0.2210     0.1380     0.5600    24.1560     2.6630    29.0370 
   56.8750    64.1520     0.2070     0.2450     1.6280    23.9240     2.6960    25.4730 
   57.0000    72.3120     0.9850     0.5220     4.5780    23.7590     2.6220    21.5590 
   57.1250    78.7140     2.2330     1.1350     7.2350    23.6200     2.4710    17.4260 
   57.2500    79.4640     3.6850     2.0980     7.8520    23.5170     2.3230    13.3280 
   57.3750    76.3420     4.9470     3.2750     7.6750    23.5030     2.2200     9.3370 
   57.5000    73.6070     5.7110     4.3880     7.8890    23.5810     2.1720     5.5560 
   57.6250    73.4430     5.9900     5.2120     8.2510    23.8010     2.1640     2.1630 
   57.7500    74.2060     6.2300     5.8460     8.6790    24.1490     2.1650    -0.8290 
   57.8750    75.5660     6.6500     6.3810     9.1270    24.4670     2.1690    -3.2740 
   58.0000    76.8080     7.2200     6.8280     9.4310    24.5700     2.1790    -5.0780 
   58.1250    75.7270     7.6920     7.1120     9.3680    24.4910     2.1970    -6.3030 
   58.2500    75.3260     7.8670     7.2060     9.0640    24.4080     2.2140    -7.2250 
   58.3750    76.2810     7.8660     7.1230     8.8120    24.3620     2.2200    -7.9430 
   58.5000    76.5380     7.6690     7.0970     8.7760    24.3540     2.2100    -8.5060 
   58.6250    76.7710     7.3310     6.9260     8.7210    24.3690     2.1910    -8.9350 
   58.7500    74.5810     7.1250     6.8460     8.5940    24.3490     2.1770    -9.2990 
   58.8750    72.3990     7.1970     6.9490     8.5480    24.2900     2.1750    -9.6220 
   59.0000    73.1860     7.5790     7.2690     9.0410    24.2070     2.1820    -9.8740 
   59.1250    75.1850     8.1990     7.7800    11.6060    24.1700     2.1890   -10.0630 
   59.2500    75.1240     8.8220     8.3150    16.4210    24.1060     2.1940   -10.2040 
   59.3750    72.7230     9.2540     8.7130    17.9860    23.9790     2.1940   -10.2830 
   59.5000    71.1520     9.3640     8.8530    17.1470    23.8030     2.1920   -10.3160 
   59.6250    72.7230     9.1030     8.6690    12.1530    23.6160     2.1880   -10.3360 
   59.7500    75.2780     8.6660     8.2980     9.7470    23.4600     2.1820   -10.3180 
   59.8750    78.8110     8.2160     7.8580     8.7060    23.4430     2.1760   -10.3210 
   60.0000    81.6500     7.8600     7.4460     8.3510    23.5110     2.1730   -10.3860 
   60.1250    80.1630     7.6290     7.1320     8.0260    23.5480     2.1760   -10.4180 
   60.2500    77.8670     7.4560     6.9240     7.6980    23.5440     2.1820   -10.4490 
   60.3750    79.0540     7.3120     6.8230     7.5340    23.5170     2.1860   -10.5300 
   60.5000    82.9940     7.2130     6.8170     7.4870    23.5030     2.1830   -10.6530 
   60.6250    83.6200     7.2160     6.8920     7.8620    23.5340     2.1720   -10.7690 
   60.7500    81.9860     7.3200     7.0070     8.2360    23.6070     2.1560   -10.8910 
   60.8750    81.1760     7.4940     7.1400     8.4220    23.7270     2.1420   -11.0160 
   61.0000    80.3860     7.6870     7.2700     8.8010    23.8970     2.1340   -11.1170 
   61.1250    78.7920     7.8500     7.3650     9.2390    24.1110     2.1320   -11.1970 
   61.2500    76.9390     7.9640     7.4090     9.5560    24.2540     2.1360   -11.2610 
   61.3750    75.0950     8.0210     7.3870     9.6950    24.3000     2.1430   -11.2930 
   61.5000    73.2420     8.0290     7.3170     9.7300    24.3060     2.1490   -11.3180 
   61.6250    73.0240     8.0420     7.2800     9.4510    24.2800     2.1420   -11.3770 
   61.7500    75.0510     8.1450     7.3700     8.9010    24.2540     2.1220   -11.4440 
   61.8750    76.9870     8.3910     7.6320     8.6370    24.2340     2.1030   -11.4820 
   62.0000    77.5270     8.7580     8.0340     8.8160    24.2190     2.1120   -11.5360 
   62.1250    75.8720     9.1120     8.4550     9.0900    24.2090     2.1740   -11.6180 
   62.2500    73.3160     9.2700     8.7190     9.1000    24.1570     2.2630   -11.6620 
   62.3750    72.0390     9.1370     8.7110     9.2430    24.0690     2.3370   -11.6970 
   62.5000    73.7700     8.7470     8.4360     9.6170    24.0630     2.3640   -11.7330 
   62.6250    76.7880     8.2430     8.0080     9.5000    23.9930     2.3340   -11.7040 
   62.7500    78.2130     7.8110     7.6070     9.3580    23.9830     2.2840   -11.6150 
   62.8750    78.9350     7.5350     7.3240     9.1290    24.0220     2.2410   -11.5510 
   63.0000    79.9200     7.4320     7.1910     8.8500    24.0910     2.2160   -11.4600 
   63.1250    80.8420     7.4960     7.1950     8.8420    24.1120     2.2040   -11.3610 
