~V
VERS. 2.00: Ver 2.00
~W
STRT.M 51.0000:
STOP.M 252.0000:
STEP.M 0.1250:
NULL. -999.2500:
UWI. F11020:
~C
DEPT.M :
DEN.GM/CC :
GR.API :
RML.OHMM :
RI. :
RXO.OHMM :
CALI.CM :
SP.MV :
~A
# ...
  186.0000     2.1420    60.6330   429.7950   375.6500   488.1940    25.0170   -36.0030 
  186.1250     2.1610    58.7510   385.3480   340.6890   430.6370    25.0010   -35.6290 
  186.2500     2.1920    58.3840   336.1390   300.2010   319.0120    24.9720   -35.2460 
  186.3750     2.2240    57.3460   290.8390   262.9110   228.7230    24.9370   -34.8490 
  186.5000     2.2510    54.3460   248.6560   229.1800   177.8250    24.9050   -34.4180 
  186.6250     2.2720    51.5630   207.6550   196.5860   152.0840    24.8980   -33.9470 
  186.7500     2.2780    51.0380   168.9800   164.2540   144.5780    24.9470   -33.4500 
  186.8750     2.2630    51.7530   135.2540   134.1210   143.9690    25.0740   -32.9270 
  187.0000     2.2320    52.8750   108.0160   108.0420   124.3350    25.2570   -32.3960 
  187.1250     2.2050    54.6570    87.4240    86.1350    85.6770    25.4140   -31.8440 
  187.2500     2.2020    56.3230    71.1780    69.3110    59.5810    25.4860   -31.2690 
  187.3750     2.2230    57.4600    58.1060    55.7550    49.7070    25.4940   -30.6830 
  187.5000     2.2630    59.5950    47.9550    45.1970    46.0620    25.4310   -30.0990 
  187.6250     2.3090    63.5480    40.6710    37.4960    37.2710    25.2950   -29.5240 
  187.7500     2.3460    68.7960    35.9290    32.2990    25.5770    25.1420   -28.9310 
  187.8750     2.3630    71.8730    32.4810    28.4730    20.1390    25.0590   -28.3730 
  188.0000     2.3640    71.2340    29.4710    25.2920    21.1150    25.0500   -27.8140 
  188.1250     2.3600    69.3740    26.2960    22.2330    22.2590    25.0620   -27.2680 
  188.2500     2.3470    71.3940    22.8100    19.0950    20.4240    25.0350   -26.7100 
  188.3750     2.3250    77.6080    19.3730    16.0420    16.5680    24.9520   -26.1660 
  188.5000     2.3040    83.8980    16.3470    13.3500    13.2480    24.7790   -25.6690 
  188.6250     2.2900    87.4260    13.9660    11.2380    11.3100    24.4560   -25.2660 
  188.7500     2.2920    89.8110    12.3170     9.8010     9.2420    24.0190   -25.0030 
  188.8750     2.3100    93.9300    11.2270     8.8870     8.0340    23.7650   -24.8430 
  189.0000     2.3340    98.0400    10.6620     8.4880     7.5340    23.7000   -24.8230 
  189.1250     2.3510    98.7980    10.7300     8.7660     7.4760    23.7260   -24.9440 
  189.2500     2.3490    96.3750    11.7410    10.0910     7.8620    23.7920   -25.2000 
  189.3750     2.3370    92.3490    13.8620    12.5570     8.8790    23.8970   -25.5410 
  189.5000     2.3270    86.6170    17.1960    16.0680    11.2820    24.0090   -25.9260 
  189.6250     2.3220    79.6190    21.3370    19.9790    16.3710    24.0610   -26.3120 
  189.7500     2.3250    73.7310    24.8670    22.9010    22.4700    24.0170   -26.6640 
  189.8750     2.3330    72.2500    26.1330    23.7130    20.6010    23.9390   -26.9720 
  190.0000     2.3430    74.8250    24.9930    22.5470    12.8950    23.8950   -27.2570 
  190.1250     2.3450    77.3970    22.8810    20.7570     8.0350    23.9170   -27.5140 
  190.2500     2.3280    77.2020    21.4390    19.9220     7.7500    24.0260   -27.7820 
  190.3750     2.2890    76.6400    21.2990    20.6190     9.8720    24.2120   -28.0400 
  190.5000     2.2370    75.9010    22.8090    22.6660    13.0100    24.4620   -28.3140 
  190.6250     2.1920    73.6770    26.6620    25.3730    14.5130    24.7490   -28.5850 
  190.7500     2.1660    70.2360    32.0990    29.8140    14.6310    25.0490   -28.8740 
  190.8750     2.1580    66.3770    39.2560    35.8440    16.9020    25.2400   -29.1690 
  191.0000     2.1650    62.3160    48.4960    43.7040    26.7040    25.2380   -29.4220 
  191.1250     2.1870    58.6170    60.0410    53.5510    52.3600    25.0230   -29.6390 
  191.2500     2.2160    57.4460    73.4620    64.9580    85.6570    24.6760   -29.7980 
  191.3750     2.2370    58.4300    86.9200    76.3110    93.9180    24.4280   -29.9590 
  191.5000     2.2480    60.4890    98.7330    86.2430    85.7490    24.3660   -30.0960 
  191.6250     2.2500    62.7010   107.8940    93.9740    87.0650    24.4190   -30.2450 
  191.7500     2.2490    63.8810   114.1520    99.3300    95.7390    24.4800   -30.3770 
  191.8750     2.2470    64.0920   117.8400   102.7220   105.1800    24.5130   -30.4960 
  192.0000     2.2450    63.5670   118.2280   103.8030   108.6860    24.4700   -30.5960 
  192.1250     2.2470    62.5460   114.5060   101.9930   106.2050    24.3810   -30.6770 
  192.2500     2.2520    62.4360   106.8960    97.1280   101.6550    24.4190   -30.7390 
  192.3750     2.2580    63.8130    97.6460    90.5330    95.6060    24.5830   -30.7810 
  192.5000     2.2650    64.5410    88.1780    83.2220    90.0490    24.7320   -30.7940 
  192.6250     2.2730    63.2960    79.1080    75.8060    83.9160    24.7780   -30.7710 
  192.7500     2.2800    62.4550    70.3350    68.3420    75.9990    24.7450   -30.7230 
  192.8750     2.2860    63.3240    61.5920    60.6680    68.7980    24.6880   -30.6770 
  193.0000     2.2930    63.6490    53.1600    52.9970    64.3990    24.6370   -30.6560 
  193.1250     2.3020    61.7670    45.7510    45.9870    58.8150    24.6000   -30.6660 
  193.2500     2.3110    60.2240    40.0990    40.4160    49.5430    24.6060   -30.7130 
  193.3750     2.3180    61.8220    36.0800    36.3320    37.6150    24.6680   -30.8060 
  193.5000     2.3260    64.9610    33.4190    33.5580    29.8910    24.7850   -30.9290 
  193.6250     2.3400    66.5780    31.7820    31.8080    30.7410    24.8960   -31.1010 
  193.7500     2.3620    65.4520    30.9760    30.8880    32.1140    24.9520   -31.3420 
  193.8750     2.3830    63.3370    30.8600    30.6280    30.7240    24.9870   -31.6300 
  194.0000     2.3940    61.9170    31.5510    31.1160    27.5170    25.0360   -31.9590 
  194.1250     2.3820    61.1800    33.2740    32.5570    24.8220    25.1100   -32.3030 
  194.2500     2.3370    59.5990    36.3930    35.2940    26.0430    25.1920   -32.6720 
  194.3750     2.2810    56.6410    40.9370    39.3830    32.3280    25.2550   -33.0090 
  194.5000     2.2380    53.9860    46.8430    44.8060    39.5660    25.2590   -33.3370 
  194.6250     2.2220    54.0630    53.5970    51.1290    42.3980    25.1890   -33.6000 
  194.7500     2.2300    57.2210    60.0130    57.3180    47.1450    25.1990   -33.7600 
  194.8750     2.2430    59.4250    64.6090    62.0580    60.9880    25.2790   -33.7850 
  195.0000     2.2650    59.8680    66.4120    64.4600    75.4360    25.3280   -33.6560 
  195.1250     2.3130    59.5480    65.3780    64.3100    75.6700    25.2860   -33.3540 
  195.2500     2.3900    58.7070    62.6680    62.3450    63.9370    25.2470   -32.8520 
  195.3750     2.4460    57.0920    60.5770    60.5450    56.1750    25.2220   -32.1680 
  195.5000     2.4420    55.6940    60.6470    60.4860    61.9190    25.1980   -31.3050 
  195.6250     2.4030    55.2620    63.1280    62.7200    75.8070    25.1840   -30.2660 
  195.7500     2.3880    53.9900    65.6480    65.3230    79.2310    25.1450   -29.0800 
  195.8750     2.4170    52.7500    62.9760    63.2820    85.1050    25.0150   -27.7810 
  196.0000     2.4760    53.8320    51.9480    53.1260   100.3720    24.8020   -26.4000 
  196.1250     2.5380    55.9480    36.0920    37.6350    92.6690    24.5370   -24.9510 
  196.2500     2.5670    56.1100    23.3700    23.8830    48.2450    24.3300   -23.4240 
  196.3750     2.5340    54.6660    16.0490    14.8080    18.8730    24.2280   -21.8810 
  196.5000     2.4240    53.4060    10.5680     9.5880     8.3690    24.1380   -20.3480 
  196.6250     2.2610    52.9290     7.6930     6.8510     5.5650    24.0480   -18.9090 
  196.7500     2.1280    52.8110     6.4340     5.6510     4.9170    24.1120   -17.5660 
  196.8750     2.0700    53.2220     5.9890     5.2270     4.7420    24.3900   -16.3640 
  197.0000     2.0800    53.1430     6.0560     5.2910     4.6900    24.7620   -15.2860 
  197.1250     2.1300    52.4140     6.3830     5.6030     4.7180    25.0040   -14.3830 
