~V
VERS. 2.00: Ver 2.00
~W
STRT.M 60.0000:
STOP.M 276.0000:
STEP.M 0.1250:
NULL. -999.2500:
UWI. F11026:
~C
DEPT.M :
DEN.GM/CC :
GR.API :
RML.OHMM :
RI. :
RXO.OHMM :
CALI.CM :
SP.MV :
~A
# ...
  183.7500     2.2480    64.5200    86.7770    72.0950    86.5060    23.5920   -15.1740 
  183.8750     2.2420    63.2370    89.2960    74.4610    89.1510    23.6890   -14.9120 
  184.0000     2.2290    61.3270    90.2250    75.0730    79.5320    23.8500   -14.5910 
  184.1250     2.2110    61.2820    90.8460    75.1260    69.3740    24.0720   -14.2680 
  184.2500     2.1930    63.9460    92.1740    75.9170    78.8400    24.3120   -13.9320 
  184.3750     2.1820    67.0170    94.2200    77.7740   110.2460    24.4210   -13.5410 
  184.5000     2.1850    67.2940    96.2400    80.0720   128.0520    24.3140   -13.1140 
  184.6250     2.2010    65.2680    96.9350    81.4980    97.0370    24.0020   -12.7910 
  184.7500     2.2240    65.3670    95.9030    81.5220    78.8530    23.6700   -12.6040 
  184.8750     2.2440    68.2920    93.1940    80.3170    64.3390    23.4160   -12.5590 
  185.0000     2.2560    71.7410    88.9430    78.1410    53.0370    23.2770   -12.6600 
  185.1250     2.2580    70.2410    82.7870    74.4450    50.1880    23.1960   -12.7630 
  185.2500     2.2580    67.0250    75.0200    68.8600    54.2230    23.1320   -12.7620 
  185.3750     2.2640    68.6290    66.2760    61.6240    61.0610    23.1090   -12.7260 
  185.5000     2.2800    73.8580    57.7350    53.9420    58.2400    23.1540   -12.6990 
  185.6250     2.3050    76.2820    50.9700    47.5960    40.2910    23.1780   -12.7190 
  185.7500     2.3330    74.1710    46.3420    43.2180    28.6120    23.2780   -12.7060 
  185.8750     2.3600    70.3790    43.6480    40.7380    28.1740    23.4050   -12.5440 
  186.0000     2.3830    67.5110    42.2280    39.6270    35.3400    23.4490   -12.3230 
  186.1250     2.3960    65.5430    41.2000    39.0730    42.8030    23.5400   -12.3040 
  186.2500     2.3930    66.3220    39.8140    38.1360    38.1290    23.9210   -12.4290 
  186.3750     2.3670    69.5370    37.9800    36.5030    32.0020    24.5090   -12.4950 
  186.5000     2.3210    71.2180    36.1110    34.4920    30.1140    24.9490   -12.5740 
  186.6250     2.2640    68.8510    35.0820    33.0190    26.0610    25.1430   -12.7270 
  186.7500     2.2150    68.0320    35.3040    32.7220    24.0150    25.3090   -12.9300 
  186.8750     2.1840    69.4500    36.7470    33.7710    22.2650    25.4110   -13.2120 
  187.0000     2.1740    68.4330    38.9160    35.8470    23.7200    25.4070   -13.4900 
  187.1250     2.1870    64.5710    40.8990    38.0710    31.3390    25.1650   -13.6300 
  187.2500     2.2110    63.4820    42.0060    39.4050    43.2060    24.7690   -13.6850 
  187.3750     2.2400    64.6280    42.1850    39.5020    53.2090    24.3250   -13.8080 
  187.5000     2.2660    65.7260    41.9930    38.8760    44.3230    23.9700   -13.8790 
  187.6250     2.2810    67.2770    42.4580    38.8390    30.3840    23.8240   -13.7470 
  187.7500     2.2820    69.0830    43.9420    40.1900    23.0010    23.6710   -13.5590 
  187.8750     2.2750    69.5370    45.9650    42.8130    25.9890    23.5680   -13.4160 
  188.0000     2.2660    68.5780    47.3800    45.6840    37.6230    23.5550   -13.3250 
  188.1250     2.2670    68.1280    46.5840    46.7550    53.4940    23.6050   -13.4160 
  188.2500     2.2780    69.0110    43.6080    45.2360    53.4760    23.6110   -13.6950 
  188.3750     2.2970    71.8840    39.2870    41.7680    39.8050    23.5700   -13.9040 
  188.5000     2.3160    76.3970    34.8290    37.7670    26.7880    23.5410   -13.9780 
  188.6250     2.3240    78.2960    31.2160    34.4240    21.2510    23.6540   -14.1020 
  188.7500     2.3220    78.2550    28.3480    31.7590    22.0410    23.7540   -14.2120 
  188.8750     2.3150    80.1600    25.8180    29.3510    23.9580    23.6960   -14.2680 
  189.0000     2.3090    84.2700    23.2400    26.7180    25.2160    23.5380   -14.2150 
  189.1250     2.3080    85.7300    20.4580    23.5830    23.8480    23.6070   -13.9570 
  189.2500     2.3140    83.7500    17.6940    20.2770    22.4590    24.1560   -13.5500 
  189.3750     2.3250    81.0960    15.2580    17.2100    25.5940    25.2480   -13.3010 
  189.5000     2.3410    78.8880    13.4510    14.7430    24.8080    26.6590   -13.3250 
  189.6250     2.3590    78.7750    12.7270    13.2970    15.5090    27.4970   -13.3520 
  189.7500     2.3680    81.6290    13.2940    12.9360    10.5210    26.9910   -13.4280 
  189.8750     2.3590    83.7120    15.6890    13.9590     8.1600    25.6050   -13.6670 
  190.0000     2.3310    81.4360    20.7310    17.0500     8.1870    24.6850   -14.1300 
  190.1250     2.2920    77.3320    30.2850    24.4390    12.0540    24.5280   -14.7050 
  190.2500     2.2590    73.1390    44.7600    37.7120    28.4060    24.6250   -15.2340 
  190.3750     2.2410    67.2160    63.9420    58.0330    69.4090    24.7640   -15.5850 
  190.5000     2.2380    61.8940    85.4220    83.3890   126.6090    24.8780   -15.8040 
  190.6250     2.2490    62.1000   103.5270   105.1770   120.1470    24.9200   -16.1650 
  190.7500     2.2620    63.8970   114.6170   116.2420   115.6500    24.8730   -16.5590 
  190.8750     2.2750    62.7820   119.2090   117.7240   110.6560    24.7610   -16.8440 
  191.0000     2.2830    59.4730   121.2280   115.7930   100.6160    24.5990   -17.0100 
  191.1250     2.2820    58.5340   126.0480   116.7270    97.8530    24.3170   -17.1320 
  191.2500     2.2770    59.6360   136.1370   122.7170    94.7500    23.9210   -17.3170 
  191.3750     2.2680    59.6960   152.2520   134.4250    82.0520    23.5720   -17.6200 
  191.5000     2.2610    56.8960   174.1940   151.7280    74.0410    23.3890   -18.0190 
  191.6250     2.2560    53.6560   201.2240   173.9510    87.0440    23.3390   -18.3520 
  191.7500     2.2530    52.4810   229.8910   197.8800    99.6560    23.4270   -18.5690 
  191.8750     2.2470    53.7750   257.1440   221.0850    95.1120    23.7340   -18.7030 
  192.0000     2.2400    56.8820   279.3620   241.4760    87.2370    24.3050   -18.7240 
  192.1250     2.2310    60.8080   289.0700   254.3350   100.0500    24.6850   -18.6470 
  192.2500     2.2250    62.1940   282.2610   254.2850   112.8480    24.7760   -18.4970 
  192.3750     2.2230    59.7520   258.2680   237.0740   128.8950    24.6600   -18.2430 
  192.5000     2.2280    57.7150   223.2750   205.9230   148.0840    24.5310   -17.8610 
  192.6250     2.2410    59.7570   189.4350   172.1900   129.8650    24.5580   -17.6070 
  192.7500     2.2590    61.6630   166.2530   147.0750    93.1970    24.7380   -17.5800 
  192.8750     2.2760    60.8180   157.3840   135.5910    69.9520    24.8770   -17.5100 
  193.0000     2.2850    58.3170   163.7200   139.8490    76.6380    24.9260   -17.3600 
  193.1250     2.2760    56.6500   186.5890   161.6770   141.1920    24.9150   -17.3230 
  193.2500     2.2540    54.6150   217.9240   192.9760   228.6320    24.9160   -17.4520 
  193.3750     2.2290    51.9130   246.3670   222.1620   288.8060    24.9300   -17.6840 
  193.5000     2.2120    51.7000   259.3520   234.7170   321.8020    24.9510   -17.7680 
  193.6250     2.2140    55.7970   249.9700   222.5170   277.8560    24.9700   -17.4490 
  193.7500     2.2300    59.4140   231.7670   202.0480   187.9050    24.9530   -16.9050 
  193.8750     2.2450    58.0100   217.5140   187.1360   130.8230    24.8730   -16.4000 
  194.0000     2.2490    53.7850   214.6350   184.2930   130.7240    24.7350   -16.0610 
  194.1250     2.2410    52.6890   224.4740   195.2110   174.9530    24.6280   -15.7120 
  194.2500     2.2460    52.8230   235.6820   212.7390   228.1430    24.5600   -15.2540 
  194.3750     2.2900    52.7750   232.8490   225.1520   239.6700    24.5060   -14.7610 
  194.5000     2.3860    53.4830   203.7860   213.5140   196.7390    24.3390   -14.4660 
  194.6250     2.5150    54.5630   149.8490   164.0490   142.5390    23.9870   -14.5100 
  194.7500     2.6220    54.6190    94.6400   105.2320   100.8810    23.5860   -14.7820 
  194.8750     2.6700    57.4380    53.0660    59.6680    72.1070    23.3620   -15.2070 
