~V
VERS. 2.00: Ver 2.00
~W
STRT.M 54.0000:
STOP.M 226.0000:
STEP.M 0.1250:
NULL. -999.2500:
UWI. F11002:
~C
DEPT.M :
GR.API :
RML.OHMM :
RI. :
RXO.OHMM :
CALI.CM :
DEN.GM/CC :
SP.MV :
~A
# ...
  144.0000    57.6250   231.1290   217.0440   287.5380    26.7060     2.1770   -14.7950 
  144.1250    57.8680   237.6180   225.3670   280.6000    26.4740     2.1780   -14.4540 
  144.2500    57.8340   229.1350   218.8910   272.8560    26.3140     2.1800   -13.6660 
  144.3750    58.9840   206.0980   197.0700   240.0400    26.4120     2.1890   -12.8910 
  144.5000    61.7100   178.5680   170.2090   192.5440    26.3970     2.2070   -12.6600 
  144.6250    65.0090   153.2460   145.3650   136.5280    26.1980     2.2340   -12.9670 
  144.7500    68.0910   133.6830   126.1540    89.2080    25.8880     2.2590   -13.5370 
  144.8750    69.1100   121.3340   114.0470    73.3850    25.6430     2.2650   -14.1930 
  145.0000    67.2190   113.9010   106.8240    99.3190    25.6420     2.2410   -15.0770 
  145.1250    65.2440   109.9870   103.1290   146.0630    25.8500     2.1910   -16.3330 
  145.2500    65.2600   108.3300   101.7420   177.1930    25.9670     2.1290   -17.8200 
  145.3750    67.2230   107.8980   101.6030   180.5740    25.8740     2.0860   -19.1140 
  145.5000    68.6690   107.6040   101.4160   149.5450    25.6420     2.0800   -20.0490 
  145.6250    68.6170   107.0520   100.6340    88.9090    25.4170     2.1130   -20.5370 
  145.7500    68.0460   106.3060    99.3910    57.8330    25.4480     2.1720   -20.5440 
  145.8750    69.0390   105.9320    98.4730    47.8150    25.2580     2.2260   -20.2230 
  146.0000    70.8710   106.4490    98.5110    48.8940    24.8240     2.2540   -19.7090 
  146.1250    69.4450   108.0660    99.7370    62.7870    24.7960     2.2480   -18.9760 
  146.2500    63.7320   110.5160   102.0060   101.5230    25.2410     2.2150   -18.1170 
  146.3750    59.6910   112.8830   104.6620   158.9490    25.7720     2.1740   -17.3040 
  146.5000    59.1170   114.1370   106.6290   134.8720    26.0370     2.1490   -16.6100 
  146.6250    60.5660   113.7940   107.3270    94.3950    26.0570     2.1510   -16.0860 
  146.7500    62.3820   111.8820   106.7330    74.6410    25.8000     2.1800   -15.8010 
  146.8750    63.5250   108.1970   104.7050    65.4450    25.3710     2.2240   -15.6430 
  147.0000    64.0040   102.3080   100.6990    67.4800    24.9920     2.2640   -15.4970 
  147.1250    65.7480    93.3460    93.4110    69.2060    24.9290     2.2910   -15.3320 
  147.2500    69.5300    82.2750    82.0960    59.2070    25.0490     2.3030   -15.1150 
  147.3750    73.7790    70.9690    67.7560    40.5830    24.9170     2.3060   -14.8050 
  147.5000    76.1710    59.9030    53.8880    27.8190    24.3530     2.3090   -14.4560 
  147.6250    77.4750    49.0030    42.6370    18.7280    23.8800     2.3150   -14.1400 
  147.7500    79.2180    39.4920    34.7510    14.5160    23.6730     2.3220   -13.8410 
  147.8750    81.3390    33.7150    30.3670    13.8820    23.6500     2.3280   -13.5300 
  148.0000    82.5690    30.9260    28.2410    14.7660    23.6600     2.3320   -13.2620 
  148.1250    82.7360    30.2150    27.8210    14.6240    23.6150     2.3350   -13.0520 
  148.2500    82.2310    31.0950    28.7540    13.8460    23.5100     2.3370   -12.8900 
  148.3750    80.9730    33.2130    30.9560    13.5860    23.3410     2.3330   -12.7810 
  148.5000    79.2250    35.6480    33.7480    14.3860    23.2460     2.3210   -12.6960 
  148.6250    77.9850    37.4310    36.1740    16.6510    23.2440     2.3040   -12.6050 
  148.7500    77.4020    37.5320    36.8590    23.7500    23.4010     2.2880   -12.4820 
  148.8750    76.8720    35.0740    34.3270    27.2870    23.7240     2.2850   -12.3420 
  149.0000    77.4390    31.0910    29.8470    20.8610    24.1950     2.2960   -12.2490 
  149.1250    80.5760    27.0010    25.2870    14.0060    24.6850     2.3160   -12.2490 
  149.2500    85.9660    24.3420    22.1560    10.5790    24.8380     2.3320   -12.3200 
  149.3750    89.0450    24.9010    21.6600    11.1980    24.4440     2.3310   -12.5370 
  149.5000    87.0890    28.9560    23.9450    16.5830    23.9230     2.3120   -12.9120 
  149.6250    81.3870    36.5140    29.4390    29.9400    23.7980     2.2820   -13.3650 
  149.7500    75.2870    46.6510    38.1280    48.1330    24.0720     2.2500   -13.8990 
  149.8750    72.4700    56.9160    48.4560    60.0640    24.4050     2.2280   -14.4960 
  150.0000    73.3800    64.3830    56.5100    57.7770    24.4640     2.2200   -15.0410 
  150.1250    76.7900    67.8560    59.9340    49.7420    24.4160     2.2230   -15.5670 
  150.2500    78.1030    68.3090    59.5210    42.5820    24.3650     2.2360   -16.0730 
  150.3750    75.0820    68.6820    58.4670    46.0990    24.3650     2.2550   -16.4980 
  150.5000    72.2920    72.0820    59.5570    51.1170    24.4700     2.2730   -16.8100 
  150.6250    71.9090    78.4360    63.9590    52.2510    24.6710     2.2860   -17.0450 
  150.7500    71.6820    86.2330    72.2230    58.8540    24.9550     2.2880   -17.2310 
  150.8750    68.4100    96.1440    84.8460    89.2530    24.9760     2.2790   -17.3360 
  151.0000    65.8850   109.2420    99.7950   126.8150    25.0260     2.2640   -17.4090 
  151.1250    66.2690   123.7110   114.5660   149.3810    25.0440     2.2510   -17.5210 
  151.2500    67.2560   135.1660   126.2280   151.0520    24.9600     2.2460   -17.7420 
  151.3750    66.6560   139.8140   131.7590   128.4310    24.7590     2.2490   -18.0820 
  151.5000    67.2480   139.6260   132.3920   125.6410    24.7900     2.2550   -18.5510 
  151.6250    68.9320   136.5600   130.1460   124.5480    24.9650     2.2590   -19.1850 
  151.7500    69.0090   132.3750   126.9440   120.4290    25.1320     2.2580   -19.8380 
  151.8750    68.2280   127.4330   123.2490   113.1880    25.2990     2.2510   -20.4870 
  152.0000    69.1860   121.1220   118.1670   113.8490    25.3610     2.2420   -21.1740 
  152.1250    69.8720   112.9780   110.8760   117.0630    25.3860     2.2340   -21.7990 
  152.2500    67.7770   103.5640   101.7800   104.5680    25.5310     2.2320   -22.2450 
  152.3750    65.4130    94.8310    92.9280    81.7130    25.7870     2.2400   -22.3760 
  152.5000    68.1790    88.8280    86.5600    67.5690    25.9150     2.2520   -22.1670 
  152.6250    74.6920    86.9720    84.1050    62.9110    25.9110     2.2620   -21.6630 
  152.7500    79.4210    89.9990    86.4420    74.2650    25.8900     2.2630   -21.0550 
  152.8750    77.3520    98.5700    94.5670    94.2830    25.8490     2.2530   -20.3190 
  153.0000    72.0430   110.6640   106.6580   107.6190    25.7360     2.2380   -19.6050 
  153.1250    66.5590   124.3390   120.7290   115.4040    25.7240     2.2260   -19.2950 
  153.2500    62.4920   137.4130   134.2230   120.0960    26.0000     2.2200   -19.4760 
  153.3750    61.7520   147.9550   144.5550   123.0320    26.3710     2.2220   -20.0360 
  153.5000    64.2410   156.4800   152.2160   135.5340    26.5190     2.2270   -20.8900 
  153.6250    66.2410   164.2440   158.8080   179.4030    26.5250     2.2320   -22.0150 
  153.7500    64.8270   172.4250   165.8240   246.1600    26.4210     2.2340   -23.3840 
  153.8750    61.9790   181.3400   173.6430   252.1400    26.2860     2.2320   -24.9460 
  154.0000    62.6410   189.9160   181.2110   232.3150    26.1980     2.2290   -26.2530 
  154.1250    64.8600   196.8370   187.2920   213.2820    26.1270     2.2240   -26.8420 
  154.2500    64.5960   201.0320   190.8160   218.0300    26.0710     2.2200   -26.7090 
  154.3750    62.8960   201.7900   191.1140   196.6460    25.9330     2.2180   -26.0950 
  154.5000    63.5960   200.5520   189.6530   158.1660    25.6910     2.2230   -25.2340 
  154.6250    66.6110   198.8360   187.8590   124.3060    25.3270     2.2320   -24.1890 
  154.7500    68.9660   198.3390   187.1700   107.8460    25.1020     2.2440   -22.7630 
  154.8750    67.5280   201.3090   189.6070   120.7680    25.0040     2.2510   -20.8410 
  155.0000    64.8010   208.3640   195.9880   151.7320    24.7100     2.2530   -18.8000 
  155.1250    64.6650   219.2350   206.4700   186.6690    24.0120     2.2500   -16.9870 
