~V
VERS. 2.00: Ver 2.00
~W
STRT.M 60.0000:
STOP.M 276.0000:
STEP.M 0.1250:
NULL. -999.2500:
UWI. F11026:
~C
DEPT.M :
DEN.GM/CC :
GR.API :
RML.OHMM :
RI. :
RXO.OHMM :
CALI.CM :
SP.MV :
~A
# ...
  127.5000     2.1980    70.2210     7.6330     7.1220     9.3000    23.6060   -14.5980 
  127.6250     2.2210    69.2050     7.7210     7.2890     9.1770    23.4650   -14.7570 
  127.7500     2.2480    67.8150     7.7800     7.4420     8.9950    23.3830   -14.9140 
  127.8750     2.2740    67.5400     7.7480     7.5190     9.0110    23.4030   -14.9030 
  128.0000     2.2940    67.6780     7.5680     7.4410     8.9540    23.4650   -14.5450 
  128.1250     2.3020    68.4380     7.2650     7.1220     8.7530    23.6010   -13.8870 
  128.2500     2.3020    72.5540     6.9100     6.6290     8.1450    23.9120   -13.1140 
  128.3750     2.2970    79.6480     6.4970     6.0560     6.9610    24.4240   -12.3170 
  128.5000     2.2910    85.6530     6.0520     5.5220     5.7020    24.9230   -11.5390 
  128.6250     2.2850    86.5120     5.7300     5.1550     5.2390    25.1670   -10.6480 
  128.7500     2.2820    85.2680     5.6450     4.9800     5.3070    25.2540    -9.6410 
  128.8750     2.2790    84.5360     5.7880     5.0020     5.5200    25.2140    -8.7230 
  129.0000     2.2750    83.5450     6.0920     5.2010     5.7980    25.0450    -8.0590 
  129.1250     2.2750    81.4000     6.4450     5.5270     6.6450    24.8780    -7.6370 
  129.2500     2.2810    79.0190     6.7120     5.8340     7.0010    24.7990    -7.2640 
  129.3750     2.2940    75.5140     6.8360     6.0130     7.3560    24.8250    -6.9070 
  129.5000     2.3100    70.9420     6.8650     6.0340     8.0760    24.8940    -6.6150 
  129.6250     2.3250    67.4440     7.0040     6.0080     8.4470    24.9100    -6.4010 
  129.7500     2.3450    67.7980     7.5030     6.1640     7.3480    24.9230    -6.2760 
  129.8750     2.3820    70.2000     8.5810     6.7140     7.3150    24.9300    -6.1950 
  130.0000     2.4410    70.2760    10.3870     7.8490     9.4360    24.8450    -6.1210 
  130.1250     2.5160    64.1790    13.0190     9.8450    15.7770    24.7080    -6.1160 
  130.2500     2.5840    56.3310    16.0620    12.5520    21.2950    24.6130    -6.2100 
  130.3750     2.6310    50.7530    19.0180    15.6230    22.2970    24.5550    -6.2690 
  130.5000     2.6540    47.3920    21.3490    18.4100    21.9400    24.4840    -6.1670 
  130.6250     2.6590    45.5060    22.5980    20.1240    22.4700    24.4230    -5.9950 
  130.7500     2.6580    46.3750    23.0950    20.9070    21.7600    24.3440    -5.8270 
  130.8750     2.6580    49.9140    23.2380    21.1790    21.8120    24.2520    -5.6640 
  131.0000     2.6630    51.7810    23.3670    21.3410    21.9590    24.2300    -5.5340 
  131.1250     2.6750    51.0140    23.6130    21.5800    24.3690    24.3380    -5.3760 
  131.2500     2.6870    50.7110    23.8460    21.8340    25.8250    24.4310    -5.1750 
  131.3750     2.6870    50.7960    23.8930    21.9640    25.8410    24.3840    -5.0230 
  131.5000     2.6630    49.8510    23.6300    21.8320    23.1470    24.1170    -5.0260 
  131.6250     2.6090    48.2000    23.0100    21.3340    18.5320    23.6380    -5.1330 
  131.7500     2.5470    49.0560    22.2440    20.6400    14.6930    23.1740    -5.2410 
  131.8750     2.4960    52.3980    21.5350    19.9550    13.9810    22.9350    -5.3330 
  132.0000     2.4700    54.8310    21.0490    19.4650    14.8600    22.8720    -5.3690 
  132.1250     2.4760    54.9250    20.8860    19.3140    15.4670    22.7380    -5.3760 
  132.2500     2.4960    54.4090    20.9200    19.4170    16.3100    22.6250    -5.4350 
  132.3750     2.5180    54.9710    21.0080    19.6530    18.3320    22.5830    -5.5730 
  132.5000     2.5360    57.0120    21.0110    19.8590    20.0990    22.7120    -5.7650 
  132.6250     2.5480    58.1790    20.8190    19.8760    20.5220    23.0340    -5.9990 
  132.7500     2.5570    57.2740    20.4890    19.7200    19.8790    23.3810    -6.2260 
  132.8750     2.5630    55.2660    20.1130    19.4630    19.0510    23.6590    -6.4140 
  133.0000     2.5690    54.3690    19.7880    19.1890    17.6390    23.7680    -6.6150 
  133.1250     2.5730    55.8190    19.6140    18.9740    17.1750    23.7820    -6.8560 
  133.2500     2.5760    57.5280    19.5960    18.8520    18.0260    23.7560    -7.1060 
  133.3750     2.5750    59.0250    19.7290    18.8510    18.3320    23.7510    -7.3420 
  133.5000     2.5700    59.3790    20.0000    18.9950    18.2960    23.7990    -7.4980 
  133.6250     2.5580    57.9130    20.3880    19.3150    18.4710    23.8140    -7.5510 
  133.7500     2.5390    56.3990    20.7840    19.7490    19.0430    23.7100    -7.6000 
  133.8750     2.5110    55.2350    21.0190    20.1710    21.0190    23.4440    -7.6800 
  134.0000     2.4680    53.4500    20.8810    20.3170    21.7230    23.1720    -7.7820 
  134.1250     2.4090    51.3200    20.1330    19.7930    19.6080    23.1780    -7.9480 
  134.2500     2.3460    51.3200    18.9770    18.7160    17.8810    23.5150    -8.1570 
  134.3750     2.2930    53.8060    17.7420    17.4270    17.2410    23.9230    -8.3770 
  134.5000     2.2660    57.3510    16.8140    16.3390    15.5890    24.0500    -8.6390 
  134.6250     2.2790    58.8870    16.5870    15.8770    14.1350    23.9020    -8.9240 
  134.7500     2.3200    57.2210    16.9860    16.0640    14.5910    23.7730    -9.2020 
  134.8750     2.3690    54.0140    17.8190    16.7800    18.0910    23.6880    -9.4910 
  135.0000     2.4040    52.5140    18.7950    17.7670    19.7140    23.5980    -9.6670 
  135.1250     2.4060    52.6380    19.5920    18.6780    17.5360    23.5460    -9.5400 
  135.2500     2.3940    51.9040    20.0960    19.2780    16.3560    23.5800    -9.2950 
  135.3750     2.3890    50.4000    20.3530    19.5380    15.7930    23.6750    -9.0290 
  135.5000     2.4050    50.3310    20.4960    19.6080    15.9370    23.6420    -8.7640 
  135.6250     2.4350    53.0570    20.6690    19.7170    17.7440    23.5700    -8.5830 
  135.7500     2.4500    55.3070    20.9190    19.9490    19.3960    23.6980    -8.4210 
  135.8750     2.4390    54.7710    21.2410    20.2600    19.5280    23.9730    -8.2790 
  136.0000     2.4070    52.0410    21.6290    20.6060    18.6100    24.1570    -8.3290 
  136.1250     2.3810    50.5570    22.0990    20.9820    19.5840    24.1870    -8.6090 
  136.2500     2.3790    50.6760    22.6140    21.3850    21.5180    24.0760    -8.9090 
  136.3750     2.4050    50.3220    23.1150    21.7910    21.1270    23.8500    -9.1640 
  136.5000     2.4510    49.5680    23.5320    22.1620    18.9350    23.5940    -9.3510 
  136.6250     2.4970    48.7780    23.8090    22.4420    18.8650    23.3970    -9.4920 
  136.7500     2.5280    47.8760    23.9890    22.6300    20.5090    23.3230    -9.7070 
  136.8750     2.5400    47.4980    24.1200    22.7570    20.5830    23.3320    -9.9260 
  137.0000     2.5420    48.1110    24.2330    22.8850    19.5400    23.3880    -9.9700 
  137.1250     2.5480    50.1020    24.3020    23.0410    19.4950    23.4450    -9.9290 
  137.2500     2.5600    51.9250    24.2700    23.1780    20.1050    23.5230    -9.9440 
  137.3750     2.5660    52.9510    24.0890    23.2380    20.1690    23.4550   -10.0480 
  137.5000     2.5540    53.0940    23.7660    23.2010    20.6680    23.2670   -10.2540 
  137.6250     2.5260    51.7940    23.4080    23.1060    20.3470    23.0310   -10.4100 
  137.7500     2.5030    52.6500    23.1920    23.1060    19.6510    22.8740   -10.4180 
  137.8750     2.5040    56.6110    23.1910    23.3580    18.6950    22.8350   -10.3180 
  138.0000     2.5330    61.3210    23.2470    23.8430    18.4500    22.8840   -10.2400 
  138.1250     2.5770    62.1680    22.7650    23.9930    19.4020    22.9740   -10.2310 
  138.2500     2.6100    59.2780    21.2610    22.9770    20.5840    23.0660   -10.1940 
  138.3750     2.6160    57.1270    18.6220    20.3970    21.5100    23.1460   -10.0790 
  138.5000     2.5880    59.0930    15.2490    16.7420    19.0380    23.2910    -9.8780 
  138.6250     2.5300    67.3770    11.9680    13.1450    13.4910    23.4870    -9.7150 
