~V
VERS. 2.00: Ver 2.00
~W
STRT.M 53.0000:
STOP.M 279.0000:
STEP.M 0.1250:
NULL. -999.2500:
UWI. F11068:
~C
DEPT.M :
GR.API :
RML.OHMM :
RI. :
RXO.OHMM :
CALI.CM :
SP.MV :
DEN.GM/CC :
~A
# ...
  221.7500    84.3480     7.8880     5.8030     6.7410    24.5940    -9.5970     2.3830 
  221.8750    81.5810     8.8190     6.4710     7.7640    24.6550    -9.3980     2.3650 
  222.0000    79.3570     9.8650     7.2910     9.5360    24.6730    -9.3520     2.3470 
  222.1250    79.3590    10.9010     8.2010    11.9790    24.6750    -9.4540     2.3320 
  222.2500    79.7490    11.7840     9.0530    12.0550    24.6760    -9.6660     2.3190 
  222.3750    78.8820    12.4320     9.7330    12.2100    24.6770    -9.9370     2.3090 
  222.5000    76.9080    12.8530    10.1830    12.7620    24.7050   -10.2180     2.3000 
  222.6250    75.0760    13.1810    10.4280    13.4340    24.7920   -10.4680     2.2970 
  222.7500    74.6600    13.6860    10.6790    14.2580    24.9110   -10.6750     2.3060 
  222.8750    75.5440    14.6250    11.1480    15.2040    24.9610   -10.8230     2.3290 
  223.0000    75.0100    16.2100    12.0440    15.8340    24.9510   -10.9250     2.3640 
  223.1250    72.8510    18.6640    13.6510    18.1220    24.9320   -11.0020     2.3940 
  223.2500    72.3910    21.7120    15.9360    23.7970    24.9150   -11.0550     2.4050 
  223.3750    73.9990    24.9290    18.7230    33.2070    24.8940   -11.0720     2.3930 
  223.5000    75.7870    27.6960    21.5290    41.3680    24.8840   -11.0760     2.3670 
  223.6250    77.3150    29.2490    23.5070    38.6260    24.8980   -11.0700     2.3430 
  223.7500    79.3470    29.6880    24.4380    33.5980    24.9240   -11.0420     2.3340 
  223.8750    79.6350    29.4560    24.6090    31.3210    24.9430   -11.0880     2.3360 
  224.0000    76.8880    29.1670    24.5490    30.3170    24.9590   -11.2030     2.3430 
  224.1250    73.9880    29.3850    24.7890    30.0870    24.9450   -11.2930     2.3450 
  224.2500    72.2620    30.1240    25.4760    31.7990    24.9290   -11.3650     2.3380 
  224.3750    71.5300    31.1460    26.5010    34.8030    24.9160   -11.4500     2.3280 
  224.5000    70.7430    32.0480    27.5680    34.9630    24.8980   -11.5320     2.3180 
  224.6250    70.4700    32.2280    28.1740    34.8920    24.8860   -11.5380     2.3170 
  224.7500    71.0130    31.4630    27.9790    35.2910    24.8750   -11.5130     2.3250 
  224.8750    71.8580    29.7960    26.8280    34.3200    24.7940   -11.4060     2.3390 
  225.0000    73.2170    27.6290    24.9520    30.3030    24.5890   -11.2680     2.3510 
  225.1250    75.8100    25.7530    23.0170    27.0660    24.3210   -11.1580     2.3450 
  225.2500    77.7080    24.8890    21.7450    24.1840    24.1580   -11.0910     2.3170 
  225.3750    77.4820    25.5340    21.6240    22.5470    24.0820   -11.0780     2.2730 
  225.5000    76.7390    27.9930    23.0380    22.4450    24.0430   -11.1210     2.2300 
  225.6250    76.8570    32.6500    26.6120    29.8900    23.9830   -11.2680     2.2040 
  225.7500    75.5550    38.8710    32.0640    39.9320    23.8470   -11.4530     2.1940 
  225.8750    71.8840    45.9130    38.8840    48.4800    23.6410   -11.6690     2.1930 
  226.0000    68.1840    52.7100    45.9870    48.4470    23.3850   -11.9190     2.1900 
  226.1250    68.0030    57.9910    51.7970    40.9210    23.2230   -12.2350     2.1840 
  226.2500    69.3960    61.6800    55.9270    38.5330    23.2490   -12.5630     2.1800 
  226.3750    68.6460    64.2160    58.7910    41.7660    23.5000   -12.8260     2.1820 
  226.5000    64.6110    66.1840    61.0380    46.2310    23.7930   -13.0780     2.1850 
  226.6250    61.3740    67.7810    62.9220    50.4730    23.9570   -13.3540     2.1830 
  226.7500    62.0830    68.8130    64.2700    54.3560    23.9270   -13.6420     2.1790 
  226.8750    64.0450    68.9630    64.7440    58.4810    23.8010   -13.9160     2.1790 
  227.0000    63.4100    68.1600    64.2400    62.4820    23.8750   -14.1690     2.1850 
  227.1250    61.2040    66.6690    62.9880    63.6950    24.2250   -14.3800     2.1960 
  227.2500    60.5300    65.2160    61.6920    58.3360    24.5810   -14.5500     2.2050 
  227.3750    60.8650    64.3290    60.8740    54.6550    24.7750   -14.7070     2.2070 
  227.5000    62.3330    64.3750    60.9160    54.9580    24.7570   -14.8210     2.2050 
  227.6250    65.5640    65.3940    62.1180    59.9390    24.5980   -14.9160     2.2000 
  227.7500    68.9110    67.8590    64.2220    65.3170    24.4660   -14.9950     2.1960 
  227.8750    68.4790    72.9200    67.2020    67.5060    24.5120   -15.1010     2.1940 
  228.0000    63.9050    80.6200    71.3180    66.8590    24.5770   -15.2050     2.1930 
  228.1250    61.7260    89.9290    77.5300    69.2180    24.6050   -15.3100     2.1900 
  228.2500    63.4770   100.3870    86.3530    76.2080    24.6020   -15.4600     2.1840 
  228.3750    65.6180   112.9950    98.1720    93.3080    24.5930   -15.7170     2.1760 
  228.5000    65.9980   127.7150   112.4720   121.9660    24.5710   -16.0400     2.1690 
  228.6250    65.4740   141.8390   127.0330   148.4120    24.5550   -16.3160     2.1670 
  228.7500    65.1680   152.3270   138.5020   159.9670    24.6120   -16.5280     2.1690 
  228.8750    64.0880   157.5390   144.7650   153.0510    24.6780   -16.7350     2.1710 
  229.0000    62.5770   157.8820   145.8390   136.4870    24.6840   -16.9660     2.1710 
  229.1250    61.3030   155.5610   143.7040   130.4610    24.7740   -17.1570     2.1700 
  229.2500    61.6860   153.9920   141.9450   133.8660    24.9180   -17.2770     2.1730 
  229.3750    64.5760   155.0480   142.6390   138.2270    25.0260   -17.3470     2.1820 
  229.5000    66.5330   159.6100   146.9630   143.9130    25.0330   -17.3380     2.1960 
  229.6250    64.4550   168.0370   155.7800   149.6220    24.8680   -17.3600     2.2140 
  229.7500    61.7010   178.1820   167.4570   148.7350    24.6290   -17.4290     2.2370 
  229.8750    61.1660   187.0470   179.6150   138.0640    24.3830   -17.4650     2.2630 
  230.0000    62.9300   190.5470   188.1240   128.9810    24.1110   -17.4160     2.2900 
  230.1250    63.2370   183.6600   186.2090   133.3720    23.9650   -17.3230     2.3110 
  230.2500    60.7930   168.3580   173.7000   153.0200    24.2530   -17.2600     2.3210 
  230.3750    56.6280   148.8180   154.4270   158.3830    24.6260   -17.1420     2.3180 
  230.5000    53.9270   130.1910   134.4070   130.3420    24.7040   -17.0610     2.3030 
  230.6250    55.8680   117.2040   119.4960    89.2770    24.4460   -16.9400     2.2770 
  230.7500    59.9210   110.1630   110.9250    67.5730    24.2050   -16.8860     2.2490 
  230.8750    63.3960   108.3780   108.2720    56.0480    24.0290   -16.8600     2.2250 
  231.0000    65.0820   110.4820   110.1270    49.0150    23.8120   -16.8220     2.2090 
  231.1250    65.8550   114.9210   114.8700    41.1050    23.5370   -16.8000     2.2010 
  231.2500    66.4610   119.4840   120.0880    35.3770    23.3720   -16.8060     2.1970 
  231.3750    64.9570   122.8160   124.2780    39.3760    23.4830   -16.8850     2.1930 
  231.5000    61.5930   124.0310   126.3600    58.5040    24.0140   -16.9920     2.1910 
  231.6250    60.1390   122.3590   125.4080    88.0250    24.6470   -17.0970     2.1970 
  231.7500    62.0230   118.3930   121.8970   108.7490    24.9320   -17.1370     2.2100 
  231.8750    65.0540   112.6530   116.1810   115.0680    24.9620   -17.1920     2.2210 
  232.0000    67.3040   105.9430   109.0070   111.8150    24.8930   -17.3630     2.2200 
  232.1250    68.4780    99.3740   101.6240    96.5510    24.8290   -17.6490     2.1970 
  232.2500    68.3960    93.8180    95.2290    82.2510    24.7470   -17.9210     2.1610 
  232.3750    66.9680    89.6210    90.3020    71.8410    24.6960   -18.1190     2.1290 
  232.5000    66.3670    86.6960    86.8220    68.4180    24.7730   -18.2220     2.1150 
  232.6250    67.8910    84.7100    84.5270    67.7850    24.9250   -18.2750     2.1260 
  232.7500    70.1870    82.9680    82.6220    67.5770    25.0680   -18.3040     2.1470 
  232.8750    73.2040    81.1780    80.6530    62.6530    25.0850   -18.2780     2.1700 
