~V
VERS. 2.00: Ver 2.00
~W
STRT.M 60.0000:
STOP.M 279.0000:
STEP.M 0.1250:
NULL. -999.2500:
UWI. F11060:
~C
DEPT.M :
GR.API :
RML.OHMM :
RI. :
RXO.OHMM :
CALI.CM :
DEN.GM/CC :
SP.MV :
~A
# ...
  262.5000    48.0680     9.6290     8.9390     8.3990    23.4460     2.4680     7.9480 
  262.6250    49.5020     9.7030     8.9570     8.2320    23.5310     2.4670     7.9810 
  262.7500    50.1190     9.8200     9.0110     9.0170    23.6940     2.4650     8.0870 
  262.8750    51.4730     9.9350     9.0690     9.9260    23.7660     2.4600     8.1700 
  263.0000    54.0720     9.9980     9.0920    10.1310    23.6890     2.4480     8.1770 
  263.1250    55.0110     9.9500     9.0320     9.7210    23.5770     2.4330     8.2370 
  263.2500    53.3630     9.8030     8.8970     8.9510    23.6160     2.4220     8.3440 
  263.3750    51.7340     9.5960     8.7210     8.1360    23.7790     2.4180     8.4180 
  263.5000    52.7330     9.3950     8.5540     7.4810    23.9240     2.4210     8.4310 
  263.6250    55.0760     9.2750     8.4550     7.4760    23.9550     2.4270     8.5170 
  263.7500    55.8800     9.2510     8.4360     8.0270    23.9550     2.4290     8.5520 
  263.8750    54.7600     9.3130     8.4830     8.9200    23.9960     2.4230     8.5130 
  264.0000    54.2590     9.4200     8.5660    10.1840    24.0830     2.4190     8.5200 
  264.1250    56.4910     9.5090     8.6460    10.5020    24.1160     2.4250     8.5280 
  264.2500    58.8920     9.5470     8.6970    12.0990    24.0710     2.4370     8.4270 
  264.3750    59.4580     9.5500     8.7240    12.1720    23.9390     2.4460     8.2940 
  264.5000    59.4430     9.5600     8.7420    10.8380    23.8190     2.4500     8.2550 
  264.6250    59.2210     9.6150     8.7650     9.7000    23.7510     2.4560     8.2050 
  264.7500    57.3880     9.6880     8.7840    10.4880    23.7360     2.4710     8.1070 
  264.8750    54.2660     9.7200     8.7750    13.6860    23.7500     2.4940     8.0770 
  265.0000    52.0320     9.6610     8.7100    17.4960    23.8410     2.5150     8.0690 
  265.1250    51.1350     9.4810     8.5600    18.6360    23.9700     2.5150     7.9780 
  265.2500    51.0900     9.2340     8.3490    13.7180    24.0150     2.4980     7.8850 
  265.3750    52.3100     8.9760     8.1090    10.5610    23.8620     2.4750     7.8230 
  265.5000    54.7370     8.7550     7.8820     9.3240    23.5950     2.4530     7.7670 
  265.6250    56.0110     8.6100     7.7150     8.8260    23.6520     2.4380     7.6520 
  265.7500    56.3360     8.5350     7.6200     8.1080    23.9520     2.4350     7.6140 
  265.8750    57.9680     8.5300     7.5970     7.3990    24.1110     2.4370     7.5840 
  266.0000    60.7460     8.5970     7.6430     7.5710    24.1590     2.4390     7.4780 
  266.1250    60.3640     8.7440     7.7640     8.3250    24.2630     2.4420     7.4290 
  266.2500    56.7970     8.9530     7.9500     8.4570    24.4130     2.4500     7.4980 
  266.3750    53.9020     9.2110     8.1920     9.0510    24.4440     2.4610     7.5540 
  266.5000    54.1870     9.4960     8.4740    10.4980    24.3460     2.4670     7.5120 
  266.6250    56.4460     9.7730     8.7730    11.3600    24.2890     2.4640     7.5600 
  266.7500    57.3560    10.0000     9.0470    10.3850    24.2780     2.4570     7.6020 
  266.8750    54.8970    10.1300     9.2470     9.2580    24.2730     2.4480     7.6080 
  267.0000    51.2910    10.1310     9.3280     8.4590    24.2730     2.4420     7.6870 
  267.1250    52.1470     9.9800     9.2480     7.9150    24.2620     2.4400     7.8200 
  267.2500    56.2310     9.7350     9.0520     7.0640    24.2220     2.4380     7.8530 
  267.3750    59.0280     9.4360     8.7770     6.5070    24.2000     2.4310     7.8590 
  267.5000    58.8540     9.1130     8.4540     6.6100    24.2440     2.4170     7.9590 
  267.6250    57.4000     8.7780     8.1080     7.2320    24.2690     2.3980     8.0470 
  267.7500    55.2970     8.4430     7.7700     7.2640    24.2710     2.3870     8.0820 
  267.8750    53.9940     8.1510     7.4850     6.7060    24.2760     2.3910     8.1550 
  268.0000    54.7680     7.9690     7.3060     6.2710    24.2620     2.4050     8.1880 
  268.1250    56.8270     7.9940     7.3120     6.4470    24.2070     2.4170     8.1290 
  268.2500    56.4470     8.2170     7.4900     7.1170    24.1810     2.4230     8.0800 
  268.3750    53.5270     8.5960     7.8100     8.1480    24.2050     2.4270     8.0810 
  268.5000    51.5110     9.0330     8.2070     9.0680    24.2350     2.4320     8.0820 
  268.6250    52.3460     9.3720     8.5580    10.1100    24.2530     2.4410     7.9990 
  268.7500    53.7090     9.5280     8.7620    10.5580    24.2820     2.4550     7.9890 
  268.8750    53.3950     9.4910     8.7820    10.7420    24.3210     2.4680     7.9970 
  269.0000    52.0820     9.3180     8.6480    10.4270    24.4160     2.4760     8.0060 
  269.1250    52.0770     9.1100     8.4460    10.0590    24.5740     2.4790     8.0010 
  269.2500    52.0770     8.9690     8.2900    10.1680    24.8220     2.4810     8.0200 
  269.3750    52.0770     8.9430     8.2370     9.9620    24.9860     2.4790     8.0070 
  269.5000    52.0770     9.0440     8.3070     8.5730    24.8520     2.4710     7.9480 
  269.6250    52.0770     9.2690     8.4930     7.6270    24.5550     2.4590     7.9570 
  269.7500    52.0770     9.5550     8.7370     7.2900    24.4150     2.4460     7.9900 
  269.8750    52.0770     9.8470     8.9910     8.1770    24.4420     2.4340     7.9540 
  270.0000    52.0770    10.0900     9.2180    10.3630    24.4480     2.4280     7.8850 
  270.1250    52.0770    10.2350     9.3800    12.1390    24.4150     2.4340     7.9360 
  270.2500    52.0770    10.2900     9.4770    12.6200    24.3580     2.4510     8.0240 
  270.3750    52.0770    10.2740     9.5150    12.7860    24.2830     2.4710     8.1210 
  270.5000    52.0770    10.2160     9.5110    11.9130    24.2260     2.4850     8.2180 
  270.6250    52.0770    10.1670     9.4980    11.8560    24.2170     2.4890     8.2660 
  270.7500    52.0770    10.1730     9.5160    12.3960    24.2540     2.4890     8.2350 
  270.8750    52.0770    10.2580     9.5910    12.7700    24.2770     2.4870     8.2040 
  271.0000    52.0770    10.4230     9.7280    12.6230    24.2810     2.4840     8.2580 
  271.1250    52.0770    10.6470     9.9120    12.0750    24.2800     2.4800     8.2740 
  271.2500    52.0770    10.8720    10.0950    11.3180    24.2780     2.4720     8.2230 
  271.3750    52.0770    11.0510    10.2450    10.7220    24.2800     2.4670     8.1720 
  271.5000    52.0770    11.1520    10.3470    10.3400    24.2800     2.4700     8.1270 
  271.6250    52.0770    11.1600    10.3980     9.9610    24.2840     2.4810     8.0890 
  271.7500    52.0770    11.1220    10.4230     9.7390    24.2840     2.4900     8.0740 
  271.8750    52.0770    11.0770    10.4370     9.6270    24.2770     2.4920     8.0830 
  272.0000    52.0770    11.0490    10.4470     9.4870    24.2740     2.4920     8.0580 
  272.1250    52.0770    11.0440    10.4510     9.3560    24.2630     2.4980     8.0070 
  272.2500    52.0770    11.0430    10.4500     9.6050    24.2200     2.5060     8.0080 
  272.3750    52.0770    11.0370    10.4410    10.0160    24.1750     2.5110     8.0080 
  272.5000    52.0770    11.0270    10.4300    10.7700    24.1400     2.5060     7.9820 
  272.6250    52.0770    11.0180    10.4210    11.2750    24.1410     2.4940     7.9220 
  272.7500    52.0770    11.0170    10.4190    10.6590    24.1480     2.4730     7.8980 
  272.8750    52.0770    11.0230    10.4220     9.4380    24.1460     2.4460     7.8980 
  273.0000    52.0770    11.0310    10.4270     8.5920    24.1480     2.4200     7.8630 
  273.1250    52.0770    11.0330    10.4290     8.5290    24.1510     2.4090     7.8790 
  273.2500    52.0770    11.0270    10.4270     9.0210    24.1130     2.4220     7.8560 
  273.3750    52.0770    11.0170    10.4240    10.1540    24.0300     2.4500     7.8000 
  273.5000    52.0770    11.0090    10.4210    11.0230    24.0660     2.4750     7.8060 
  273.6250    52.0770    11.0080    10.4220    11.1480    24.1070     2.4800     7.8280 
