~V
VERS. 2.00: Ver 2.00
~W
STRT.M 53.0000:
STOP.M 220.0000:
STEP.M 0.1250:
NULL. -999.2500:
UWI. F11005:
~C
DEPT.M :
DEN.GM/CC :
GR.API :
RML.OHMM :
RI. :
RXO.OHMM :
CALI.CM :
SP.MV :
~A
# ...
  165.5000     2.1880    59.3170   246.4850   236.9710   219.9010    24.6380   -24.3120 
  165.6250     2.1940    58.4350   231.2790   226.1720   218.8890    24.7500   -24.3010 
  165.7500     2.2060    58.9840   209.3280   207.3870   202.2790    24.8360   -24.2700 
  165.8750     2.2180    58.3620   183.3590   182.6540   176.8570    24.9230   -24.2190 
  166.0000     2.2220    57.5060   158.3510   157.4120   149.0350    25.1130   -24.1820 
  166.1250     2.2170    60.4470   140.5660   138.7130   123.6650    25.2730   -24.2370 
  166.2500     2.2070    66.3320   131.7130   129.0740   101.4290    25.3420   -24.3450 
  166.3750     2.2010    69.0180   132.2160   129.4000   107.3240    25.3760   -24.4180 
  166.5000     2.2090    66.8170   141.4920   139.3920   144.3650    25.4060   -24.5080 
  166.6250     2.2340    63.9930   158.6690   158.5730   180.6980    25.3080   -24.6080 
  166.7500     2.2640    63.5700   178.1700   181.3500   195.5690    25.1030   -24.6620 
  166.8750     2.2860    63.4690   193.4850   200.8500   211.5960    24.8110   -24.7790 
  167.0000     2.2910    62.4410   197.5890   208.8500   241.7530    24.5710   -24.8350 
  167.1250     2.2760    62.4110   184.2390   197.2190   257.1470    24.4280   -24.6810 
  167.2500     2.2580    64.2970   159.2560   171.7330   211.0310    24.3730   -24.5120 
  167.3750     2.2470    66.8590   129.6520   140.1480   153.7490    24.4240   -24.3170 
  167.5000     2.2540    68.2810   101.9340   109.8370   113.0440    24.4840   -24.0450 
  167.6250     2.2790    67.0180    80.7100    86.2140    78.4990    24.5890   -23.7830 
  167.7500     2.3070    64.6920    65.4180    69.1140    53.7900    24.7220   -23.4990 
  167.8750     2.3240    64.1210    55.1600    57.6350    42.8790    24.8710   -23.1420 
  168.0000     2.3280    65.3250    49.0950    50.6990    39.4320    25.1730   -22.7060 
  168.1250     2.3360    64.8160    47.4310    48.3210    31.2290    25.6090   -22.2360 
  168.2500     2.3760    63.0680    49.4470    49.8540    26.9760    26.1110   -21.7260 
  168.3750     2.4510    61.7890    54.7990    55.1780    33.4860    26.5580   -21.1780 
  168.5000     2.5390    59.8860    62.2800    63.1750    55.5280    27.1860   -20.6160 
  168.6250     2.5940    55.0270    69.1010    70.6960   103.8070    26.0880   -20.0150 
  168.7500     2.5960    51.3890    72.5350    74.0960   143.6290    25.4050   -19.3850 
  168.8750     2.5550    51.3040    71.8440    72.2010   105.5640    25.0970   -18.7160 
  169.0000     2.5070    53.0910    68.6230    67.0720    56.4170    25.1140   -18.0620 
  169.1250     2.4920    52.5050    66.3990    62.9850    44.6500    25.2240   -17.5020 
  169.2500     2.5140    50.6130    67.8100    62.6800    55.1410    25.3060   -17.0270 
  169.3750     2.5570    49.2380    73.8630    67.0090    76.3140    25.2740   -16.6650 
  169.5000     2.5950    48.8140    84.3470    75.8150    86.3130    25.1350   -16.3710 
  169.6250     2.6040    50.8420    97.8100    87.8970   102.9400    24.9970   -16.2030 
  169.7500     2.5890    54.3910   110.2090    99.2290   117.0560    24.9500   -16.1650 
  169.8750     2.5670    56.9130   117.5890   105.9960   127.5010    25.1090   -16.1820 
  170.0000     2.5600    55.7860   116.8700   105.4560   164.5190    25.2930   -16.2990 
  170.1250     2.5790    52.2710   106.2360    95.8620   157.1230    25.3000   -16.5180 
  170.2500     2.6090    50.8600    90.0770    81.0160   110.6560    25.2250   -16.7300 
  170.3750     2.6280    51.7560    72.3540    64.6210    67.7490    25.1420   -16.9960 
  170.5000     2.6240    52.7440    56.3070    49.7730    42.6740    25.1410   -17.3240 
  170.6250     2.5980    51.4040    44.1160    38.5500    29.9960    25.2240   -17.6300 
  170.7500     2.5730    48.8140    35.1410    30.4390    25.3020    25.3250   -17.8960 
  170.8750     2.5630    47.3350    28.6040    24.6870    21.9640    25.3520   -18.1130 
  171.0000     2.5680    48.2500    23.6550    20.4050    18.4820    25.3090   -18.2650 
  171.1250     2.5710    48.9820    19.7970    17.0280    16.3050    25.2740   -18.2340 
  171.2500     2.5540    50.5890    16.3900    14.1300    14.5980    25.2370   -18.0230 
  171.3750     2.5150    57.1830    13.1550    11.6630    11.2950    25.1800   -17.6510 
  171.5000     2.4660    68.5260    10.2220     9.6480     8.4260    25.1860   -17.1220 
  171.6250     2.4200    75.1230     8.1740     8.1660     7.0190    25.2590   -16.4100 
  171.7500     2.3840    72.4550     6.9880     7.0880     6.4560    25.3020   -15.6200 
  171.8750     2.3590    68.0650     6.3260     6.3320     5.8990    25.2300   -14.8050 
  172.0000     2.3420    67.6800     5.8940     5.8280     5.6930    25.1110   -13.9680 
  172.1250     2.3360    68.8450     5.6670     5.5480     5.4330    25.0540   -13.2400 
  172.2500     2.3360    67.4010     5.5640     5.4170     5.1300    25.0220   -12.6710 
  172.3750     2.3360    63.9680     5.5560     5.4050     4.9740    25.0340   -12.1720 
  172.5000     2.3290    60.7930     5.6140     5.4750     5.0350    25.0780   -11.7600 
  172.6250     2.3180    57.6330     5.7040     5.5790     5.0710    25.1170   -11.5070 
  172.7500     2.3120    54.6060     5.7800     5.6540     5.0490    25.1740   -11.2930 
  172.8750     2.3150    52.1790     5.8250     5.6740     5.0910    25.2560   -11.1380 
  173.0000     2.3260    51.1250     5.8470     5.6480     5.1710    25.3630   -11.0940 
  173.1250     2.3380    52.4510     5.8810     5.6140     5.2050    25.4220   -11.1300 
  173.2500     2.3480    54.6060     5.9610     5.6110     5.2130    25.3990   -11.2610 
  173.3750     2.3590    55.7350     6.0970     5.6510     5.2280    25.3170   -11.5190 
  173.5000     2.3710    56.8020     6.2790     5.7270     5.3140    25.2490   -11.8190 
  173.6250     2.3830    58.4700     6.4640     5.8100     5.6700    25.2900   -12.1340 
  173.7500     2.3880    59.1220     6.5990     5.8560     5.8810    25.3670   -12.4620 
  173.8750     2.3830    58.7210     6.6480     5.8360     5.8520    25.4170   -12.7370 
  174.0000     2.3710    57.5280     6.6030     5.7440     5.7380    25.4030   -12.9360 
  174.1250     2.3600    55.8740     6.4950     5.6060     5.7190    25.3180   -13.0750 
  174.2500     2.3550    54.6770     6.4150     5.4900     5.5670    25.2750   -13.1120 
  174.3750     2.3550    57.0220     6.4450     5.4610     5.3580    25.3000   -13.1010 
  174.5000     2.3540    62.3230     6.6410     5.5670     5.3740    25.3310   -13.1190 
  174.6250     2.3470    62.8430     7.0280     5.8390     5.7400    25.3760   -13.1240 
  174.7500     2.3360    58.3370     7.4870     6.1980     6.2430    25.4330   -13.1810 
  174.8750     2.3260    55.6620     7.8820     6.5400     6.8240    25.4850   -13.3020 
  175.0000     2.3210    57.9100     8.0790     6.7390     7.2480    25.5070   -13.3860 
  175.1250     2.3220    60.3000     7.9620     6.6710     7.0020    25.4740   -13.4040 
  175.2500     2.3260    58.6090     7.6300     6.4000     6.4330    25.4500   -13.4350 
  175.3750     2.3320    53.8070     7.2140     6.0340     5.8850    25.4290   -13.4420 
  175.5000     2.3390    49.2790     6.8580     5.6920     5.6020    25.4170   -13.3930 
  175.6250     2.3490    47.9590     6.7020     5.4870     5.5040    25.4090   -13.3800 
  175.7500     2.3590    48.7510     6.7480     5.4410     5.4780    25.3760   -13.4320 
  175.8750     2.3650    50.8400     6.9620     5.5420     5.6080    25.3140   -13.5480 
  176.0000     2.3650    53.5240     7.2760     5.7480     5.9760    25.2790   -13.7850 
  176.1250     2.3590    55.4210     7.5970     5.9940     6.3540    25.3670   -14.1930 
  176.2500     2.3520    55.3570     7.8450     6.2040     6.5870    25.4280   -14.6340 
  176.3750     2.3440    55.4660     7.9880     6.3430     6.5690    25.4060   -15.1140 
  176.5000     2.3340    58.4120     8.0340     6.4030     6.4450    25.3230   -15.6720 
  176.6250     2.3240    64.3510     8.0270     6.4080     6.2990    25.2670   -16.2890 
