~V
VERS. 2.00: Ver 2.00
~W
STRT.M 50.0000:
STOP.M 283.0000:
STEP.M 0.1250:
NULL. -999.2500:
UWI. F11066:
~C
DEPT.M :
GR.API :
RML.OHMM :
RI. :
RXO.OHMM :
CALI.CM :
DEN.GM/CC :
SP.MV :
~A
# ...
   83.7500    67.7120    10.9440     8.3880    12.0260    24.2930     2.1560   -17.2110 
   83.8750    68.5060    10.9690     8.3670    12.0420    24.2800     2.1550   -16.9460 
   84.0000    67.0760    10.9380     8.3410    12.4070    24.2420     2.1500   -16.6080 
   84.1250    64.3820    10.8530     8.3000    12.7320    24.1490     2.1430   -16.2250 
   84.2500    61.3610    10.7580     8.2530    12.3450    23.9740     2.1400   -15.7940 
   84.3750    60.7530    10.6860     8.2080    11.7250    23.7990     2.1410   -15.3620 
   84.5000    63.9380    10.6580     8.1760    11.5400    23.7400     2.1420   -14.9490 
   84.6250    67.1260    10.6920     8.1670    11.6850    23.7680     2.1400   -14.5670 
   84.7500    65.9410    10.7680     8.1800    11.5540    23.8040     2.1330   -14.2330 
   84.8750    62.6250    10.8660     8.2080    11.2550    23.7690     2.1280   -13.9400 
   85.0000    60.6580    10.9640     8.2400    10.9880    23.5660     2.1300   -13.7000 
   85.1250    60.4840    11.0180     8.2630    10.6890    23.1430     2.1390   -13.5080 
   85.2500    61.0290    10.9790     8.2440    10.8490    23.0140     2.1450   -13.3530 
   85.3750    63.0780    10.7970     8.1410    11.2900    23.3460     2.1450   -13.1970 
   85.5000    64.7560    10.4750     7.9320    11.7270    23.8240     2.1450   -13.0480 
   85.6250    64.9190    10.1320     7.6770    11.9140    24.0600     2.1520   -12.8520 
   85.7500    67.1980     9.9640     7.5140    11.6590    24.1010     2.1620   -12.6890 
   85.8750    72.7590    10.1140     7.5400    10.9500    24.0820     2.1730   -12.5540 
   86.0000    78.1460    10.6270     7.7940    10.2390    24.0630     2.1880   -12.5010 
   86.1250    77.4660    11.4030     8.2470    11.6580    24.0100     2.2090   -12.5410 
   86.2500    72.3530    12.1030     8.7050    14.2910    23.9930     2.2340   -12.6360 
   86.3750    68.3490    12.4510     8.9910    14.9370    23.9920     2.2520   -12.7720 
   86.5000    68.7580    12.3310     8.9990    13.0880    24.0090     2.2520   -12.9660 
   86.6250    71.4880    11.8490     8.7480    11.5520    24.0480     2.2290   -13.2550 
   86.7500    72.4220    11.3580     8.4460    11.0270    24.1030     2.2060   -13.5680 
   86.8750    71.6280    11.0700     8.2340    10.9440    24.1130     2.1940   -13.9130 
   87.0000    70.3540    11.0540     8.1830    10.9670    24.0890     2.1930   -14.2620 
   87.1250    68.5600    11.2900     8.2980    10.8790    24.0910     2.1940   -14.5550 
   87.2500    65.4810    11.6380     8.4990    10.8740    24.1150     2.1950   -14.8150 
   87.3750    63.8590    12.0180     8.7380    10.9780    24.1020     2.1950   -15.0200 
   87.5000    66.9660    12.3470     8.9790    11.0750    24.0310     2.1940   -15.1540 
   87.6250    71.7320    12.5210     9.1590    11.4260    23.9620     2.1990   -15.1880 
   87.7500    72.3250    12.5020     9.2350    12.4080    23.9010     2.2070   -15.1430 
   87.8750    68.6170    12.2860     9.1810    13.1820    23.8550     2.2130   -15.0150 
   88.0000    64.6460    11.9260     9.0090    12.1820    23.8330     2.2140   -14.8080 
   88.1250    63.1100    11.5230     8.7590    11.3100    23.8360     2.2080   -14.5930 
   88.2500    63.2630    11.1780     8.4990    11.0150    23.8690     2.1990   -14.3600 
   88.3750    63.9350    10.9330     8.2590    11.0330    23.9280     2.1890   -14.1730 
   88.5000    63.8600    10.7950     8.0610    11.0680    23.9700     2.1810   -14.0220 
   88.6250    65.5610    10.7450     7.9350    10.8520    23.9840     2.1740   -13.9310 
   88.7500    69.1000    10.7340     7.8800    10.2650    23.9760     2.1670   -13.8770 
   88.8750    71.8140    10.7430     7.8980     9.7990    23.9430     2.1640   -13.8310 
   89.0000    72.1410    10.7660     7.9700    10.2010    23.8890     2.1640   -13.7680 
   89.1250    70.6250    10.7690     8.0430    10.8720    23.8400     2.1660   -13.6400 
   89.2500    69.6260    10.7070     8.0610    11.1590    23.8070     2.1640   -13.4510 
   89.3750    68.3800    10.5510     8.0010    11.2670    23.7690     2.1560   -13.1840 
   89.5000    65.4360    10.3220     7.8830    11.3950    23.7320     2.1440   -12.8290 
   89.6250    61.0040    10.1700     7.7990    11.4060    23.7290     2.1330   -12.3660 
   89.7500    60.3850    10.2920     7.8660    11.2240    23.7890     2.1310   -11.8020 
   89.8750    65.5150    10.7840     8.1550    11.0240    23.9170     2.1380   -11.1460 
   90.0000    70.1390    11.5570     8.6410    10.9040    24.0420     2.1560   -10.4450 
   90.1250    69.9240    12.2620     9.1390    10.6900    24.1330     2.1890    -9.6350 
   90.2500    68.4760    12.4540     9.3450    10.1760    24.1930     2.2400    -8.8250 
   90.3750    68.5650    11.8670     9.0290     9.4750    24.2560     2.3020    -8.0010 
   90.5000    70.2760    10.5920     8.1920     8.2530    24.4120     2.3580    -7.2170 
   90.6250    73.8700     9.0930     7.0990     7.0380    24.7800     2.3710    -6.5110 
   90.7500    78.1620     7.8850     6.1240     7.0320    24.9480     2.3390    -5.9060 
   90.8750    81.5350     7.1540     5.4310     7.1510    25.0160     2.2930    -5.4150 
   91.0000    85.7610     6.9050     5.0710     6.6560    25.0650     2.2670    -5.0520 
   91.1250    89.6310     7.0820     5.0640     6.3680    25.0770     2.2680    -4.9280 
   91.2500    89.9110     7.4610     5.2690     6.5620    25.0730     2.2720    -4.9340 
   91.3750    85.7330     7.8970     5.5860     7.1270    25.0360     2.2630    -5.0600 
   91.5000    81.6350     8.2490     5.9000     7.8050    24.9890     2.2430    -5.2370 
   91.6250    80.4150     8.3200     6.0520     8.1740    25.0010     2.2250    -5.4600 
   91.7500    78.9980     8.0740     5.9790     8.1410    25.0090     2.2170    -5.7020 
   91.8750    77.2450     7.6000     5.7140     7.8250    24.9500     2.2190    -5.9750 
   92.0000    78.0600     7.1070     5.3820     7.2670    24.9650     2.2280    -6.2030 
   92.1250    84.0550     6.8760     5.1600     6.4040    25.1730     2.2440    -6.4610 
   92.2500    89.7620     7.0040     5.1420     6.0470    25.2640     2.2600    -6.7470 
   92.3750    91.2570     7.4810     5.3500     6.7180    24.9770     2.2660    -7.0560 
   92.5000    87.6940     8.1840     5.7420     8.1270    24.6470     2.2540    -7.3400 
   92.6250    79.4440     8.8660     6.2050     8.8650    24.4990     2.2300    -7.5130 
   92.7500    72.8760     9.2860     6.5650     9.0310    24.4800     2.2130    -7.5940 
   92.8750    72.6650     9.3430     6.7120     9.0020    24.4790     2.2070    -7.5520 
   93.0000    78.4190     9.0970     6.6290     8.8720    24.5120     2.2090    -7.4450 
   93.1250    83.8910     8.7140     6.3760     8.4240    24.5970     2.2130    -7.1830 
   93.2500    86.2960     8.3800     6.0900     8.0470    24.6460     2.2170    -6.8630 
   93.3750    88.1130     8.1610     5.8470     8.0570    24.6520     2.2160    -6.4650 
   93.5000    90.4090     8.0740     5.6920     7.9250    24.6350     2.2110    -6.0980 
   93.6250    91.7260     8.1280     5.6590     7.5960    24.6230     2.2090    -5.8440 
   93.7500    90.4690     8.2620     5.7190     7.5050    24.6110     2.2130    -5.7050 
   93.8750    87.3670     8.4200     5.8420     7.7430    24.6030     2.2170    -5.6670 
   94.0000    84.5420     8.5470     5.9840     8.1140    24.6030     2.2130    -5.7030 
   94.1250    83.4640     8.5930     6.0930     8.2810    24.6090     2.2030    -5.7570 
   94.2500    83.5950     8.5710     6.1490     8.2000    24.6050     2.1980    -5.7500 
   94.3750    85.5490     8.5180     6.1520     8.0110    24.5960     2.2020    -5.7290 
   94.5000    88.8830     8.4700     6.1210     7.8680    24.5970     2.2110    -5.6560 
   94.6250    92.6600     8.4430     6.0760     7.6560    24.6040     2.2240    -5.5190 
   94.7500    93.7460     8.4180     6.0340     7.3830    24.6130     2.2360    -5.2840 
   94.8750    90.7350     8.3680     5.9900     7.2270    24.6090     2.2450    -4.9950 
