~V
VERS. 2.00: Ver 2.00
~W
STRT.M 50.0000:
STOP.M 270.0000:
STEP.M 0.1250:
NULL. -999.2500:
UWI. F11070:
~C
DEPT.M :
DEN.GM/CC :
GR.API :
RML.OHMM :
RI. :
RXO.OHMM :
CALI.CM :
SP.MV :
~A
# ...
  196.2500     2.2610    73.6710    32.2200    32.0260    30.1080    24.0590   -24.6860 
  196.3750     2.3230    83.1870    23.7170    23.7410    19.2550    23.6360   -24.4860 
  196.5000     2.3720    86.1670    18.5850    18.6660    14.0990    23.5600   -24.3650 
  196.6250     2.3970    83.5850    16.5270    16.4230    13.0090    23.6800   -24.3180 
  196.7500     2.4000    81.7000    16.4970    15.9840    13.3750    23.7960   -24.3100 
  196.8750     2.3900    80.3230    18.2350    17.1210    14.6290    23.8720   -24.3440 
  197.0000     2.3760    77.5090    21.6070    19.7990    17.6090    24.0010   -24.3900 
  197.1250     2.3610    73.2540    26.4560    24.1060    25.5530    24.1940   -24.4780 
  197.2500     2.3440    69.1530    31.6990    29.1440    35.1000    24.3610   -24.6280 
  197.3750     2.3310    66.1970    36.2410    33.7880    40.2630    24.5140   -24.8140 
  197.5000     2.3250    66.3000    39.2210    36.9530    40.8770    24.6810   -25.0240 
  197.6250     2.3220    68.2890    40.4780    38.1560    40.7540    24.9450   -25.2350 
  197.7500     2.3150    68.3220    41.5030    38.6940    40.5230    25.2580   -25.4150 
  197.8750     2.3030    65.8570    43.8220    39.9130    41.2570    25.4960   -25.5450 
  198.0000     2.2900    62.5860    48.7470    43.0340    46.1140    25.6880   -25.6530 
  198.1250     2.2830    59.6320    57.4700    49.2840    57.5260    25.8170   -25.7310 
  198.2500     2.2770    58.0770    68.6120    57.7980    76.3070    25.8570   -25.7720 
  198.3750     2.2690    57.6270    79.6970    66.7220   101.0380    25.8200   -25.7670 
  198.5000     2.2640    57.4360    87.2450    73.2850   124.7300    25.6960   -25.7200 
  198.6250     2.2760    57.8880    87.9710    74.6490   153.2930    25.5360   -25.6500 
  198.7500     2.2970    58.9910    84.2890    72.2570   115.1590    25.4250   -25.5800 
  198.8750     2.3100    59.4000    78.9890    68.1610    72.3960    25.4010   -25.5140 
  199.0000     2.3050    58.3610    73.5830    63.7220    61.3640    25.4380   -25.4270 
  199.1250     2.2940    57.0940    67.6910    58.8420    77.6140    25.5340   -25.3330 
  199.2500     2.2870    57.9490    60.7340    53.0780    93.2520    25.6080   -25.2230 
  199.3750     2.2870    60.4540    53.0680    46.6490    91.1290    25.6350   -25.1170 
  199.5000     2.2970    62.5220    45.7620    40.3980    69.0660    25.5970   -25.0240 
  199.6250     2.3140    64.8100    40.2880    35.5420    48.5910    25.5460   -24.9560 
  199.7500     2.3250    68.8180    36.9910    32.4200    39.5910    25.4830   -24.8780 
  199.8750     2.3240    72.2600    35.7790    31.0150    37.5480    25.3710   -24.8000 
  200.0000     2.3150    72.0040    36.1700    31.0180    38.1800    25.1940   -24.7440 
  200.1250     2.3060    70.0910    37.5340    32.0220    38.1920    25.0310   -24.6890 
  200.2500     2.3000    71.1170    38.9960    33.2730    37.6500    24.9650   -24.6700 
  200.3750     2.2980    72.7450    40.1560    34.3630    38.4230    24.9850   -24.6700 
  200.5000     2.2980    72.4550    40.9080    35.1220    40.3650    25.0090   -24.6830 
  200.6250     2.2990    71.1190    41.2640    35.5150    41.4970    25.0190   -24.7180 
  200.7500     2.3000    70.3850    41.3170    35.6280    41.5310    25.0220   -24.7680 
  200.8750     2.3040    70.1920    41.0640    35.4680    41.4540    25.0040   -24.7860 
  201.0000     2.3110    70.1410    40.5430    35.0600    41.9380    24.9560   -24.7740 
  201.1250     2.3160    70.1430    39.8600    34.4690    41.5910    24.8820   -24.7570 
  201.2500     2.3180    70.8210    39.1820    33.8380    39.2360    24.8450   -24.7310 
  201.3750     2.3220    72.0250    38.5430    33.2150    37.4890    24.8480   -24.7010 
  201.5000     2.3280    72.7460    37.8540    32.5560    37.9390    24.8320   -24.6640 
  201.6250     2.3300    71.9110    36.9830    31.7720    38.9300    24.7350   -24.5990 
  201.7500     2.3260    70.5310    36.0230    30.9250    38.0580    24.5810   -24.5180 
  201.8750     2.3250    69.8070    35.1620    30.1450    35.2980    24.3870   -24.4550 
  202.0000     2.3280    71.8290    34.5420    29.5450    30.9500    24.3050   -24.4020 
  202.1250     2.3270    75.0570    34.1610    29.1500    29.0960    24.4190   -24.3300 
  202.2500     2.3160    75.0570    33.7830    28.8060    30.9120    24.5880   -24.2550 
  202.3750     2.3010    73.3280    33.2290    28.3790    34.8050    24.6140   -24.2170 
  202.5000     2.2940    74.1710    32.5040    27.8460    34.5540    24.5650   -24.2130 
  202.6250     2.2970    77.9810    31.9450    27.4090    29.3720    24.5640   -24.2510 
  202.7500     2.3020    78.0990    31.9780    27.3750    26.5420    24.5970   -24.3380 
  202.8750     2.3070    75.5610    32.8970    27.9950    28.6160    24.6460   -24.4570 
  203.0000     2.3110    74.6910    34.7650    29.3920    32.6980    24.6390   -24.5540 
  203.1250     2.3110    76.5770    37.4090    31.5720    37.2310    24.5570   -24.6340 
  203.2500     2.3040    78.7410    40.1320    34.0290    40.5660    24.5230   -24.7250 
  203.3750     2.2900    79.5420    42.3920    36.2760    40.6950    24.5640   -24.8120 
  203.5000     2.2670    78.5880    43.8790    37.9280    40.4960    24.6180   -24.9080 
  203.6250     2.2360    75.1170    44.4620    38.7130    41.5450    24.6730   -25.0090 
  203.7500     2.2190    70.7080    44.4240    38.8220    43.4250    24.6800   -25.0640 
  203.8750     2.2340    69.0210    43.8480    38.3520    44.5130    24.6230   -25.0780 
  204.0000     2.2760    70.9450    42.7550    37.3790    43.5640    24.4790   -25.1100 
  204.1250     2.3150    73.6320    41.1710    35.9590    40.9330    24.5020   -25.1630 
  204.2500     2.3310    75.0200    39.4620    34.4020    38.3860    24.5090   -25.2140 
  204.3750     2.3310    74.2490    38.0700    33.0530    36.3740    24.4570   -25.2550 
  204.5000     2.3280    73.1220    37.5040    32.3110    34.5870    24.2520   -25.2990 
  204.6250     2.3230    74.2840    38.6110    32.8370    33.8870    23.9790   -25.3600 
  204.7500     2.3140    76.3600    41.7600    34.9610    34.6620    23.7590   -25.4700 
  204.8750     2.2990    76.9120    47.3890    39.1320    38.7560    23.8230   -25.6120 
  205.0000     2.2820    75.7510    55.5700    45.5990    49.3250    24.1800   -25.7320 
  205.1250     2.2640    73.6160    65.5100    54.0280    64.2180    24.6740   -25.8270 
  205.2500     2.2460    71.3210    74.4060    62.1550    84.5450    25.0840   -25.9030 
  205.3750     2.2330    69.1990    79.5350    67.5760    94.6340    25.2950   -25.9930 
  205.5000     2.2290    68.0560    79.6840    68.8730    91.4750    25.3110   -26.0920 
  205.6250     2.2350    66.1040    76.2900    66.5710    77.8110    25.1570   -26.2100 
  205.7500     2.2470    65.0270    73.4800    63.9680    62.2720    24.9510   -26.3400 
  205.8750     2.2630    66.1570    73.8090    63.4220    58.8070    24.9150   -26.4740 
  206.0000     2.2760    67.1090    78.4950    66.3570    65.8320    25.0620   -26.6230 
  206.1250     2.2720    65.8730    88.2780    73.7930    77.8940    25.3050   -26.7810 
  206.2500     2.2480    63.5630   101.2700    84.3040    90.5310    25.4920   -26.9590 
  206.3750     2.2120    61.2020   115.3670    96.1660   103.2490    25.5950   -27.1330 
  206.5000     2.1800    59.3350   127.9090   107.0920   107.5820    25.6250   -27.3010 
  206.6250     2.1680    57.5510   136.0790   114.5960   102.6020    25.6670   -27.4600 
  206.7500     2.1740    54.9310   140.1470   118.6950   102.1370    25.7200   -27.6150 
  206.8750     2.1890    52.4280   140.7300   119.8520   112.3520    25.7390   -27.7750 
  207.0000     2.2080    51.0230   138.4060   118.6080   122.5960    25.6820   -27.9170 
  207.1250     2.2290    49.2660   133.4470   115.2800   118.6090    25.6240   -28.0060 
  207.2500     2.2400    47.9550   127.0020   110.7780   105.0500    25.6330   -28.0360 
  207.3750     2.2350    49.7800   119.8640   105.6190    93.3330    25.7620   -28.0350 
