~V
VERS. 2.00: Ver 2.00
~W
STRT.M 40.0000:
STOP.M 275.0000:
STEP.M 0.1250:
NULL. -999.2500:
UWI. F11027:
~C
DEPT.M :
DEN.GM/CC :
GR.API :
RML.OHMM :
RI. :
RXO.OHMM :
CALI.CM :
SP.MV :
~A
# ...
  175.0000     2.2590    66.4800   108.7660    98.0520    72.7330    24.5690   -14.7770 
  175.1250     2.2650    67.9990   106.2240    96.5990    74.4170    24.5020   -14.7190 
  175.2500     2.2710    68.1490   104.2230    95.9010    74.2090    24.4590   -14.6180 
  175.3750     2.2740    68.6090   102.2780    95.9240    74.4550    24.4460   -14.4620 
  175.5000     2.2740    68.6000    98.9800    95.3440    77.7380    24.4360   -14.3070 
  175.6250     2.2740    67.1820    92.1020    91.1160    78.2710    24.5140   -14.2240 
  175.7500     2.2810    64.5800    81.8630    82.3590    74.8470    24.5930   -14.2210 
  175.8750     2.2960    62.6580    69.8240    70.4070    59.2640    24.4130   -14.2090 
  176.0000     2.3170    62.5690    58.4240    58.2120    37.7280    24.2910   -14.1600 
  176.1250     2.3360    63.3280    50.4310    49.0650    27.6820    24.2840   -14.1510 
  176.2500     2.3470    65.0930    46.3280    43.6530    25.5820    24.3210   -14.2000 
  176.3750     2.3490    65.6300    46.0320    41.9030    26.9590    24.3360   -14.2300 
  176.5000     2.3440    62.9140    49.0770    43.4860    29.6090    24.3700   -14.2270 
  176.6250     2.3330    58.9340    55.1230    48.4090    32.9970    24.3920   -14.2030 
  176.7500     2.3190    57.2250    62.7360    55.4240    35.7820    24.3960   -14.1880 
  176.8750     2.3040    59.7790    70.8550    63.4090    38.2350    24.4170   -14.2460 
  177.0000     2.2930    64.7420    78.4400    71.0410    37.3910    24.4160   -14.3620 
  177.1250     2.2860    69.2320    84.5200    76.9850    34.5460    24.3290   -14.4560 
  177.2500     2.2840    70.9210    89.2290    81.2590    32.7970    24.0910   -14.5290 
  177.3750     2.2850    69.6160    92.9930    84.3190    33.5080    23.9180   -14.6260 
  177.5000     2.2870    66.9010    96.3830    86.8060    39.6440    23.8020   -14.7640 
  177.6250     2.2860    64.5160    99.8870    89.2810    47.5980    23.7430   -14.8770 
  177.7500     2.2830    63.4040   103.5930    91.9580    55.5580    23.7900   -14.9290 
  177.8750     2.2800    63.1080   107.2980    94.7100    56.3880    23.9010   -14.8800 
  178.0000     2.2770    64.0170   110.6480    97.2870    51.3940    24.1280   -14.6910 
  178.1250     2.2750    65.3050   113.0590    99.3450    49.2080    24.3210   -14.4180 
  178.2500     2.2760    66.2810   114.1770   100.6980    53.5730    24.4150   -14.1720 
  178.3750     2.2800    67.2490   113.5180   100.9850    60.8410    24.4270   -14.0040 
  178.5000     2.2860    68.1170   110.6860    99.6440    66.2850    24.4690   -13.9400 
  178.6250     2.2940    67.3850   105.4680    95.9290    67.5660    24.4930   -13.9480 
  178.7500     2.3030    65.7180    99.2640    90.7620    64.5770    24.3840   -13.9370 
  178.8750     2.3110    66.8140    93.6020    85.5550    54.7030    24.1070   -13.8810 
  179.0000     2.3160    70.9100    89.9450    81.8870    41.4120    23.9470   -13.8370 
  179.1250     2.3140    71.3510    89.5280    81.4380    34.7870    23.9480   -13.8020 
  179.2500     2.3070    66.4450    91.2230    83.8240    42.0380    23.9750   -13.7420 
  179.3750     2.2980    60.5990    93.0980    87.5890    56.0550    24.0390   -13.6460 
  179.5000     2.2910    59.8100    92.5630    89.8960    63.1100    24.1130   -13.4770 
  179.6250     2.2910    63.7340    86.8520    86.6420    56.6560    24.1520   -13.2520 
  179.7500     2.2990    67.6960    77.1750    77.9520    51.0280    24.1420   -12.9700 
  179.8750     2.3160    69.2880    66.0120    66.3950    44.4240    24.0650   -12.6880 
  180.0000     2.3350    68.8440    56.2330    55.4760    35.1790    23.9810   -12.4760 
  180.1250     2.3500    70.7930    50.4980    48.2380    28.1100    23.9490   -12.3730 
  180.2500     2.3560    75.1110    48.8750    44.8350    26.7110    23.9410   -12.3290 
  180.3750     2.3520    77.4080    51.3060    45.1800    29.1500    23.9310   -12.2760 
  180.5000     2.3440    74.8550    57.6870    49.2430    38.5750    23.9210   -12.1830 
  180.6250     2.3350    70.5580    68.5510    57.8720    45.8470    23.9840   -12.1780 
  180.7500     2.3240    67.6220    82.8490    70.4830    55.3400    24.1410   -12.3720 
  180.8750     2.3080    65.9100    99.5070    86.3550    60.6680    24.3020   -12.7030 
  181.0000     2.2850    65.2530   116.5100   103.5590    62.2340    24.4200   -13.0860 
  181.1250     2.2620    65.1900   130.1000   118.2640    69.7310    24.4490   -13.4630 
  181.2500     2.2460    63.4570   137.6180   127.2630    82.2020    24.3890   -13.7480 
  181.3750     2.2440    60.9230   137.7810   128.7650    81.8330    24.2800   -13.9280 
  181.5000     2.2520    59.7080   131.3650   123.1550    72.4100    24.2960   -14.0620 
  181.6250     2.2650    59.7000   120.7040   112.6270    68.2440    24.5600   -14.1360 
  181.7500     2.2740    58.8110   109.8500   101.3730    61.6260    24.7690   -14.1480 
  181.8750     2.2770    57.6300   101.0790    91.7460    55.9180    24.7580   -14.1050 
  182.0000     2.2750    58.5100    95.6530    85.2640    51.5040    24.6660   -13.9770 
  182.1250     2.2720    61.2530    94.4590    83.1600    53.9650    24.7290   -13.7450 
  182.2500     2.2710    63.4670    96.2790    84.4630    55.6420    24.7890   -13.5280 
  182.3750     2.2710    64.1720    99.9000    88.3130    56.2420    24.7610   -13.4350 
  182.5000     2.2700    64.5740   103.4860    93.3480    59.7320    24.7180   -13.4890 
  182.6250     2.2660    65.8470   103.9370    96.7670    64.5720    24.7310   -13.6290 
  182.7500     2.2600    67.2220    99.5050    95.7590    67.6390    24.8320   -13.7330 
  182.8750     2.2590    67.7380    89.9140    88.9050    71.2910    24.9210   -13.8050 
  183.0000     2.2660    67.0510    76.7650    77.1480    72.7430    24.9670   -13.8790 
  183.1250     2.2830    67.0730    63.0490    63.5530    56.0960    24.9690   -13.9820 
  183.2500     2.3050    68.1870    51.3990    51.5900    36.9690    24.9480   -14.0870 
  183.3750     2.3260    69.1760    42.7640    42.5740    28.6460    24.9260   -14.1420 
  183.5000     2.3440    69.5640    37.1030    36.5700    28.0540    24.9020   -14.1600 
  183.6250     2.3560    70.4800    34.1780    33.3470    30.4330    24.8570   -14.1920 
  183.7500     2.3670    72.3860    32.8720    31.8050    30.3530    24.7960   -14.1540 
  183.8750     2.3750    74.9990    32.6380    31.4070    27.6150    24.7470   -13.9880 
  184.0000     2.3810    76.9580    33.0530    31.7150    25.3830    24.7230   -13.7940 
  184.1250     2.3800    76.7810    33.8290    32.4490    25.8240    24.7090   -13.6400 
  184.2500     2.3740    76.0970    34.6540    33.3120    27.8320    24.6650   -13.5310 
  184.3750     2.3670    74.7890    35.2880    34.0850    29.3880    24.5610   -13.4640 
  184.5000     2.3620    72.5750    35.4560    34.4750    28.8520    24.4430   -13.3420 
  184.6250     2.3610    72.5220    34.7710    33.9860    26.3190    24.3840   -13.0970 
  184.7500     2.3630    74.6640    33.3360    32.5240    23.7350    24.3170   -12.8880 
  184.8750     2.3670    76.7210    31.4850    30.2920    22.7760    24.1830   -12.8200 
  185.0000     2.3710    78.2030    29.8250    27.8980    23.3600    23.9930   -12.8480 
  185.1250     2.3690    80.2720    29.3490    26.2990    23.2570    23.9080   -12.8910 
  185.2500     2.3600    79.9310    30.5860    26.0520    24.1940    23.9510   -12.9180 
  185.3750     2.3430    76.2670    33.9030    27.5950    30.4860    24.1470   -12.9360 
  185.5000     2.3220    71.9620    39.3420    31.2660    44.9190    24.3650   -12.9700 
  185.6250     2.3030    70.0990    46.5930    37.3880    60.0610    24.3750   -13.0200 
  185.7500     2.2900    68.4030    54.0960    44.7100    62.1310    24.3110   -13.0680 
  185.8750     2.2860    67.4600    60.3420    51.5840    59.1990    24.2720   -13.1330 
  186.0000     2.2890    68.2790    64.1280    56.2520    58.5050    24.2630   -13.1900 
  186.1250     2.2950    69.3940    64.7990    57.4650    58.3860    24.3160   -13.2570 
