~V
VERS. 2.00: Ver 2.00
~W
STRT.M 53.0000:
STOP.M 220.0000:
STEP.M 0.1250:
NULL. -999.2500:
UWI. F11005:
~C
DEPT.M :
DEN.GM/CC :
GR.API :
RML.OHMM :
RI. :
RXO.OHMM :
CALI.CM :
SP.MV :
~A
# ...
  143.0000     2.4100    57.9010    17.5300    15.3690    11.3290    24.8850   -11.4730 
  143.1250     2.3480    64.0530    19.1610    16.5300    12.4410    24.6560   -11.8220 
  143.2500     2.2960    68.6530    21.5570    18.4260    16.4880    24.5880   -12.1850 
  143.3750     2.2530    70.8720    24.2900    20.8680    21.9780    24.6290   -12.4930 
  143.5000     2.2190    71.5140    26.6040    23.2340    23.0420    24.6680   -12.7660 
  143.6250     2.1950    71.3780    27.3940    24.3130    20.5790    24.7880   -12.9990 
  143.7500     2.1850    69.6570    26.5330    23.7490    25.3160    25.0360   -13.1150 
  143.8750     2.1880    69.1290    24.4180    21.9230    28.7900    25.3230   -13.1480 
  144.0000     2.1990    72.4590    21.8290    19.6550    21.6850    25.4710   -13.1510 
  144.1250     2.2100    79.3840    19.6300    17.7840    15.1760    25.4980   -13.0990 
  144.2500     2.2180    84.3600    18.1640    16.5830    14.9720    25.5260   -13.0040 
  144.3750     2.2230    82.5990    17.4570    16.0700    16.5610    25.5490   -12.9340 
  144.5000     2.2260    76.4400    17.3900    16.1930    16.6220    25.5410   -12.8640 
  144.6250     2.2250    72.7010    17.8180    16.9150    15.9330    25.4890   -12.8100 
  144.7500     2.2190    73.4810    18.4040    17.9000    15.8420    25.4070   -12.8020 
  144.8750     2.2110    75.3190    18.9110    18.8710    16.3530    25.3480   -12.7690 
  145.0000     2.2050    74.4740    19.0700    19.5760    16.8300    25.3070   -12.6880 
  145.1250     2.2060    72.7560    18.6050    19.5930    16.7280    25.2560   -12.5620 
  145.2500     2.2180    74.4980    17.6630    18.6630    15.7640    25.1590   -12.4260 
  145.3750     2.2370    78.9180    16.2460    16.7400    13.3250    25.0260   -12.3060 
  145.5000     2.2610    83.4080    14.2960    14.2030    11.6640    24.9220   -12.2040 
  145.6250     2.2820    87.4200    12.0080    11.6920     9.4020    24.8830   -12.1260 
  145.7500     2.2960    91.4520    10.0090     9.6550     6.7000    24.9270   -12.0670 
  145.8750     2.3030    94.0820     8.6640     8.2280     5.2750    25.0300   -12.0330 
  146.0000     2.3030    94.3450     7.9570     7.3810     5.0010    25.1220   -12.0350 
  146.1250     2.2990    94.1710     7.8190     7.0790     5.2640    25.1500   -12.0970 
  146.2500     2.2960    93.7490     7.9950     7.1160     5.4580    25.1680   -12.2080 
  146.3750     2.2960    92.4820     8.3420     7.3770     5.5770    25.1640   -12.2990 
  146.5000     2.3020    91.3380     8.7580     7.7360     5.8860    25.1650   -12.4330 
  146.6250     2.3150    92.2800     9.2680     8.1390     6.4780    25.1430   -12.6170 
  146.7500     2.3240    92.6310    10.0640     8.6840     7.1690    25.0440   -12.8150 
  146.8750     2.3210    90.8280    11.5250     9.6190     7.6740    24.8510   -13.1200 
  147.0000     2.3030    85.7750    14.2010    11.3330     8.1310    24.6760   -13.5040 
  147.1250     2.2730    80.4470    19.1400    14.7580    10.1950    24.6920   -13.9040 
  147.2500     2.2450    77.8660    26.5330    20.4510    17.7470    24.9730   -14.3820 
  147.3750     2.2270    76.9940    36.1210    28.7220    36.4060    25.3740   -14.9640 
  147.5000     2.2210    75.5990    46.5700    38.7090    56.3150    25.6730   -15.5550 
  147.6250     2.2210    73.1800    55.0530    47.3760    56.5490    25.7710   -16.1780 
  147.7500     2.2220    70.0540    59.8100    52.1570    52.2630    25.8020   -16.8020 
  147.8750     2.2230    68.4300    60.7880    52.9560    48.5460    25.8140   -17.3910 
  148.0000     2.2250    71.4650    59.3890    51.4720    45.9550    25.8320   -17.9510 
  148.1250     2.2320    76.6970    57.5560    49.6490    44.8630    25.8540   -18.4580 
  148.2500     2.2380    77.6790    56.7000    48.6370    43.7130    25.8450   -18.9080 
  148.3750     2.2410    74.1240    57.3580    48.9290    41.0710    25.8900   -19.2850 
  148.5000     2.2380    70.7050    59.6390    50.8370    39.5190    26.4160   -19.5970 
  148.6250     2.2290    69.9950    63.1350    54.3880    44.6550    27.1360   -19.8290 
  148.7500     2.2240    69.0610    66.3190    58.2350    57.5490    27.0570   -19.9860 
  148.8750     2.2280    68.0390    67.8170    60.8790    68.2130    26.0640   -20.0690 
  149.0000     2.2410    66.9080    66.8760    61.1990    68.7180    25.4940   -20.0670 
  149.1250     2.2590    67.0910    63.7200    59.0050    55.5650    25.5590   -19.9920 
  149.2500     2.2760    71.3070    60.1880    56.0790    42.8290    25.5970   -19.8650 
  149.3750     2.2890    77.2970    57.4950    53.7990    38.2220    25.5800   -19.7230 
  149.5000     2.2980    79.5580    56.0130    52.7680    45.3280    25.5560   -19.5510 
  149.6250     2.3030    76.0650    55.0980    52.4830    50.6290    25.5430   -19.3180 
  149.7500     2.3020    74.1680    53.5060    51.5290    50.4120    25.5340   -19.1560 
  149.8750     2.2910    77.3670    50.6920    49.1220    50.9650    25.4910   -19.0190 
  150.0000     2.2680    80.2360    46.9740    45.4390    50.8030    25.4390   -18.9110 
  150.1250     2.2350    77.6760    43.6440    41.7390    46.3150    25.4380   -18.9590 
  150.2500     2.2020    73.3420    42.0630    39.5200    35.5130    25.4610   -19.0750 
  150.3750     2.1800    70.4370    43.1540    39.7100    36.2100    25.5720   -19.2490 
  150.5000     2.1730    67.9910    47.5030    42.8780    45.6470    25.7630   -19.5190 
  150.6250     2.1810    64.8470    56.1810    50.1910    49.2670    25.9220   -19.8450 
  150.7500     2.1950    62.9950    68.9330    61.6340    50.4920    25.9990   -20.1620 
  150.8750     2.2050    63.6110    85.9810    77.4120    63.9660    25.9520   -20.4740 
  151.0000     2.2060    65.9360   107.5700    97.4060    78.3220    25.8620   -20.8250 
  151.1250     2.1930    67.3780   135.2300   122.6540    79.0340    25.8110   -21.1450 
  151.2500     2.1730    65.8640   168.7550   153.5340   104.6290    25.9820   -21.4580 
  151.3750     2.1500    61.0730   206.3300   189.8520   167.7850    26.1720   -21.7820 
  151.5000     2.1310    55.7600   240.5200   226.5350   238.7180    26.2560   -22.0140 
  151.6250     2.1220    53.0280   253.8090   246.4440   286.7080    26.0460   -22.1750 
  151.7500     2.1260    53.0940   240.3690   237.3960   349.2790    25.5490   -22.2720 
  151.8750     2.1400    57.1560   206.2790   202.6440   324.7270    24.9680   -22.2940 
  152.0000     2.1600    63.1780   165.8140   159.3190   188.6460    24.5460   -22.2290 
  152.1250     2.1780    66.7200   133.1140   124.8080   101.1350    24.3570   -22.1210 
  152.2500     2.1890    68.6540   111.2630   102.3610    69.0290    24.3070   -21.9520 
  152.3750     2.1920    71.0130    99.2390    90.2120    60.1400    24.5600   -21.6540 
  152.5000     2.1920    73.2130    94.7960    85.6370    64.3300    25.4570   -21.4060 
  152.6250     2.1920    71.1690    95.8760    86.7420    79.0080    26.5040   -21.2230 
  152.7500     2.1910    68.8360    99.5020    90.5060    83.5960    26.8040   -21.0470 
  152.8750     2.1890    70.1990   104.2610    95.4210    79.8720    26.1160   -20.9440 
  153.0000     2.1840    74.7330   109.2800   100.4710    77.0440    25.7090   -20.8710 
  153.1250     2.1770    80.2230   114.2590   105.1820    85.9280    25.8260   -20.8090 
  153.2500     2.1710    81.6050   119.3200   109.7520    90.0630    25.7450   -20.8020 
  153.3750     2.1680    77.6830   124.4640   114.3450    96.2270    25.5790   -20.8050 
  153.5000     2.1680    74.1570   129.2210   118.7050    95.3320    25.4500   -20.7920 
  153.6250     2.1690    74.0930   132.1540   121.6570    97.3420    25.4170   -20.7340 
  153.7500     2.1720    73.7070   132.3000   122.2530    96.0600    25.4020   -20.6810 
  153.8750     2.1810    70.9740   129.3590   120.0920   102.0660    25.3580   -20.6490 
  154.0000     2.1950    69.2040   124.1600   115.8550    99.4140    25.2980   -20.6030 
  154.1250     2.2100    69.2200   118.6490   111.3870    82.5380    25.2360   -20.5590 
