~V
VERS. 2.00: Ver 2.00
~W
STRT.M 58.0000:
STOP.M 277.0000:
STEP.M 0.1250:
NULL. -999.2500:
UWI. F11038:
~C
DEPT.M :
GR.API :
RML.OHMM :
RI. :
RXO.OHMM :
CALI.CM :
DEN.GM/CC :
SP.MV :
~A
# ...
  125.5000    64.0360    17.0340    14.0350    19.8490    24.1620     2.4820   -12.8150 
  125.6250    60.6950    20.0690    16.4770    25.8040    24.2180     2.5230   -12.7990 
  125.7500    56.3630    22.9360    19.2990    27.2100    24.2240     2.5640   -12.7830 
  125.8750    52.5640    24.8870    21.6210    25.9220    24.2110     2.5910   -12.7670 
  126.0000    50.4720    25.5980    22.7630    23.4740    24.1440     2.6010   -12.7770 
  126.1250    51.4950    25.1850    22.6660    20.7390    24.0850     2.5940   -12.8240 
  126.2500    53.7270    24.4090    22.1450    19.5450    24.1060     2.5780   -12.8960 
  126.3750    54.5320    23.6660    21.5990    20.1230    24.0890     2.5560   -12.9940 
  126.5000    53.1870    23.1140    21.1540    19.2410    23.9360     2.5310   -13.0940 
  126.6250    52.1470    22.7930    20.8490    18.2710    23.8190     2.5090   -13.1960 
  126.7500    52.9570    22.6050    20.6430    18.5800    23.8230     2.4960   -13.2690 
  126.8750    54.2990    22.4420    20.4550    19.1390    23.9470     2.4950   -13.3180 
  127.0000    55.7170    22.1730    20.1710    19.5990    24.0670     2.5020   -13.3270 
  127.1250    57.0120    21.6970    19.7040    19.5170    24.0270     2.5080   -13.3020 
  127.2500    58.0490    21.1320    19.1540    19.7700    23.9000     2.5070   -13.2630 
  127.3750    57.8720    20.7020    18.6940    19.1620    23.7910     2.5030   -13.1950 
  127.5000    55.9740    20.6820    18.5500    18.4480    23.7700     2.5020   -13.1070 
  127.6250    55.2730    21.3970    19.0310    18.1120    23.8360     2.5140   -12.9860 
  127.7500    55.7710    22.7220    20.1010    20.9910    23.9120     2.5350   -12.8320 
  127.8750    56.6430    24.3970    21.6030    23.3160    24.0110     2.5610   -12.6680 
  128.0000    58.1590    26.0170    23.2130    23.6700    24.1530     2.5840   -12.5040 
  128.1250    61.1220    27.0690    24.4180    23.4310    24.3700     2.6010   -12.3240 
  128.2500    62.6170    27.4520    24.9860    23.0670    24.5420     2.6110   -12.1350 
  128.3750    61.1700    27.2890    24.9690    21.4220    24.5440     2.6150   -11.9350 
  128.5000    58.3620    26.8440    24.6260    19.8430    24.4340     2.6140   -11.7460 
  128.6250    56.1110    26.3530    24.2170    19.7160    24.3410     2.6030   -11.6000 
  128.7500    53.3100    25.8980    23.8390    20.9730    24.2670     2.5810   -11.5420 
  128.8750    51.5430    25.4400    23.4660    21.6170    24.2450     2.5480   -11.5420 
  129.0000    53.6350    24.9330    23.0620    20.8280    24.3020     2.5100   -11.5970 
  129.1250    56.6150    24.3760    22.6150    19.6620    24.3860     2.4780   -11.6990 
  129.2500    57.9250    23.8360    22.1670    19.1700    24.4070     2.4630   -11.8500 
  129.3750    59.3450    23.3810    21.7780    18.4730    24.3210     2.4680   -12.0540 
  129.5000    61.3710    23.0500    21.5010    18.1830    24.1260     2.4880   -12.2900 
  129.6250    61.3070    22.8300    21.3420    18.7820    23.9020     2.5100   -12.5240 
  129.7500    58.6190    22.6280    21.2030    18.9790    23.8350     2.5230   -12.7470 
  129.8750    55.6410    22.3890    21.0210    18.7760    23.8480     2.5220   -12.9610 
  130.0000    55.2720    22.1000    20.7860    18.9270    23.8020     2.5120   -13.1720 
  130.1250    57.1590    21.7890    20.5240    18.8970    23.6930     2.5030   -13.3530 
  130.2500    59.0750    21.4920    20.2740    18.6270    23.6440     2.5040   -13.5250 
  130.3750    58.9300    21.2170    20.0460    18.7280    23.6410     2.5140   -13.6630 
  130.5000    56.2400    20.9540    19.8230    19.0850    23.7100     2.5220   -13.7620 
  130.6250    54.6860    20.7050    19.5950    17.9290    23.8290     2.5130   -13.7940 
  130.7500    55.6570    20.5000    19.4050    16.0730    23.9490     2.4850   -13.7750 
  130.8750    57.8760    20.3670    19.2970    14.8070    24.1100     2.4490   -13.7020 
  131.0000    58.3230    20.2970    19.2690    14.1510    24.1830     2.4230   -13.5670 
  131.1250    54.6010    20.2390    19.2810    14.7530    24.0750     2.4210   -13.3860 
  131.2500    51.5620    20.1380    19.2780    15.9530    23.8560     2.4340   -13.1560 
  131.3750    52.9750    19.9940    19.2340    16.4500    23.6490     2.4480   -12.9210 
  131.5000    58.0910    19.8650    19.1710    16.1640    23.5770     2.4530   -12.6990 
  131.6250    60.9160    19.8820    19.1890    16.3760    23.6510     2.4540   -12.5250 
  131.7500    60.2640    20.0810    19.3510    17.3940    23.8080     2.4620   -12.3840 
  131.8750    58.8170    20.4120    19.6430    18.7170    23.9160     2.4850   -12.2870 
  132.0000    58.1830    20.7400    19.9650    19.0320    24.0980     2.5180   -12.2390 
  132.1250    55.9070    20.8560    20.1270    19.5430    24.2150     2.5500   -12.2760 
  132.2500    52.9750    20.6960    20.0170    19.8950    24.2270     2.5690   -12.3910 
  132.3750    52.4580    20.3130    19.6440    19.7920    24.2130     2.5740   -12.5550 
  132.5000    55.0500    19.8680    19.1530    19.3040    24.1870     2.5670   -12.7310 
  132.6250    57.1490    19.6160    18.7970    17.7620    24.1840     2.5530   -12.8830 
  132.7500    56.8230    19.7010    18.7390    16.6030    24.2680     2.5400   -13.0200 
  132.8750    56.6930    20.1740    19.0510    16.4510    24.4750     2.5340   -13.1170 
  133.0000    56.9290    20.9880    19.7310    17.2490    24.6730     2.5360   -13.1910 
  133.1250    54.5730    22.0230    20.7160    20.0690    24.7750     2.5450   -13.1880 
  133.2500    51.6020    23.0610    21.7860    22.4740    24.8430     2.5550   -13.1200 
  133.3750    51.4530    23.9810    22.8000    23.2210    24.9390     2.5620   -13.0080 
  133.5000    53.6580    24.7390    23.6730    24.0750    25.0090     2.5630   -12.8740 
  133.6250    55.5050    25.3400    24.3770    26.3310    24.9900     2.5580   -12.7980 
  133.7500    56.0470    25.8260    24.9680    26.4680    24.8460     2.5490   -12.7570 
  133.8750    55.3200    26.1260    25.4070    25.0630    24.6610     2.5390   -12.7650 
  134.0000    53.1040    26.0810    25.5390    24.1080    24.5010     2.5320   -12.7960 
  134.1250    50.8210    25.4330    25.0580    23.0330    24.3990     2.5300   -12.8930 
  134.2500    50.3490    24.2710    24.0020    22.7950    24.2680     2.5330   -12.9940 
  134.3750    52.3110    22.8050    22.5770    22.3630    24.1210     2.5390   -13.1040 
  134.5000    56.8750    21.3680    21.1260    19.8960    23.9590     2.5420   -13.2300 
  134.6250    61.8600    20.3670    20.0570    17.7040    23.9250     2.5400   -13.3110 
  134.7500    64.8650    19.9140    19.4970    16.4720    24.1320     2.5330   -13.3370 
  134.8750    65.6110    19.9750    19.4510    16.3780    24.5050     2.5230   -13.2950 
  135.0000    64.0410    20.3840    19.8100    17.3120    24.1040     2.5130   -13.2170 
  135.1250    62.5150    20.8810    20.3660    18.2390    23.9110     2.5050   -13.1050 
  135.2500    63.5000    21.2240    20.8280    18.4110    23.7800     2.4970   -13.0330 
  135.3750    66.1910    21.3430    21.0580    18.9210    23.8160     2.4870   -12.9740 
  135.5000    66.5450    21.3080    21.0840    19.2650    23.8860     2.4710   -12.9390 
  135.6250    62.9700    21.3220    21.0800    19.0440    24.0430     2.4450   -12.9660 
  135.7500    59.2890    21.5720    21.2640    19.1990    24.2990     2.4160   -13.1200 
  135.8750    57.2750    22.1270    21.7440    20.1450    24.5440     2.3920   -13.4100 
  136.0000    56.4120    22.9240    22.5020    22.1210    24.6400     2.3800   -13.6970 
  136.1250    55.7450    23.7360    23.3550    25.8600    24.6380     2.3870   -13.8640 
  136.2500    57.2390    24.2640    23.9820    26.8980    24.6470     2.4090   -13.9500 
  136.3750    60.5710    24.3260    24.1430    26.4620    24.6670     2.4370   -14.0210 
  136.5000    63.4170    23.9130    23.7690    24.3070    24.6320     2.4620   -14.0660 
  136.6250    62.2560    23.2180    23.0240    21.7900    24.5510     2.4770   -14.0660 
