~V
VERS. 2.00: Ver 2.00
~W
STRT.M 53.0000:
STOP.M 279.0000:
STEP.M 0.1250:
NULL. -999.2500:
UWI. F11057:
~C
DEPT.M :
GR.API :
RML.OHMM :
RI. :
RXO.OHMM :
CALI.CM :
DEN.GM/CC :
SP.MV :
~A
# ...
  176.7500    74.0350    87.6620    84.1390    97.4380    24.6440     2.2890   -15.2870 
  176.8750    71.8700   103.3370    99.5000   126.5550    24.6440     2.2740   -15.1500 
  177.0000    69.6570   122.0830   117.0380   151.6670    24.6440     2.2580   -15.0280 
  177.1250    68.8690   139.1590   132.0830   155.2870    24.6440     2.2430   -14.9270 
  177.2500    71.0320   150.3720   140.9880   152.8780    24.6440     2.2310   -14.8450 
  177.3750    74.3560   154.5500   143.1230   170.9050    24.6440     2.2240   -14.7810 
  177.5000    75.9690   153.0080   140.2220   194.5230    24.6440     2.2200   -14.7300 
  177.6250    75.7020   147.1010   133.7290   192.7760    24.6440     2.2220   -14.6810 
  177.7500    76.3820   138.0820   124.5360   186.6430    24.6430     2.2280   -14.6450 
  177.8750    78.5060   125.9660   112.6180   168.9830    24.6370     2.2370   -14.6220 
  178.0000    78.6130   111.5860    98.9030   134.9290    24.6180     2.2490   -14.6140 
  178.1250    75.0850    97.1010    85.5820   102.7160    24.5760     2.2600   -14.6250 
  178.2500    72.7020    84.7530    74.5530    83.1830    24.5410     2.2700   -14.6420 
  178.3750    73.3600    75.6290    66.6710    74.9620    24.5170     2.2770   -14.6780 
  178.5000    74.4650    70.0630    62.1060    76.3800    24.5050     2.2830   -14.7130 
  178.6250    74.2780    68.2280    60.7810    82.8940    24.4890     2.2940   -14.7500 
  178.7500    74.8440    68.4370    61.0260    84.1600    24.4620     2.3120   -14.7930 
  178.8750    77.2890    69.3600    61.6690    72.9750    24.4430     2.3290   -14.8130 
  179.0000    79.8750    70.1120    62.0740    64.2620    24.4360     2.3350   -14.8230 
  179.1250    80.8160    70.5700    62.3260    70.2390    24.4360     2.3190   -14.8220 
  179.2500    80.9410    71.0920    62.7710    76.2730    24.4360     2.2920   -14.7930 
  179.3750    81.7890    71.6180    63.2890    81.8920    24.4360     2.2670   -14.7420 
  179.5000    84.0370    71.5850    63.3350    80.8130    24.4360     2.2570   -14.6840 
  179.6250    87.4830    70.4140    62.5870    70.7810    24.4360     2.2690   -14.6340 
  179.7500    89.0810    69.3410    62.4680    57.5470    24.4360     2.2860   -14.5870 
  179.8750    86.8110    70.8130    65.3710    53.1210    24.4390     2.2990   -14.5490 
  180.0000    80.9900    77.8080    73.8540    53.9400    24.4580     2.3010   -14.5200 
  180.1250    74.6640    94.6600    91.6040    66.8030    24.5280     2.2880   -14.5110 
  180.2500    72.0210   121.4920   118.7350    86.1570    24.6360     2.2620   -14.5170 
  180.3750    71.1220   156.5990   154.1960   111.2750    24.7320     2.2280   -14.5330 
  180.5000    69.5320   193.3580   191.9550   140.6700    24.7760     2.1940   -14.5510 
  180.6250    68.1970   217.5030   216.3350   173.5070    24.7860     2.1710   -14.5650 
  180.7500    69.8650   221.5810   218.2400   207.2650    24.7880     2.1580   -14.5940 
  180.8750    74.2670   206.5950   199.9290   208.9760    24.7930     2.1500   -14.6230 
  181.0000    77.5480   180.2660   171.6500   170.4790    24.8270     2.1450   -14.6500 
  181.1250    78.1990   152.4880   144.5230   143.8270    24.9260     2.1480   -14.6650 
  181.2500    77.3360   129.9420   123.7710   145.0340    25.0430     2.1620   -14.6650 
  181.3750    74.7940   114.2690   109.9220   141.8000    25.1070     2.1840   -14.6650 
  181.5000    71.5230   104.7560   101.6750   134.0020    25.1110     2.2060   -14.6500 
  181.6250    71.8330    99.9930    97.4320   131.0260    25.0810     2.2210   -14.6000 
  181.7500    77.7360    97.1100    94.6150   126.3880    25.0670     2.2290   -14.5500 
  181.8750    83.5900    94.6310    91.9380   114.6940    25.0650     2.2320   -14.4910 
  182.0000    83.7130    91.6510    88.6520   103.9420    25.0630     2.2310   -14.4130 
  182.1250    79.0390    87.6280    84.3170   102.4940    25.0530     2.2290   -14.3260 
  182.2500    77.1110    82.6860    79.1430   110.7410    25.0280     2.2270   -14.2060 
  182.3750    80.4820    77.0960    73.4890   105.2650    25.0050     2.2290   -14.0810 
  182.5000    86.0850    71.4970    68.0820    83.8080    24.9950     2.2360   -13.9620 
  182.6250    88.4810    67.1500    64.2800    68.3110    24.9950     2.2440   -13.8370 
  182.7500    86.3200    64.8770    62.7850    64.8490    24.9940     2.2470   -13.7250 
  182.8750    81.4740    65.0840    63.8460    68.1950    24.9870     2.2430   -13.6300 
  183.0000    78.5080    67.5290    67.0420    73.9950    24.9670     2.2340   -13.5540 
  183.1250    78.1940    71.3130    71.3300    77.9500    24.9330     2.2240   -13.5010 
  183.2500    77.7380    75.0200    74.8550    80.9320    24.9030     2.2180   -13.4750 
  183.3750    77.1380    77.2370    77.1400    86.5330    24.8730     2.2180   -13.4720 
  183.5000    77.8940    77.7910    77.9190    85.1690    24.8560     2.2210   -13.4880 
  183.6250    79.4780    77.1360    77.4910    82.4140    24.8510     2.2240   -13.5230 
  183.7500    79.7360    76.3940    76.8430    80.6180    24.8510     2.2260   -13.5610 
  183.8750    79.0770    76.2520    76.6270    81.0990    24.8510     2.2280   -13.5860 
  184.0000    78.7600    77.0590    77.2310    81.3270    24.8510     2.2300   -13.6040 
  184.1250    79.7160    78.8110    78.7660    82.3670    24.8510     2.2320   -13.6280 
  184.2500    80.6960    80.5940    80.4610    83.4130    24.8510     2.2330   -13.6260 
  184.3750    79.1860    81.2750    81.2510    87.9330    24.8510     2.2340   -13.5970 
  184.5000    74.8570    79.6860    79.9730    94.8980    24.8510     2.2340   -13.5750 
  184.6250    72.7710    74.6180    75.3420    88.2260    24.8510     2.2330   -13.5150 
  184.7500    73.8070    67.0440    68.1380    69.5540    24.8510     2.2380   -13.4230 
  184.8750    75.5400    58.3960    59.6710    54.3170    24.8510     2.2500   -13.3250 
  185.0000    76.7710    50.4300    51.6350    41.7010    24.8510     2.2730   -13.1970 
  185.1250    79.5330    45.2370    45.9630    30.7350    24.8510     2.3030   -13.0740 
  185.2500    82.8430    43.7040    43.5040    27.5390    24.8620     2.3290   -12.9620 
  185.3750    83.0900    46.4090    44.9980    34.6940    24.9230     2.3280   -12.8560 
  185.5000    78.4450    53.0680    50.6040    49.7280    25.0730     2.2970   -12.7520 
  185.6250    73.3660    62.0890    59.4880    67.3940    25.2470     2.2560   -12.6760 
  185.7500    71.9900    69.3580    67.7060    77.2650    25.3220     2.2310   -12.6180 
  185.8750    73.7840    71.3900    71.3640    78.2560    25.3380     2.2210   -12.5650 
  186.0000    76.4240    67.4480    68.8790    70.9980    25.3380     2.2210   -12.5150 
  186.1250    77.6810    60.3830    62.3300    60.7830    25.3380     2.2270   -12.4650 
  186.2500    76.9050    54.3830    56.0960    53.4690    25.3440     2.2370   -12.4150 
  186.3750    74.9920    50.8640    51.8460    49.3790    25.3620     2.2450   -12.3740 
  186.5000    74.1020    50.1260    50.0140    48.5980    25.3960     2.2480   -12.3630 
  186.6250    75.5820    52.5560    51.0510    51.9510    25.4260     2.2420   -12.3590 
  186.7500    77.0160    57.2660    54.2540    55.4700    25.4570     2.2320   -12.3670 
  186.8750    77.5780    63.5390    59.0300    58.6100    25.4750     2.2220   -12.4110 
  187.0000    77.9400    70.4770    64.6710    62.6470    25.4800     2.2130   -12.4740 
  187.1250    78.0790    76.5250    70.0570    88.4390    25.4810     2.2030   -12.5320 
  187.2500    78.3050    79.9370    73.6800    91.7080    25.4930     2.1950   -12.5960 
  187.3750    78.2770    79.3810    74.1990    73.5080    25.5200     2.1950   -12.6470 
  187.5000    78.3670    74.9440    71.2560    55.5050    25.5390     2.2020   -12.6760 
  187.6250    77.8390    68.6160    66.0380    49.0130    25.5450     2.2070   -12.7080 
  187.7500    75.4890    63.5740    61.3590    48.5900    25.5450     2.2080   -12.7250 
  187.8750    73.9750    61.2820    58.8340    50.3780    25.5450     2.2010   -12.7190 
