~V
VERS. 2.00: Ver 2.00
~W
STRT.M 53.0000:
STOP.M 279.0000:
STEP.M 0.1250:
NULL. -999.2500:
UWI. F11057:
~C
DEPT.M :
GR.API :
RML.OHMM :
RI. :
RXO.OHMM :
CALI.CM :
DEN.GM/CC :
SP.MV :
~A
   53.0000    81.4780    49.6030    15.2190     9.4470    23.8600     2.2290    16.0610 
   53.1250    81.8880    68.9450    36.8420    10.6590    23.8600     2.1720    11.4410 
   53.2500    82.4390    42.1690    43.9990    10.9290    23.8600     2.1510     5.9080 
   53.3750    82.7760    20.3010    28.2960    11.0430    23.8600     2.1470    -0.1880 
   53.5000    81.9920    11.9790    15.8280    10.9860    23.8600     2.1490    -6.1010 
   53.6250    81.4980     9.2650    10.6460    10.9150    23.8600     2.1540   -10.6170 
   53.7500    82.1910     8.2610     8.3910    11.0230    23.8600     2.1590   -13.6880 
   53.8750    84.0290     8.1000     7.6530    11.0660    23.8600     2.1620   -15.8350 
   54.0000    86.2340     8.3220     7.5930    10.9280    23.8600     2.1590   -17.4610 
   54.1250    86.2940     8.6280     7.7270    10.9700    23.8600     2.1570   -18.7340 
   54.2500    82.2370     8.9480     7.9450    11.0050    23.8610     2.1700   -19.7990 
   54.3750    76.5350     9.4470     8.3570    11.1910    23.8820     2.2090   -20.6580 
   54.5000    73.7170    10.3380     9.1260    12.5750    23.9520     2.2820   -21.3560 
   54.6250    73.4940    11.8660    10.4880    16.0550    24.0870     2.3920   -21.9100 
   54.7500    74.7120    13.8810    12.3310    21.3250    24.1770     2.4960   -22.3570 
   54.8750    77.4350    15.9720    14.3340    26.7760    24.2080     2.5470   -22.7400 
   55.0000    78.4730    17.3560    15.8780    29.7210    24.2110     2.5370   -23.0650 
   55.1250    77.1460    16.9770    16.0480    32.8640    24.2110     2.4960   -23.4040 
   55.2500    77.1900    15.2070    14.9100    30.9710    24.2110     2.4470   -23.8040 
   55.3750    78.7920    12.8520    12.9650    25.7250    24.2110     2.3850   -24.2960 
   55.5000    80.1810    10.6600    10.8530    19.2590    24.2110     2.3140   -24.8240 
   55.6250    80.7930     9.1470     9.1230    14.6140    24.2110     2.2590   -25.3780 
   55.7500    81.7630     8.2940     7.9160    12.3070    24.2060     2.2290   -25.9110 
   55.8750    82.3200     8.0130     7.2250    11.5120    24.1850     2.2210   -26.3750 
   56.0000    82.6550     8.1400     6.9420    11.2680    24.1330     2.2240   -26.7840 
   56.1250    84.4570     8.4520     6.9300    11.0570    24.0580     2.2290   -27.1230 
   56.2500    86.5650     8.7110     6.9920    11.0330    23.9870     2.2310   -27.4160 
   56.3750    88.1380     8.8560     7.0590    11.1760    23.9350     2.2250   -27.6770 
   56.5000    87.5000     8.9460     7.1310    11.3110    23.9010     2.2120   -27.9260 
   56.6250    84.8650     9.0890     7.2580    11.4480    23.8740     2.2030   -28.1660 
   56.7500    82.6850     9.3370     7.4630    11.3150    23.8620     2.2050   -28.4700 
   56.8750    82.8980     9.7130     7.7600    11.2130    23.8600     2.2160   -28.8600 
   57.0000    85.1230    10.2150     8.1550    11.9320    23.8600     2.2330   -29.3060 
   57.1250    85.0190    10.7820     8.6310    13.0990    23.8600     2.2560   -29.7370 
   57.2500    80.6370    11.2390     9.0680    13.8160    23.8600     2.2760   -30.1240 
   57.3750    76.0890    11.3810     9.3030    13.1020    23.8600     2.2810   -30.4570 
   57.5000    75.4960    11.0690     9.1890    12.3000    23.8600     2.2610   -30.7410 
   57.6250    76.8810    10.3380     8.6760    12.1650    23.8580     2.2280   -30.9870 
   57.7500    76.5620     9.5560     8.0220    12.4510    23.8550     2.2020   -31.1350 
   57.8750    76.7210     8.9820     7.4410    12.3960    23.8520     2.1870   -31.2150 
   58.0000    78.2420     8.7390     7.0660    12.3100    23.8510     2.1770   -31.2430 
   58.1250    78.3300     8.8510     6.9570    12.1970    23.8520     2.1690   -31.2350 
   58.2500    76.1330     9.1330     7.0070    12.0500    23.8550     2.1640   -31.2090 
   58.3750    74.2590     9.4340     7.1300    11.8700    23.8580     2.1630   -31.1970 
   58.5000    73.8090     9.6320     7.2550    11.7380    23.8580     2.1640   -31.2310 
   58.6250    74.6660     9.6680     7.3380    11.7220    23.8560     2.1650   -31.3080 
   58.7500    75.6120     9.6140     7.3770    11.7440    23.8580     2.1670   -31.4480 
   58.8750    76.6060     9.5260     7.3780    11.8480    23.8590     2.1730   -31.6030 
   59.0000    78.3230     9.4320     7.3510    12.0650    23.8650     2.1820   -31.7630 
   59.1250    81.3890     9.3360     7.3000    12.4060    23.8950     2.1880   -31.9420 
   59.2500    82.9090     9.2240     7.2310    12.6360    23.9470     2.1890   -32.1300 
   59.3750    81.8310     9.0810     7.1360    12.6150    23.9830     2.1850   -32.3220 
   59.5000    80.1930     8.9010     7.0120    12.5150    23.9950     2.1820   -32.5020 
   59.6250    78.8390     8.6990     6.8600    12.4370    23.9950     2.1780   -32.7110 
   59.7500    76.4440     8.5140     6.7060    12.3890    23.9950     2.1700   -32.9050 
   59.8750    73.7990     8.3770     6.5760    12.2940    23.9950     2.1620   -33.0770 
   60.0000    72.3410     8.3150     6.4870    11.9850    23.9950     2.1580   -33.2420 
   60.1250    72.3870     8.3610     6.4620    11.6790    23.9950     2.1630   -33.3240 
   60.2500    74.3290     8.5000     6.4930    11.7410    23.9950     2.1770   -33.3400 
   60.3750    78.5240     8.6990     6.5680    12.4480    23.9950     2.1970   -33.3090 
   60.5000    80.8150     8.8690     6.6460    13.4530    23.9980     2.2120   -33.2360 
   60.6250    78.3860     8.8510     6.6360    13.0800    24.0260     2.2020   -33.0550 
   60.7500    75.0010     8.6340     6.5090    11.8410    24.1050     2.1750   -32.7790 
   60.8750    72.8260     8.3170     6.2970    11.1930    24.2460     2.1510   -32.3930 
   61.0000    71.4280     8.0480     6.0800    11.0010    24.4270     2.1410   -31.8450 
   61.1250    71.0340     7.9380     5.9330    11.1900    24.5650     2.1470   -31.0580 
   61.2500    72.8290     7.8990     5.8310    11.1480    24.6170     2.1600   -29.9380 
   61.3750    77.4810     7.7900     5.6960    10.7100    24.6280     2.1800   -28.4200 
   61.5000    85.2690     7.4840     5.4430     9.4100    24.6570     2.2140   -26.5480 
   61.6250    95.2260     6.9680     5.0500     7.4940    24.8340     2.2640   -24.4500 
   61.7500   103.1720     6.4370     4.6330     6.0200    25.1530     2.3190   -22.3310 
   61.8750   108.0610     6.0500     4.2990     5.6050    25.3970     2.3580   -20.2940 
   62.0000   111.1160     5.8900     4.1140     5.5390    25.4250     2.3720   -18.3830 
   62.1250   113.4300     5.9830     4.1180     5.5590    25.3210     2.3690   -16.8050 
   62.2500   115.4700     6.2290     4.2500     5.7860    25.2440     2.3620   -15.6460 
   62.3750   115.3030     6.5670     4.4720     6.1710    25.1640     2.3600   -14.9440 
   62.5000   112.0980     6.9530     4.7500     6.4280    25.0600     2.3630   -14.6720 
   62.6250   108.3230     7.3540     5.0600     6.7310    24.9310     2.3660   -14.7460 
   62.7500   106.8090     7.7370     5.3700     6.8960    24.7790     2.3630   -14.9840 
   62.8750   107.5110     8.0880     5.6580     7.0840    24.6360     2.3510   -15.3190 
   63.0000   107.0310     8.4070     5.9110     7.5570    24.5650     2.3390   -15.7170 
   63.1250   103.1590     8.6770     6.1150     8.7350    24.5540     2.3400   -16.1230 
   63.2500   100.6030     8.8310     6.2460     9.5410    24.5650     2.3470   -16.5230 
   63.3750   103.5860     8.7960     6.2590     9.0900    24.6260     2.3420   -16.9550 
   63.5000   109.3330     8.6020     6.1570     7.9740    24.7750     2.3220   -17.4630 
   63.6250   109.7900     8.4700     6.0410     7.2550    24.8970     2.3000   -18.0800 
   63.7500   105.1540     8.6770     6.0870     7.2520    24.8570     2.2770   -18.7910 
   63.8750    99.6590     9.3680     6.4190     7.8780    24.6210     2.2450   -19.5530 
   64.0000    94.3020    10.4630     7.0470     8.8220    24.2700     2.2060   -20.3570 
   64.1250    89.2160    11.5100     7.7640     9.1520    23.9980     2.1760   -21.1680 
