~V
VERS. 2.00: Ver 2.00
~W
STRT.M 60.0000:
STOP.M 274.0000:
STEP.M 0.1250:
NULL. -999.2500:
UWI. F11079:
~C
DEPT.M :
GR.API :
RML.OHMM :
RI. :
RXO.OHMM :
CALI.CM :
DEN.GM/CC :
SP.MV :
~A
# ...
  172.5000    68.6270    14.7150    14.0940    14.8650    23.4290     2.5780    -0.0030 
  172.6250    68.5620    13.3620    12.8090    11.1810    23.4150     2.5590    -0.2260 
  172.7500    68.9300    12.4770    11.8400     9.9460    23.4140     2.5300    -0.4310 
  172.8750    69.4780    12.2670    11.3960    10.0990    23.4140     2.5020    -0.6000 
  173.0000    72.6340    12.6680    11.4780    11.2120    23.4050     2.4870    -0.7200 
  173.1250    78.2900    13.4050    11.9410    12.5000    23.3550     2.4870    -0.7890 
  173.2500    79.8040    14.0050    12.4000    13.2200    23.3460     2.4920    -0.8400 
  173.3750    75.9590    14.2060    12.6020    13.2070    23.3550     2.4990    -0.8720 
  173.5000    72.2530    14.0190    12.4980    12.7170    23.3640     2.5060    -0.8990 
  173.6250    74.9050    13.7480    12.2870    12.1770    23.3580     2.5060    -0.9150 
  173.7500    78.2840    13.7880    12.2810    11.5540    23.3400     2.4980    -0.9000 
  173.8750    78.8470    14.3580    12.6690    11.6120    23.3200     2.4850    -0.8300 
  174.0000    77.7190    15.5310    13.5500    13.0330    23.3040     2.4770    -0.7480 
  174.1250    76.1360    17.2630    14.9640    15.1100    23.3080     2.4770    -0.7030 
  174.2500    73.9870    19.1200    16.6020    17.0890    23.3480     2.4830    -0.6790 
  174.3750    71.2200    20.6160    18.0610    18.5260    23.4580     2.4920    -0.6650 
  174.5000    70.1400    21.2130    18.8330    21.6740    23.6440     2.5020    -0.6590 
  174.6250    71.9300    20.3100    18.2970    25.0820    23.7500     2.5110    -0.6250 
  174.7500    74.6340    18.1880    16.6200    23.9100    23.7880     2.5190    -0.5570 
  174.8750    77.0850    15.3130    14.1960    16.7560    23.8190     2.5220    -0.4980 
  175.0000    79.6940    12.3300    11.5870    12.5720    23.9040     2.5080    -0.4660 
  175.1250    83.4860     9.9170     9.3670    10.4450    24.0830     2.4630    -0.4500 
  175.2500    86.8840     8.0850     7.7330     8.1110    24.1980     2.4060    -0.4610 
  175.3750    88.9880     7.0230     6.7090     6.5060    24.2420     2.3580    -0.5140 
  175.5000    90.5400     6.7240     6.2070     6.2650    24.2160     2.3270    -0.5780 
  175.6250    89.0910     6.7680     6.1050     6.9560    24.1790     2.3090    -0.6090 
  175.7500    83.5810     6.8440     6.1330     7.5840    24.1620     2.2950    -0.5670 
  175.8750    78.2650     6.7820     6.1150     7.7000    24.1480     2.2850    -0.4430 
  176.0000    80.3870     6.5210     5.9500     6.8310    24.1230     2.2870    -0.2880 
  176.1250    87.5510     6.1310     5.6450     5.8050    24.0840     2.3050    -0.1510 
  176.2500    93.1210     5.7820     5.3330     5.5050    24.0100     2.3280     0.0100 
  176.3750    96.1880     5.5500     5.0950     5.6150    23.9110     2.3460     0.2040 
  176.5000    97.5760     5.4320     4.9520     5.8170    23.8330     2.3550     0.4300 
  176.6250    96.5120     5.4010     4.8940     6.0860    23.8610     2.3560     0.6940 
  176.7500    94.4420     5.4130     4.8770     6.0940    23.9950     2.3560     0.9390 
  176.8750    94.2230     5.4690     4.8890     5.7310    24.1600     2.3560     1.1240 
  177.0000    96.1680     5.5780     4.9340     5.5100    24.2270     2.3570     1.2760 
  177.1250    96.5180     5.7080     4.9980     6.0120    24.2380     2.3580     1.4120 
  177.2500    95.0160     5.7740     5.0280     6.9200    24.2520     2.3650     1.5190 
  177.3750    94.6540     5.7080     4.9690     7.4130    24.2620     2.3780     1.6180 
  177.5000    97.3280     5.4960     4.8000     6.7330    24.2480     2.3930     1.6950 
  177.6250    96.4270     5.1890     4.5420     6.0050    24.2310     2.4090     1.7400 
  177.7500    90.6720     4.8940     4.2720     5.3190    24.2270     2.4280     1.7610 
  177.8750    87.6690     4.6670     4.0390     5.0170    24.2370     2.4440     1.7640 
  178.0000    90.6190     4.5300     3.8710     4.8840    24.2630     2.4490     1.7360 
  178.1250    94.5330     4.4810     3.7770     4.7690    24.2610     2.4370     1.6880 
  178.2500    95.8500     4.4790     3.7280     4.6540    24.2240     2.4180     1.6490 
  178.3750    96.2330     4.5050     3.7060     4.5280    24.1790     2.4010     1.6330 
  178.5000    97.6760     4.5440     3.7000     4.4730    24.1540     2.3920     1.6540 
  178.6250    98.2670     4.5650     3.6870     4.4610    24.1400     2.3930     1.7100 
  178.7500    97.8570     4.5420     3.6430     4.3800    24.1250     2.3990     1.7350 
  178.8750    96.7880     4.4680     3.5620     4.2420    24.1240     2.4010     1.6870 
  179.0000    95.1260     4.3680     3.4630     4.1250    24.1180     2.3960     1.5910 
  179.1250    96.1450     4.3170     3.3870     4.0690    24.0600     2.3900     1.4790 
  179.2500    98.8550     4.3810     3.3760     4.1020    23.9860     2.3880     1.3610 
  179.3750   101.5910     4.5850     3.4560     4.2030    23.9600     2.3860     1.2430 
  179.5000   102.8450     4.9060     3.6360     4.6050    23.9540     2.3760     1.1310 
  179.6250   102.2470     5.2780     3.9020     4.9590    23.9390     2.3620     1.0140 
  179.7500   100.0620     5.6280     4.1970     5.1480    23.9240     2.3520     0.9100 
  179.8750    96.7860     5.9210     4.4760     5.2910    23.9200     2.3490     0.8150 
  180.0000    95.0200     6.1390     4.7000     5.5720    23.9260     2.3550     0.7320 
  180.1250    97.7000     6.2650     4.8340     6.1340    23.9430     2.3660     0.6990 
  180.2500    99.6810     6.3190     4.8900     6.6190    23.9450     2.3800     0.7150 
  180.3750    98.1850     6.3110     4.8780     6.2990    23.9270     2.3900     0.7680 
  180.5000    95.7260     6.2640     4.8120     5.7560    23.9150     2.3860     0.8390 
  180.6250    94.8050     6.2050     4.7140     5.4370    23.9420     2.3650     0.9120 
  180.7500    93.5120     6.1500     4.6110     5.4250    24.0130     2.3450     0.9820 
  180.8750    90.7280     6.1030     4.5250     5.4940    24.0880     2.3350     1.0510 
  181.0000    89.1140     6.0640     4.4650     5.5380    24.1290     2.3300     1.1360 
  181.1250    91.3490     6.0370     4.4360     5.3870    24.1480     2.3190     1.2240 
  181.2500    93.8990     6.0250     4.4270     5.3480    24.1490     2.3030     1.3150 
  181.3750    95.1220     6.0400     4.4310     5.4380    24.1350     2.2950     1.3970 
  181.5000    95.1370     6.0890     4.4460     5.5110    24.1230     2.3000     1.4630 
  181.6250    95.6530     6.1660     4.4750     5.4760    24.1160     2.3100     1.5320 
  181.7500    98.5220     6.2360     4.5120     5.4830    24.1160     2.3200     1.5720 
  181.8750   100.0240     6.2680     4.5480     5.6350    24.1180     2.3300     1.5940 
  182.0000    96.4780     6.2490     4.5720     5.8370    24.1230     2.3400     1.6200 
  182.1250    89.5680     6.1800     4.5800     5.8630    24.1300     2.3470     1.6790 
  182.2500    86.2360     6.0870     4.5760     5.6960    24.1310     2.3470     1.7410 
  182.3750    88.7030     5.9920     4.5580     5.5750    24.1250     2.3400     1.8030 
  182.5000    92.3820     5.9160     4.5310     5.5170    24.1270     2.3350     1.8560 
  182.6250    91.8860     5.8870     4.5010     5.4550    24.1370     2.3360     1.8700 
  182.7500    88.7430     5.9070     4.4840     5.4380    24.1500     2.3410     1.8640 
  182.8750    86.7620     5.9730     4.4930     5.4200    24.1430     2.3440     1.8480 
  183.0000    88.7490     6.0680     4.5370     5.3980    24.1110     2.3440     1.8230 
  183.1250    92.9470     6.1720     4.6180     5.3990    24.0830     2.3430     1.7690 
  183.2500    95.4800     6.2720     4.7170     5.4480    24.0880     2.3400     1.6900 
  183.3750    94.1410     6.3550     4.8110     5.5840    24.0950     2.3380     1.6070 
  183.5000    90.6580     6.4010     4.8720     5.6930    24.0860     2.3370     1.5580 
  183.6250    90.9850     6.3770     4.8760     5.7800    24.0620     2.3370     1.5410 
