~V
VERS. 2.00: Ver 2.00
~W
STRT.M 55.0000:
STOP.M 277.0000:
STEP.M 0.1250:
NULL. -999.2500:
UWI. F11037:
~C
DEPT.M :
SP.MV :
GR.API :
RML.OHMM :
RI. :
RXO.OHMM :
CALI.CM :
DEN.GM/CC :
~A
# ...
  145.0000    -9.5130    98.3460     4.9040     3.6750     4.5890    25.6080     2.2560 
  145.1250    -9.7480    99.9750     5.0980     3.6890     4.5050    25.3550     2.2660 
  145.2500    -9.9830   100.4080     5.4420     3.8300     4.8910    25.1520     2.3180 
  145.3750   -10.2410   100.2980     5.8450     4.0880     5.7960    25.0420     2.3920 
  145.5000   -10.5210    99.9560     6.1920     4.3950     7.3880    24.9360     2.4550 
  145.6250   -10.6910    99.2260     6.3450     4.6230     9.1520    24.8410     2.4600 
  145.7500   -11.0130    98.0080     6.2990     4.6840     8.6290    24.9840     2.4060 
  145.8750   -11.5640    95.1900     6.1030     4.5790     6.3180    25.4940     2.3180 
  146.0000   -12.1150    91.9410     5.8500     4.3770     5.0240    26.0410     2.2370 
  146.1250   -12.5600    91.6680     5.6280     4.1680     4.9170    26.0860     2.2010 
  146.2500   -12.8030    92.8200     5.4570     4.0010     4.8750    25.7820     2.2080 
  146.3750   -12.7000    92.4610     5.3310     3.8740     4.7860    25.4240     2.2380 
  146.5000   -12.4510    91.7890     5.2570     3.7860     4.6770    25.2420     2.2690 
  146.6250   -12.2750    93.8750     5.2680     3.7410     4.7000    25.2090     2.2850 
  146.7500   -12.0030    96.5930     5.3420     3.7270     4.7520    25.2040     2.2910 
  146.8750   -11.5760    98.3770     5.4210     3.7260     4.7550    25.1990     2.2960 
  147.0000   -11.0070   100.3170     5.4320     3.7110     4.7220    25.1830     2.3030 
  147.1250   -10.4170   102.5530     5.3150     3.6570     4.8130    25.1860     2.3140 
  147.2500   -10.0390   103.3640     5.1100     3.5660     4.8390    25.2070     2.3260 
  147.3750    -9.8570   102.2280     4.8620     3.4570     4.7400    25.2080     2.3380 
  147.5000    -9.7870    98.4710     4.6170     3.3630     4.6370    25.1790     2.3480 
  147.6250    -9.6640    91.9120     4.4340     3.3130     4.6340    25.0960     2.3560 
  147.7500    -9.4820    87.1400     4.3530     3.3000     4.6430    25.0110     2.3610 
  147.8750    -9.2950    88.0130     4.4020     3.3030     4.6320    24.9310     2.3630 
  148.0000    -9.0890    93.6220     4.5640     3.3040     4.6010    24.8650     2.3630 
  148.1250    -8.9010   100.0400     4.7900     3.3100     4.4950    24.7410     2.3630 
  148.2500    -8.8120   103.4930     5.0110     3.3500     4.3820    24.6290     2.3660 
  148.3750    -8.8080   102.7430     5.1900     3.4490     4.4460    24.7320     2.3710 
  148.5000    -8.8150    99.4970     5.2950     3.6040     4.6420    24.9180     2.3760 
  148.6250    -8.9310    95.0820     5.2790     3.7770     4.8460    25.0220     2.3760 
  148.7500    -9.0150    91.0390     5.1800     3.9170     4.9950    25.0490     2.3680 
  148.8750    -9.0380    88.4110     5.0800     3.9990     4.9960    25.0540     2.3540 
  149.0000    -9.2890    88.2910     5.0830     4.0300     4.8940    25.0530     2.3380 
  149.1250    -9.6250    91.1680     5.2710     4.0360     5.0190    25.0710     2.3270 
  149.2500    -9.8830    94.0870     5.5680     4.0400     5.3040    25.0800     2.3240 
  149.3750   -10.1690    95.2090     5.8720     4.0360     5.6460    25.0820     2.3260 
  149.5000   -10.3840    95.8640     6.0790     3.9960     5.7210    25.0800     2.3320 
  149.6250   -10.6150    97.9280     6.0880     3.9120     5.3940    25.0710     2.3410 
  149.7500   -11.0190    99.4220     5.9130     3.8350     5.0680    25.0510     2.3500 
  149.8750   -11.3210    97.1560     5.5980     3.7990     4.8000    25.0310     2.3550 
  150.0000   -11.2560    93.4070     5.2320     3.8010     4.6940    25.0220     2.3530 
  150.1250   -10.9970    92.8570     4.9360     3.7860     4.7300    25.0180     2.3440 
  150.2500   -10.6770    95.0210     4.7630     3.7080     4.7610    25.0170     2.3360 
  150.3750   -10.3190    97.5000     4.6940     3.5810     4.7050    25.0190     2.3370 
  150.5000    -9.9300    99.5420     4.6640     3.4710     4.6930    25.0180     2.3500 
  150.6250    -9.4630   100.2990     4.6040     3.4640     4.7410    25.0160     2.3690 
  150.7500    -8.9740   101.1020     4.5340     3.5560     4.8560    25.0060     2.3850 
  150.8750    -8.6400   101.5960     4.5360     3.7090     5.0410    24.9880     2.3890 
  151.0000    -8.5660    99.0680     4.6760     3.8900     5.3100    24.9670     2.3820 
  151.1250    -8.5710    93.1760     4.9370     4.0830     5.5220    24.9580     2.3650 
  151.2500    -8.6540    90.3440     5.1590     4.2650     5.5040    24.9560     2.3480 
  151.3750    -8.7780    93.3780     5.2150     4.3970     5.5680    24.9560     2.3350 
  151.5000    -8.9460    98.6820     5.0790     4.4410     5.5760    24.9560     2.3310 
  151.6250    -9.1730   101.7280     4.8480     4.3890     5.4900    24.9550     2.3340 
  151.7500    -9.4220   103.5100     4.6890     4.3200     5.3490    24.9520     2.3400 
  151.8750    -9.6570   104.1310     4.6830     4.3020     5.4880    24.9510     2.3450 
  152.0000    -9.8110   103.6230     4.8380     4.3800     5.6910    24.9590     2.3450 
  152.1250   -10.0730   103.1990     5.1400     4.5740     5.7910    24.9790     2.3380 
  152.2500   -10.3190   101.3080     5.5270     4.8380     6.0410    25.0080     2.3290 
  152.3750   -10.4430    97.6370     5.9620     5.1470     6.5840    25.0330     2.3190 
  152.5000   -10.6960    93.7530     6.3940     5.4680     7.0050    25.0170     2.3120 
  152.6250   -10.9930    91.8450     6.7520     5.7110     7.0390    24.9460     2.3060 
  152.7500   -11.2000    90.9780     6.9930     5.8040     7.1210    24.8830     2.3020 
  152.8750   -11.4250    90.0360     7.0960     5.7150     7.2600    24.9160     2.3020 
  153.0000   -11.5670    89.4670     7.0940     5.4880     7.5110    24.9540     2.3100 
  153.1250   -11.4800    90.5220     7.1520     5.2710     7.4340    24.9550     2.3250 
  153.2500   -11.3960    93.2840     7.5060     5.2620     6.9310    24.9590     2.3370 
  153.3750   -11.3490    95.7580     8.3750     5.6380     6.6670    24.9690     2.3390 
  153.5000   -11.1750    93.9310     9.9050     6.5490     7.6740    24.9940     2.3260 
  153.6250   -10.9510    87.1920    12.2610     8.2870    11.1000    25.0030     2.2990 
  153.7500   -10.7300    81.2900    15.2650    10.8830    17.1960    24.9730     2.2700 
  153.8750   -10.5550    78.7610    18.8060    14.3180    24.5330    24.9260     2.2460 
  154.0000   -10.6270    78.0600    22.7830    18.3920    28.4360    24.9540     2.2300 
  154.1250   -10.9170    76.4090    27.2520    22.9020    31.6110    25.0870     2.2220 
  154.2500   -11.1130    74.1020    32.2910    27.8030    36.5020    25.1710     2.2180 
  154.3750   -11.2620    71.4170    38.0570    33.3470    45.2490    25.2100     2.2160 
  154.5000   -11.4240    69.3100    44.4400    39.6230    56.1810    25.2130     2.2130 
  154.6250   -11.5250    69.2450    50.5170    45.9970    63.6680    25.1930     2.2120 
  154.7500   -11.5860    70.2800    54.8480    51.0330    69.1340    25.1650     2.2120 
  154.8750   -11.6420    69.1630    56.3390    53.4910    69.8240    25.1480     2.2160 
  155.0000   -11.6730    65.5930    54.9470    53.0550    63.9490    25.1310     2.2240 
  155.1250   -11.5920    63.1550    52.0540    50.3650    54.3700    25.1010     2.2340 
  155.2500   -11.5950    63.7590    49.5730    47.1950    48.4930    25.0910     2.2410 
  155.3750   -11.7990    67.1210    48.0960    44.5990    44.8060    25.0960     2.2440 
  155.5000   -12.0900    70.8160    47.8340    43.2930    43.5230    25.1110     2.2410 
  155.6250   -12.4390    71.3700    49.6820    44.1340    43.3360    25.0960     2.2360 
  155.7500   -12.8650    69.7210    54.0260    47.2710    46.3600    25.0870     2.2330 
  155.8750   -13.0670    68.0500    60.9980    53.0330    53.9870    25.0820     2.2340 
  156.0000   -13.1360    67.1540    70.5360    61.5470    68.8870    25.0800     2.2360 
  156.1250   -13.3100    67.1570    82.6490    72.7600    78.4490    25.0790     2.2380 
