~V
VERS. 2.00: Ver 2.00
~W
STRT.M 57.0000:
STOP.M 276.0000:
STEP.M 0.1250:
NULL. -999.2500:
UWI. F11063:
~C
DEPT.M :
DEN.GM/CC :
GR.API :
RML.OHMM :
RI. :
RXO.OHMM :
CALI.CM :
SP.MV :
~A
   57.0000     2.3010    49.7720     0.1970     0.1970     0.2740    25.8950    35.6450 
   57.1250     2.3740    50.2930     0.1970     0.1940     0.6930    25.8560    33.2910 
   57.2500     2.4560    49.5060     0.1970     0.1810     1.1070    25.7320    30.5970 
   57.3750     2.5330    49.5890     0.2030     0.1340     1.2480    25.3900    27.3870 
   57.5000     2.5710    52.0860     0.2550     0.1560     1.5850    24.8240    23.5420 
   57.6250     2.5200    57.8950     0.4760     0.2970     2.9300    24.3480    18.7840 
   57.7500     2.4050    65.8820     1.1890     0.6180     5.9970    24.1580    13.5140 
   57.8750     2.2760    72.3210     2.3120     1.2420     8.0130    24.0790     7.9230 
   58.0000     2.1820    76.6530     3.5090     2.2210     7.7840    24.0080     2.3320 
   58.1250     2.1440    77.4020     4.4530     3.3530     7.3650    23.9510    -3.0240 
   58.2500     2.1320    74.3890     4.8980     4.2800     7.1670    23.9970    -7.9340 
   58.3750     2.1300    71.0950     5.0330     4.9280     7.1330    24.0500   -12.2400 
   58.5000     2.1290    70.9570     5.1280     5.3920     7.4040    24.0500   -15.7400 
   58.6250     2.1230    72.2130     5.3120     5.7650     7.7360    24.0600   -18.2230 
   58.7500     2.1080    70.3150     5.5420     6.0810     7.8510    24.0060   -19.9890 
   58.8750     2.0870    68.0190     5.7600     6.3120     7.8230    23.8670   -21.1500 
   59.0000     2.0650    68.7380     5.9390     6.4320     7.6690    23.6210   -22.0210 
   59.1250     2.0480    72.0330     6.1060     6.4280     7.4630    23.4340   -22.6540 
   59.2500     2.0390    75.4700     6.3050     6.3580     7.2740    23.4330   -23.1590 
   59.3750     2.0380    76.2300     6.5250     6.2630     7.3730    23.5680   -23.5450 
   59.5000     2.0470    72.9000     6.6940     6.1740     7.7900    23.8030   -23.8770 
   59.6250     2.0650    69.4920     6.7060     6.1090     8.9350    24.0810   -24.0700 
   59.7500     2.0850    71.1590     6.6020     6.0680     9.7490    24.2920   -24.2000 
   59.8750     2.1060    75.7700     6.4980     6.0600     9.0050    24.3880   -24.3530 
   60.0000     2.1230    76.7260     6.5150     6.1040     7.9510    24.4140   -24.4440 
   60.1250     2.1260    71.9940     6.7520     6.2400     7.9210    24.4230   -24.5770 
   60.2500     2.1160    68.0980     7.1380     6.4580     8.3170    24.3930   -24.7190 
   60.3750     2.1040    66.7460     7.5710     6.7180     8.5500    24.3790   -24.8700 
   60.5000     2.0960    65.5190     7.9200     6.9360     8.5310    24.5250   -24.9750 
   60.6250     2.0870    62.5210     8.0190     6.9900     8.3830    24.7160   -25.1140 
   60.7500     2.0720    61.2000     7.8650     6.8680     8.3090    24.7100   -25.1770 
   60.8750     2.0640    63.1480     7.5310     6.6190     8.0430    24.4800   -25.2070 
   61.0000     2.0710    67.5980     7.1540     6.3230     7.6330    24.3020   -25.2740 
   61.1250     2.0900    72.1570     6.9080     6.0730     7.4090    24.2190   -25.2770 
   61.2500     2.1010    73.2860     6.8260     5.9060     7.5870    24.1710   -25.3510 
   61.3750     2.0950    69.4820     6.8560     5.8270     7.7380    24.1510   -25.4190 
   61.5000     2.0830    62.2400     6.9280     5.8220     7.6590    24.1430   -25.5430 
   61.6250     2.0810    57.4990     7.0160     5.8740     7.5970    24.0830   -25.6270 
   61.7500     2.0900    58.2060     7.1170     5.9480     7.8230    24.0060   -25.7540 
   61.8750     2.1030    60.3530     7.2370     6.0260     8.1190    23.9080   -25.8340 
   62.0000     2.1120    59.4610     7.3700     6.0950     8.1950    23.7570   -25.8360 
   62.1250     2.1190    57.8980     7.4850     6.1390     8.2100    23.5800   -25.7320 
   62.2500     2.1260    58.6670     7.5470     6.1500     8.3980    23.4960   -25.4510 
   62.3750     2.1300    59.2430     7.5550     6.1300     8.4470    23.5120   -25.0560 
   62.5000     2.1330    59.4320     7.5510     6.1010     8.3090    23.5700   -24.4500 
   62.6250     2.1410    62.2040     7.6080     6.1240     8.1520    23.6380   -23.7260 
   62.7500     2.1590    65.6190     7.7690     6.2250     8.0190    23.7040   -22.8360 
   62.8750     2.1820    66.9370     8.0190     6.3870     7.9940    23.7900   -21.8280 
   63.0000     2.2010    68.1150     8.2640     6.5450     8.1420    23.9420   -20.6790 
   63.1250     2.2110    70.8560     8.3130     6.5860     8.1190    24.2160   -19.4040 
   63.2500     2.2210    73.5890     8.0910     6.4530     7.3580    24.4520   -18.0510 
   63.3750     2.2260    77.7960     7.6670     6.1670     6.2980    24.5440   -16.6880 
   63.5000     2.2140    85.4640     7.2090     5.8280     5.9340    24.5470   -15.4420 
   63.6250     2.1860    89.8610     6.9190     5.5710     6.1980    24.4750   -14.2940 
   63.7500     2.1690    87.4210     6.8310     5.4480     6.4210    24.4450   -13.3330 
   63.8750     2.1690    83.2300     6.8900     5.4480     6.4420    24.4750   -12.4720 
   64.0000     2.1770    82.8720     6.9920     5.5010     6.4940    24.5380   -11.7550 
   64.1250     2.1820    85.6160     6.9800     5.4850     6.5070    24.5460   -11.1660 
   64.2500     2.1900    87.1570     6.7910     5.3370     6.3710    24.5530   -10.6930 
   64.3750     2.2090    90.0040     6.4560     5.0800     6.0310    24.5810   -10.2570 
   64.5000     2.2360    96.4170     6.0650     4.7790     5.7070    24.6020    -9.8820 
   64.6250     2.2610   101.7800     5.7690     4.5170     5.5170    24.6060    -9.5260 
   64.7500     2.2770   104.7290     5.6500     4.3460     5.3130    24.5940    -9.1580 
   64.8750     2.2840   106.8810     5.7070     4.2940     5.3520    24.5440    -8.9420 
   65.0000     2.2860   108.8740     5.8710     4.3600     5.4930    24.4680    -8.7950 
   65.1250     2.2840   106.5430     6.0760     4.5310     5.7370    24.5250    -8.7800 
   65.2500     2.2770    99.4260     6.2970     4.7440     5.8540    24.7190    -8.8560 
   65.3750     2.2630    93.2550     6.5250     4.9540     6.1000    24.9850    -9.0380 
   65.5000     2.2440    91.6090     6.7340     5.1230     6.1380    25.1830    -9.2160 
   65.6250     2.2300    93.9560     6.8780     5.2220     5.8400    25.2130    -9.4470 
   65.7500     2.2220    94.8360     6.9440     5.2670     5.7710    25.1620    -9.6440 
   65.8750     2.2140    93.1540     6.9440     5.2700     5.9110    25.1100    -9.7900 
   66.0000     2.2000    91.5700     6.9130     5.2460     6.1260    25.1010    -9.9490 
   66.1250     2.1760    92.0180     6.8790     5.2070     6.2640    25.1470   -10.0770 
   66.2500     2.1460    94.6860     6.8550     5.1640     6.1580    25.2480   -10.1900 
   66.3750     2.1130    98.3630     6.8570     5.1230     5.8930    25.4310   -10.2430 
   66.5000     2.0710   100.1870     6.9120     5.0970     5.6120    25.6930   -10.3390 
   66.6250     2.0250    98.9320     7.0080     5.0970     5.6820    25.8110   -10.4020 
   66.7500     2.0120    97.2310     7.0560     5.1040     5.8450    25.5410   -10.5680 
   66.8750     2.0560    96.4730     6.9950     5.0870     5.9850    24.8270   -10.7900 
   67.0000     2.1410    95.7420     6.8620     5.0470     5.9010    24.2480   -11.0350 
   67.1250     2.2150    93.7090     6.8910     5.0790     5.8910    24.0760   -11.3420 
   67.2500     2.2490    91.6240     7.2840     5.2940     5.8990    24.1170   -11.6910 
   67.3750     2.2630    90.0870     8.1120     5.7630     6.0660    24.1650   -12.1460 
   67.5000     2.2750    87.7050     9.2880     6.4840     6.7630    24.2700   -12.6410 
   67.6250     2.2800    81.3930    10.4700     7.3380     8.9850    24.3840   -13.2300 
   67.7500     2.2630    73.4170    11.1790     8.0170    11.4160    24.3120   -13.8490 
   67.8750     2.2160    70.1510    11.1470     8.2620    10.4430    24.0120   -14.4820 
   68.0000     2.1540    72.7590    10.4710     8.0150     8.3890    23.7470   -15.1250 
   68.1250     2.1150    74.9940     9.5500     7.4340     7.5080    23.6190   -15.7090 
