~V
VERS. 2.00: Ver 2.00
~W
STRT.M 51.0000:
STOP.M 282.0000:
STEP.M 0.1250:
NULL. -999.2500:
UWI. F11065:
~C
DEPT.M :
GR.API :
RML.OHMM :
RI. :
RXO.OHMM :
CALI.CM :
DEN.GM/CC :
SP.MV :
~A
# ...
  152.2500    52.6800    25.0450    22.5910    23.0450    24.8150     2.6820   -11.5230 
  152.3750    48.6030    25.3130    22.8770    25.4190    24.8020     2.6880   -11.6510 
  152.5000    48.3250    25.3380    22.9250    26.9670    24.7770     2.6850   -11.7850 
  152.6250    52.6530    25.1530    22.7160    26.0930    24.7560     2.6730   -11.9790 
  152.7500    57.2620    24.8900    22.3870    24.0400    24.7360     2.6570   -12.1830 
  152.8750    57.9540    24.7470    22.2040    23.3990    24.6780     2.6430   -12.4850 
  153.0000    56.4980    24.7860    22.3000    23.7970    24.5780     2.6360   -12.7870 
  153.1250    55.3140    24.9610    22.6370    24.8100    24.4900     2.6350   -13.0700 
  153.2500    55.1340    25.1600    23.0750    27.7350    24.4370     2.6360   -13.4400 
  153.3750    56.2710    25.2660    23.4470    29.3810    24.4240     2.6360   -13.8130 
  153.5000    57.2300    25.2750    23.6690    30.6370    24.4520     2.6320   -14.2320 
  153.6250    56.2800    25.2460    23.7090    32.7340    24.5030     2.6240   -14.6190 
  153.7500    54.9930    25.2490    23.6080    43.9560    24.6060     2.6150   -14.9880 
  153.8750    57.2020    25.2840    23.4480    45.4110    24.6330     2.6050   -15.3020 
  154.0000    59.0240    25.2460    23.2880    33.3160    24.5910     2.5970   -15.6260 
  154.1250    57.3300    25.0180    23.1080    23.3880    24.5320     2.5920   -15.9080 
  154.2500    54.8800    24.5390    22.8740    17.7380    24.4970     2.5920   -16.1280 
  154.3750    57.7000    23.8340    22.5800    14.8530    24.4750     2.5930   -16.3730 
  154.5000    62.4960    23.0940    22.2830    14.0820    24.4520     2.5940   -16.4610 
  154.6250    64.2020    22.4620    22.0420    14.3140    24.4810     2.5900   -16.3920 
  154.7500    64.4890    22.0000    21.8650    17.9810    24.5770     2.5820   -16.1400 
  154.8750    67.5480    21.6460    21.6500    30.1010    24.5920     2.5680   -15.7830 
  155.0000    71.8020    21.2120    21.2680    45.2970    24.4910     2.5530   -15.3850 
  155.1250    72.6920    20.5770    20.6440    57.0210    24.3720     2.5380   -14.9320 
  155.2500    70.5540    19.7230    19.7870    61.4070    24.3370     2.5260   -14.4700 
  155.3750    68.9620    18.7450    18.7490    44.4500    24.3470     2.5180   -13.9530 
  155.5000    68.6280    17.8200    17.6550    25.2250    24.3670     2.5140   -13.4870 
  155.6250    69.6500    17.0580    16.6120    17.1660    24.3980     2.5130   -13.1540 
  155.7500    70.7120    16.5300    15.7260    14.1280    24.4220     2.5150   -12.9350 
  155.8750    69.7020    16.3500    15.1420    14.2250    24.4280     2.5210   -12.7390 
  156.0000    66.3020    16.4970    14.8650    15.8370    24.4330     2.5290   -12.4850 
  156.1250    63.5570    16.9000    14.8730    17.5810    24.4320     2.5370   -12.3000 
  156.2500    63.2720    17.3510    15.0660    18.8270    24.4000     2.5420   -12.1090 
  156.3750    64.1260    17.4740    15.1980    18.7230    24.3260     2.5450   -11.9450 
  156.5000    65.6300    17.0810    15.0300    17.0550    24.2410     2.5440   -11.8130 
  156.6250    67.0770    16.1960    14.4900    15.5180    24.1900     2.5400   -11.6430 
  156.7500    66.8870    15.0470    13.6780    14.5640    24.1890     2.5310   -11.4980 
  156.8750    64.9730    14.0350    12.8390    13.7000    24.2260     2.5190   -11.3840 
  157.0000    64.3310    13.4510    12.2330    12.1030    24.2740     2.5080   -11.3290 
  157.1250    64.1390    13.4100    11.9990    11.0940    24.3380     2.5030   -11.2460 
  157.2500    61.9060    13.8690    12.1750    11.7490    24.3980     2.5060   -11.2090 
  157.3750    58.5630    14.6880    12.7490    14.2750    24.3860     2.5190   -11.0960 
  157.5000    56.4180    15.5360    13.4720    16.8020    24.2970     2.5310   -10.9220 
  157.6250    55.7010    16.1620    14.0560    18.4800    24.1790     2.5370   -10.7800 
  157.7500    55.8650    16.3830    14.2210    18.0830    24.1450     2.5370   -10.6290 
  157.8750    57.7460    16.1100    13.8210    15.3020    24.1490     2.5320   -10.5260 
  158.0000    60.9620    15.5940    13.1770    13.2740    24.1430     2.5310   -10.4200 
  158.1250    64.7580    15.0770    12.5790    12.5900    24.1020     2.5340   -10.3780 
  158.2500    67.6410    14.7620    12.2350    12.3910    24.0440     2.5380   -10.3950 
  158.3750    67.1160    14.7810    12.2840    13.5240    23.9910     2.5340   -10.4540 
  158.5000    66.0770    14.9980    12.6090    14.2400    23.9490     2.5210   -10.5770 
  158.6250    67.7720    15.2250    13.0600    12.3050    23.8840     2.5020   -10.7140 
  158.7500    71.0460    15.2240    13.4150    10.4550    23.8280     2.4820   -10.8570 
  158.8750    72.7300    14.6730    13.2860     9.5170    23.8760     2.4680   -11.0150 
  159.0000    73.4800    13.5260    12.4900     8.8350    23.9830     2.4590   -11.1530 
  159.1250    75.4700    11.9180    11.0410     7.7940    24.0190     2.4460   -11.2730 
  159.2500    78.4690    10.1340     9.2050     6.4990    23.9690     2.4230   -11.3130 
  159.3750    81.6470     8.4500     7.4030     5.0790    23.8580     2.3910   -11.3940 
  159.5000    85.0560     6.9830     5.9210     3.7880    23.7840     2.3630   -11.4920 
  159.6250    88.0600     5.8240     4.8520     3.3410    23.7590     2.3490   -11.5630 
  159.7500    90.5780     5.0540     4.1840     3.9600    23.8070     2.3500   -11.6340 
  159.8750    92.2780     4.7060     3.8900     5.4200    23.9320     2.3610   -11.6660 
  160.0000    91.7640     4.6090     3.8260     5.5110    24.1070     2.3700   -11.7330 
  160.1250    89.1380     4.6710     3.9090     4.9110    24.3010     2.3750   -11.7800 
  160.2500    86.7170     4.8010     4.0530     4.6600    24.4280     2.3780   -11.8440 
  160.3750    85.9740     4.9110     4.1630     4.8940    24.4380     2.3820   -11.8500 
  160.5000    86.8780     4.9610     4.2040     5.1920    24.3450     2.3850   -11.8740 
  160.6250    88.8200     4.9580     4.1890     5.6610    24.1250     2.3850   -11.9080 
  160.7500    90.4000     4.9360     4.1550     6.2920    23.7950     2.3770   -11.9300 
  160.8750    89.7110     4.9390     4.1530     6.6460    23.5780     2.3640   -11.9820 
  161.0000    89.8360     4.9740     4.1940     6.7200    23.4890     2.3510   -11.9980 
  161.1250    93.4310     5.0230     4.2510     6.3210    23.5520     2.3450   -12.0180 
  161.2500    99.0220     5.0490     4.2840     5.5290    23.7480     2.3480   -12.0040 
  161.3750   102.2040     5.0110     4.2530     5.1220    24.0050     2.3610   -11.9620 
  161.5000   101.6650     4.9050     4.1530     4.7880    24.2350     2.3760   -11.8870 
  161.6250    99.5880     4.7460     3.9960     4.2380    24.3900     2.3880   -11.7740 
  161.7500    97.9180     4.5690     3.8190     3.7980    24.5280     2.3950   -11.6770 
  161.8750    95.7190     4.4240     3.6810     3.6670    24.5950     2.3950   -11.5280 
  162.0000    92.9190     4.3300     3.6010     3.6800    24.6170     2.3910   -11.3750 
  162.1250    93.2280     4.2810     3.5640     3.6860    24.5960     2.3850   -11.1990 
  162.2500    97.5710     4.2560     3.5470     3.6830    24.5320     2.3810   -10.9990 
  162.3750   101.9430     4.2360     3.5300     3.8030    24.4360     2.3810   -10.8770 
  162.5000   104.8160     4.2150     3.5080     4.1570    24.4250     2.3870   -10.7800 
  162.6250   107.1320     4.1980     3.4900     4.7330    24.4840     2.3950   -10.7570 
  162.7500   108.5860     4.1880     3.4820     5.0320    24.5720     2.3990   -10.7340 
  162.8750   108.3520     4.1870     3.4820     5.0550    24.6300     2.3880   -10.7420 
  163.0000   107.6050     4.1900     3.4860     4.9950    24.6880     2.3630   -10.7650 
  163.1250   107.7610     4.1860     3.4870     4.8560    24.7460     2.3260   -10.8110 
  163.2500   107.4860     4.1630     3.4730     4.7290    24.8220     2.2910   -10.9250 
  163.3750   105.2870     4.1020     3.4150     4.5930    24.9200     2.2730   -11.0180 
