~V
VERS. 2.00: Ver 2.00
~W
STRT.M 52.0000:
STOP.M 278.0000:
STEP.M 0.1250:
NULL. -999.2500:
UWI. F11035:
~C
DEPT.M :
DEN.GM/CC :
GR.API :
RML.OHMM :
RI. :
RXO.OHMM :
CALI.CM :
SP.MV :
~A
# ...
   85.7500     2.2350    88.0480     6.4690     5.9220     6.7670    23.6080   -10.8800 
   85.8750     2.2280    88.0080     6.3530     5.7540     6.5250    23.7380   -10.5920 
   86.0000     2.2250    88.4480     6.2550     5.6050     6.3510    23.7890   -10.2890 
   86.1250     2.2310    94.7190     6.1340     5.4580     6.3980    23.7520   -10.0270 
   86.2500     2.2400   100.9650     5.9700     5.2760     6.7090    23.7550    -9.8540 
   86.3750     2.2450   102.0460     5.8070     5.0550     6.7970    23.9170    -9.7660 
   86.5000     2.2460   100.9780     5.7660     4.8680     6.6400    24.2030    -9.7680 
   86.6250     2.2550   101.5390     6.0800     4.8920     6.4680    24.4230    -9.8540 
   86.7500     2.2820   100.1730     6.8250     5.2300     6.3530    24.5230   -10.0310 
   86.8750     2.3300    96.7120     7.9620     5.9350     7.6930    24.5200   -10.3050 
   87.0000     2.3840    92.4730     9.2620     6.9590    12.6370    24.3760   -10.7230 
   87.1250     2.4090    86.9390    10.2220     8.0130    26.0660    24.0190   -11.3850 
   87.2500     2.3900    81.1320    10.4820     8.6050    24.8330    23.5140   -12.2300 
   87.3750     2.3330    77.6490     9.9950     8.4910    14.9340    22.9730   -13.2160 
   87.5000     2.2670    77.4400     9.0500     7.8490     9.9470    22.5650   -14.2730 
   87.6250     2.2310    78.2340     8.1380     7.1090     8.9080    22.3660   -15.3260 
   87.7500     2.2310    77.4330     7.5750     6.5860     9.3870    22.3230   -16.3410 
   87.8750     2.2520    75.3540     7.3860     6.3470    10.6080    22.3000   -17.3000 
   88.0000     2.2670    73.0670     7.4400     6.3280    11.6300    22.1330   -18.1290 
   88.1250     2.2550    72.6300     7.5620     6.4010     9.4210    21.9050   -18.6930 
   88.2500     2.2250    72.9380     7.6320     6.4460     8.6110    21.7590   -19.0450 
   88.3750     2.1900    72.6120     7.6430     6.4420     8.3990    21.6700   -19.3040 
   88.5000     2.1630    71.3640     7.6360     6.4140     8.2180    21.6210   -19.5440 
   88.6250     2.1480    71.7920     7.6740     6.4140     7.9300    21.6310   -19.8400 
   88.7500     2.1380    74.2530     7.7700     6.4590     8.0980    21.6310   -20.1740 
   88.8750     2.1300    76.0910     7.9070     6.5360     8.2900    21.5590   -20.5070 
   89.0000     2.1240    75.5370     8.0430     6.6140     8.3760    21.4290   -20.8410 
   89.1250     2.1220    73.6300     8.1160     6.6470     8.3340    21.4260   -21.1460 
   89.2500     2.1240    71.3790     8.1100     6.6190     8.1610    21.5230   -21.4240 
   89.3750     2.1310    68.3620     8.0350     6.5320     7.9060    21.6080   -21.5940 
   89.5000     2.1410    66.3410     7.9300     6.4100     7.7100    21.6550   -21.6520 
   89.6250     2.1510    69.1230     7.8500     6.2920     8.1080    21.6920   -21.6370 
   89.7500     2.1580    73.2770     7.8190     6.2070     8.5080    21.6870   -21.5690 
   89.8750     2.1590    74.7660     7.8350     6.1650     8.7100    21.6110   -21.4400 
   90.0000     2.1540    73.2460     7.8730     6.1580     8.8790    21.4830   -21.2680 
   90.1250     2.1450    72.2970     7.8990     6.1660     8.9200    21.4140   -21.0830 
   90.2500     2.1360    73.0690     7.8900     6.1650     8.9790    21.4770   -20.8610 
   90.3750     2.1280    74.0810     7.8430     6.1410     8.9940    21.5730   -20.6110 
   90.5000     2.1230    74.5650     7.7630     6.0890     8.9780    21.6230   -20.3610 
   90.6250     2.1190    75.2810     7.6670     6.0130     8.9540    21.7420   -20.1160 
   90.7500     2.1150    75.6570     7.5800     5.9350     8.7800    21.9430   -19.8980 
   90.8750     2.1090    73.8090     7.5200     5.8720     8.6100    22.1210   -19.7140 
   91.0000     2.1020    70.9810     7.4900     5.8390     8.5200    22.2120   -19.5290 
   91.1250     2.0940    69.9540     7.4630     5.8280     8.5230    22.2390   -19.2960 
   91.2500     2.0900    70.5790     7.3960     5.8030     8.4570    22.2450   -19.0410 
   91.3750     2.0930    72.1970     7.2590     5.7260     8.3530    22.2160   -18.7960 
   91.5000     2.1060    75.4060     7.0530     5.5850     8.0910    22.1690   -18.5220 
   91.6250     2.1250    81.9750     6.8140     5.3930     7.1050    22.1510   -18.1180 
   91.7500     2.1410    88.6720     6.6140     5.2090     5.8910    22.1450   -17.6170 
   91.8750     2.1480    93.1370     6.4950     5.0760     5.6190    22.1300   -17.0470 
   92.0000     2.1480    93.8230     6.4690     5.0170     6.4680    22.0910   -16.4950 
   92.1250     2.1450    88.5840     6.5200     5.0330     7.1080    22.0760   -16.0530 
   92.2500     2.1420    81.2070     6.5860     5.0800     6.9780    22.1630   -15.6830 
   92.3750     2.1400    78.1070     6.6350     5.1320     6.5570    22.3500   -15.3690 
   92.5000     2.1370    81.7190     6.6610     5.1730     6.3180    22.4860   -15.1580 
   92.6250     2.1320    85.8720     6.6810     5.2070     6.2920    22.4840   -15.1480 
   92.7500     2.1290    85.6080     6.7120     5.2530     6.4080    22.3830   -15.2560 
   92.8750     2.1280    83.5120     6.7500     5.3150     6.6350    22.2600   -15.4520 
   93.0000     2.1280    82.9910     6.7760     5.3810     6.7550    22.1820   -15.6640 
   93.1250     2.1260    83.9810     6.7720     5.4290     6.6610    22.2070   -15.8350 
   93.2500     2.1220    85.3600     6.7510     5.4550     6.5690    22.2830   -15.9580 
   93.3750     2.1220    87.4080     6.7420     5.4710     6.5560    22.4830   -16.0440 
   93.5000     2.1280    88.9730     6.7760     5.5010     6.5980    22.7330   -16.0770 
   93.6250     2.1420    88.9020     6.8560     5.5700     6.7810    22.8660   -16.0390 
   93.7500     2.1580    89.3490     6.9160     5.6480     7.0940    22.9180   -15.9380 
   93.8750     2.1740    93.0370     6.8670     5.6690     7.3110    22.9870   -15.7300 
   94.0000     2.1870    98.0960     6.6340     5.5530     7.3110    22.9960   -15.3820 
   94.1250     2.2010    99.6070     6.1790     5.2320     7.2010    22.8880   -14.8770 
   94.2500     2.2210   100.8920     5.6240     4.7880     6.7910    22.9000   -14.2810 
   94.3750     2.2500   106.1960     5.0970     4.3250     6.2330    23.1510   -13.5830 
   94.5000     2.2860   111.7120     4.7110     3.9460     5.7980    23.6500   -12.8250 
   94.6250     2.3230   111.2850     4.5680     3.7480     5.1590    24.2420   -12.0060 
   94.7500     2.3520   109.0980     4.6380     3.7260     5.0260    24.5190   -11.2320 
   94.8750     2.3660   108.4480     4.8870     3.8730     5.4510    24.5500   -10.5720 
   95.0000     2.3640   107.3170     5.2680     4.1630     5.9600    24.4760   -10.1440 
   95.1250     2.3460   102.6820     5.7260     4.5600     6.3200    24.2990   -10.0950 
   95.2500     2.3220    96.7060     6.1820     4.9880     6.5970    23.9560   -10.3820 
   95.3750     2.3000    90.8440     6.5690     5.3830     6.8900    23.4930   -10.9810 
   95.5000     2.2830    84.4150     6.8270     5.6780     6.9610    23.1070   -11.8140 
   95.6250     2.2720    80.0940     6.8770     5.7810     7.2310    22.8650   -12.7750 
   95.7500     2.2620    78.9440     6.7480     5.6970     7.0860    22.7400   -13.6960 
   95.8750     2.2520    78.9210     6.4910     5.4650     6.8920    22.6750   -14.5270 
   96.0000     2.2400    79.7860     6.1830     5.1650     6.6200    22.6840   -15.2030 
   96.1250     2.2220    83.0820     5.9560     4.9000     6.3220    22.7510   -15.6630 
   96.2500     2.1940    85.4690     5.9500     4.7630     6.3170    22.8230   -15.9670 
   96.3750     2.1590    81.9330     6.3540     4.8600     6.6390    22.7930   -16.1730 
   96.5000     2.1320    73.1920     7.4060     5.3370     7.7250    22.6760   -16.3010 
   96.6250     2.1550    66.7590     9.5630     6.5470     8.6860    22.6420   -16.3820 
   96.7500     2.2430    62.7810    12.8470     8.7180    10.7470    22.7530   -16.4200 
   96.8750     2.3840    60.7810    16.9660    12.0420    16.5640    23.0020   -16.4020 
