~V
VERS. 2.00: Ver 2.00
~W
STRT.M 50.0000:
STOP.M 283.0000:
STEP.M 0.1250:
NULL. -999.2500:
UWI. F11058:
~C
DEPT.M :
DEN.GM/CC :
GR.API :
RML.OHMM :
RI. :
RXO.OHMM :
CALI.CM :
SP.MV :
~A
# ...
  185.0000     2.2920    67.8590   104.3980    93.7450    75.4990    24.5580   -26.9430 
  185.1250     2.2820    69.4820   119.4270   106.9380    83.3000    24.5150   -26.9290 
  185.2500     2.2670    69.0790   139.6180   126.4860    97.3330    24.4810   -26.9060 
  185.3750     2.2500    68.1760   161.7620   149.8970   131.3970    24.4700   -27.0250 
  185.5000     2.2350    66.3740   180.4780   171.7850   177.3830    24.4610   -27.0890 
  185.6250     2.2250    63.8160   187.8790   182.5170   191.5040    24.4410   -27.0080 
  185.7500     2.2220    64.0820   183.5470   179.7950   162.9760    24.4030   -27.0280 
  185.8750     2.2250    67.5470   170.8370   167.2190   139.3800    24.3370   -26.9840 
  186.0000     2.2340    70.4620   155.1810   151.3470   113.6690    24.2000   -26.7960 
  186.1250     2.2470    69.6080   141.0440   137.4260    91.4000    24.0590   -26.7180 
  186.2500     2.2580    67.8190   128.9150   126.0170    83.1390    23.9650   -26.6590 
  186.3750     2.2650    65.9100   117.5940   115.6540    94.8770    23.8770   -26.4940 
  186.5000     2.2680    63.4320   106.0180   104.7380   111.9230    23.8110   -26.3510 
  186.6250     2.2670    62.7490    94.3900    92.9860    84.6560    23.7800   -26.2940 
  186.7500     2.2660    65.7190    84.2260    82.1540    61.5040    23.7560   -26.1920 
  186.8750     2.2620    70.8360    77.0680    74.0250    50.7690    23.7250   -26.1770 
  187.0000     2.2540    74.9900    73.8380    69.7130    43.5800    23.7790   -26.2530 
  187.1250     2.2440    74.5730    74.9830    70.0420    40.5790    24.0020   -26.2680 
  187.2500     2.2370    71.7980    78.4460    73.2760    52.3850    24.3290   -26.3170 
  187.3750     2.2370    69.7440    82.1980    77.3630    89.0700    24.6620   -26.3250 
  187.5000     2.2440    69.7630    84.2570    79.8820   117.3850    24.8700   -26.3080 
  187.6250     2.2580    69.7200    83.2690    78.8130    99.4420    24.9000   -26.2770 
  187.7500     2.2740    68.1590    80.6810    75.4840    74.2620    24.9010   -26.2190 
  187.8750     2.2880    67.6000    78.4670    72.0160    60.8610    24.9140   -26.1480 
  188.0000     2.2960    69.6380    78.4350    70.4840    55.7040    24.8690   -26.0330 
  188.1250     2.2930    70.7020    81.8470    72.5110    59.1220    24.7640   -25.9680 
  188.2500     2.2830    67.4640    87.4100    77.1300    61.4150    24.7740   -25.9110 
  188.3750     2.2690    61.7100    93.3730    82.8140    70.0310    24.8400   -25.8960 
  188.5000     2.2560    58.9230    97.7210    87.5340    87.7560    24.8390   -25.9290 
  188.6250     2.2500    61.9390    98.4740    89.0300    95.8220    24.8290   -26.0880 
  188.7500     2.2510    66.8580    96.2670    87.5740    88.1180    24.8960   -26.2800 
  188.8750     2.2550    70.5210    92.3830    84.3570    79.5740    24.9480   -26.3490 
  189.0000     2.2580    71.2690    88.3050    80.8560    75.1420    24.9480   -26.4790 
  189.1250     2.2580    69.2940    85.1640    78.2060    74.7080    24.9280   -26.5890 
  189.2500     2.2560    66.6080    82.8580    76.3970    73.9570    24.9540   -26.5920 
  189.3750     2.2550    66.4700    80.8250    74.9160    73.4330    24.9520   -26.6450 
  189.5000     2.2560    69.1490    78.3750    73.0270    72.2640    24.9020   -26.7350 
  189.6250     2.2610    70.2830    74.8510    69.9710    69.5340    24.8840   -26.6590 
  189.7500     2.2680    69.3020    70.4060    65.8680    63.5730    24.8960   -26.5340 
  189.8750     2.2750    69.4600    65.4220    61.0910    55.6930    24.8890   -26.4680 
  190.0000     2.2810    74.1030    60.4410    56.1540    50.9380    24.8420   -26.2960 
  190.1250     2.2830    77.0500    56.2540    51.7060    47.8910    24.7600   -26.1660 
  190.2500     2.2850    72.6060    53.4870    48.2840    46.4660    24.6960   -26.1310 
  190.3750     2.2880    66.2230    52.8990    46.5140    45.1090    24.7130   -26.0410 
  190.5000     2.2930    64.8360    55.3440    47.1280    41.8480    24.8010   -25.8740 
  190.6250     2.2920    67.0090    62.4010    51.7440    41.3520    24.8640   -25.8010 
  190.7500     2.2820    66.2530    73.8050    60.7800    49.7390    24.8960   -25.7490 
  190.8750     2.2650    64.3650    88.6350    74.2230    70.4920    24.8950   -25.7110 
  191.0000     2.2480    64.6660   103.9910    90.1110   113.9040    24.8760   -25.7710 
  191.1250     2.2440    65.1770   113.7600   102.5210   173.0270    24.8690   -25.7690 
  191.2500     2.2530    65.4470   114.5920   106.1720   172.9200    24.8240   -25.7770 
  191.3750     2.2700    66.8030   106.8960   100.3910   116.1320    24.6960   -25.8260 
  191.5000     2.2860    69.1450    94.6610    89.2100    71.9920    24.4940   -25.9050 
  191.6250     2.2930    69.5300    83.4470    78.3040    67.7060    24.4050   -25.9350 
  191.7500     2.2910    68.1220    76.3320    70.8180    66.8110    24.3770   -25.9140 
  191.8750     2.2820    67.6230    73.9510    67.6060    65.5240    24.4030   -25.8100 
  192.0000     2.2710    68.4630    75.7310    68.7490    64.7040    24.3970   -25.7340 
  192.1250     2.2650    69.0590    80.1250    73.8110    57.5900    24.3140   -25.7450 
  192.2500     2.2680    70.6950    83.5300    79.5700    57.1830    24.1830   -25.5750 
  192.3750     2.2790    72.1100    82.7560    82.1850    83.8920    24.0640   -25.2920 
  192.5000     2.2940    71.0600    75.9950    78.0080   124.6790    24.0670   -25.0320 
  192.6250     2.3090    68.0640    63.8350    66.0350   120.8740    24.1870   -24.7770 
  192.7500     2.3230    68.1090    50.9100    52.1920    64.6610    24.2720   -24.5350 
  192.8750     2.3370    70.4240    40.4330    40.7260    29.8660    24.3250   -24.3930 
  193.0000     2.3480    71.8380    33.9760    33.3420    19.1840    24.4390   -24.2570 
  193.1250     2.3500    73.9850    32.1350    30.4620    17.8020    24.6190   -24.1120 
  193.2500     2.3440    76.7640    33.3170    30.6680    21.7140    24.7760   -24.2140 
  193.3750     2.3310    76.5510    36.4590    33.2080    29.3500    24.8560   -24.4680 
  193.5000     2.3160    74.0610    40.4570    37.1430    40.7370    24.8630   -24.6050 
  193.6250     2.3070    74.7900    44.3150    41.2240    46.9640    24.8480   -24.7100 
  193.7500     2.3040    77.6950    47.8400    44.6390    43.7730    24.7950   -24.8920 
  193.8750     2.3050    78.1500    51.7300    47.7540    39.4710    24.6650   -25.0000 
  194.0000     2.3060    76.1060    57.2740    51.8110    38.6460    24.4880   -25.0930 
  194.1250     2.3000    74.5930    66.5970    59.1150    44.9020    24.3250   -25.1590 
  194.2500     2.2890    73.2400    80.1180    70.6290    56.0100    24.1580   -25.1080 
  194.3750     2.2740    70.8410    97.4340    86.4370    73.2030    23.9220   -25.1040 
  194.5000     2.2600    68.3880   116.5180   104.7210    86.1840    23.6790   -25.1910 
  194.6250     2.2520    67.3460   133.0070   120.6120    77.4810    23.4380   -25.3190 
  194.7500     2.2480    66.1650   143.6790   130.0710    70.9210    23.2150   -25.4870 
  194.8750     2.2470    64.0290   147.8690   132.4470    76.0630    23.1390   -25.6910 
  195.0000     2.2480    62.7510   147.5400   130.2000    87.1390    23.3200   -25.9050 
  195.1250     2.2470    63.8100   146.2930   127.0690    93.2220    23.6100   -26.2350 
  195.2500     2.2430    66.2810   147.4360   126.0290    99.3040    23.9520   -26.6130 
  195.3750     2.2360    68.3860   152.6450   128.5470   112.0020    24.3850   -26.9550 
  195.5000     2.2280    68.4680   162.8870   135.5510   124.6360    24.7770   -27.3940 
  195.6250     2.2230    66.7780   179.6930   148.5590   133.3720    24.8920   -27.9160 
  195.7500     2.2180    64.3880   202.1500   167.0770   136.8590    24.8690   -28.3860 
  195.8750     2.2120    61.7300   229.1120   190.7950   149.3720    24.8400   -28.9020 
  196.0000     2.2030    61.2120   257.2260   217.8000   190.2130    24.8490   -29.4690 
  196.1250     2.1940    63.1540   278.0610   241.7630   238.0130    24.8590   -29.8870 
