~V
VERS. 2.00: Ver 2.00
~W
STRT.M 55.0000:
STOP.M 281.0000:
STEP.M 0.1250:
NULL. -999.2500:
UWI. F11051:
~C
DEPT.M :
SP.MV :
GR.API :
RML.OHMM :
RI. :
RXO.OHMM :
CALI.CM :
DEN.GM/CC :
~A
# ...
  167.5000   -22.7730    63.5700   127.9070   111.2890    83.1490    24.3430     2.2320 
  167.6250   -22.7950    61.0150   127.6840   111.7560    74.3080    24.2890     2.2240 
  167.7500   -22.8260    60.7060   125.5180   110.1400    63.9730    24.1900     2.2180 
  167.8750   -22.8570    61.6030   122.6340   107.5320    64.9150    24.1600     2.2180 
  168.0000   -22.9220    61.8000   119.8540   104.7440    78.1760    24.3330     2.2270 
  168.1250   -22.9570    62.5810   117.9190   102.5370    84.9490    24.7220     2.2430 
  168.2500   -22.9870    65.3310   117.0600   101.2440    85.2890    24.9410     2.2540 
  168.3750   -23.0300    67.6820   117.2080   100.8770    80.3590    25.0130     2.2510 
  168.5000   -23.0400    65.4060   117.8700   101.1250    77.0690    25.0160     2.2320 
  168.6250   -23.0950    64.1360   117.9490   101.1900    78.0600    25.0160     2.2010 
  168.7500   -23.1260    58.4310   117.9810   101.3360    82.3060    25.0120     2.1730 
  168.8750   -23.1350    56.5150   116.7540   100.7750    82.0160    24.9910     2.1610 
  169.0000   -23.1460    58.9680   114.1520    99.3010    75.5070    24.9520     2.1710 
  169.1250   -23.1310    59.9810   110.5540    97.0280    72.2760    24.8760     2.2010 
  169.2500   -23.1010    58.6340   106.7820    94.4580    70.9370    24.7870     2.2290 
  169.3750   -23.0670    58.3140   103.1710    91.7970    73.1490    24.6790     2.2460 
  169.5000   -23.0260    59.3690    99.6590    89.0160    76.4290    24.5970     2.2510 
  169.6250   -22.9780    59.8030    95.8340    85.8190    79.2590    24.6140     2.2520 
  169.7500   -22.9360    60.9650    91.5050    82.1160    76.2050    24.7100     2.2570 
  169.8750   -22.9030    64.0600    86.8880    78.1180    67.1540    24.7990     2.2640 
  170.0000   -22.8940    67.9010    82.5590    74.3270    60.2090    24.7850     2.2690 
  170.1250   -22.9240    68.8850    79.3890    71.5010    57.4760    24.8220     2.2690 
  170.2500   -22.9960    67.8250    77.5920    69.8690    57.1010    24.9090     2.2690 
  170.3750   -23.0590    64.4870    77.1050    69.4380    57.5420    24.9530     2.2720 
  170.5000   -23.1470    61.0200    77.5700    69.9590    56.9750    24.9570     2.2720 
  170.6250   -23.2130    62.9370    78.4950    71.0390    57.4070    24.9410     2.2640 
  170.7500   -23.2790    67.6640    79.2930    72.0930    58.6850    24.8760     2.2470 
  170.8750   -23.3730    68.8580    79.6220    72.7670    59.9650    24.7140     2.2260 
  171.0000   -23.4180    63.8700    79.3110    72.8300    60.0800    24.4480     2.2070 
  171.1250   -23.4890    60.2040    78.3540    72.0710    60.7680    24.1080     2.1970 
  171.2500   -23.5410    61.4270    77.0160    70.6630    60.2990    23.9980     2.1960 
  171.3750   -23.5930    62.8500    75.3400    68.7310    61.2010    24.2260     2.2010 
  171.5000   -23.6760    61.6910    73.3450    66.4680    61.4710    24.5990     2.2110 
  171.6250   -23.7720    60.5460    71.2960    64.2520    58.6970    24.7760     2.2260 
  171.7500   -23.8670    61.3770    69.8350    62.5920    55.7370    24.8420     2.2410 
  171.8750   -23.9710    63.4260    69.6770    61.9450    53.3500    24.8430     2.2530 
  172.0000   -24.0760    67.3180    71.4870    62.7240    51.3530    24.8040     2.2580 
  172.1250   -24.1720    69.5980    76.2020    65.6710    53.4050    24.7810     2.2540 
  172.2500   -24.2720    67.6940    83.6010    70.8230    61.9130    24.7710     2.2420 
  172.3750   -24.3630    64.4160    93.5800    78.2610    75.4160    24.7630     2.2260 
  172.5000   -24.4380    64.3260   105.7650    87.7630    85.3570    24.7280     2.2100 
  172.6250   -24.4780    65.6040   119.4700    98.8440    91.3950    24.6350     2.1970 
  172.7500   -24.5090    64.6690   133.1170   110.1280   102.0610    24.5130     2.1880 
  172.8750   -24.5180    62.3590   145.3050   120.4210   106.4740    24.3890     2.1810 
  173.0000   -24.5200    60.5530   154.7200   128.6080   104.8170    24.3020     2.1770 
  173.1250   -24.4970    59.2860   159.5470   133.1590   114.0500    24.3480     2.1780 
  173.2500   -24.4380    59.3490   159.8700   134.0300   122.9770    24.5300     2.1850 
  173.3750   -24.3930    61.7190   155.9880   131.3600   126.8000    24.7320     2.1950 
  173.5000   -24.3080    63.7770   148.8210   125.8390   122.8190    24.8420     2.2070 
  173.6250   -24.2240    62.2640   139.3430   118.2070   113.8720    24.8660     2.2140 
  173.7500   -24.1260    59.2280   129.1390   109.7790   103.0060    24.8630     2.2150 
  173.8750   -23.9880    57.9200   119.1700   101.3810    93.8310    24.8670     2.2140 
  174.0000   -23.8650    60.4290   110.2340    93.7490    88.0400    24.8730     2.2170 
  174.1250   -23.7130    64.5420   103.4140    87.8880    81.7870    24.8730     2.2320 
  174.2500   -23.5520    66.4660    99.2320    84.2740    74.3760    24.8860     2.2520 
  174.3750   -23.3860    64.9730    98.5580    83.5980    69.4330    24.9230     2.2700 
  174.5000   -23.1960    62.4830   102.3170    86.6080    69.4480    24.9510     2.2760 
  174.6250   -23.0120    62.4180   112.2270    94.8960    76.9210    24.9520     2.2690 
  174.7500   -22.8400    63.8840   127.4200   108.0410    94.2660    24.9330     2.2530 
  174.8750   -22.6730    65.2050   146.2840   125.0310   127.5880    24.8390     2.2330 
  175.0000   -22.5150    66.1320   164.7880   142.7830   173.0700    24.6000     2.2160 
  175.1250   -22.3670    67.3430   173.9140   153.9410   200.2440    24.3950     2.2080 
  175.2500   -22.2290    69.3290   168.1770   152.8360   189.8480    24.3860     2.2110 
  175.3750   -22.1000    71.0170   148.0930   138.2410   167.1980    24.5200     2.2240 
  175.5000   -21.9920    72.1590   120.7220   114.9370   144.0060    24.6350     2.2380 
  175.6250   -21.9090    73.7330    95.6160    91.2790   120.8870    24.7390     2.2430 
  175.7500   -21.8200    74.3660    77.3900    72.9530    85.7960    24.8160     2.2440 
  175.8750   -21.7670    72.6260    66.7920    61.3530    57.9660    24.8920     2.2470 
  176.0000   -21.7080    68.2760    63.3160    56.1960    48.8920    24.7730     2.2590 
  176.1250   -21.6560    64.6630    67.6980    57.9870    49.7380    24.4880     2.2770 
  176.2500   -21.6510    63.2040    79.1380    65.9330    62.4280    24.2840     2.2880 
  176.3750   -21.6230    64.2480    98.3640    80.7370    77.0790    24.1820     2.2850 
  176.5000   -21.6370    65.6540   126.1970   103.2140    83.7120    24.1050     2.2680 
  176.6250   -21.6410    63.6680   164.4980   135.0950    91.7470    24.0320     2.2410 
  176.7500   -21.6230    59.8480   210.1210   173.5780   123.7530    23.9340     2.2180 
  176.8750   -21.6140    56.7900   257.8290   214.1390   161.4310    23.8250     2.2040 
  177.0000   -21.5960    56.0110   297.7040   248.7030   165.2830    23.6880     2.1980 
  177.1250   -21.5760    56.1320   312.6890   263.9170   156.8930    23.5950     2.1890 
  177.2500   -21.5520    55.5060   299.7420   256.7970   134.6360    23.5660     2.1750 
  177.3750   -21.5190    54.6470   264.7700   230.6670   121.6170    23.6480     2.1530 
  177.5000   -21.4520    54.0540   220.2890   194.6500   135.1850    23.8430     2.1320 
  177.6250   -21.3860    56.1360   178.9800   159.2370   130.3390    24.1720     2.1270 
  177.7500   -21.3040    59.6760   146.4380   130.3950   110.4980    24.3490     2.1440 
  177.8750   -21.2130    62.4440   123.6980   109.7670    80.5540    24.1790     2.1780 
  178.0000   -21.1250    63.1100   109.6980    96.9730    60.5850    23.8160     2.2140 
  178.1250   -21.0280    62.4820   103.0820    91.1320    55.5270    23.7460     2.2320 
  178.2500   -20.9190    62.9260   100.0660    88.8170    60.6220    23.7340     2.2320 
  178.3750   -20.8140    64.4880    98.3590    87.9420    66.1030    23.7130     2.2250 
  178.5000   -20.7250    66.0390    96.0060    86.6910    65.9890    23.7600     2.2240 
  178.6250   -20.6180    64.5170    91.4480    83.4710    66.3330    23.7680     2.2300 
