~V
VERS. 2.00: Ver 2.00
~W
STRT.M 59.0000:
STOP.M 291.0000:
STEP.M 0.1250:
NULL. -999.2500:
UWI. F11077:
~C
DEPT.M :
DEN.GM/CC :
GR.API :
RML.OHMM :
RI. :
RXO.OHMM :
CALI.CM :
SP.MV :
~A
# ...
  182.7500     2.2560   103.4680     4.2540     3.3470     3.0860    25.9410    -3.0990 
  182.8750     2.2840   107.3230     4.6960     3.6420     3.5270    26.0150    -3.4150 
  183.0000     2.3080   108.8440     5.2370     4.0370     4.2400    26.0830    -3.7230 
  183.1250     2.3230   109.0760     5.7750     4.4580     4.8660    26.1080    -4.0310 
  183.2500     2.3330   108.4300     6.2000     4.8110     5.1700    26.1110    -4.3170 
  183.3750     2.3410   107.7460     6.4420     5.0270     5.2450    26.1110    -4.5440 
  183.5000     2.3490   107.5970     6.5140     5.1020     5.2770    26.1080    -4.7220 
  183.6250     2.3530   106.8390     6.4540     5.0610     5.2640    26.0970    -4.8720 
  183.7500     2.3480   104.5750     6.3110     4.9460     5.1930    26.0750    -5.0280 
  183.8750     2.3360   102.9340     6.1400     4.8040     5.0770    26.0510    -5.2030 
  184.0000     2.3200   103.9790     6.0000     4.6770     4.9640    26.0330    -5.3900 
  184.1250     2.3090   106.1450     5.9330     4.5990     4.8440    26.0100    -5.5760 
  184.2500     2.3070   106.4660     5.9760     4.5950     4.8370    25.9830    -5.7660 
  184.3750     2.3130   104.6780     6.1320     4.6770     5.0240    25.9670    -5.9500 
  184.5000     2.3240   103.5560     6.3560     4.8230     5.2620    25.9540    -6.1290 
  184.6250     2.3340   103.0750     6.5970     5.0000     5.4330    25.9350    -6.2680 
  184.7500     2.3390   101.0340     6.7880     5.1630     5.5140    25.9090    -6.3500 
  184.8750     2.3380    98.0380     6.8800     5.2670     5.6060    25.8830    -6.3830 
  185.0000     2.3320    97.2370     6.8750     5.3020     5.6120    25.8660    -6.3630 
  185.1250     2.3270    98.4250     6.8130     5.2880     5.5700    25.8640    -6.3080 
  185.2500     2.3280    97.7640     6.7570     5.2650     5.5270    25.8810    -6.2420 
  185.3750     2.3360    93.7000     6.7500     5.2650     5.5230    25.8990    -6.1730 
  185.5000     2.3470    89.0940     6.7840     5.2890     5.6600    25.8970    -6.1030 
  185.6250     2.3530    86.6770     6.8190     5.3170     6.0710    25.8750    -6.0580 
  185.7500     2.3480    86.6430     6.7980     5.3150     6.2810    25.8530    -6.0280 
  185.8750     2.3370    89.1100     6.6950     5.2630     5.8670    25.8660    -5.9820 
  186.0000     2.3250    95.1680     6.5460     5.1770     5.4540    25.9070    -5.9620 
  186.1250     2.3180   103.0960     6.4020     5.0840     5.2360    25.9340    -5.9820 
  186.2500     2.3160   107.6200     6.3110     5.0140     5.1760    25.9230    -6.0210 
  186.3750     2.3190   107.0530     6.2930     4.9880     5.2030    25.8850    -6.0600 
  186.5000     2.3230   105.6440     6.3280     4.9990     5.2780    25.8570    -6.0760 
  186.6250     2.3280   105.8710     6.3860     5.0350     5.3610    25.8480    -6.0700 
  186.7500     2.3340   106.3590     6.4380     5.0760     5.3930    25.8460    -6.0490 
  186.8750     2.3400   105.2270     6.4690     5.1060     5.3930    25.8390    -6.0240 
  187.0000     2.3440   103.0920     6.4740     5.1190     5.4140    25.8230    -5.9650 
  187.1250     2.3450   102.3460     6.4590     5.1160     5.4410    25.8020    -5.8610 
  187.2500     2.3440   105.0280     6.4420     5.1120     5.4500    25.7890    -5.7280 
  187.3750     2.3440   109.2770     6.4500     5.1280     5.4610    25.7770    -5.6180 
  187.5000     2.3450   110.1720     6.5050     5.1780     5.4460    25.7350    -5.5390 
  187.6250     2.3460   106.3470     6.6130     5.2720     5.4330    25.6370    -5.4820 
  187.7500     2.3440   101.2060     6.7670     5.4040     5.5200    25.4850    -5.4600 
  187.8750     2.3420    98.2790     6.9460     5.5570     5.7450    25.3250    -5.4840 
  188.0000     2.3380    97.2930     7.1170     5.7050     5.9590    25.2170    -5.5560 
  188.1250     2.3320    97.0590     7.2610     5.8260     5.9510    25.1670    -5.6670 
  188.2500     2.3240    96.4430     7.3690     5.9020     5.7690    25.1540    -5.7990 
  188.3750     2.3130    94.0820     7.4440     5.9300     5.6780    25.1630    -5.9280 
  188.5000     2.3010    91.3910     7.4860     5.9210     5.7250    25.2290    -6.0670 
  188.6250     2.2900    90.2190     7.4830     5.8780     5.8820    25.3630    -6.2380 
  188.7500     2.2830    90.4550     7.4030     5.7980     5.9900    25.5120    -6.4270 
  188.8750     2.2830    91.3840     7.2490     5.6900     5.9860    25.6230    -6.6110 
  189.0000     2.2890    93.4190     7.0940     5.6040     5.9710    25.7220    -6.7840 
  189.1250     2.3020    96.5910     7.0470     5.6100     5.9330    25.8230    -6.9280 
  189.2500     2.3150    98.2090     7.2520     5.8020     5.9260    25.9370    -7.0460 
  189.3750     2.3210    95.8660     7.8080     6.2470     6.2950    26.0640    -7.1440 
  189.5000     2.3170    91.0680     8.6940     6.9400     7.4410    26.1790    -7.2290 
  189.6250     2.3030    86.7900     9.8300     7.8400     8.9840    26.2700    -7.2730 
  189.7500     2.2850    86.0530    10.9950     8.8080     9.9900    26.3310    -7.2430 
  189.8750     2.2720    88.7070    11.8460     9.5830    10.2100    26.3620    -7.1240 
  190.0000     2.2690    92.0390    12.0830     9.8950    10.1570    26.3500    -6.9570 
  190.1250     2.2810    96.1260    11.5920     9.6150    10.4590    26.2960    -6.7440 
  190.2500     2.3110   100.0810    10.4940     8.8170    10.2830    26.2360    -6.5170 
  190.3750     2.3520   100.3250     9.1470     7.7830     8.6440    26.2270    -6.3190 
  190.5000     2.3960    96.3020     7.9690     6.8480     6.5220    26.2940    -6.1370 
  190.6250     2.4310    92.2920     7.2060     6.2000     5.4290    26.4150    -6.0080 
  190.7500     2.4520    92.6400     7.0140     5.9670     5.4180    26.5300    -5.9700 
  190.8750     2.4620    95.0190     7.4180     6.1900     6.1250    26.5810    -6.0360 
  191.0000     2.4650    94.6820     8.2660     6.7930     7.2570    26.5730    -6.1850 
  191.1250     2.4630    93.0900     9.3660     7.6640     8.5810    26.5230    -6.4120 
  191.2500     2.4550    94.0530    10.4390     8.5950     9.7840    26.4930    -6.6830 
  191.3750     2.4410    97.0180    11.1980     9.3310    10.5990    26.5350    -6.9710 
  191.5000     2.4240    98.0730    11.5050     9.7060    10.8250    26.5960    -7.2680 
  191.6250     2.4090    97.0040    11.3710     9.6980    10.5410    26.6010    -7.5800 
  191.7500     2.4050    96.1090    10.9460     9.4110    10.0360    26.5080    -7.9360 
  191.8750     2.4120    95.5470    10.4630     9.0350     9.5370    26.3890    -8.3900 
  192.0000     2.4260    93.8970    10.1390     8.7520     9.0780    26.3430    -8.9470 
  192.1250     2.4360    92.4560    10.0950     8.6570     8.8230    26.3440    -9.6340 
  192.2500     2.4360    93.6380    10.3880     8.8130     9.1170    26.3720   -10.4310 
  192.3750     2.4290    97.0070    10.9750     9.2150     9.9180    26.4230   -11.2500 
  192.5000     2.4190    99.4540    11.6940     9.7700    10.7740    26.4750   -12.0420 
  192.6250     2.4130    98.8640    12.3900    10.3740    11.3580    26.5050   -12.7620 
  192.7500     2.4110    95.0830    12.9070    10.8980    11.6150    26.5120   -13.3770 
  192.8750     2.4100    91.0920    13.1680    11.2450    11.7060    26.5050   -13.8740 
  193.0000     2.4080    90.2950    13.2210    11.4140    11.7500    26.5110   -14.2960 
  193.1250     2.4050    92.2990    13.1420    11.4460    11.6730    26.5020   -14.6220 
  193.2500     2.4030    93.7240    13.0140    11.4050    11.5690    26.4550   -14.8640 
  193.3750     2.4020    92.4820    12.8990    11.3510    11.4600    26.4110   -15.1170 
  193.5000     2.4020    90.5150    12.8280    11.3250    11.2570    26.3730   -15.4330 
  193.6250     2.4030    90.8180    12.8130    11.3460    11.1540    26.3320   -15.8110 
  193.7500     2.4030    93.6780    12.8550    11.4230    11.3050    26.2540   -16.2700 
  193.8750     2.4010    96.4690    12.9480    11.5500    11.5960    26.1610   -16.7800 
