~V
VERS. 2.00: Ver 2.00
~W
STRT.M 52.0000:
STOP.M 286.0000:
STEP.M 0.1250:
NULL. -999.2500:
UWI. F11061:
~C
DEPT.M :
GR.API :
RML.OHMM :
RI. :
RXO.OHMM :
CALI.CM :
DEN.GM/CC :
SP.MV :
~A
# ...
   97.0000    87.0200     5.8580     5.4670     5.2830    22.2320     2.2610   -11.1060 
   97.1250    90.5170     5.5740     5.1560     5.0270    22.4940     2.2480   -10.3990 
   97.2500    88.5300     5.4010     4.9350     5.0590    22.8640     2.2310    -9.8010 
   97.3750    81.8330     5.2910     4.7900     5.2000    23.3440     2.2220    -9.3230 
   97.5000    75.2020     5.1850     4.6900     5.3040    23.8710     2.2260    -8.9760 
   97.6250    73.2760     5.0490     4.5930     5.2990    24.3350     2.2430    -8.7380 
   97.7500    76.5550     4.8870     4.4850     5.1300    24.5850     2.2650    -8.5990 
   97.8750    80.6970     4.7360     4.3790     4.9820    24.5680     2.2880    -8.5420 
   98.0000    81.5870     4.6610     4.3150     4.8410    24.5000     2.3050    -8.5620 
   98.1250    80.9620     4.6980     4.3220     4.7210    24.4870     2.3180    -8.6450 
   98.2500    82.0480     4.8490     4.4060     4.6700    24.5170     2.3280    -8.7870 
   98.3750    84.1180     5.0820     4.5530     4.8110    24.5350     2.3360    -8.9920 
   98.5000    83.5800     5.3290     4.7190     5.2320    24.3860     2.3420    -9.2720 
   98.6250    80.8830     5.5060     4.8450     5.6630    24.1950     2.3420    -9.6090 
   98.7500    78.7030     5.5570     4.8820     5.8500    24.0240     2.3360    -9.9880 
   98.8750    77.4650     5.4810     4.8250     5.7870    23.8450     2.3240   -10.4050 
   99.0000    75.6870     5.3660     4.7310     5.7200    23.5990     2.3120   -10.8520 
   99.1250    73.9980     5.3870     4.7250     5.7920    23.3700     2.3040   -11.3040 
   99.2500    72.7310     5.7340     4.9460     5.9230    23.3010     2.3040   -11.7490 
   99.3750    70.6210     6.5880     5.5300     6.1690    23.3170     2.3120   -12.1630 
   99.5000    67.7610     8.1970     6.6780     7.2360    23.2480     2.3320   -12.5250 
   99.6250    65.8930    10.5400     8.4250     9.4620    23.2090     2.3650   -12.8530 
   99.7500    64.5380    13.4530    10.7190    13.0450    23.3770     2.4060   -13.1740 
   99.8750    61.5450    16.5560    13.3400    17.9750    23.6700     2.4500   -13.5020 
  100.0000    58.3440    19.0720    15.7250    23.9850    23.8660     2.4890   -13.8460 
  100.1250    56.8350    20.3120    17.2300    30.6640    23.9060     2.5100   -14.2170 
  100.2500    56.0350    19.9160    17.4000    35.8730    23.8680     2.5100   -14.6300 
  100.3750    55.2740    18.0590    16.2260    34.7770    23.7900     2.4830   -15.1110 
  100.5000    56.1380    15.4630    14.2000    27.0890    23.6240     2.4340   -15.6760 
  100.6250    57.9640    13.0820    12.1600    19.4990    23.3390     2.3770   -16.2910 
  100.7500    58.7310    11.4190    10.5900    14.3340    22.9930     2.3280   -16.9010 
  100.8750    57.8710    10.5530     9.6240    11.3240    22.7160     2.3030   -17.4800 
  101.0000    58.1020    10.3440     9.2160    10.9100    22.6590     2.3090   -18.0070 
  101.1250    59.4190    10.4180     9.0980    12.4740    22.7330     2.3350   -18.4700 
  101.2500    58.9780    10.5020     9.0460    15.4500    22.7490     2.3620   -18.8600 
  101.3750    56.8270    10.4390     8.9110    16.6000    22.5920     2.3700   -19.1790 
  101.5000    55.7090    10.1810     8.6300    13.1090    22.3090     2.3460   -19.4210 
  101.6250    56.4090     9.8290     8.2900     9.7060    22.0860     2.3020   -19.6110 
  101.7500    56.8400     9.4910     8.0000     8.3250    21.9870     2.2560   -19.7850 
  101.8750    55.4420     9.2330     7.8300     8.0120    21.9820     2.2210   -19.9580 
  102.0000    54.4050     9.0790     7.7980     7.9710    22.0260     2.2050   -20.1250 
  102.1250    54.1820     9.0020     7.8390     7.9540    22.0850     2.1980   -20.2900 
  102.2500    53.6190     8.9760     7.8960     7.9620    22.1490     2.1970   -20.4560 
  102.3750    52.5590     8.9950     7.9490     7.9830    22.2090     2.1980   -20.6190 
  102.5000    53.4040     9.0540     7.9970     7.9350    22.2590     2.1970   -20.7830 
  102.6250    55.8780     9.1320     8.0440     7.8640    22.3020     2.1940   -20.9430 
  102.7500    57.2540     9.2010     8.0800     7.8220    22.3290     2.1890   -21.1000 
  102.8750    56.4500     9.2340     8.0840     7.7630    22.3410     2.1820   -21.2510 
  103.0000    55.2720     9.2090     8.0330     7.6490    22.3450     2.1760   -21.3790 
  103.1250    54.8060     9.1420     7.9490     7.5550    22.3460     2.1730   -21.4770 
  103.2500    54.2190     9.0560     7.8660     7.5610    22.3440     2.1720   -21.5580 
  103.3750    53.1970     8.9760     7.8200     7.6360    22.3420     2.1710   -21.6200 
  103.5000    52.3240     8.9220     7.8260     7.6540    22.3430     2.1690   -21.6460 
  103.6250    52.2550     8.8860     7.8550     7.6290    22.3480     2.1650   -21.6500 
  103.7500    52.9220     8.8530     7.8630     7.6010    22.3610     2.1610   -21.6390 
  103.8750    53.1910     8.8000     7.8200     7.6090    22.3870     2.1600   -21.6160 
  104.0000    53.5040     8.7140     7.7190     7.6620    22.4380     2.1610   -21.6030 
  104.1250    55.8510     8.6110     7.5980     7.7200    22.5000     2.1620   -21.6100 
  104.2500    59.8660     8.5160     7.4970     7.7750    22.5660     2.1620   -21.6260 
  104.3750    62.4810     8.4510     7.4360     7.8000    22.6200     2.1600   -21.6510 
  104.5000    61.3970     8.4290     7.4190     7.7970    22.6560     2.1580   -21.6930 
  104.6250    59.2390     8.4420     7.4310     7.7620    22.6760     2.1570   -21.7420 
  104.7500    58.2290     8.4800     7.4640     7.7070    22.6710     2.1570   -21.7930 
  104.8750    57.9420     8.5370     7.5180     7.6690    22.6270     2.1590   -21.8380 
  105.0000    58.1970     8.6040     7.5860     7.7190    22.5260     2.1640   -21.8690 
  105.1250    58.2680     8.6620     7.6540     7.8480    22.3920     2.1710   -21.8890 
  105.2500    57.3350     8.6840     7.6980     7.9630    22.2810     2.1770   -21.9000 
  105.3750    55.9960     8.6490     7.7000     8.0200    22.2250     2.1810   -21.8940 
  105.5000    55.0430     8.5350     7.6320     8.0120    22.2140     2.1810   -21.8490 
  105.6250    53.4700     8.3550     7.5020     7.9220    22.2240     2.1780   -21.7880 
  105.7500    51.5640     8.1310     7.3200     7.7580    22.2460     2.1740   -21.7270 
  105.8750    52.3190     7.8950     7.1150     7.5520    22.2820     2.1710   -21.6620 
  106.0000    57.3950     7.6990     6.9260     7.3520    22.3290     2.1730   -21.5890 
  106.1250    60.9980     7.5830     6.7920     7.1710    22.3460     2.1770   -21.5080 
  106.2500    60.9010     7.5690     6.7390     7.0360    22.3170     2.1820   -21.4140 
  106.3750    60.4530     7.6580     6.7770     6.9930    22.2560     2.1870   -21.3050 
  106.5000    61.3040     7.8260     6.8950     7.1140    22.1920     2.1930   -21.2070 
  106.6250    61.5890     8.0060     7.0460     7.2790    22.1350     2.1980   -21.1110 
  106.7500    60.3250     8.1350     7.1770     7.4230    22.0790     2.2030   -20.9970 
  106.8750    59.3420     8.1720     7.2480     7.5170    22.0160     2.2080   -20.8670 
  107.0000    60.4160     8.1120     7.2420     7.5440    21.9630     2.2110   -20.7480 
  107.1250    61.4000     8.0180     7.1950     7.5390    21.9660     2.2130   -20.6530 
  107.2500    60.7790     7.9710     7.1660     7.4860    22.0400     2.2130   -20.5800 
  107.3750    58.7150     8.0410     7.2140     7.4310    22.1580     2.2130   -20.5320 
  107.5000    57.9920     8.2820     7.3940     7.5120    22.2810     2.2130   -20.5300 
  107.6250    59.8660     8.6520     7.6860     7.9980    22.4060     2.2110   -20.5610 
  107.7500    61.4400     9.0600     8.0320     9.0320    22.5430     2.2040   -20.6300 
  107.8750    59.4890     9.4050     8.3510    10.7040    22.6680     2.1940   -20.7420 
  108.0000    55.3170     9.5600     8.5330    13.6680    22.7280     2.1820   -20.8800 
  108.1250    53.3140     9.5110     8.5440    17.4410    22.7030     2.1750   -21.0140 
