~V
VERS. 2.00: Ver 2.00
~W
STRT.M 60.0000:
STOP.M 279.0000:
STEP.M 0.1250:
NULL. -999.2500:
UWI. F11060:
~C
DEPT.M :
GR.API :
RML.OHMM :
RI. :
RXO.OHMM :
CALI.CM :
DEN.GM/CC :
SP.MV :
~A
# ...
  150.0000    48.8740    18.6530    16.4920    17.9650    24.2310     2.6580     3.9410 
  150.1250    46.7680    19.8060    17.6160    18.4890    24.2720     2.6570     3.8760 
  150.2500    44.3750    20.5840    18.4860    18.6420    24.2820     2.6540     3.9250 
  150.3750    42.3580    20.8420    18.9230    18.4830    24.2740     2.6490     3.9500 
  150.5000    40.8310    20.5900    18.8890    18.2180    24.2630     2.6430     3.8590 
  150.6250    40.8850    19.9420    18.4450    18.2030    24.2620     2.6330     3.8070 
  150.7500    43.1800    19.1960    17.8500    17.5620    24.2690     2.6180     3.8240 
  150.8750    45.7220    18.5580    17.2930    16.6980    24.2740     2.6000     3.7730 
  151.0000    46.6370    18.1540    16.9220    15.5950    24.2640     2.5860     3.7160 
  151.1250    47.2240    18.0430    16.8430    14.7610    24.2500     2.5790     3.7350 
  151.2500    48.9650    18.1170    16.9800    14.4240    24.2480     2.5800     3.6940 
  151.3750    50.2870    18.2850    17.2490    15.3950    24.2460     2.5870     3.6010 
  151.5000    48.5130    18.4570    17.5390    15.9200    24.1910     2.5920     3.5490 
  151.6250    45.9620    18.5810    17.7690    16.3160    24.0970     2.5930     3.5450 
  151.7500    45.3870    18.6900    17.9630    17.1390    23.9930     2.5960     3.4870 
  151.8750    45.3710    18.8090    18.1480    17.6430    23.9360     2.6040     3.4280 
  152.0000    44.8660    18.8990    18.3020    17.6980    23.8920     2.6090     3.4240 
  152.1250    46.8240    18.8080    18.2970    16.6220    23.8510     2.6040     3.3080 
  152.2500    52.8030    18.4340    18.0390    16.1900    23.8160     2.5870     3.1580 
  152.3750    59.6040    17.7630    17.4910    15.7040    23.8190     2.5550     3.0990 
  152.5000    62.5510    16.9210    16.7290    14.1840    23.8840     2.5130     3.1040 
  152.6250    60.9600    16.1670    15.9440    12.7970    24.0140     2.4710     3.0030 
  152.7500    57.6660    15.6970    15.3380    12.3240    24.0990     2.4380     2.9230 
  152.8750    55.9900    15.5950    15.0320    12.2770    24.1250     2.4200     2.9070 
  153.0000    57.3270    15.8440    15.0730    12.6520    24.1250     2.4190     2.8090 
  153.1250    58.7060    16.3360    15.4300    13.3950    24.1020     2.4340     2.7300 
  153.2500    58.9220    16.7770    15.8370    14.1030    24.0370     2.4510     2.7370 
  153.3750    59.5960    16.9240    16.0360    14.7720    24.0220     2.4570     2.7440 
  153.5000    60.0960    16.6200    15.8400    15.4410    24.0920     2.4480     2.6600 
  153.6250    59.3110    15.8340    15.1710    14.3190    24.1500     2.4350     2.6260 
  153.7500    57.9560    14.8860    14.3000    12.2100    24.1500     2.4290     2.6310 
  153.8750    57.4180    14.0800    13.4950    10.4320    24.1270     2.4260     2.5720 
  154.0000    57.6120    13.6500    12.9780     9.4430    24.1150     2.4180     2.5170 
  154.1250    58.6380    13.7440    12.8980     9.4270    24.0910     2.4020     2.5560 
  154.2500    60.8310    14.1450    13.1080     9.9280    24.0080     2.3950     2.5800 
  154.3750    62.0410    14.5870    13.4100    10.8610    23.8880     2.4100     2.5160 
  154.5000    61.7540    14.7830    13.5700    11.7960    23.7950     2.4430     2.4840 
  154.6250    62.6290    14.5230    13.3770    11.4350    23.7100     2.4780     2.4980 
  154.7500    63.3530    13.9810    12.9250    10.5110    23.6220     2.4990     2.4430 
  154.8750    62.0820    13.3780    12.3680     9.7960    23.6160     2.5080     2.3830 
  155.0000    59.5790    12.9050    11.8590     9.4400    23.6470     2.5080     2.4080 
  155.1250    58.9200    12.6860    11.5220     9.4000    23.6730     2.5040     2.3870 
  155.2500    60.0750    12.6420    11.3370     9.4220    23.6650     2.4990     2.3150 
  155.3750    59.8920    12.6540    11.2360     9.2720    23.6540     2.4980     2.3340 
  155.5000    57.7450    12.5930    11.1130     9.3740    23.6580     2.4990     2.4240 
  155.6250    56.5500    12.3370    10.8630     9.5340    23.6730     2.4940     2.4280 
  155.7500    57.9680    11.9220    10.4960     9.8220    23.6650     2.4860     2.4350 
  155.8750    59.7120    11.4480    10.0710     9.7060    23.6540     2.4840     2.5290 
  156.0000    58.6940    11.0470     9.6720     8.9230    23.6590     2.4910     2.5800 
  156.1250    55.1210    10.8560     9.3900     8.3360    23.6990     2.5040     2.5840 
  156.2500    51.9300    10.8560     9.2360     8.6010    23.7480     2.5140     2.6640 
  156.3750    50.5170    10.9630     9.1890     9.4320    23.7930     2.5200     2.7260 
  156.5000    50.9430    11.0550     9.1910    10.2390    23.8300     2.5210     2.6990 
  156.6250    52.2800    11.0220     9.1740    10.2440    23.8790     2.5170     2.6990 
  156.7500    53.8910    10.9150     9.1190    10.1890    23.9160     2.5130     2.7870 
  156.8750    56.1630    10.8600     9.0860    10.0050    23.9360     2.5090     2.8520 
  157.0000    59.1140    10.9900     9.1790     9.4700    23.9600     2.5080     2.8920 
  157.1250    59.0940    11.3860     9.5040     9.5590    24.0090     2.5120     3.0530 
  157.2500    57.6080    11.9060     9.9880    10.3840    24.0790     2.5140     3.2140 
  157.3750    57.0430    12.3910    10.5030    11.5790    24.1210     2.5140     3.3300 
  157.5000    56.6790    12.6720    10.8850    12.8920    24.1420     2.5100     3.4270 
  157.6250    55.2140    12.5210    10.9060    12.3000    24.1540     2.5080     3.5630 
  157.7500    55.5950    11.8860    10.4930    10.8400    24.1170     2.5080     3.6760 
  157.8750    59.9430    10.7580     9.6230     9.7930    24.0330     2.5020     3.7240 
  158.0000    64.4000     9.2350     8.3730     9.6830    23.9790     2.4840     3.8270 
  158.1250    67.1880     7.5410     6.9230     9.2930    24.0000     2.4430     3.8690 
  158.2500    73.2760     5.9930     5.5480     7.5680    24.0680     2.3900     3.8100 
  158.3750    82.2090     4.7790     4.4100     5.1050    24.1140     2.3420     3.7840 
  158.5000    88.9160     3.9680     3.5820     3.7710    24.1290     2.3130     3.8790 
  158.6250    88.5400     3.5740     3.1070     3.4890    24.1430     2.3010     3.9660 
  158.7500    86.2330     3.4370     2.8820     3.5390    24.1680     2.2970     3.9660 
  158.8750    85.2510     3.4500     2.8360     3.5800    24.1660     2.2970     4.0410 
  159.0000    85.0840     3.5150     2.8880     3.5680    24.1340     2.3040     4.0900 
  159.1250    85.8500     3.5510     2.9570     3.4890    24.1140     2.3140     4.0440 
  159.2500    86.6440     3.5370     2.9910     3.4370    24.1050     2.3260     4.0220 
  159.3750    85.8110     3.4820     2.9770     3.4180    24.1210     2.3440     4.0180 
  159.5000    83.7050     3.3980     2.9260     3.4400    24.1660     2.3650     3.9840 
  159.6250    82.8970     3.2950     2.8560     3.4560    24.2510     2.3800     3.8860 
  159.7500    83.3920     3.1890     2.7850     3.4110    24.2970     2.3840     3.8240 
  159.8750    83.2750     3.0870     2.7150     3.3570    24.3040     2.3830     3.7620 
  160.0000    83.8240     2.9980     2.6440     3.3230    24.2910     2.3820     3.6400 
  160.1250    86.4750     2.9400     2.5780     3.2840    24.2930     2.3820     3.5120 
  160.2500    88.1310     2.9340     2.5380     3.2710    24.3070     2.3810     3.4160 
  160.3750    85.8980     2.9980     2.5480     3.3010    24.3310     2.3800     3.2960 
  160.5000    82.8470     3.1460     2.6260     3.3200    24.3850     2.3770     3.0690 
  160.6250    83.1310     3.3850     2.7880     3.3750    24.4000     2.3650     2.8600 
  160.7500    85.4640     3.6700     3.0000     3.7190    24.3960     2.3530     2.6810 
  160.8750    86.9780     3.9460     3.2250     4.1840    24.4070     2.3530     2.4010 
  161.0000    87.8760     4.1700     3.4200     4.7430    24.4200     2.3710     2.1330 
  161.1250    88.3210     4.3170     3.5500     4.4850    24.3660     2.4060     1.9690 
