~V
VERS. 2.00: Ver 2.00
~W
STRT.M 50.0000:
STOP.M 275.0000:
STEP.M 0.1250:
NULL. -999.2500:
UWI. F11033:
~C
DEPT.M :
DEN.GM/CC :
GR.API :
RML.OHMM :
RI. :
RXO.OHMM :
CALI.CM :
SP.MV :
~A
# ...
  218.7500     2.1130    54.5560    94.6150    91.2310    94.2670    25.2130   -36.9290 
  218.8750     2.1280    53.4570    97.0650    94.9390    96.4710    25.2130   -36.8220 
  219.0000     2.1530    51.0850    96.9560    96.1490    97.2060    25.2130   -36.6760 
  219.1250     2.1930    50.8160    93.6340    94.0250    97.2060    25.1880   -36.5430 
  219.2500     2.2390    52.7120    88.0540    89.3760    97.2060    25.1210   -36.4320 
  219.3750     2.2620    53.9700    81.1380    82.9750    92.8650    25.0400   -36.3340 
  219.5000     2.2440    53.8520    74.1050    75.9250    88.1510    25.0130   -36.2430 
  219.6250     2.2110    55.4360    68.5940    69.8190    72.2050    25.0810   -36.1690 
  219.7500     2.1940    58.3370    65.4280    65.7730    67.4070    25.2170   -36.1630 
  219.8750     2.1880    59.0350    65.0670    64.4390    65.4440    25.3590   -36.2300 
  220.0000     2.1770    56.4660    67.6920    66.1410    65.0520    25.5100   -36.3520 
  220.1250     2.1620    52.0820    73.8030    71.5170    68.6300    25.6710   -36.4810 
  220.2500     2.1490    48.3530    82.6450    79.8790    80.6740    25.8000   -36.5900 
  220.3750     2.1370    47.0350    93.6260    90.6970   107.0960    25.8720   -36.6680 
  220.5000     2.1240    47.9390   105.6820   102.9430   142.6280    25.9410   -36.7370 
  220.6250     2.1200    49.7190   116.8090   114.6440   159.8710    26.0330   -36.8070 
  220.7500     2.1230    50.5330   124.9590   123.5840   153.8650    26.0400   -36.8500 
  220.8750     2.1280    51.3110   128.6970   128.1200   160.0160    25.9760   -36.8880 
  221.0000     2.1330    52.6970   127.7340   127.6750   190.3830    25.9170   -36.9200 
  221.1250     2.1440    53.9540   122.8020   122.6600   183.2180    25.7740   -36.9540 
  221.2500     2.1580    53.5330   116.6840   115.9260   151.2600    25.5370   -37.0090 
  221.3750     2.1650    53.1770   111.2400   109.4590   128.5620    25.3580   -37.0820 
  221.5000     2.1660    54.7160   107.7820   104.7290   120.9420    25.2850   -37.1580 
  221.6250     2.1640    56.5280   107.6050   103.2120   121.1270    25.2570   -37.2020 
  221.7500     2.1600    56.7040   110.4560   104.8910   121.7970    25.2270   -37.2280 
  221.8750     2.1520    56.0580   115.9620   109.5470   121.2220    25.2140   -37.2080 
  222.0000     2.1410    54.3810   123.2540   116.3570   120.5110    25.2200   -37.1400 
  222.1250     2.1300    52.0010   130.9480   123.9110   124.4350    25.2400   -36.9930 
  222.2500     2.1230    50.9040   137.4360   130.4110   128.4820    25.2640   -36.7980 
  222.3750     2.1190    52.1890   141.6860   134.7060   132.6540    25.2610   -36.5750 
  222.5000     2.1170    54.1850   143.3180   136.3220   133.4970    25.2320   -36.3460 
  222.6250     2.1150    55.6830   142.3590   135.1820   139.4440    25.2180   -36.1250 
  222.7500     2.1160    56.5850   139.9040   132.4010   132.2010    25.2130   -35.9100 
  222.8750     2.1230    56.4260   136.5610   128.6190   125.2370    25.2130   -35.7270 
  223.0000     2.1310    55.9510   132.8530   124.4400   120.5110    25.2130   -35.5960 
  223.1250     2.1340    55.9660   129.6140   120.7580   120.5110    25.2140   -35.5560 
  223.2500     2.1440    54.8810   128.0240   118.6620   120.5110    25.2220   -35.5470 
  223.3750     2.1750    54.2610   129.4070   119.4370   120.5110    25.2300   -35.5700 
  223.5000     2.2330    54.7030   134.7070   124.1630   118.6760    25.2210   -35.5960 
  223.6250     2.3280    53.7490   143.6000   132.9190   145.8550    25.2330   -35.5960 
  223.7500     2.4510    50.9230   150.3730   140.9080   186.8510    25.2290   -35.5960 
  223.8750     2.5780    47.5610   145.4280   140.1640   242.7050    25.1420   -35.5910 
  224.0000     2.6570    45.6620   122.0920   123.2730   256.9680    25.0770   -35.5650 
  224.1250     2.6400    46.6730    88.1100    92.2450   193.2670    25.0580   -35.5100 
  224.2500     2.5810    50.8890    63.0620    62.3470   118.7300    25.0500   -35.4490 
  224.3750     2.5210    57.4700    37.9150    40.4030    58.9820    25.0240   -35.3740 
  224.5000     2.4790    64.6880    23.6710    26.6400    28.0790    24.9920   -35.2970 
  224.6250     2.4510    69.6660    17.5720    19.1950    17.2400    24.9620   -35.2370 
  224.7500     2.4200    68.3940    13.7500    14.6600    16.1010    24.9330   -35.1900 
  224.8750     2.3780    61.5120    11.3260    11.7760    14.5790    24.9300   -35.1650 
  225.0000     2.3370    54.5740     9.7980     9.9290     9.6530    24.9610   -35.1930 
  225.1250     2.3170    50.8660     8.9190     8.8730     7.5910    25.0320   -35.2160 
  225.2500     2.3160    47.1930     8.3650     8.2490     7.4490    25.1060   -35.2360 
  225.3750     2.3230    42.9000     8.0080     7.9100     7.7470    25.1590   -35.2460 
  225.5000     2.3290    39.4570     7.7510     7.7470     7.4090    25.1720   -35.2780 
  225.6250     2.3330    40.4250     7.5050     7.6690     6.8600    25.1390   -35.3440 
  225.7500     2.3350    44.2180     7.2400     7.5930     6.5070    25.1030   -35.4280 
  225.8750     2.3360    49.1070     7.0090     7.5200     6.2790    25.0850   -35.4840 
  226.0000     2.3400    52.5090     6.8980     7.4890     6.3650    25.1030   -35.4740 
  226.1250     2.3500    51.5910     6.9720     7.5440     6.9030    25.1270   -35.4520 
  226.2500     2.3620    48.6750     7.1720     7.6610     7.4290    25.1360   -35.4490 
  226.3750     2.3660    46.7260     7.4390     7.8100     7.7320    25.1380   -35.4690 
  226.5000     2.3560    46.7460     7.7060     7.9490     7.3070    25.1370   -35.4860 
  226.6250     2.3330    46.0270     7.9000     8.0280     7.3270    25.1140   -35.4860 
  226.7500     2.3090    43.9590     8.0130     8.0450     8.2630    25.0700   -35.4400 
  226.8750     2.2930    42.4610     8.0700     8.0150     9.6640    25.0490   -35.3670 
  227.0000     2.2910    42.4940     8.1040     7.9630     9.0550    25.0710   -35.2900 
  227.1250     2.2970    44.2100     8.1230     7.8970     8.0300    25.1010   -35.2050 
  227.2500     2.3080    45.7420     8.0870     7.7960     7.4490    25.0610   -35.1070 
  227.3750     2.3230    46.3450     7.9160     7.6030     7.4270    24.9500   -35.0010 
  227.5000     2.3370    46.1310     7.5570     7.2790     7.4320    24.8090   -34.8820 
  227.6250     2.3420    47.1740     7.0540     6.8510     7.0610    24.7860   -34.7560 
  227.7500     2.3350    50.0760     6.5970     6.4470     6.3520    24.8490   -34.6620 
  227.8750     2.3280    55.0530     6.3410     6.1730     5.7250    24.9360   -34.6040 
  228.0000     2.3280    62.3070     6.3780     6.1080     5.5790    25.0300   -34.5890 
  228.1250     2.3300    68.8660     6.7600     6.3200     6.2450    25.1020   -34.6130 
  228.2500     2.3230    72.2180     7.3370     6.7280     7.1020    25.1310   -34.6430 
  228.3750     2.3150    73.1750     7.9690     7.2450     7.7240    25.1370   -34.6790 
  228.5000     2.3130    72.4490     8.5230     7.7630     8.4240    25.1380   -34.7170 
  228.6250     2.3190    73.0070     8.8730     8.1590     9.0030    25.1380   -34.7620 
  228.7500     2.3240    77.3710     9.0350     8.4010     9.0370    25.1380   -34.8110 
  228.8750     2.3230    85.4210     9.0570     8.5020     8.9520    25.1370   -34.8740 
  229.0000     2.3170    92.6900     9.0070     8.4980     9.0060    25.1370   -34.9300 
  229.1250     2.3100    97.0920     8.9300     8.4100     8.8930    25.1360   -34.9670 
  229.2500     2.3050    99.9000     8.8630     8.2850     8.6910    25.1370   -34.9970 
  229.3750     2.3000   101.5650     8.8540     8.1820     8.6030    25.1380   -35.0190 
  229.5000     2.2910   102.3910     8.9850     8.1870     8.8840    25.1380   -35.0220 
  229.6250     2.2760   102.5780     9.4420     8.4600     9.8490    25.1480   -35.0050 
  229.7500     2.2620    98.7060    10.3340     9.0840    11.2420    25.1720   -34.9790 
  229.8750     2.2540    90.4510    11.7890    10.1640    12.8600    25.1950   -34.9440 
