~V
VERS. 2.00: Ver 2.00
~W
STRT.M 57.0000:
STOP.M 276.0000:
STEP.M 0.1250:
NULL. -999.2500:
UWI. F11063:
~C
DEPT.M :
DEN.GM/CC :
GR.API :
RML.OHMM :
RI. :
RXO.OHMM :
CALI.CM :
SP.MV :
~A
# ...
  214.5000     2.3530    91.3760     7.0500     6.3300     8.0000    24.4100    -8.1830 
  214.6250     2.3480    86.6700     7.5340     6.7420     8.8160    24.3750    -8.2790 
  214.7500     2.3420    86.7710     8.0570     7.1970     9.5840    24.3900    -8.3210 
  214.8750     2.3340    89.6330     8.6190     7.6500     9.3100    24.4500    -8.3800 
  215.0000     2.3260    90.9800     9.2440     8.0970     8.7240    24.5210    -8.5010 
  215.1250     2.3230    88.8130     9.9340     8.5720     9.5230    24.5680    -8.6230 
  215.2500     2.3230    86.0810    10.5990     9.0780    10.5250    24.5730    -8.6960 
  215.3750     2.3230    82.6740    11.1680     9.5790    10.6630    24.5580    -8.7560 
  215.5000     2.3240    81.3850    11.6440    10.0310    10.6470    24.5460    -8.8240 
  215.6250     2.3280    83.4750    12.1730    10.4440    11.4440    24.4880    -8.8870 
  215.7500     2.3330    85.6610    12.9960    10.9680    12.2590    24.4050    -8.9490 
  215.8750     2.3330    85.1260    14.4280    11.8470    12.8380    24.2400    -9.0120 
  216.0000     2.3290    81.8460    16.8250    13.3980    14.7910    24.0480    -9.0750 
  216.1250     2.3250    76.9530    20.7520    16.1920    18.4260    24.0040    -9.1320 
  216.2500     2.3170    71.7010    26.1500    20.3990    23.4220    24.1180    -9.1750 
  216.3750     2.3000    67.6000    32.8790    26.1490    27.4410    24.2300    -9.2590 
  216.5000     2.2750    65.3430    40.4100    33.1690    32.8910    24.2790    -9.3680 
  216.6250     2.2520    63.3300    47.5720    40.4520    38.9310    24.3170    -9.3970 
  216.7500     2.2370    62.1310    53.1500    46.5110    44.1980    24.3760    -9.4410 
  216.8750     2.2280    62.1440    56.4400    50.4360    46.4480    24.4780    -9.5540 
  217.0000     2.2240    63.2930    57.3530    52.0430    44.7610    24.5930    -9.6610 
  217.1250     2.2220    64.5800    56.0410    51.4760    41.7340    24.6710    -9.6800 
  217.2500     2.2210    66.1500    53.5550    49.7320    38.4610    24.6580    -9.6940 
  217.3750     2.2220    67.3580    50.7010    47.4850    35.9120    24.6020    -9.7400 
  217.5000     2.2250    67.3620    48.2650    45.3510    35.4460    24.5300    -9.7890 
  217.6250     2.2280    65.9610    47.0630    44.0210    35.0070    24.4800    -9.8270 
  217.7500     2.2360    65.0400    47.2160    43.8040    33.7630    24.4490    -9.8530 
  217.8750     2.2510    64.4730    48.7500    44.9320    33.1370    24.4290    -9.8740 
  218.0000     2.2710    63.9340    51.4410    47.3910    35.3540    24.3900    -9.9110 
  218.1250     2.2890    63.2190    54.6520    50.7590    38.9890    24.2780    -9.9510 
  218.2500     2.3010    62.3920    57.1970    53.8390    42.3570    24.1640    -9.9990 
  218.3750     2.3030    60.3560    58.0900    55.5630    44.1740    24.1390   -10.0710 
  218.5000     2.2940    57.9950    56.8450    55.2450    44.2500    24.2550   -10.1240 
  218.6250     2.2710    57.9400    55.4510    52.7780    43.1970    24.4530   -10.1700 
  218.7500     2.2480    59.9360    54.7110    49.4290    41.5780    24.6220   -10.2920 
  218.8750     2.2350    62.8440    53.0590    46.0830    40.0420    24.7150   -10.4190 
  219.0000     2.2300    64.9560    49.2540    43.2460    39.3980    24.7440   -10.4720 
  219.1250     2.2210    65.3620    47.3290    41.0680    38.1120    24.7440   -10.5170 
  219.2500     2.2070    65.9670    45.0230    39.2840    36.5060    24.7470   -10.6250 
  219.3750     2.1980    66.9770    42.8060    37.8130    35.5990    24.7250   -10.7290 
  219.5000     2.2010    66.7740    41.5130    36.7510    35.3910    24.6750   -10.7780 
  219.6250     2.2160    65.2220    41.1390    36.4500    34.4480    24.5530   -10.8370 
  219.7500     2.2330    64.5130    41.8720    37.0940    32.5070    24.3660   -10.9090 
  219.8750     2.2430    64.5790    43.9060    38.9110    35.3040    24.1780   -10.9620 
  220.0000     2.2430    63.9200    47.1470    41.9330    39.5830    24.1520   -10.9970 
  220.1250     2.2370    63.6400    50.9240    45.7860    42.2870    24.2370   -11.0250 
  220.2500     2.2330    64.1750    53.8400    49.2290    42.3950    24.2950   -11.0610 
  220.3750     2.2350    64.6330    54.7620    51.0690    42.8290    24.3110   -11.0620 
  220.5000     2.2440    65.2320    53.1740    50.5250    43.3020    24.3300   -11.0220 
  220.6250     2.2570    63.9050    49.1870    47.3670    40.5140    24.3600   -11.0230 
  220.7500     2.2750    60.5840    44.3650    43.0810    36.0500    24.3390   -11.0000 
  220.8750     2.2980    57.9070    39.8820    38.8790    33.9230    24.2980   -10.9140 
  221.0000     2.3250    59.3950    36.6220    35.6610    36.1230    24.2930   -10.8270 
  221.1250     2.3380    64.8830    35.4540    34.2090    38.0590    24.2650   -10.8190 
  221.2500     2.3210    67.8300    36.2740    34.4820    34.5550    24.2790   -10.8300 
  221.3750     2.2800    66.2050    38.8770    36.4300    34.6970    24.3880   -10.8220 
  221.5000     2.2440    63.9560    42.7450    39.7530    38.3450    24.5450   -10.8270 
  221.6250     2.2330    66.3400    47.3970    44.1240    40.1750    24.6570   -10.8530 
  221.7500     2.2330    68.8080    54.5370    49.0010    42.2620    24.7540   -10.8970 
  221.8750     2.2340    67.8980    62.0940    54.1590    44.0990    24.8410   -10.9590 
  222.0000     2.2320    65.4410    67.9230    59.6090    43.9330    24.8880   -11.0100 
  222.1250     2.2250    63.1850    74.7760    66.0100    43.6250    24.8870   -11.0860 
  222.2500     2.2180    60.5120    82.8460    73.6690    45.9770    24.8760   -11.1260 
  222.3750     2.2120    59.4880    90.9880    81.7540    47.9150    24.8920   -11.1200 
  222.5000     2.2130    60.7240    96.4400    87.9230    49.2160    24.8800   -11.1750 
  222.6250     2.2250    59.0330    94.9310    88.3090    52.7630    24.7850   -11.2520 
  222.7500     2.2500    55.8720    87.3220    83.0270    59.0630    24.6380   -11.2390 
  222.8750     2.2830    56.2330    77.0940    74.5910    58.1490    24.5200   -11.2020 
  223.0000     2.3130    60.7960    68.4850    66.7230    49.1780    24.5060   -11.2420 
  223.1250     2.3260    64.8900    65.0550    63.0670    40.2410    24.6010   -11.2770 
  223.2500     2.3190    65.6710    66.5600    63.9890    39.0780    24.6870   -11.2600 
  223.3750     2.3000    63.4520    71.9160    68.8200    43.4220    24.7190   -11.2570 
  223.5000     2.2830    59.3530    78.6790    75.5180    48.7620    24.6860   -11.2600 
  223.6250     2.2760    58.5620    82.0830    79.7580    53.2870    24.5960   -11.2660 
  223.7500     2.2750    61.6980    79.5940    78.6080    55.2450    24.5640   -11.2940 
  223.8750     2.2740    66.2620    72.6940    72.8050    50.6180    24.5550   -11.3300 
  224.0000     2.2720    69.4800    65.6870    66.0140    43.5650    24.5610   -11.3760 
  224.1250     2.2680    71.1320    63.6410    62.9550    38.2660    24.6000   -11.4310 
  224.2500     2.2590    71.6250    68.2780    65.7350    38.2220    24.6670   -11.4860 
  224.3750     2.2440    69.0200    80.8000    75.8810    42.3380    24.7550   -11.5590 
  224.5000     2.2280    64.2070   101.8930    94.3380    50.6910    24.8500   -11.6690 
  224.6250     2.2160    60.9740   131.4530   120.9960    64.0220    24.8550   -11.7210 
  224.7500     2.2100    60.4310   162.6110   149.0550    75.9300    24.8170   -11.7580 
  224.8750     2.2090    59.8880   187.3890   171.1020    91.8720    24.7460   -11.8770 
  225.0000     2.2110    57.7360   201.2160   183.0600   105.5600    24.6490   -11.9990 
  225.1250     2.2080    57.5600   207.4240   187.6020   117.4440    24.5070   -12.0080 
  225.2500     2.1970    59.8090   215.5300   193.2180   124.4340    24.4290   -12.0080 
  225.3750     2.1840    61.3040   230.0050   204.1680   133.3760    24.5370   -12.0630 
  225.5000     2.1710    60.6810   250.9720   220.8450   147.9460    24.7170   -12.1150 
  225.6250     2.1630    59.0040   272.9320   238.8090   150.6570    24.8270   -12.1100 
