~V
VERS. 2.00: Ver 2.00
~W
STRT.M 52.0000:
STOP.M 287.0000:
STEP.M 0.1250:
NULL. -999.2500:
UWI. F11078:
~C
DEPT.M :
GR.API :
RML.OHMM :
RI. :
RXO.OHMM :
CALI.CM :
DEN.GM/CC :
SP.MV :
~A
# ...
  153.2500    76.7790     7.6770     6.6530     7.0210    23.1950     2.2960   -14.0320 
  153.3750    77.6680     7.4160     6.4430     6.5030    22.9470     2.3050   -14.2240 
  153.5000    77.8630     7.3590     6.3470     6.9320    22.9350     2.2980   -14.4110 
  153.6250    78.2120     7.5460     6.3820     7.9980    23.2100     2.2790   -14.6000 
  153.7500    77.3980     7.9280     6.5270     8.3200    23.6720     2.2590   -14.8090 
  153.8750    74.0710     8.4020     6.7500     8.0320    24.1340     2.2430   -15.0520 
  154.0000    69.5200     8.8610     7.0320     7.7880    24.4030     2.2370   -15.3690 
  154.1250    65.8610     9.2620     7.3490     8.2500    24.5480     2.2350   -15.7620 
  154.2500    63.3010     9.6080     7.6870     8.7850    24.6320     2.2320   -16.1960 
  154.3750    61.9010     9.9130     8.0410     9.1800    24.6380     2.2220   -16.6520 
  154.5000    62.6120    10.1760     8.3950     9.3740    24.5030     2.2010   -17.0890 
  154.6250    63.9690    10.4040     8.7220     9.5820    24.3370     2.1740   -17.4240 
  154.7500    64.4090    10.5880     8.9920     9.7970    24.2330     2.1490   -17.6140 
  154.8750    64.0670    10.6940     9.1640    10.0240    24.1870     2.1340   -17.6540 
  155.0000    64.6700    10.6010     9.1320    10.2020    24.1530     2.1310   -17.4560 
  155.1250    66.6540    10.2320     8.8400    10.3430    24.1390     2.1360   -17.0100 
  155.2500    69.5900     9.5690     8.2710     9.9830    24.2030     2.1480   -16.3250 
  155.3750    73.2750     8.7090     7.5000     8.6890    24.3690     2.1680   -15.4190 
  155.5000    77.5610     7.8440     6.6840     7.0160    24.5720     2.2010   -14.3530 
  155.6250    81.4890     7.1380     5.9860     6.0800    24.7260     2.2400   -13.2780 
  155.7500    86.2880     6.6400     5.4870     5.6250    24.7890     2.2770   -12.2860 
  155.8750    92.1450     6.3320     5.1990     5.3870    24.7820     2.3010   -11.3910 
  156.0000    95.8950     6.1610     5.0910     5.4560    24.7360     2.3040   -10.6470 
  156.1250    95.0230     6.0360     5.0510     5.5700    24.7130     2.2950   -10.0750 
  156.2500    92.0460     5.9090     5.0130     5.5860    24.7160     2.2820    -9.6980 
  156.3750    91.1020     5.7650     4.9490     5.4900    24.7060     2.2720    -9.4990 
  156.5000    91.7270     5.6230     4.8680     5.2490    24.6550     2.2700    -9.4410 
  156.6250    92.4220     5.5300     4.8060     4.9960    24.5850     2.2740    -9.4270 
  156.7500    92.3970     5.5210     4.7930     5.0660    24.4950     2.2830    -9.3990 
  156.8750    92.4680     5.6050     4.8500     5.3200    24.4110     2.2960    -9.3870 
  157.0000    94.3560     5.7770     4.9930     5.5460    24.3750     2.3060    -9.4020 
  157.1250    97.0900     5.9870     5.2040     5.5280    24.2810     2.3090    -9.4670 
  157.2500    98.4140     6.1920     5.4560     5.6050    24.0840     2.2990    -9.6030 
  157.3750    96.7790     6.3490     5.7030     5.9370    23.8410     2.2770    -9.8100 
  157.5000    93.7340     6.3980     5.8560     6.3230    23.6990     2.2510   -10.0530 
  157.6250    92.0160     6.3360     5.8560     6.4340    23.6640     2.2330   -10.3110 
  157.7500    92.0750     6.1650     5.6810     6.4760    23.6820     2.2280   -10.5790 
  157.8750    93.8270     5.9190     5.3750     6.4690    23.7540     2.2390   -10.8120 
  158.0000    96.0650     5.6670     5.0360     5.8460    23.8950     2.2590   -11.0150 
  158.1250    98.0380     5.5000     4.7690     5.4450    24.0640     2.2760   -11.2260 
  158.2500    99.0130     5.5010     4.6300     5.3090    24.2110     2.2810   -11.4470 
  158.3750    96.8900     5.7600     4.6640     5.5050    24.3080     2.2740   -11.6590 
  158.5000    90.5680     6.4810     5.0010     6.0140    24.3250     2.2710   -11.8500 
  158.6250    84.6640     7.7640     5.7500     6.4880    24.2950     2.2940   -12.0320 
  158.7500    81.0570     9.7190     7.0830     7.2950    24.2370     2.3520   -12.2380 
  158.8750    78.0920    12.2920     9.1250     9.2840    24.1810     2.4370   -12.4990 
  159.0000    72.3900    15.0300    11.8460    13.8350    24.1460     2.5230   -12.8340 
  159.1250    66.2950    17.0390    14.4520    22.3160    24.0340     2.5740   -13.1930 
  159.2500    64.1290    17.6110    15.9260    26.7950    23.7450     2.5720   -13.5300 
  159.3750    65.7230    16.5850    15.6630    19.5880    23.3470     2.5170   -13.8440 
  159.5000    67.0330    14.4190    13.9820    12.4510    23.0840     2.4270   -14.1100 
  159.6250    67.1610    12.1560    12.0460    10.2130    23.0080     2.3390   -14.2920 
  159.7500    68.1450    10.2760    10.3280     9.6690    23.0260     2.2710   -14.3760 
  159.8750    71.2640     8.8880     8.9510     9.3850    23.0670     2.2320   -14.2990 
  160.0000    76.8190     7.9530     7.9170     8.6950    23.1130     2.2220   -13.9690 
  160.1250    83.6700     7.2880     7.1040     7.3610    23.1210     2.2280   -13.4670 
  160.2500    89.5380     6.8460     6.4910     6.2920    23.0770     2.2450   -12.8780 
  160.3750    92.7740     6.6230     6.0860     5.6860    23.0060     2.2650   -12.2380 
  160.5000    92.7980     6.6320     5.9310     5.5630    22.9150     2.2850   -11.6310 
  160.6250    90.9350     6.7680     5.9470     5.6550    22.7750     2.3010   -11.1270 
  160.7500    87.9330     6.9340     6.0590     5.9110    22.6720     2.3120   -10.7580 
  160.8750    85.8870     7.0500     6.1890     6.2710    22.7290     2.3150   -10.5760 
  161.0000    89.2490     7.0890     6.2930     6.5010    23.0810     2.3070   -10.6550 
  161.1250    94.9270     7.1250     6.4020     6.4880    23.5330     2.2930   -10.9020 
  161.2500    94.9010     7.2370     6.5680     6.3640    23.8520     2.2750   -11.2620 
  161.3750    85.8610     7.4640     6.8220     6.6040    23.9350     2.2580   -11.7150 
  161.5000    76.3790     7.7980     7.1460     7.4880    23.9090     2.2360   -12.2070 
  161.6250    75.5180     8.1870     7.4760     8.6360    23.8940     2.2100   -12.6830 
  161.7500    79.1230     8.6840     7.8240     9.2130    23.8990     2.1840   -13.0570 
  161.8750    80.8530     9.4540     8.3040     9.1110    23.9380     2.1780   -13.2710 
  162.0000    79.2520    10.8210     9.2000     8.7860    24.0420     2.2190   -13.3010 
  162.1250    75.8890    12.7420    10.6430     9.4490    24.1560     2.3060   -13.1810 
  162.2500    70.8170    14.8500    12.5750    12.7510    24.2240     2.4220   -12.9260 
  162.3750    65.9700    16.3990    14.4800    19.2280    24.2700     2.5330   -12.5620 
  162.5000    65.7940    16.3370    15.0610    22.3530    24.3340     2.5940   -12.1270 
  162.6250    69.9120    14.8220    13.9520    19.6480    24.4270     2.5960   -11.6680 
  162.7500    74.9640    12.6120    11.8850    14.2620    24.4910     2.5500   -11.2420 
  162.8750    76.8810    10.7220     9.9510     8.7750    24.5220     2.4860   -10.8750 
  163.0000    74.4890    10.0920     8.9810     7.2570    24.4970     2.4480   -10.5660 
  163.1250    71.5150    10.7410     9.0430     7.7330    24.4320     2.4550   -10.3240 
  163.2500    69.1460    12.5220    10.1830    11.3010    24.3550     2.5030   -10.1230 
  163.3750    65.1240    15.0990    12.3820    17.0280    24.3400     2.5720    -9.9220 
  163.5000    58.7320    17.8780    15.4320    20.9740    24.3590     2.6310    -9.7090 
  163.6250    55.6190    20.1530    18.4100    21.4290    24.3640     2.6590    -9.4770 
  163.7500    56.5650    21.6120    20.6080    20.1760    24.3200     2.6590    -9.2400 
  163.8750    58.1390    22.3560    21.9070    18.8630    24.2170     2.6440    -9.0440 
  164.0000    57.2970    22.6720    22.7090    19.2210    24.0360     2.6340    -8.9210 
  164.1250    55.8170    22.7120    23.3500    20.2620    23.8550     2.6380    -8.8510 
  164.2500    56.2670    22.1640    23.4470    21.6880    23.6900     2.6540    -8.8370 
  164.3750    59.0960    20.6270    22.2950    21.8100    23.5260     2.6680    -8.9200 
