~V
VERS. 2.00: Ver 2.00
~W
STRT.M 59.0000:
STOP.M 230.0000:
STEP.M 0.1250:
NULL. -999.2500:
UWI. F11001:
~C
DEPT.M :
GR.API :
RML.OHMM :
RI. :
RXO.OHMM :
CALI.CM :
SP.MV :
DEN.GM/CC :
~A
   59.0000    43.5120     0.1070     0.0820     1.6220    24.5060    75.6870     2.7180 
   59.1250    50.4190     0.1330     0.0950     1.6850    24.5500    65.1220     2.6640 
   59.2500    57.8760     0.4210     0.1920     2.3220    24.2410    52.5360     2.5410 
   59.3750    63.4840     1.0440     0.4210     4.3460    23.7450    39.3600     2.4140 
   59.5000    68.5760     2.0960     0.8590     7.2630    23.2710    26.1250     2.3210 
   59.6250    73.7670     3.4520     1.5570     9.2520    22.9830    13.2360     2.2760 
   59.7500    76.5020     4.6090     2.4400     9.6070    22.9510     1.3780     2.2580 
   59.8750    75.7760     5.1950     3.2600     9.9160    23.1190    -8.8410     2.2360 
   60.0000    73.5170     5.2820     3.9130    10.3120    23.4830   -16.6970     2.2000 
   60.1250    72.8610     5.2080     4.4300    10.5920    23.9600   -21.8940     2.1560 
   60.2500    72.2530     5.2540     4.8520    10.6870    24.4090   -24.9200     2.1190 
   60.3750    70.2410     5.4050     5.1890    10.7860    24.7090   -27.0930     2.0990 
   60.5000    69.6260     5.5720     5.4110    10.9230    24.8050   -28.8650     2.0960 
   60.6250    71.2890     5.6810     5.5010    11.0960    24.7470   -30.4320     2.1060 
   60.7500    71.0080     5.6920     5.4540    10.4290    24.7310   -31.8340     2.1240 
   60.8750    67.6280     5.6440     5.3370    10.2360    24.7660   -33.1690     2.1410 
   61.0000    64.2380     5.5760     5.2040    10.3330    24.8400   -34.4750     2.1530 
   61.1250    62.8750     5.5240     5.1000    10.3870    24.9120   -35.6950     2.1600 
   61.2500    62.3300     5.5240     5.0710    10.2690    24.9530   -36.7800     2.1610 
   61.3750    61.7920     5.5850     5.1170    10.4350    24.8730   -37.7430     2.1600 
   61.5000    62.8940     5.7130     5.2260    11.0510    24.7330   -38.5420     2.1580 
   61.6250    67.4530     5.9020     5.3670    11.7280    24.6030   -39.1580     2.1580 
   61.7500    71.7650     6.1210     5.4910    12.2040    24.5290   -39.5310     2.1590 
   61.8750    71.8920     6.3070     5.5600    12.3780    24.5090   -39.6700     2.1600 
   62.0000    69.9500     6.4000     5.5510    12.2580    24.4980   -39.5860     2.1610 
   62.1250    69.2080     6.3660     5.4650    11.8190    24.5130   -39.3840     2.1610 
   62.2500    70.5930     6.2150     5.3280    10.9860    24.5030   -39.1620     2.1610 
   62.3750    72.7420     6.0420     5.1940    10.7570    24.5590   -38.9430     2.1620 
   62.5000    75.2170     5.9190     5.1030    10.5760    24.6970   -38.6650     2.1640 
   62.6250    74.9670     5.8760     5.0790    10.3440    24.8790   -38.2190     2.1670 
   62.7500    71.1620     5.8930     5.1200    10.1460    25.0020   -37.4520     2.1710 
   62.8750    68.9960     5.8900     5.1680    10.3810    24.9880   -36.2490     2.1780 
   63.0000    70.1060     5.8060     5.1650    10.6010    24.9160   -34.5130     2.1890 
   63.1250    74.1720     5.6240     5.0760    10.0420    24.7300   -32.2290     2.2040 
   63.2500    81.5710     5.3950     4.9160     8.3940    24.4960   -29.4610     2.2230 
   63.3750    90.3010     5.2300     4.7800     6.6160    24.3480   -26.4960     2.2430 
   63.5000    96.1350     5.2090     4.7420     5.9910    24.3190   -23.4750     2.2630 
   63.6250    96.5840     5.3540     4.8410     6.0550    24.2760   -20.5380     2.2780 
   63.7500    93.9190     5.6150     5.0630     6.9040    24.1920   -17.8540     2.2850 
   63.8750    92.9870     5.8420     5.2920     7.3950    24.1800   -15.5690     2.2880 
   64.0000    94.5680     5.9250     5.4160     7.4160    24.2530   -13.7480     2.2870 
   64.1250    99.8990     5.8270     5.3710     6.7280    24.3410   -12.3730     2.2860 
   64.2500   110.1710     5.5970     5.1660     5.8130    24.4040   -11.3700     2.2890 
   64.3750   119.9170     5.3680     4.9220     5.0670    24.5100   -10.4980     2.2980 
   64.5000   123.5150     5.2070     4.7140     4.7600    24.6940    -9.6570     2.3150 
   64.6250   121.7560     5.1210     4.5680     4.7630    24.8900    -8.8150     2.3360 
   64.7500   119.8590     5.0900     4.4850     4.6480    25.0480    -7.9820     2.3570 
   64.8750   119.6950     5.0950     4.4470     4.6230    25.1870    -7.1720     2.3760 
   65.0000   119.9620     5.1560     4.4660     4.6930    25.2570    -6.4800     2.3940 
   65.1250   119.0740     5.3100     4.5570     4.6570    25.3320    -5.9630     2.4110 
   65.2500   117.4430     5.6100     4.7500     4.7640    25.4350    -5.6420     2.4170 
   65.3750   116.4960     6.0350     5.0450     5.4730    25.4290    -5.4900     2.4070 
   65.5000   116.3540     6.5450     5.4270     6.4800    25.3020    -5.5390     2.3790 
   65.6250   114.2950     7.0670     5.8470     6.3770    25.2910    -5.7610     2.3460 
   65.7500   107.6240     7.4770     6.2080     6.5850    25.3430    -6.0560     2.3260 
   65.8750    99.5660     7.6990     6.4260     7.6030    25.3220    -6.3390     2.3210 
   66.0000    95.8050     7.7120     6.4560     8.2510    25.2120    -6.5720     2.3220 
   66.1250    99.2730     7.5680     6.3260     6.5480    25.1190    -6.7580     2.3190 
   66.2500   105.7110     7.3760     6.1250     5.7590    25.0830    -6.8690     2.3060 
   66.3750   107.9850     7.2450     5.9560     6.1410    25.0530    -6.8450     2.2920 
   66.5000   106.3210     7.2060     5.8580     7.1500    25.0190    -6.6630     2.2840 
   66.6250   104.0380     7.2470     5.8360     8.0090    25.0420    -6.4180     2.2810 
   66.7500   102.4380     7.3510     5.8870     6.6760    24.9920    -6.3410     2.2750 
   66.8750   102.3740     7.5050     5.9840     6.0300    24.9250    -6.5570     2.2640 
   67.0000   101.4980     7.7210     6.1220     5.9370    24.8080    -7.0410     2.2520 
   67.1250    97.0870     7.9890     6.3010     6.2580    24.6460    -7.6590     2.2490 
   67.2500    93.4220     8.2540     6.4940     7.0240    24.5330    -8.2400     2.2630 
   67.3750    96.4820     8.4280     6.6330     7.3380    24.5080    -8.7740     2.2870 
   67.5000   103.6860     8.4700     6.6690     7.1300    24.5610    -9.2990     2.3080 
   67.6250   109.0820     8.3970     6.5980     6.5680    24.6890    -9.7380     2.3170 
   67.7500   111.5890     8.2800     6.4680     6.3940    24.7600    -9.9790     2.3110 
   67.8750   113.2370     8.1970     6.3450     6.4620    24.8040    -9.9990     2.3000 
   68.0000   113.3220     8.1690     6.2600     6.5150    24.8150    -9.8560     2.2930 
   68.1250   112.3500     8.1830     6.2180     6.5090    24.8050    -9.6740     2.2910 
   68.2500   112.0840     8.2210     6.2180     6.6170    24.7880    -9.6530     2.2890 
   68.3750   113.2810     8.2800     6.2520     6.6470    24.8170    -9.7870     2.2770 
   68.5000   114.0150     8.3830     6.3260     6.4840    24.8340   -10.0200     2.2570 
   68.6250   112.3860     8.5580     6.4540     6.6810    24.8090   -10.3090     2.2400 
   68.7500   108.1180     8.8180     6.6480     7.3790    24.6900   -10.4840     2.2450 
   68.8750   102.5240     9.1120     6.8790     7.8310    24.4630   -10.4780     2.2740 
   69.0000    97.7130     9.3810     7.1080     8.1770    24.1870   -10.2790     2.3110 
   69.1250    96.2490     9.5710     7.2920     8.8890    24.0150    -9.8760     2.3350 
   69.2500    98.6250     9.6180     7.3690    10.3810    24.0830    -9.2190     2.3260 
   69.3750   101.0930     9.5370     7.3400     9.9520    24.2890    -8.4000     2.2970 
   69.5000    99.6500     9.3500     7.2250     8.4710    24.5510    -7.4680     2.2660 
   69.6250    96.8620     9.0960     7.0670     7.2210    24.7700    -6.4960     2.2520 
   69.7500    95.1220     8.8390     6.9180     6.8180    24.9130    -5.6840     2.2600 
   69.8750    93.8090     8.6510     6.8280     6.6420    24.9600    -5.1590     2.2740 
   70.0000    93.5950     8.5910     6.8300     6.4150    24.9680    -4.9160     2.2800 
   70.1250    94.6470     8.6980     6.9470     6.0790    24.9630    -4.9300     2.2690 
