~V
VERS. 2.00: Ver 2.00
~W
STRT.M 50.0000:
STOP.M 278.0000:
STEP.M 0.1250:
NULL. -999.2500:
UWI. F11029:
~C
DEPT.M :
SP.MV :
DEN.GM/CC :
GR.API :
RML.OHMM :
RI. :
RXO.OHMM :
CALI.CM :
~A
# ...
  218.7500   -15.9230     2.1080    63.7330   112.5030   105.1000   111.0170    24.7040 
  218.8750   -16.1390     2.0390    60.9980   110.1590   104.4670   113.0030    25.9250 
  219.0000   -16.2760     1.9810    59.2900   104.1160    99.9230   105.0900    27.0370 
  219.1250   -16.3690     1.9680    59.3320    94.7950    91.2830    85.2060    27.3330 
  219.2500   -16.4580     1.9990    60.8310    84.9680    81.5050    68.0400    26.9380 
  219.3750   -16.4610     2.0640    62.5610    76.6620    72.9010    57.8270    26.1320 
  219.5000   -16.3910     2.1450    63.1830    71.0790    66.8440    53.0470    25.3830 
  219.6250   -16.4660     2.2160    63.7700    68.9150    64.1300    51.0240    25.0130 
  219.7500   -16.6330     2.2620    64.2260    69.1020    63.8120    52.9710    24.8340 
  219.8750   -16.7480     2.2750    62.9870    70.7530    65.0730    60.8530    24.8100 
  220.0000   -16.8430     2.2550    60.2090    72.8630    66.8880    72.6350    24.9930 
  220.1250   -17.0770     2.2100    59.7690    74.3850    68.1070    78.5280    25.2560 
  220.2500   -17.3770     2.1610    63.2670    74.9540    68.2770    79.5480    25.3650 
  220.3750   -17.6580     2.1280    66.1340    74.7220    67.5640    77.2500    25.2910 
  220.5000   -17.8600     2.1200    64.3930    74.1310    66.5080    70.8390    25.1700 
  220.6250   -17.9620     2.1350    60.7510    73.6360    65.7470    62.8440    25.1110 
  220.7500   -17.9900     2.1540    59.8300    73.3050    65.4450    54.8490    25.0310 
  220.8750   -17.9810     2.1660    62.1090    72.8800    65.3820    48.1310    24.9740 
  221.0000   -17.9310     2.1710    64.0180    71.9580    65.1300    40.9860    24.9560 
  221.1250   -17.7370     2.1790    63.3490    70.0170    64.0740    35.8320    25.0270 
  221.2500   -17.4170     2.1960    62.6270    67.1040    62.0430    29.5630    25.0490 
  221.3750   -16.9970     2.2170    63.2920    63.4240    59.1100    34.3060    24.8930 
  221.5000   -16.5030     2.2360    64.8640    59.3260    55.5930    44.3210    24.7210 
  221.6250   -15.9450     2.2470    65.5020    55.1280    51.8480    52.4130    24.6880 
  221.7500   -15.3680     2.2570    65.4690    50.9510    48.0250    52.3460    24.7000 
  221.8750   -14.8190     2.2800    66.7500    46.7620    44.0210    48.2520    24.6810 
  222.0000   -14.2700     2.3190    68.8540    42.6060    39.8190    43.4710    24.5990 
  222.1250   -13.7180     2.3690    69.8530    38.8630    35.7670    36.9950    24.5580 
  222.2500   -13.2330     2.4090    69.9850    36.0270    32.4150    29.7740    24.5700 
  222.3750   -12.8570     2.4270    71.8420    34.6380    30.2530    24.4160    24.5380 
  222.5000   -12.5570     2.4230    74.3750    35.1500    29.6640    22.2420    24.4850 
  222.6250   -12.3380     2.4070    73.8120    38.2560    31.2990    24.2610    24.4750 
  222.7500   -12.1960     2.3950    71.1350    43.6250    35.0890    30.9390    24.4800 
  222.8750   -12.0630     2.3890    69.1100    50.9120    41.0350    37.9110    24.4810 
  223.0000   -11.9490     2.3820    67.5790    59.2640    48.6340    48.7520    24.4840 
  223.1250   -11.9130     2.3670    66.8310    66.9460    56.3780    60.9330    24.4440 
  223.2500   -11.9840     2.3440    66.6010    72.2410    62.1440    71.1930    24.4130 
  223.3750   -12.1510     2.3180    64.7940    74.2170    64.6330    72.9040    24.3930 
  223.5000   -12.3430     2.3020    61.9300    73.0550    63.8100    67.6880    24.3650 
  223.6250   -12.4010     2.3010    62.6500    69.8560    60.7290    63.1740    24.3320 
  223.7500   -12.3060     2.3090    65.9220    66.5410    57.4500    57.9920    24.1470 
  223.8750   -12.1540     2.3170    67.3800    63.9860    54.9620    50.4360    23.8350 
  224.0000   -11.9190     2.3220    67.8200    62.3820    53.5400    45.2430    23.5470 
  224.1250   -11.6860     2.3260    70.7370    61.5960    53.0030    47.0970    23.4620 
  224.2500   -11.4280     2.3340    72.7230    61.3550    52.8670    58.5640    23.6810 
  224.3750   -11.0690     2.3500    71.2640    61.8260    53.2480    64.4650    23.9590 
  224.5000   -10.6060     2.3790    68.0550    63.0890    54.6770    57.6690    23.8340 
  224.6250   -10.2000     2.4330    67.4890    64.0560    57.2240    49.2060    23.8110 
  224.7500    -9.8930     2.5120    68.2940    62.2880    58.2710    46.6130    23.9260 
  224.8750    -9.5370     2.5950    67.2940    55.8040    54.1330    54.9310    24.1720 
  225.0000    -9.1660     2.6490    63.8950    44.7750    43.5870    83.5890    24.2590 
  225.1250    -8.8060     2.6350    63.7190    32.1390    30.5890   103.5950    24.2720 
  225.2500    -8.5070     2.5680    68.7260    21.7250    20.2630    56.2660    24.2360 
  225.3750    -8.2640     2.4860    76.4120    14.8770    13.6760    22.0290    24.3190 
  225.5000    -8.1010     2.4250    81.9200    11.2160    10.0930    10.1300    24.4360 
  225.6250    -8.0000     2.4090    81.1280     9.8780     8.5980     9.2280    24.5620 
  225.7500    -7.9780     2.4190    76.7320     9.5480     8.0810     8.7980    24.6630 
  225.8750    -8.1220     2.4360    73.4750     9.7070     8.1600     8.7320    24.6760 
  226.0000    -8.3810     2.4460    74.6630    10.0230     8.5340     9.0660    24.5800 
  226.1250    -8.6830     2.4470    78.7760    10.2600     8.9080     9.1850    24.4920 
  226.2500    -8.9690     2.4480    80.9980    10.3510     9.1320     9.2920    24.5670 
  226.3750    -9.2590     2.4560    81.7970    10.3200     9.2150     9.5050    24.7710 
  226.5000    -9.5690     2.4720    85.6240    10.2220     9.2000     9.3830    24.9220 
  226.6250    -9.9880     2.4900    91.8610    10.1180     9.1100     9.3240    24.8380 
  226.7500   -10.4840     2.4970    94.6540    10.0710     9.0020     9.4400    24.6240 
  226.8750   -10.9740     2.4830    94.6110    10.1260     8.9190     9.5620    24.5280 
  227.0000   -11.4810     2.4490    95.7700    10.3090     8.8950    10.0470    24.6210 
  227.1250   -11.9590     2.4110    98.3470    10.6380     8.9610    10.8820    24.7490 
  227.2500   -12.3830     2.3890    97.8400    11.0780     9.1060    11.9760    24.7430 
  227.3750   -12.7830     2.3890    96.6960    11.6280     9.3400    12.2050    24.6450 
  227.5000   -13.2270     2.4000    96.1860    12.3900     9.6940    11.5840    24.5640 
  227.6250   -13.6770     2.4090    93.1830    13.3930    10.2800    10.8480    24.4440 
  227.7500   -14.0560     2.4060    90.7730    14.3180    11.1680    11.7950    24.3000 
  227.8750   -14.4210     2.3960    91.1490    15.1920    12.4370    15.1960    24.2520 
  228.0000   -14.7840     2.3860    91.1550    16.4150    14.1100    18.9130    24.2940 
  228.1250   -15.1490     2.3830    87.3920    18.2900    16.1220    21.8560    24.3030 
  228.2500   -15.4850     2.3840    84.5920    20.2830    18.1440    23.5420    24.2400 
  228.3750   -15.7790     2.3840    84.8830    21.9190    19.8800    24.2060    24.2120 
  228.5000   -15.9970     2.3810    84.4690    23.1110    21.1510    24.7940    24.1350 
  228.6250   -16.0860     2.3750    81.2000    23.8390    21.8970    25.7360    24.1290 
  228.7500   -16.1180     2.3710    79.4650    24.2290    22.2950    26.3350    24.1590 
  228.8750   -16.0830     2.3710    79.8550    24.3030    22.3850    26.4000    24.1610 
  229.0000   -15.9660     2.3730    81.1300    24.0670    22.1560    25.3110    24.1460 
  229.1250   -15.7630     2.3690    80.7380    23.5730    21.5960    23.4310    24.0930 
  229.2500   -15.5760     2.3590    79.3880    23.1030    20.9460    21.1160    24.0710 
  229.3750   -15.4270     2.3440    77.9640    22.9720    20.5070    19.8750    23.9970 
  229.5000   -15.3130     2.3330    77.8210    23.4980    20.5890    19.3280    23.8370 
  229.6250   -15.2500     2.3330    78.2420    25.0730    21.6050    19.6570    23.5910 
  229.7500   -15.2120     2.3420    77.2120    27.5660    23.6020    22.4490    23.6110 
  229.8750   -15.1650     2.3540    73.9890    30.7130    26.5520    29.2050    23.9940 
