~V
VERS. 2.00: Ver 2.00
~W
STRT.M 52.0000:
STOP.M 269.0000:
STEP.M 0.1250:
NULL. -999.2500:
UWI. F11071:
~C
DEPT.M :
GR.API :
RML.OHMM :
RI. :
RXO.OHMM :
CALI.CM :
DEN.GM/CC :
SP.MV :
~A
# ...
   63.2500    68.1040    10.5870     8.2540    12.6210    24.7150     2.0770   -24.3940 
   63.3750    65.9780    10.7100     8.5370    16.7910    24.9910     2.0460   -24.4810 
   63.5000    63.5500    10.4690     8.5280    14.3770    25.3140     2.0390   -24.5530 
   63.6250    61.8720     9.8920     8.1930    10.9950    25.6780     2.0580   -24.6310 
   63.7500    62.6920     9.2530     7.7390     9.3680    25.9410     2.0930   -24.7670 
   63.8750    66.2730     8.7720     7.3310     8.9410    26.0510     2.1360   -24.9530 
   64.0000    69.1640     8.5940     7.0710     8.6200    25.9730     2.1720   -25.1700 
   64.1250    68.4760     8.7870     7.0060     8.6700    25.8840     2.1820   -25.3560 
   64.2500    65.5950     9.1700     7.0540     8.9950    26.0450     2.1630   -25.5330 
   64.3750    62.7930     9.5640     7.1410     9.4780    26.4590     2.1200   -25.7560 
   64.5000    61.6840     9.8050     7.2040     9.7980    26.8870     2.0690   -26.0300 
   64.6250    63.0200     9.7590     7.1970     9.7620    27.0270     2.0280   -26.2850 
   64.7500    64.0350     9.4940     7.1260     9.6310    26.7170     2.0100   -26.4540 
   64.8750    62.5870     9.1130     7.0120     9.4800    26.3660     2.0190   -26.5140 
   65.0000    60.7170     8.7330     6.8880     9.0500    26.2710     2.0480   -26.4640 
   65.1250    61.5520     8.4670     6.7970     8.2960    26.1380     2.0860   -26.3580 
   65.2500    63.8310     8.3250     6.7530     7.7430    25.8820     2.1180   -26.2770 
   65.3750    65.3490     8.2840     6.7510     8.1460    25.9620     2.1350   -26.2420 
   65.5000    65.3780     8.2950     6.7660     8.8270    26.2450     2.1380   -26.2440 
   65.6250    65.3780     8.3000     6.7680     9.3410    26.6140     2.1310   -26.3570 
   65.7500    66.9790     8.2700     6.7510     9.4220    27.0610     2.1210   -26.5920 
   65.8750    69.1500     8.2170     6.7260     9.1570    27.5440     2.1100   -26.9140 
   66.0000    70.3750     8.1760     6.7120     8.4930    27.7700     2.0980   -27.2880 
   66.1250    69.1940     8.1890     6.7350     8.3020    27.2610     2.0840   -27.6770 
   66.2500    66.4290     8.2470     6.7870     8.9000    26.6170     2.0720   -27.9990 
   66.3750    62.4320     8.3050     6.8420    10.0160    26.5820     2.0660   -28.2200 
   66.5000    59.0350     8.3210     6.8670     9.7090    27.1160     2.0680   -28.3310 
   66.6250    58.1020     8.2830     6.8390     9.2510    27.4970     2.0820   -28.3100 
   66.7500    58.8350     8.2360     6.7750     9.1020    27.4990     2.1000   -28.2180 
   66.8750    60.7180     8.2090     6.6970     9.2880    27.6820     2.1120   -28.0990 
   67.0000    62.4630     8.1930     6.6310     8.8040    27.9450     2.1140   -27.9530 
   67.1250    62.2690     8.1310     6.5930     8.9540    28.1840     2.1090   -27.8020 
   67.2500    60.3170     7.9910     6.5730     9.0240    28.4000     2.1060   -27.7000 
   67.3750    57.8810     7.7970     6.5570     9.2110    28.3620     2.1040   -27.6020 
   67.5000    57.3110     7.6250     6.5370     8.9970    28.2060     2.0930   -27.5130 
   67.6250    57.6860     7.5650     6.5010     8.7710    28.3240     2.0540   -27.4250 
   67.7500    56.8080     7.6010     6.4570     8.9210    28.7330     1.9940   -27.2600 
   67.8750    55.2200     7.6750     6.4270     9.2970    29.1300     1.9300   -27.0450 
   68.0000    54.0440     7.7320     6.4380     9.4140    29.1150     1.8820   -26.8720 
   68.1250    54.5600     7.7630     6.5090     9.1600    28.3690     1.8620   -26.7660 
   68.2500    56.5570     7.8110     6.6200     8.5760    27.1250     1.8550   -26.6470 
   68.3750    59.4130     7.8960     6.7440     8.3910    26.4290     1.8470   -26.4770 
   68.5000    60.5600     7.9940     6.8410     8.6500    26.4610     1.8360   -26.2070 
   68.6250    59.2260     8.0400     6.8650     8.9080    26.7110     1.8300   -25.7510 
   68.7500    58.9930     8.0070     6.8180     8.8100    26.8280     1.8450   -25.1020 
   68.8750    60.4790     7.9110     6.7190     8.4410    26.7810     1.8950   -24.1700 
   69.0000    63.1590     7.7850     6.5980     8.0100    26.5230     1.9840   -22.8810 
   69.1250    67.9790     7.6470     6.4790     7.8860    25.9120     2.1030   -21.2470 
   69.2500    75.0450     7.4880     6.3620     8.0540    25.1960     2.2180   -19.4410 
   69.3750    82.5770     7.2910     6.2290     8.4810    24.5490     2.3050   -17.5400 
   69.5000    89.9630     7.0540     6.0580     9.8590    24.2090     2.3500   -15.6420 
   69.6250    98.3950     6.8100     5.8500     7.6900    24.1760     2.3530   -13.8520 
   69.7500   105.8570     6.6150     5.6420     6.0010    24.3260     2.3370   -12.2390 
   69.8750   109.1240     6.5150     5.4770     5.0510    24.6190     2.3090   -10.8600 
   70.0000   108.1710     6.5310     5.3890     4.7840    24.8920     2.2750    -9.7400 
   70.1250   106.0270     6.6570     5.4150     4.9870    25.0240     2.2410    -8.9360 
   70.2500   105.5160     6.8150     5.5220     5.2940    25.0440     2.2160    -8.3180 
   70.3750   106.3070     6.9290     5.6610     5.4090    25.0220     2.2090    -7.8330 
   70.5000   107.1690     6.9300     5.7710     5.4180    25.0080     2.2170    -7.4570 
   70.6250   107.2610     6.7690     5.7710     5.3070    24.9570     2.2330    -7.1860 
   70.7500   107.7950     6.5180     5.6570     5.3060    24.8430     2.2420    -6.9660 
   70.8750   109.9690     6.2900     5.4750     5.4790    24.7230     2.2410    -6.7830 
   71.0000   111.3300     6.2410     5.3330     5.6190    24.7350     2.2340    -6.6700 
   71.1250   108.2830     6.5920     5.4170     5.6000    24.9060     2.2350    -6.6550 
   71.2500   101.8610     7.3670     5.8160     5.5320    25.0580     2.2560    -6.7430 
   71.3750    94.5080     8.4880     6.5540     5.8820    25.1290     2.2950    -6.9830 
   71.5000    88.4220     9.7080     7.5390     7.5240    25.1180     2.3390    -7.4020 
   71.6250    84.3850    10.5490     8.4530    10.8430    25.0950     2.3660    -8.0050 
   71.7500    82.5930    10.7390     8.9080    13.0510    25.0420     2.3660    -8.7570 
   71.8750    84.5820    10.2950     8.7630    11.5690    24.9510     2.3400    -9.6970 
   72.0000    89.3970     9.5170     8.1950     9.0890    24.8800     2.2950   -10.8260 
   72.1250    92.1110     8.8530     7.5700     7.7100    24.8720     2.2410   -12.1020 
   72.2500    87.4800     8.5390     7.1640     7.4810    24.9690     2.1880   -13.4140 
   72.3750    78.4030     8.5720     7.0480     7.9580    25.1130     2.1450   -14.6620 
   72.5000    71.2710     8.8240     7.1760     8.3520    25.1650     2.1160   -15.7210 
   72.6250    68.6900     9.1020     7.4180     8.4060    25.0140     2.1050   -16.5040 
   72.7500    69.2870     9.2360     7.5830     8.4070    24.8180     2.1090   -17.0210 
   72.8750    71.5480     9.1460     7.5580     8.4630    24.8250     2.1270   -17.1950 
   73.0000    74.5230     8.8440     7.3220     8.6000    24.9120     2.1570   -16.9660 
   73.1250    80.2480     8.4290     6.9380     8.5100    24.9660     2.1910   -16.3900 
   73.2500    87.3590     8.0760     6.5550     7.7190    25.0010     2.2170   -15.7430 
   73.3750    92.8540     7.8980     6.2680     6.6250    25.0380     2.2230   -15.1740 
   73.5000    93.0130     7.9440     6.1400     6.4150    25.0230     2.2090   -14.7450 
   73.6250    88.5000     8.2260     6.2330     6.9940    24.9610     2.1860   -14.4960 
   73.7500    84.3560     8.6410     6.5070     7.7370    24.8720     2.1750   -14.4030 
   73.8750    81.1930     9.1150     6.9150     8.0350    24.8040     2.1810   -14.5110 
   74.0000    78.9350     9.5730     7.3730     8.2250    24.7640     2.1970   -14.8910 
   74.1250    79.6930     9.9100     7.7550     8.3130    24.7220     2.2040   -15.4850 
   74.2500    81.5970    10.0730     7.9780     8.4120    24.7310     2.1940   -16.0720 
   74.3750    80.6020    10.0420     8.0180     8.6390    24.8040     2.1710   -16.5640 
