~V
VERS. 2.00: Ver 2.00
~W
STRT.M 62.0000:
STOP.M 272.0000:
STEP.M 0.1250:
NULL. -999.2500:
UWI. F11076:
~C
DEPT.M :
GR.API :
RML.OHMM :
RI. :
RXO.OHMM :
CALI.CM :
DEN.GM/CC :
SP.MV :
~A
# ...
  197.0000    74.9290    55.3710    54.3130    42.2540    25.9780     2.2100   -23.2070 
  197.1250    77.1600    53.6320    51.1950    38.3170    25.9200     2.2400   -23.1290 
  197.2500    77.0540    54.9620    50.8960    37.7700    25.8340     2.2700   -23.0250 
  197.3750    73.9830    59.5710    54.0450    39.8980    25.7330     2.2850   -22.8710 
  197.5000    68.4670    66.8020    60.5740    41.4400    25.5630     2.2750   -22.7510 
  197.6250    64.9060    74.5800    69.1310    42.5100    25.3740     2.2400   -22.6570 
  197.7500    66.5750    79.7440    76.1080    50.1140    25.1440     2.1990   -22.6160 
  197.8750    70.0840    80.2230    78.3990    62.8320    24.8020     2.1680   -22.5970 
  198.0000    71.1010    75.9370    74.9690    62.5510    24.4220     2.1590   -22.5850 
  198.1250    68.8570    69.0040    67.7870    44.8100    24.2290     2.1780   -22.5770 
  198.2500    68.1810    63.0580    61.1500    33.4960    24.1930     2.2100   -22.6160 
  198.3750    70.7360    59.9700    57.1360    32.1000    24.2410     2.2430   -22.7140 
  198.5000    74.1560    60.3390    56.4630    34.2210    24.3140     2.2650   -22.7880 
  198.6250    75.5360    64.1890    59.5140    34.1080    24.3150     2.2710   -22.9110 
  198.7500    75.6460    69.7720    64.8580    37.7420    24.2600     2.2630   -23.0440 
  198.8750    75.6980    75.5260    70.9470    46.7240    24.2110     2.2450   -23.1950 
  199.0000    75.1990    79.8680    75.8910    55.1430    24.2010     2.2230   -23.3800 
  199.1250    71.9220    81.3540    77.7480    52.3720    24.1660     2.2040   -23.5770 
  199.2500    68.3120    80.6460    76.9510    45.6620    24.0910     2.1960   -23.6970 
  199.3750    66.1210    78.9070    74.7010    39.3180    24.0040     2.1980   -23.7580 
  199.5000    65.1940    77.5260    72.5420    35.4680    23.9850     2.2060   -23.8300 
  199.6250    67.3880    77.8750    72.0050    36.2440    24.1750     2.2110   -23.8750 
  199.7500    72.5720    80.0800    73.3480    41.0700    24.5840     2.2100   -23.9290 
  199.8750    75.6770    83.8880    76.4210    47.6470    24.9420     2.2050   -23.9500 
  200.0000    72.8920    88.7260    80.7520    54.5520    25.0450     2.2010   -23.9410 
  200.1250    67.5660    93.7860    85.6670    59.7390    24.9250     2.2010   -23.9420 
  200.2500    66.5570    98.2350    90.2960    58.5650    24.7090     2.2020   -23.9380 
  200.3750    68.5320   101.5400    94.0730    54.6670    24.3330     2.2050   -23.9560 
  200.5000    69.7020   103.3630    96.5960    52.0670    23.9030     2.2080   -23.9100 
  200.6250    69.5120   103.2320    97.3370    51.4920    23.8980     2.2110   -23.8470 
  200.7500    70.3450   101.3620    96.4030    53.4710    24.2120     2.2130   -23.7310 
  200.8750    70.4650    97.7710    93.7730    56.4540    24.4770     2.2100   -23.6530 
  201.0000    68.4270    92.5280    89.4890    59.1830    24.7150     2.2020   -23.5770 
  201.1250    66.0030    85.6710    83.3700    59.5650    25.1080     2.1900   -23.4850 
  201.2500    65.6080    78.0860    76.0890    59.6560    25.5490     2.1820   -23.3860 
  201.3750    66.9270    70.7660    68.5830    58.8580    25.8650     2.1810   -23.2780 
  201.5000    68.7720    64.8930    62.1210    55.9080    25.9660     2.1890   -23.2140 
  201.6250    70.9940    62.0580    58.3640    51.0960    25.9160     2.2060   -23.1660 
  201.7500    71.7410    62.4440    57.6990    47.4710    25.8730     2.2220   -23.1670 
  201.8750    69.9860    65.9690    60.3150    45.4820    25.9230     2.2320   -23.1780 
  202.0000    67.9350    71.8910    65.8540    47.6190    26.0430     2.2330   -23.2260 
  202.1250    67.6710    78.5610    73.1350    57.3550    26.1150     2.2280   -23.2600 
  202.2500    66.3700    83.6140    79.4480    72.2600    26.1180     2.2230   -23.3150 
  202.3750    62.9860    85.5870    82.5870    78.3400    26.0840     2.2220   -23.3660 
  202.5000    59.9480    84.3550    81.8000    72.5900    26.0670     2.2230   -23.4110 
  202.6250    60.0390    81.1610    78.3230    68.9790    26.0670     2.2240   -23.4590 
  202.7500    61.9200    78.2030    74.9420    63.6000    26.0520     2.2220   -23.4760 
  202.8750    63.4950    76.3610    72.8020    57.3200    26.0450     2.2180   -23.4320 
  203.0000    65.0410    75.5360    71.8860    58.2080    26.0370     2.2170   -23.3800 
  203.1250    66.2760    74.9800    71.4250    64.6010    26.0120     2.2210   -23.3290 
  203.2500    66.1680    73.9320    70.4780    66.5260    25.9680     2.2300   -23.2690 
  203.3750    64.8410    72.2290    68.7700    58.2810    25.9340     2.2410   -23.1810 
  203.5000    63.9980    70.1450    66.5930    51.8930    25.9340     2.2460   -23.0780 
  203.6250    65.6020    68.2030    64.5970    54.6950    25.9500     2.2360   -22.9080 
  203.7500    67.5220    66.6450    63.1400    59.1040    25.9250     2.2110   -22.7480 
  203.8750    68.1920    65.3230    62.1280    56.5540    25.7960     2.1790   -22.5790 
  204.0000    67.1900    63.8600    61.1300    50.9620    25.5410     2.1530   -22.3810 
  204.1250    63.5090    61.8350    59.4800    49.2770    25.0720     2.1490   -22.1860 
  204.2500    60.6510    59.4020    57.1300    51.9200    24.5280     2.1670   -22.0210 
  204.3750    61.7150    57.0310    54.5400    48.1640    24.1910     2.2020   -21.8930 
  204.5000    66.4210    55.3430    52.4290    41.3000    24.2810     2.2420   -21.7460 
  204.6250    71.0370    55.1090    51.6560    40.7460    24.7320     2.2750   -21.6800 
  204.7500    73.3110    56.3490    52.3500    43.2410    25.1510     2.2970   -21.6750 
  204.8750    74.3940    58.9430    54.4840    46.4030    25.3280     2.3100   -21.7730 
  205.0000    74.2390    62.5320    57.7690    53.1750    25.3510     2.3140   -21.8940 
  205.1250    70.8440    66.5910    61.7210    57.8430    25.4460     2.3080   -21.9990 
  205.2500    67.0080    70.4010    65.5990    59.5080    25.6830     2.2930   -22.0980 
  205.3750    65.8710    73.3900    68.8860    60.1200    25.8460     2.2700   -22.2010 
  205.5000    66.5770    74.9440    71.0380    60.6010    25.8540     2.2460   -22.3440 
  205.6250    65.7150    73.9770    70.9540    58.9960    25.7010     2.2260   -22.4660 
  205.7500    63.9790    70.4040    68.1920    56.4650    25.4730     2.2110   -22.5110 
  205.8750    64.0440    64.5010    62.6620    51.8270    25.2110     2.2000   -22.4860 
  206.0000    66.3690    57.3150    55.2690    44.1860    24.9810     2.1950   -22.4430 
  206.1250    69.7750    50.6870    47.9690    35.2730    24.7530     2.1990   -22.4410 
  206.2500    71.5720    46.1260    42.5090    28.5150    24.4800     2.2120   -22.4210 
  206.3750    70.4040    44.4280    39.6980    25.0370    24.1330     2.2270   -22.3870 
  206.5000    68.7380    45.8010    39.7900    25.0800    23.7780     2.2390   -22.3870 
  206.6250    67.1980    50.3020    43.1160    28.4070    23.8120     2.2440   -22.3860 
  206.7500    65.0300    56.4990    48.6080    32.9790    24.1500     2.2450   -22.4180 
  206.8750    64.3290    63.0760    55.1130    35.8870    24.3360     2.2460   -22.4830 
  207.0000    65.9410    68.6470    61.0280    39.6530    24.4670     2.2410   -22.5480 
  207.1250    66.9380    71.9530    64.5750    46.2310    24.8490     2.2250   -22.6330 
  207.2500    65.0080    73.5030    66.0050    52.9850    25.3660     2.2060   -22.7420 
  207.3750    62.2600    74.1960    66.2940    57.9050    25.7790     2.1930   -22.8740 
  207.5000    61.6450    74.9410    66.5210    61.8700    26.0020     2.1900   -22.9850 
  207.6250    64.0120    76.2100    67.3390    63.8240    26.1040     2.1940   -23.1180 
  207.7500    65.8120    77.6090    68.4540    64.2080    26.2020     2.1990   -23.2720 
  207.8750    65.0700    78.5240    69.2940    66.9140    26.2920     2.2000   -23.4170 
  208.0000    63.4570    78.4020    69.2570    71.5510    26.4000     2.2020   -23.5460 
  208.1250    64.0380    76.8370    67.8440    71.9100    26.5740     2.2100   -23.5970 
