~V
VERS. 2.00: Ver 2.00
~W
STRT.M 45.0000:
STOP.M 277.0000:
STEP.M 0.1250:
NULL. -999.2500:
UWI. F11056:
~C
DEPT.M :
GR.API :
RML.OHMM :
RI. :
RXO.OHMM :
CALI.CM :
DEN.GM/CC :
SP.MV :
~A
# ...
  191.2500    74.4070    64.3150    60.9860    44.2800    25.8810     2.2740   -20.5360 
  191.3750    74.7990    57.2680    53.6480    38.7270    25.8470     2.2860   -20.5280 
  191.5000    74.8480    53.5200    49.7480    37.9800    25.8080     2.2900   -20.6190 
  191.6250    75.3450    52.0190    48.2120    38.1460    25.7950     2.2850   -20.7670 
  191.7500    75.2530    52.3810    48.6410    37.8540    25.7880     2.2710   -20.8880 
  191.8750    74.0830    54.2730    50.6940    37.6820    25.7530     2.2530   -20.9990 
  192.0000    73.5280    57.3960    54.0800    40.2280    25.7450     2.2390   -21.1220 
  192.1250    73.4810    60.8460    57.9080    44.5450    25.7530     2.2310   -21.2140 
  192.2500    70.4830    63.7490    61.3500    52.5840    25.7400     2.2320   -21.3060 
  192.3750    65.2710    65.2620    63.5300    56.4710    25.7080     2.2390   -21.4040 
  192.5000    63.8490    64.6840    63.6130    49.9380    25.6860     2.2500   -21.4710 
  192.6250    66.4470    62.7250    62.1690    44.2630    25.7300     2.2590   -21.5340 
  192.7500    68.5900    60.2350    59.9600    42.2040    25.8270     2.2620   -21.5890 
  192.8750    67.5030    58.0790    57.8680    41.6670    25.9130     2.2560   -21.6160 
  193.0000    65.6990    56.9970    56.7970    42.4880    25.9210     2.2420   -21.6580 
  193.1250    65.6060    56.8670    56.7660    44.9080    25.9010     2.2300   -21.7090 
  193.2500    66.9700    57.2930    57.3710    46.7780    25.8490     2.2290   -21.7200 
  193.3750    68.7790    57.6490    57.9470    47.7060    25.7700     2.2400   -21.7060 
  193.5000    69.7190    57.0960    57.6030    53.0740    25.6820     2.2570   -21.7050 
  193.6250    70.0700    55.4310    55.9870    54.9740    25.6250     2.2710   -21.6400 
  193.7500    72.0760    52.9260    53.2290    46.2280    25.6140     2.2800   -21.5660 
  193.8750    76.2130    50.3290    50.0720    36.7020    25.5940     2.2860   -21.5790 
  194.0000    79.8960    48.9360    47.9380    35.8110    25.5530     2.2950   -21.5640 
  194.1250    79.5010    49.7010    48.0280    35.9700    25.4970     2.3030   -21.5490 
  194.2500    74.4090    53.6880    51.7090    34.0590    25.4440     2.3040   -21.6470 
  194.3750    67.6440    62.3400    60.8310    33.8500    25.3820     2.2920   -21.8150 
  194.5000    62.6770    79.5730    79.4200    47.2860    25.3360     2.2670   -21.9630 
  194.6250    61.4490   107.8340   108.4040    67.0730    25.3040     2.2410   -22.1630 
  194.7500    63.2010   148.7570   147.3430    69.3650    25.1710     2.2180   -22.4390 
  194.8750    65.5020   198.1290   190.8730    53.3530    24.8560     2.2000   -22.7270 
  195.0000    65.7970   242.4950   225.8280    45.4310    24.4590     2.1830   -22.9980 
  195.1250    64.6040   271.3590   245.2300    48.0030    24.2590     2.1680   -23.2020 
  195.2500    64.1720   284.4640   252.1940    56.6940    24.3440     2.1560   -23.3290 
  195.3750    63.7160   288.1370   253.9940    69.6250    24.6470     2.1510   -23.4340 
  195.5000    61.1320   287.4370   254.4700    87.1270    25.1430     2.1540   -23.5330 
  195.6250    57.6120   283.3690   252.8830   117.9520    25.5320     2.1610   -23.5830 
  195.7500    55.7690   274.4370   247.5610   159.1660    25.7650     2.1690   -23.5870 
  195.8750    56.4100   259.8090   237.9160   177.4780    25.8510     2.1760   -23.5860 
  196.0000    59.5200   238.8040   223.0970   149.5740    25.8210     2.1810   -23.5960 
  196.1250    61.9910   213.9660   203.8130   121.4660    25.6790     2.1860   -23.5800 
  196.2500    61.8940   188.1880   181.5440   122.7610    25.5330     2.1900   -23.5490 
  196.3750    59.6500   164.8910   159.6100   140.1660    25.5400     2.1940   -23.5070 
  196.5000    57.4800   147.5710   142.4200   115.3870    25.6520     2.1950   -23.4030 
  196.6250    55.9350   135.8630   130.8360    76.8850    25.7780     2.1940   -23.2260 
  196.7500    54.9760   128.7570   124.2700    61.2020    25.8520     2.1940   -23.0090 
  196.8750    56.0350   124.6400   121.1150    74.2370    25.8960     2.1970   -22.7150 
  197.0000    60.4190   121.6360   119.2710   106.0360    25.9050     2.2100   -22.3320 
  197.1250    65.9130   117.8850   116.5750   105.1340    25.8890     2.2300   -22.0080 
  197.2500    70.0470   112.7060   111.9810    81.2160    25.8710     2.2500   -21.6990 
  197.3750    71.3610   106.4690   105.4370    70.0470    25.9080     2.2660   -21.3080 
  197.5000    70.3500   100.8200    98.4950    69.6770    25.9400     2.2710   -20.9250 
  197.6250    68.5310    97.6340    93.7520    66.1480    25.9350     2.2650   -20.6760 
  197.7500    66.2620    98.4130    93.0970    59.2140    25.9030     2.2470   -20.4400 
  197.8750    63.6540   104.4470    97.8360    52.3440    25.8380     2.2200   -20.1780 
  198.0000    61.8330   118.4950   110.4290    55.8020    25.6620     2.1920   -19.9900 
  198.1250    60.0380   141.0300   130.5790    72.0160    25.3920     2.1650   -19.8390 
  198.2500    57.4090   172.0960   157.2220    77.3570    25.1790     2.1430   -19.6840 
  198.3750    54.1690   208.4890   186.5590    47.7250    25.1350     2.1270   -19.5430 
  198.5000    53.3040   241.3750   210.8240    26.1030    25.2130     2.1210   -19.3480 
  198.6250    54.3530   262.2300   224.6080    18.9830    25.2990     2.1250   -19.0570 
  198.7500    54.9920   267.3150   226.5020    17.6270    25.3350     2.1410   -18.7920 
  198.8750    54.3870   257.5600   218.5740    21.3000    25.4300     2.1670   -18.6070 
  199.0000    53.0720   234.9190   202.4390    31.8070    25.6470     2.1970   -18.4120 
  199.1250    53.4010   205.7430   180.7860    51.5910    25.7790     2.2250   -18.1470 
  199.2500    54.7950   174.8570   155.9370    69.7050    25.8060     2.2480   -17.8740 
  199.3750    55.2810   147.3180   131.9040    77.3990    25.7520     2.2640   -17.6100 
  199.5000    55.4130   128.0480   113.6530    82.6390    25.7420     2.2720   -17.3270 
  199.6250    57.1100   116.7630   102.2940    68.6490    25.8830     2.2710   -17.0170 
  199.7500    59.6090   112.7770    98.0280    54.8350    26.1000     2.2620   -16.6440 
  199.8750    59.8490   114.3030   100.1370    56.4040    26.2610     2.2480   -16.1780 
  200.0000    57.3410   115.7580   106.0190    72.1750    26.2940     2.2450   -15.6340 
  200.1250    55.4350   109.0750   108.1650    81.9070    26.1790     2.2680   -15.0870 
  200.2500    54.9870    91.2500    99.2740    79.7760    25.9380     2.3260   -14.4950 
  200.3750    57.0400    66.7640    78.2290    76.5390    25.7170     2.4060   -13.8450 
  200.5000    62.9180    44.8320    53.7500    69.5020    25.5720     2.4770   -13.2390 
  200.6250    71.7590    29.7230    35.0380    39.0020    25.4820     2.5120   -12.7000 
  200.7500    80.9130    20.8170    23.4800    17.7350    25.3900     2.5090   -12.1700 
  200.8750    86.7720    16.2250    17.3360    11.9820    25.3270     2.4860   -11.6640 
  201.0000    89.3570    14.4610    14.7700    11.4060    25.3170     2.4740   -11.2970 
  201.1250    91.6450    13.8300    13.7550    11.9920    25.3630     2.4860   -11.0230 
  201.2500    93.1650    13.8240    13.5900    13.0440    25.4450     2.5110   -10.8130 
  201.3750    92.5810    14.0590    13.7770    14.4790    25.4880     2.5300   -10.6490 
  201.5000    90.7120    14.1220    13.8630    12.9510    25.5140     2.5280   -10.5050 
  201.6250    89.6430    13.8290    13.6150    11.8440    25.5250     2.5110   -10.3590 
  201.7500    90.6840    13.1660    12.9900    10.9750    25.5360     2.4960   -10.2120 
  201.8750    92.7270    12.2140    12.0430    10.8350    25.5450     2.4960   -10.0500 
  202.0000    94.9930    11.1030    10.8880    10.5280    25.4900     2.5200    -9.7910 
  202.1250    96.9560    10.0400     9.7480     9.1160    25.3960     2.5510    -9.4950 
  202.2500    99.4040     9.1830     8.7980     7.3050    25.3140     2.5740    -9.2300 
  202.3750   100.7920     8.6430     8.1610     6.6530    25.3360     2.5800    -9.0170 
