~V
VERS. 2.00: Ver 2.00
~W
STRT.M 55.0000:
STOP.M 281.0000:
STEP.M 0.1250:
NULL. -999.2500:
UWI. F11051:
~C
DEPT.M :
SP.MV :
GR.API :
RML.OHMM :
RI. :
RXO.OHMM :
CALI.CM :
DEN.GM/CC :
~A
# ...
  235.0000    -9.9910    90.6200    11.2220     8.1750     8.6480    26.0660     2.3370 
  235.1250   -10.0740    90.9880    12.1500     8.3690     8.5010    25.6720     2.3180 
  235.2500   -10.1570    88.8370    14.7490     9.4310     9.1730    25.2850     2.2950 
  235.3750   -10.2810    84.4440    19.8340    11.8750    11.9770    24.9180     2.2690 
  235.5000   -10.3960    78.8570    28.2230    16.4060    21.1330    24.4670     2.2430 
  235.6250   -10.5410    74.0820    40.7940    24.2430    42.4340    24.0530     2.2210 
  235.7500   -10.7080    72.3670    55.7170    34.8420    52.9570    23.8100     2.2010 
  235.8750   -10.8890    72.4970    70.6720    46.9080    51.2270    23.7160     2.1850 
  236.0000   -11.0760    70.0060    83.5980    58.5810    59.2000    23.5970     2.1700 
  236.1250   -11.2760    63.2510    93.3200    68.1530    83.8630    23.4210     2.1580 
  236.2500   -11.4640    59.6220   100.1190    75.2720   136.3590    23.3480     2.1510 
  236.3750   -11.6430    62.6880   102.5590    78.9590   194.7180    23.4790     2.1530 
  236.5000   -11.8160    67.3870    98.6260    77.8430   217.6710    23.5880     2.1630 
  236.6250   -11.9770    68.0330    88.1670    71.3490   130.6790    23.6150     2.1760 
  236.7500   -12.1170    68.4130    76.3310    62.9360    76.3040    23.6330     2.1810 
  236.8750   -12.2330    70.4080    66.1870    55.0360    51.6810    23.6430     2.1700 
  237.0000   -12.3380    70.5560    58.5570    48.6690    42.6370    23.6040     2.1510 
  237.1250   -12.4340    67.9580    53.2070    44.0360    39.7820    23.4670     2.1440 
  237.2500   -12.5400    67.9820    49.1250    40.5490    38.8060    23.3320     2.1660 
  237.3750   -12.6320    71.4020    46.0870    38.0360    37.5940    23.2980     2.2160 
  237.5000   -12.7310    72.8000    44.2750    36.5460    35.4710    23.4240     2.2690 
  237.6250   -12.8260    71.8940    44.3170    36.4510    36.9420    23.5490     2.2870 
  237.7500   -12.9060    72.3860    46.1000    37.6460    45.1870    23.6150     2.2660 
  237.8750   -13.0180    73.5070    49.5100    40.1020    53.1420    23.6340     2.2290 
  238.0000   -13.0990    73.1090    54.2710    43.7050    60.3560    23.6770     2.2010 
  238.1250   -13.1610    71.5490    60.0600    48.3030    58.1300    23.8380     2.1960 
  238.2500   -13.2250    69.5610    66.0960    53.2350    55.2480    24.0790     2.2020 
  238.3750   -13.2630    67.3710    71.7450    57.9330    61.0280    24.2230     2.2090 
  238.5000   -13.3030    65.7760    76.4310    61.8900    81.2410    24.2610     2.2100 
  238.6250   -13.3030    65.1500    79.6210    64.6880    90.2330    24.2580     2.2070 
  238.7500   -13.2860    63.2800    81.6380    66.6070    81.7750    24.2560     2.1990 
  238.8750   -13.2540    61.5720    82.7070    67.8570    69.3340    24.2500     2.1900 
  239.0000   -13.2080    62.6770    82.8070    68.4330    70.9820    24.2240     2.1850 
  239.1250   -13.1350    64.5990    81.3290    67.8520    83.8060    24.1270     2.1920 
  239.2500   -13.0710    64.7000    78.0250    65.8640    99.9280    23.9850     2.2090 
  239.3750   -13.0220    65.4310    72.9180    62.3720    85.3150    23.9090     2.2290 
  239.5000   -12.9780    68.4490    66.8440    57.8670    58.3290    24.0340     2.2400 
  239.6250   -12.9770    70.5510    61.4720    53.5150    47.7630    24.1920     2.2330 
  239.7500   -12.9940    69.5600    57.9180    50.3470    47.5170    24.2710     2.2140 
  239.8750   -13.0210    68.5100    56.4940    48.8010    49.5090    24.3160     2.1990 
  240.0000   -13.0660    68.4770    56.8820    48.8230    50.6530    24.3410     2.1960 
  240.1250   -13.1550    67.1380    58.4290    50.0670    52.3870    24.3440     2.2090 
  240.2500   -13.2230    67.5800    60.2970    51.7880    54.8850    24.3290     2.2260 
  240.3750   -13.3220    70.7750    62.4550    53.8260    59.0510    24.3110     2.2350 
  240.5000   -13.4100    72.8090    65.2200    56.3310    63.7280    24.3290     2.2320 
  240.6250   -13.5040    69.8090    68.8860    59.5730    60.9970    24.3420     2.2200 
  240.7500   -13.6460    65.0750    72.9410    63.2780    61.6270    24.3610     2.2070 
  240.8750   -13.7700    61.6670    76.5910    66.9030    68.7730    24.3960     2.1970 
  241.0000   -13.9310    60.3820    78.8970    69.6320    83.8690    24.4140     2.1920 
  241.1250   -14.1100    62.5800    79.0050    70.3850    87.4370    24.4000     2.1910 
  241.2500   -14.2920    64.5910    77.6670    69.3750    76.9070    24.3660     2.1930 
  241.3750   -14.4880    64.0820    75.8410    67.2980    66.3240    24.3520     2.1960 
  241.5000   -14.7150    61.7630    74.4790    65.1820    62.2810    24.3420     2.2000 
  241.6250   -14.9110    59.7790    74.6130    64.3020    62.5980    24.3290     2.2030 
  241.7500   -15.0880    58.6320    76.5620    65.1560    64.5390    24.3380     2.2110 
  241.8750   -15.2610    58.5300    80.4350    67.8360    66.3190    24.3880     2.2280 
  242.0000   -15.3940    58.9240    85.9310    72.0110    69.7850    24.4160     2.2550 
  242.1250   -15.5060    57.5490    92.3810    77.1390    78.6050    24.3980     2.2830 
  242.2500   -15.5790    57.7940    98.6980    82.4790   101.2720    24.3870     2.2990 
  242.3750   -15.6050    63.3140   104.3440    87.7870   127.6300    24.4350     2.2960 
  242.5000   -15.5680    71.6150   109.3350    93.1130   130.0570    24.4990     2.2750 
  242.6250   -15.5040    74.7420   114.3220    98.9030   113.6230    24.5200     2.2470 
  242.7500   -15.3890    71.1690   119.7770   105.4050   110.3170    24.5260     2.2300 
  242.8750   -15.2320    65.3870   125.0020   112.0860   128.2940    24.5440     2.2270 
  243.0000   -15.0390    62.8340   128.0060   117.2340   145.0190    24.5740     2.2330 
  243.1250   -14.7730    65.5970   124.7280   117.1190   140.2750    24.5740     2.2300 
  243.2500   -14.5240    68.4720   113.8590   109.9400   120.3310    24.3610     2.2110 
  243.3750   -14.2350    69.0460    96.3170    95.6250    92.1430    23.8940     2.1830 
  243.5000   -13.9000    68.0880    75.7900    76.9560    65.7050    23.4990     2.1700 
  243.6250   -13.5540    67.7770    71.9200    73.1840    63.7280    23.5400     2.2050 
  243.7500   -13.1810    66.3710    53.8210    55.3610    56.5280    23.8250     2.2740 
  243.8750   -12.8080    65.9680    39.8370    41.2460    45.1150    24.1910     2.3350 
  244.0000   -12.4500    67.1760    30.3390    31.5200    34.1570    24.4180     2.3430 
  244.1250   -12.1020    68.9400    25.5030    26.3040    23.2060    24.3690     2.2970 
  244.2500   -11.7640    69.4790    23.8120    24.0530    21.6750    24.2370     2.2340 
  244.3750   -11.4580    69.0690    24.6560    24.2280    21.5790    24.1510     2.1890 
  244.5000   -11.2010    67.6990    27.5270    26.5600    29.2270    24.1680     2.1740 
  244.6250   -10.9950    65.0080    31.7670    30.8280    47.1640    24.3280     2.1850 
  244.7500   -10.8210    63.6670    35.9670    35.5810    44.7760    24.4640     2.1980 
  244.8750   -10.6820    64.2500    39.1610    39.4770    38.7180    24.4910     2.2040 
  245.0000   -10.5810    64.1280    40.9690    41.7060    46.4080    24.3150     2.2070 
  245.1250   -10.5310    62.5540    41.7700    42.3350    44.0410    23.9100     2.2190 
  245.2500   -10.5120    61.8820    42.9510    42.7750    33.9400    23.6560     2.2450 
  245.3750   -10.5020    61.9090    45.7030    44.2310    30.0840    23.8830     2.2770 
  245.5000   -10.5220    60.1990    50.8630    47.5510    39.0460    24.3100     2.2990 
  245.6250   -10.5100    58.9790    59.7000    53.7810    55.9790    24.4750     2.2870 
  245.7500   -10.5140    61.4550    72.6870    63.3980    64.9570    24.3930     2.2490 
  245.8750   -10.5220    64.6370    90.8870    77.4340    70.9720    24.3320     2.1990 
  246.0000   -10.5060    63.5080   115.0470    96.4030   101.1110    24.4300     2.1530 
  246.1250   -10.5110    57.9810   145.7370   120.1000   138.4690    24.5230     2.1280 
