~V
VERS. 2.00: Ver 2.00
~W
STRT.M 50.0000:
STOP.M 270.0000:
STEP.M 0.1250:
NULL. -999.2500:
UWI. F11070:
~C
DEPT.M :
DEN.GM/CC :
GR.API :
RML.OHMM :
RI. :
RXO.OHMM :
CALI.CM :
SP.MV :
~A
# ...
  218.7500     2.6380    72.5800    10.0110     7.8150     9.9770    24.6200   -11.4900 
  218.8750     2.5870    71.7850     7.2770     5.7210     6.2480    24.6330   -11.2060 
  219.0000     2.5160    67.8820     5.8540     4.4720     4.5480    24.5390   -10.9560 
  219.1250     2.4440    63.0330     5.4020     3.9280     4.3830    24.4640   -10.7500 
  219.2500     2.3840    58.7470     5.3950     3.7740     4.5300    24.3790   -10.6020 
  219.3750     2.3370    56.6860     5.6040     3.8560     4.6460    24.2570   -10.5410 
  219.5000     2.3050    58.8950     5.8680     4.0430     4.6060    24.0590   -10.5530 
  219.6250     2.2900    66.7740     6.0470     4.2200     4.4790    23.6520   -10.6260 
  219.7500     2.2910    75.2820     6.0980     4.3240     4.4420    22.9890   -10.7210 
  219.8750     2.3040    80.5820     6.0290     4.3480     4.5730    22.6050   -10.8250 
  220.0000     2.3240    81.2750     5.8860     4.3150     4.9150    22.7730   -10.9560 
  220.1250     2.3360    79.4630     5.7440     4.2640     4.9750    23.2370   -11.1330 
  220.2500     2.3250    79.5210     5.6750     4.2410     4.9040    23.6480   -11.2610 
  220.3750     2.3090    81.5420     5.7120     4.2710     4.9910    24.0970   -11.3200 
  220.5000     2.3150    83.3250     5.8390     4.3520     5.2340    24.4690   -11.3040 
  220.6250     2.3550    85.2220     5.9990     4.4450     5.4820    24.6090   -11.2170 
  220.7500     2.3950    87.1910     6.1170     4.4970     5.3790    24.6250   -11.1300 
  220.8750     2.4140    86.2870     6.1790     4.4950     5.3060    24.6310   -11.1020 
  221.0000     2.4120    81.7280     6.2300     4.4720     5.2880    24.6150   -11.1450 
  221.1250     2.4110    79.2400     6.3700     4.5020     5.2520    24.6150   -11.2460 
  221.2500     2.4170    81.7270     6.6380     4.6200     5.5440    24.6290   -11.3830 
  221.3750     2.4280    84.3390     6.9990     4.8040     6.4280    24.6420   -11.5200 
  221.5000     2.4400    82.9100     7.3470     4.9870     7.5320    24.6690   -11.6640 
  221.6250     2.4460    79.0580     7.5220     5.0710     7.8510    24.6810   -11.8160 
  221.7500     2.4430    78.3080     7.5170     5.0510     7.2480    24.6900   -12.0150 
  221.8750     2.4340    81.1100     7.4580     4.9930     6.6590    24.6910   -12.2450 
  222.0000     2.4240    84.3500     7.5750     5.0180     6.5280    24.6940   -12.4880 
  222.1250     2.4120    85.5390     8.2460     5.3200     7.0440    24.6980   -12.6750 
  222.2500     2.3980    84.7580     9.6540     6.0160     8.4080    24.6930   -12.8200 
  222.3750     2.3790    83.1790    11.9630     7.2440    11.1440    24.6880   -12.9650 
  222.5000     2.3590    81.5160    15.2050     9.1090    16.4880    24.6850   -13.1100 
  222.6250     2.3450    79.5370    19.2040    11.6860    22.2100    24.6850   -13.2810 
  222.7500     2.3420    76.0810    23.1780    14.5550    25.3770    24.6890   -13.4770 
  222.8750     2.3450    71.9150    26.4060    17.2120    26.6590    24.6910   -13.6860 
  223.0000     2.3510    69.6360    28.4690    19.2190    27.8210    24.6900   -13.8610 
  223.1250     2.3540    69.0980    29.4340    20.4010    28.8940    24.6800   -14.0210 
  223.2500     2.3530    68.8100    30.0500    21.1710    29.8560    24.6640   -14.1330 
  223.3750     2.3440    68.9490    30.6730    21.7780    28.8980    24.6590   -14.2260 
  223.5000     2.3250    70.0520    31.3180    22.2970    29.1520    24.6740   -14.3550 
  223.6250     2.3010    70.6480    31.7040    22.6170    31.1840    24.6670   -14.5280 
  223.7500     2.2830    69.2100    31.6180    22.6430    31.1940    24.6370   -14.7060 
  223.8750     2.2740    68.2180    30.9590    22.3040    27.5140    24.5170   -14.8440 
  224.0000     2.2730    69.2280    29.7150    21.5600    23.8820    24.2060   -14.9410 
  224.1250     2.2790    71.7350    27.8470    20.3570    22.2010    23.8930   -14.9700 
  224.2500     2.2880    74.6480    25.6000    18.8580    21.9310    24.0270   -15.0090 
  224.3750     2.2960    77.7200    23.2290    17.2360    20.9180    24.2100   -15.0790 
  224.5000     2.3040    78.5230    21.0550    15.7060    18.3290    24.0990   -15.1610 
  224.6250     2.3140    76.0850    19.5120    14.5480    15.8940    23.8490   -15.2370 
  224.7500     2.3260    74.8930    18.7440    13.8730    14.7750    23.7480   -15.3230 
  224.8750     2.3290    76.7340    18.8600    13.7770    14.7730    23.7720   -15.4310 
  225.0000     2.3140    77.9440    19.9350    14.3440    16.2870    23.8410   -15.5520 
  225.1250     2.2850    76.5430    22.2340    15.8110    20.0500    23.8330   -15.6770 
  225.2500     2.2570    76.1290    25.6820    18.1690    24.6930    23.7800   -15.8200 
  225.3750     2.2380    76.8160    30.3330    21.5020    29.0680    23.7680   -15.9770 
  225.5000     2.2350    76.3780    36.1250    25.8210    35.3310    23.8150   -16.1500 
  225.6250     2.2460    73.6300    42.7290    30.9620    48.7220    23.8590   -16.3450 
  225.7500     2.2600    71.2810    49.0470    36.0700    57.3470    23.8560   -16.5010 
  225.8750     2.2680    71.0130    53.9820    40.2530    56.7070    23.8490   -16.5740 
  226.0000     2.2660    71.5580    56.7860    42.8300    54.0990    23.8690   -16.5890 
  226.1250     2.2570    69.4000    57.2710    43.5000    51.5700    23.8580   -16.6410 
  226.2500     2.2410    65.7420    56.6650    43.1550    49.8170    23.8300   -16.7660 
  226.3750     2.2210    63.7940    55.8040    42.4710    49.7220    23.8510   -16.9230 
  226.5000     2.1990    63.5820    55.1790    41.9080    51.1880    23.9390   -17.0650 
  226.6250     2.1850    64.5830    55.0010    41.7080    53.7220    23.9120   -17.1570 
  226.7500     2.1850    65.9770    55.1980    41.8530    55.0170    23.8010   -17.2120 
  226.8750     2.1990    66.9240    55.7070    42.3390    55.3570    23.7320   -17.2710 
  227.0000     2.2210    65.3210    56.4100    43.1370    54.3490    23.7500   -17.3710 
  227.1250     2.2380    62.6070    57.1670    44.2160    55.6930    23.8460   -17.5030 
  227.2500     2.2430    61.8610    57.9010    45.4390    55.7110    24.0860   -17.6450 
  227.3750     2.2310    62.7160    58.6160    46.7140    53.9760    24.4600   -17.7730 
  227.5000     2.2060    64.0660    59.3210    47.9440    51.4310    24.8610   -17.8770 
  227.6250     2.1820    64.3800    59.9380    48.9960    52.3110    25.0560   -17.9340 
  227.7500     2.1710    64.8730    60.3390    49.8060    56.2870    25.0080   -17.9780 
  227.8750     2.1750    67.1530    60.4040    50.3470    59.4950    24.8080   -18.0590 
  228.0000     2.1890    69.1450    60.0710    50.6090    58.2020    24.6530   -18.2010 
  228.1250     2.2060    66.7900    59.2840    50.5260    54.8510    24.7230   -18.3960 
  228.2500     2.2200    62.7980    58.2320    50.1760    52.8800    24.9860   -18.5610 
  228.3750     2.2280    60.6210    57.1970    49.7150    53.6080    25.2330   -18.6750 
  228.5000     2.2320    59.0060    56.7080    49.5360    53.8730    25.3340   -18.7680 
  228.6250     2.2370    58.6910    57.9140    50.5670    52.1220    25.3330   -18.8890 
  228.7500     2.2470    61.0810    61.6640    53.5930    51.0630    25.3520   -19.0490 
  228.8750     2.2580    63.3580    68.7990    59.4280    55.2790    25.3870   -19.2410 
  229.0000     2.2640    61.2370    79.8180    68.6590    66.3650    25.4580   -19.4520 
  229.1250     2.2610    56.4160    94.9400    81.7350   111.7940    25.5400   -19.6470 
  229.2500     2.2530    55.5180   111.5210    96.4990   168.8970    25.6180   -19.7880 
  229.3750     2.2410    57.3230   126.1470   110.0810   178.6110    25.7140   -19.8960 
  229.5000     2.2320    58.7740   135.5220   119.5030   137.9010    25.8470   -19.9710 
  229.6250     2.2300    58.8210   138.4750   123.1040   116.1960    25.8630   -20.0470 
  229.7500     2.2340    58.6270   139.4800   124.3170   117.2130    25.8380   -20.1230 
  229.8750     2.2430    59.0340   142.2160   126.5220   135.5100    25.8070   -20.2000 
