~V
VERS. 2.00: Ver 2.00
~W
STRT.M 55.0000:
STOP.M 276.0000:
STEP.M 0.1250:
NULL. -999.2500:
UWI. F11046:
~C
DEPT.M :
GR.API :
RML.OHMM :
RI. :
RXO.OHMM :
CALI.CM :
DEN.GM/CC :
SP.MV :
~A
# ...
  257.5000    68.8730    14.6530    14.1330    18.2960    24.4170     2.5600    -1.2760 
  257.6250    69.4700    14.6070    14.1090    15.7470    24.3680     2.5480    -1.1160 
  257.7500    67.7970    14.4770    13.9720    14.4020    24.3850     2.5300    -1.0690 
  257.8750    65.2510    14.3490    13.8090    14.7360    24.4940     2.5100    -1.0310 
  258.0000    65.9040    14.2760    13.6910    15.7480    24.6140     2.4960    -0.9890 
  258.1250    69.3330    14.2580    13.6500    15.6350    24.6710     2.4970    -0.9940 
  258.2500    70.6920    14.2300    13.6270    15.6620    24.6830     2.5060    -1.0320 
  258.3750    69.8910    14.1390    13.5570    16.1450    24.6730     2.5080    -1.1020 
  258.5000    68.8210    13.9660    13.4020    16.5280    24.6680     2.4940    -1.1790 
  258.6250    68.4490    13.7280    13.1660    17.5980    24.7240     2.4670    -1.2730 
  258.7500    69.4750    13.4890    12.9100    18.0460    24.8470     2.4440    -1.3400 
  258.8750    70.8850    13.2850    12.6790    16.8500    24.9360     2.4410    -1.3710 
  259.0000    72.1780    13.1210    12.4860    14.4360    24.8410     2.4580    -1.3310 
  259.1250    70.4960    12.9700    12.3170    12.3100    24.5890     2.4850    -1.3080 
  259.2500    65.4710    12.7870    12.1300    10.8480    24.4090     2.5100    -1.2760 
  259.3750    62.0930    12.5480    11.8930    11.0140    24.4160     2.5280    -1.1340 
  259.5000    65.2800    12.2570    11.5920    12.7160    24.6100     2.5400    -1.0020 
  259.6250    71.9410    11.9500    11.2470    14.9790    24.7890     2.5440    -0.8450 
  259.7500    73.2600    11.6780    10.9200    15.8620    24.8820     2.5400    -0.6230 
  259.8750    70.4730    11.4650    10.6520    14.0850    24.8440     2.5270    -0.5070 
  260.0000    69.6020    11.3130    10.4550    12.6380    24.6660     2.5120    -0.4710 
  260.1250    72.1600    11.2010    10.3200    11.8500    24.3190     2.5050    -0.3360 
  260.2500    73.4810    11.0960    10.2030    10.8570    24.0900     2.5110    -0.1840 
  260.3750    71.6840    10.9880    10.0860     9.2010    24.1060     2.5260    -0.1230 
  260.5000    67.2520    10.8790     9.9690     8.2050    24.3720     2.5410    -0.0560 
  260.6250    64.9370    10.7760     9.8590     7.9950    24.6810     2.5430     0.0210 
  260.7500    67.2010    10.6770     9.7510     7.9040    24.8600     2.5330     0.1000 
  260.8750    70.5910    10.5660     9.6340     7.6080    24.9350     2.5150     0.2710 
  261.0000    70.2950    10.4270     9.4950     7.1590    24.9780     2.5000     0.4080 
  261.1250    66.6340    10.2450     9.3160     6.6810    24.9740     2.4980     0.4570 
  261.2500    65.6440    10.0340     9.1020     6.2640    24.9460     2.5050     0.4780 
  261.3750    67.5140     9.8120     8.8700     6.0970    24.9600     2.5130     0.4810 
  261.5000    67.9170     9.5970     8.6400     6.1470    25.0200     2.5120     0.4690 
  261.6250    65.8150     9.4080     8.4350     6.3990    25.0920     2.4940     0.4230 
  261.7500    64.0880     9.2520     8.2690     6.6440    25.1350     2.4670     0.3410 
  261.8750    64.0790     9.1410     8.1500     6.6310    25.1730     2.4420     0.3000 
  262.0000    64.7150     9.0810     8.0840     6.4550    25.1610     2.4290     0.3720 
  262.1250    65.6420     9.0750     8.0770     6.3490    25.0700     2.4290     0.4110 
  262.2500    66.0150     9.0840     8.0990     6.3210    24.9690     2.4290     0.4200 
  262.3750    64.4030     9.0660     8.1120     6.2900    24.9000     2.4190     0.4800 
  262.5000    62.2730     8.9800     8.0730     6.4890    24.8630     2.3970     0.4570 
  262.6250    62.8560     8.7910     7.9320     7.1420    24.9060     2.3730     0.3460 
  262.7500    65.1120     8.5330     7.7050     8.3480    24.9420     2.3600     0.2400 
  262.8750    65.5110     8.2510     7.4290     9.6910    24.8710     2.3620     0.0800 
  263.0000    63.0990     8.0000     7.1560    10.3290    24.7460     2.3750    -0.1410 
  263.1250    63.1280     7.8400     6.9510     7.6770    24.6760     2.3940    -0.2510 
  263.2500    66.9350     7.7730     6.8310     6.3440    24.6530     2.4130    -0.2880 
  263.3750    70.0480     7.7890     6.7910     6.0980    24.6700     2.4320    -0.3430 
  263.5000    69.9790     7.8550     6.8090     6.4390    24.7000     2.4490    -0.3120 
  263.6250    69.0990     7.9320     6.8500     6.9680    24.7260     2.4550    -0.1260 
  263.7500    69.4530     7.9830     6.8790     7.3460    24.7490     2.4450     0.0600 
  263.8750    69.4810     7.9980     6.8790     7.2740    24.7990     2.4200     0.2690 
  264.0000    67.0310     7.9790     6.8480     7.0340    24.8430     2.3870     0.5730 
  264.1250    64.8670     7.9420     6.7940     7.0060    24.8410     2.3620     0.7990 
  264.2500    65.3250     7.9090     6.7390     6.9600    24.7990     2.3520     1.0090 
  264.3750    67.9320     7.8920     6.6950     7.0530    24.7310     2.3600     1.2610 
  264.5000    70.2460     7.8970     6.6700     7.3090    24.6750     2.3830     1.4760 
  264.6250    71.2110     7.9330     6.6740     7.2900    24.6190     2.4170     1.6880 
  264.7500    71.7730     8.0010     6.7090     6.9310    24.5640     2.4540     1.8700 
  264.8750    71.5860     8.0940     6.7760     6.5660    24.5030     2.4860     1.9870 
  265.0000    71.4180     8.1980     6.8600     6.5640    24.4430     2.5020     2.0870 
  265.1250    70.8320     8.2880     6.9330     6.6390    24.4090     2.4900     2.2090 
  265.2500    68.3430     8.3570     6.9760     6.4950    24.4160     2.4600     2.2700 
  265.3750    65.2450     8.4180     6.9950     6.1960    24.4960     2.4300     2.3310 
  265.5000    63.1090     8.4950     7.0130     5.9300    24.5980     2.4130     2.4590 
  265.6250    62.0170     8.6000     7.0570     5.8330    24.6230     2.4200     2.4710 
  265.7500    61.0780     8.7030     7.1190     6.1870    24.6190     2.4390     2.4710 
  265.8750    61.5140     8.7460     7.1610     7.3530    24.5910     2.4560     2.5540 
  266.0000    62.8290     8.6710     7.1310     8.6970    24.5460     2.4600     2.6420 
  266.1250    62.8290     8.4390     6.9650     9.7060    24.5530     2.4420     2.6960 
  266.2500    62.8290     8.1370     6.7090     9.6870    24.5960     2.4090     2.7920 
  266.3750    62.8290     7.8830     6.4480     9.2490    24.6420     2.3710     2.8280 
  266.5000    62.8290     7.8010     6.2940     9.3590    24.7060     2.3430     2.7150 
  266.6250    62.8290     8.0220     6.3720     9.9510    24.8400     2.3450     2.6380 
  266.7500    62.8290     8.4910     6.6800    10.4110    24.9180     2.3760     2.6420 
  266.8750    62.8290     9.1020     7.1720     9.9410    24.7790     2.4270     2.5780 
  267.0000    62.8290     9.6880     7.7290     8.9440    24.5290     2.4760     2.4530 
  267.1250    62.8290    10.0180     8.1440     8.8370    24.3710     2.5020     2.3520 
  267.2500    62.8290    10.0280     8.2880     9.2950    24.3260     2.5030     2.2060 
  267.3750    62.8290     9.7610     8.1480     9.5760    24.3090     2.4850     2.1320 
  267.5000    62.8290     9.3540     7.8230     8.8180    24.2720     2.4620     2.1900 
  267.6250    62.8290     9.0000     7.4730     7.4570    24.3530     2.4530     2.2390 
  267.7500    62.8290     8.8090     7.2260     6.8200    24.4320     2.4660     2.2730 
  267.8750    62.8290     8.7920     7.1160     6.4400    24.4690     2.4980     2.3020 
  268.0000    62.8290     8.8890     7.1190     6.1310    24.4520     2.5330     2.2640 
  268.1250    62.8290     8.9880     7.1770     6.1280    24.4110     2.5470     2.2270 
  268.2500    62.8290     8.9910     7.1970     6.3520    24.3930     2.5300     2.2150 
  268.3750    62.8290     8.8610     7.1240     6.5500    24.4020     2.4880     2.1250 
  268.5000    62.8290     8.6200     6.9490     6.6030    24.4170     2.4400     1.9950 
  268.6250    62.8290     8.3460     6.7140     6.5030    24.4180     2.4120     1.9480 
