~V
VERS. 2.00: Ver 2.00
~W
STRT.M 55.0000:
STOP.M 275.0000:
STEP.M 0.1250:
NULL. -999.2500:
UWI. F11036:
~C
DEPT.M :
GR.API :
RML.OHMM :
RI. :
RXO.OHMM :
CALI.CM :
DEN.GM/CC :
SP.MV :
~A
# ...
   66.2500    75.2530    10.1140     8.8190     8.8520    23.5330     2.2350   -23.1510 
   66.3750    76.2120     9.8330     8.4730     8.9440    23.9740     2.2340   -23.6050 
   66.5000    76.5680    10.0650     8.4500     9.1800    24.5870     2.2290   -23.9810 
   66.6250    73.2980    11.2460     9.0970     9.4040    24.9710     2.2380   -24.2640 
   66.7500    68.8660    13.2490    10.4480    10.1550    25.0970     2.2700   -24.4560 
   66.8750    65.8620    15.6450    12.3810    13.1310    25.1030     2.3180   -24.5770 
   67.0000    66.9830    17.6240    14.3570    21.7470    25.0910     2.3590   -24.6440 
   67.1250    70.3170    17.9630    15.0990    33.5650    25.0050     2.3560   -24.6630 
   67.2500    71.8140    16.5500    14.1810    26.4420    24.7480     2.3140   -24.6820 
   67.3750    70.9020    14.0060    12.2210    14.8970    24.4520     2.2510   -24.7190 
   67.5000    70.0630    11.3880    10.1820     9.9980    24.3590     2.1980   -24.7560 
   67.6250    70.4460     9.6560     8.7410     9.1960    24.2190     2.1750   -24.7720 
   67.7500    71.0430     8.7880     7.9080     9.1830    24.1510     2.1770   -24.7890 
   67.8750    73.5720     8.5230     7.5700     8.9590    24.0960     2.1880   -24.7420 
   68.0000    78.8320     8.6010     7.5580     8.7040    24.0960     2.2000   -24.6230 
   68.1250    83.1320     8.8160     7.7090     9.2550    24.0290     2.2060   -24.4170 
   68.2500    82.6080     9.0370     7.8800     9.3850    23.9150     2.2080   -24.1680 
   68.3750    79.0120     9.2470     8.0350     9.5320    23.8300     2.2070   -23.9420 
   68.5000    77.4620     9.4520     8.1690     9.6610    23.7410     2.2010   -23.8030 
   68.6250    79.9990     9.6620     8.2860     9.5360    23.6380     2.1910   -23.8170 
   68.7500    82.2420     9.8720     8.3980     9.1700    23.5950     2.1800   -23.9340 
   68.8750    81.2230    10.0600     8.5020     8.8110    23.5990     2.1720   -24.1620 
   69.0000    76.4100    10.1850     8.5750     8.8670    23.6580     2.1690   -24.4650 
   69.1250    71.1000    10.1710     8.5550     9.1220    23.7030     2.1730   -24.7520 
   69.2500    70.2150    10.0160     8.4260     9.2420    23.6840     2.1800   -24.9790 
   69.3750    72.2660     9.7630     8.2090     8.9560    23.5850     2.1870   -25.1480 
   69.5000    72.9410     9.5140     7.9800     8.3520    23.4970     2.1940   -25.2240 
   69.6250    72.9100     9.4270     7.8670     7.6350    23.4650     2.2000   -25.1350 
   69.7500    75.7920     9.5510     7.9270     7.2780    23.4380     2.2050   -24.8880 
   69.8750    78.5410     9.8470     8.1560     7.5830    23.3970     2.2060   -24.5110 
   70.0000    76.8510    10.1950     8.4840     8.1330    23.3120     2.2030   -24.0740 
   70.1250    74.3180    10.4070     8.7650     8.5240    23.1620     2.1960   -23.6580 
   70.2500    75.4370    10.4070     8.8860     8.4350    22.9810     2.1890   -23.2600 
   70.3750    79.3210    10.2360     8.8360     7.9430    22.8830     2.1820   -22.8710 
   70.5000    82.5130    10.0110     8.6930     7.6020    22.8690     2.1770   -22.5050 
   70.6250    80.6780     9.8680     8.5610     7.7800    22.8730     2.1750   -22.1630 
   70.7500    75.9640     9.8170     8.4770     8.3090    22.9340     2.1780   -21.7690 
   70.8750    73.4870     9.7840     8.4010     8.8900    23.1630     2.1870   -21.2630 
   71.0000    75.5410     9.6610     8.2480     9.0840    23.6520     2.2040   -20.5960 
   71.1250    78.9940     9.3330     7.9160     8.5160    24.1650     2.2290   -19.7190 
   71.2500    83.0460     8.8250     7.4310     7.6200    24.3740     2.2550   -18.7320 
   71.3750    89.4830     8.1880     6.8570     6.7380    24.1870     2.2750   -17.7220 
   71.5000    97.3730     7.5010     6.2670     6.2110    23.7870     2.2820   -16.7610 
   71.6250   103.2410     6.9040     5.7610     5.9510    23.6360     2.2730   -15.9170 
   71.7500   105.5980     6.5710     5.4370     5.9020    23.6270     2.2540   -15.3060 
   71.8750   104.5600     6.7080     5.4160     6.1280    23.6570     2.2360   -15.0100 
   72.0000   101.7060     7.5170     5.8240     6.7680    23.7260     2.2350   -15.0600 
   72.1250    97.0950     9.2210     6.8730     8.0050    23.9760     2.2710   -15.5430 
   72.2500    90.0870    11.4790     8.4970    10.2860    24.4110     2.3300   -16.3430 
   72.3750    81.3430    13.7150    10.4420    15.7520    24.7930     2.3870   -17.3170 
   72.5000    74.0220    15.1340    12.0240    21.8380    24.9250     2.4140   -18.3310 
   72.6250    71.3340    14.9100    12.1770    15.9350    24.8790     2.3870   -19.3030 
   72.7500    72.1380    13.4930    11.1570    11.1480    24.8460     2.3290   -20.1760 
   72.8750    76.7370    11.6490     9.7260     9.6370    24.8570     2.2670   -20.8960 
   73.0000    83.3180    10.1450     8.5280     9.9710    24.9100     2.2230   -21.4280 
   73.1250    85.8430     9.5000     7.9250    10.2160    24.9780     2.2080   -21.7430 
   73.2500    82.6540     9.4980     7.8040    10.2840    25.0320     2.2110   -21.9060 
   73.3750    77.3250     9.8450     8.0040    10.5210    25.0700     2.2220   -21.9830 
   73.5000    74.9510    10.2460     8.3180    10.5590    25.0810     2.2310   -22.0910 
   73.6250    75.1600    10.4600     8.5440    11.4460    25.0160     2.2320   -22.3010 
   73.7500    75.6810    10.4590     8.6140    14.2000    24.8450     2.2240   -22.6100 
   73.8750    75.6660    10.2910     8.5430    17.3560    24.6350     2.2090   -22.9780 
   74.0000    76.0850    10.0390     8.3880    13.3300    24.4400     2.1900   -23.3630 
   74.1250    77.0210     9.7900     8.2150    10.7740    24.3380     2.1730   -23.6710 
   74.2500    76.9580     9.5950     8.0670     9.9360    24.2710     2.1620   -23.8590 
   74.3750    77.2740     9.4660     7.9520     9.8460    24.2320     2.1590   -23.9130 
   74.5000    79.0560     9.3970     7.8650     9.3950    24.1940     2.1630   -23.8350 
   74.6250    81.3180     9.3740     7.8030     9.0500    24.1540     2.1680   -23.6410 
   74.7500    80.7780     9.3710     7.7560     9.0970    23.9340     2.1750   -23.3790 
   74.8750    79.7050     9.3760     7.7190     9.3710    23.8090     2.1820   -23.0630 
   75.0000    81.9640     9.3850     7.6930     9.6380    23.7830     2.1940   -22.7210 
   75.1250    85.1600     9.4070     7.6820     9.6120    23.8260     2.2080   -22.4150 
   75.2500    86.7450     9.4490     7.6900     9.4520    23.8490     2.2190   -22.1700 
   75.3750    87.2040     9.5170     7.7190     9.2690    23.8560     2.2250   -21.9690 
   75.5000    86.2630     9.5980     7.7630     9.0140    23.8570     2.2250   -21.7740 
   75.6250    82.5360     9.6580     7.8020     9.0640    23.8470     2.2230   -21.5230 
   75.7500    78.8950     9.6600     7.8040     9.1680    23.8070     2.2220   -21.1780 
   75.8750    79.7750     9.5920     7.7510     9.2990    23.7310     2.2240   -20.7980 
   76.0000    84.4280     9.4760     7.6490     9.4690    23.6880     2.2250   -20.4270 
   76.1250    90.0940     9.3750     7.5360     8.9930    23.7060     2.2270   -20.1230 
   76.2500    92.1970     9.3520     7.4660     8.8600    23.7560     2.2290   -19.8940 
   76.3750    91.2690     9.4240     7.4680     9.1570    23.7940     2.2330   -19.7550 
   76.5000    88.7870     9.5650     7.5350     9.5180    23.8460     2.2380   -19.6960 
   76.6250    84.1320     9.7060     7.6320     9.9210    23.9250     2.2440   -19.6490 
   76.7500    80.0470     9.7820     7.7000    10.1500    24.0290     2.2500   -19.6060 
   76.8750    79.5090     9.7750     7.7140    10.0150    24.0960     2.2520   -19.5620 
   77.0000    82.9480     9.7130     7.6800     9.6360    24.1190     2.2470   -19.4970 
   77.1250    84.9860     9.6570     7.6330     9.4000    24.1200     2.2310   -19.3830 
   77.2500    83.0520     9.6590     7.6130     9.3630    24.1200     2.2090   -19.2360 
   77.3750    80.3610     9.7270     7.6390     9.2410    24.1200     2.1840   -19.0760 
