~V
VERS. 2.00: Ver 2.00
~W
STRT.M 52.0000:
STOP.M 271.0000:
STEP.M 0.1250:
NULL. -999.2500:
UWI. F11069:
~C
DEPT.M :
GR.API :
RML.OHMM :
RI. :
RXO.OHMM :
CALI.CM :
DEN.GM/CC :
SP.MV :
~A
# ...
  254.5000    80.2180     9.3630     8.2450     7.0750    24.2980     2.3360    -0.5810 
  254.6250    80.0230    11.9620    10.0170     8.4400    24.2000     2.3620    -0.7530 
  254.7500    81.6940    15.8710    13.0930    12.9650    24.1270     2.4080    -0.8840 
  254.8750    82.4670    21.0590    17.7810    24.6810    24.1910     2.4570    -0.9780 
  255.0000    80.2630    26.9390    23.8830    39.9310    24.6190     2.4710    -1.0770 
  255.1250    76.5570    32.0530    29.9620    47.7900    25.5850     2.4010    -1.1370 
  255.2500    74.7340    35.2850    34.0360    44.5980    26.4560     2.2580    -1.1720 
  255.3750    74.3430    36.5310    35.5760    39.5640    26.5300     2.0840    -1.2160 
  255.5000    74.2680    36.6320    35.5470    33.7970    26.2870     1.9440    -1.2300 
  255.6250    73.5060    36.8460    35.3930    29.9530    25.7730     1.9020    -1.2170 
  255.7500    73.6870    37.8100    35.9490    22.0940    25.2470     1.9390    -1.2240 
  255.8750    75.5510    39.3920    37.3760    15.3320    25.0950     2.0050    -1.2470 
  256.0000    78.0080    40.9850    39.4150    15.7760    25.2040     2.0540    -1.2190 
  256.1250    79.3530    41.4650    41.0660    23.1860    25.0020     2.0700    -1.1560 
  256.2500    78.3830    40.2580    41.2070    32.0900    24.7140     2.0920    -1.0530 
  256.3750    75.6030    37.3510    39.3790    40.8990    24.4650     2.1480    -0.8590 
  256.5000    70.3670    33.3190    35.9470    34.9130    24.3210     2.2400    -0.6470 
  256.6250    62.7860    29.0570    31.8320    17.6590    24.2500     2.3420    -0.4540 
  256.7500    60.0370    25.2690    28.0350    13.4070    24.2620     2.4210    -0.3060 
  256.8750    67.3860    22.1530    24.8690    19.3850    24.3360     2.4660    -0.2020 
  257.0000    80.6350    19.6750    22.2930    33.4210    24.4290     2.4840    -0.1070 
  257.1250    88.7750    17.8040    20.2410    27.5560    24.4470     2.4810    -0.0360 
  257.2500    90.9640    16.3750    18.5650    19.3010    24.4590     2.4650    -0.0010 
  257.3750    91.2210    15.3670    17.2650    15.9780    24.4630     2.4360    -0.0270 
  257.5000    91.9200    14.7760    16.4000    15.3400    24.4650     2.4000    -0.1230 
  257.6250    94.6120    14.6330    16.1440    14.9390    24.4810     2.3690    -0.2980 
  257.7500    97.1800    14.7810    16.3720    14.6290    24.5020     2.3510    -0.4180 
  257.8750    97.9150    15.0780    16.8910    15.6970    24.4680     2.3480    -0.4430 
  258.0000    97.3810    15.3540    17.4220    19.9670    24.4130     2.3580    -0.4670 
  258.1250    96.9020    15.4010    17.6310    31.7060    24.4290     2.3710    -0.4520 
  258.2500    96.2180    15.1630    17.4000    36.6550    24.3660     2.3770    -0.4450 
  258.3750    96.3840    14.6870    16.7630    36.2450    24.2360     2.3750    -0.4580 
  258.5000   100.1560    14.1240    15.8990    34.6640    24.2340     2.3700    -0.4830 
  258.6250   103.2520    13.6850    15.0840    24.9470    24.3140     2.3760    -0.5050 
  258.7500   101.5180    13.4560    14.5100    15.7600    24.4190     2.3930    -0.5540 
  258.8750    97.8310    13.4270    14.2490    12.5090    24.4560     2.4140    -0.6440 
  259.0000    96.7400    13.5500    14.2920    12.2520    24.4210     2.4270    -0.6960 
  259.1250    99.2980    13.7990    14.5920    13.3350    24.3880     2.4260    -0.7190 
  259.2500   102.9640    14.1310    15.0060    14.3230    24.3970     2.4220    -0.7420 
  259.3750   106.4710    14.5190    15.4590    14.6930    24.4150     2.4200    -0.7240 
  259.5000   107.7490    14.9220    15.9070    15.4430    24.4240     2.4190    -0.6300 
  259.6250   107.2140    15.2860    16.3230    15.3000    24.4090     2.4120    -0.4300 
  259.7500   106.9680    15.5860    16.7090    15.8660    24.3850     2.4000    -0.1940 
  259.8750   106.8650    15.8150    17.0500    16.7670    24.3590     2.3870     0.0090 
  260.0000   106.2430    15.9590    17.3120    18.1710    24.3070     2.3780     0.1380 
  260.1250   106.5340    15.9670    17.3920    19.8670    24.2750     2.3730     0.1860 
  260.2500   107.6420    15.8230    17.2360    20.9270    24.2770     2.3670     0.2420 
  260.3750   107.0600    15.5230    16.8210    19.2950    24.3020     2.3570     0.3180 
  260.5000   104.6610    15.0850    16.2020    17.3570    24.3360     2.3450     0.3780 
  260.6250   103.7450    14.5500    15.4960    16.8180    24.3880     2.3330     0.3260 
  260.7500   104.1080    14.0060    14.8270    17.9480    24.5070     2.3270     0.2040 
  260.8750   104.1080    13.5080    14.2380    19.6980    24.6460     2.3310     0.1180 
  261.0000   104.1080    13.0800    13.7180    17.5280    24.7110     2.3440     0.0890 
  261.1250   104.1080    12.7240    13.2440    16.3080    24.7020     2.3570     0.1330 
  261.2500   104.1080    12.4160    12.8010    14.9660    24.6600     2.3630     0.2230 
  261.3750   104.1080    12.1700    12.4050    15.5050    24.5730     2.3630     0.3000 
  261.5000   104.1080    12.0090    12.0920    18.1450    24.5200     2.3650     0.3450 
  261.6250   104.1080    11.9680    11.9220    14.4220    24.5680     2.3750     0.4540 
  261.7500   104.1080    12.0190    11.9020    12.7330    24.6540     2.3880     0.5770 
  261.8750   104.1080    12.1330    12.0210    12.7930    24.7040     2.3960     0.6340 
  262.0000   104.1080    12.2760    12.2390    14.1590    24.7200     2.3950     0.6340 
  262.1250   104.1080    12.3910    12.4940    16.0240    24.7560     2.3860     0.6340 
  262.2500   104.1080    12.4090    12.7050    15.8020    24.7750     2.3790     0.6320 
  262.3750   104.1080    12.2690    12.7950    14.7910    24.7540     2.3780     0.6530 
  262.5000   104.1080    11.9510    12.6840    13.6510    24.6950     2.3830     0.7380 
  262.6250   104.1080    11.4650    12.2720    13.2010    24.5740     2.3890     0.7940 
  262.7500   104.1080    10.9040    11.6300    12.9790    24.4370     2.3920     0.8960 
  262.8750   104.1080    10.3140    10.8580    14.4330    24.3100     2.3910     1.1090 
  263.0000   104.1080     9.7290    10.0930    16.1610    24.0820     2.3880     1.3480 
  263.1250   104.1080     9.1960     9.4720    14.8100    23.7670     2.3870     1.5100 
  263.2500   104.1080     8.7610     9.0220    11.3290    23.6850     2.3900     1.5770 
  263.3750   104.1080     8.4570     8.7340     9.3050    23.8870     2.3970     1.5580 
  263.5000   104.1080     8.2840     8.5780     9.1690    24.1480     2.4090     1.5120 
  263.6250   104.1080     8.2400     8.5370     9.0950    24.2280     2.4250     1.5230 
  263.7500   104.1080     8.3030     8.5800     8.4390    24.1980     2.4410     1.5200 
  263.8750   104.1080     8.4980     8.7180     7.9220    24.1800     2.4480     1.4150 
  264.0000   104.1080     8.8610     8.9740     8.2080    24.2190     2.4420     1.2180 
  264.1250   104.1080     9.4360     9.3960     9.1730    24.3040     2.4240     1.0400 
  264.2500   104.1080    10.1550     9.9670     9.6390    24.3630     2.4070     0.9800 
  264.3750   104.1080    10.9450    10.6470    10.0760    24.3530     2.3980     0.9740 
  264.5000   104.1080    11.6910    11.3350    11.0010    24.2160     2.3990     0.9400 
  264.6250   104.1080    12.2010    11.8320    14.0440    24.1460     2.4070     0.8650 
  264.7500   104.1080    12.3610    12.0140    19.4700    24.1700     2.4120     0.7460 
  264.8750   104.1080    12.1190    11.8470    20.1370    24.2750     2.4090     0.6320 
  265.0000   104.1080    11.5480    11.4130    17.6470    24.3090     2.4000     0.6230 
  265.1250   104.1080    10.8350    10.8780    14.7060    24.3170     2.3930     0.6360 
  265.2500   104.1080    10.2320    10.4110    12.1430    24.2720     2.3980     0.5610 
  265.3750   104.1080     9.8610    10.0680    10.2750    24.2470     2.4120     0.4610 
  265.5000   104.1080     9.7410     9.8450     8.6630    24.2720     2.4240     0.3890 
  265.6250   104.1080     9.8200     9.7240     8.0560    24.3320     2.4150     0.3250 
