~V
VERS. 2.00: Ver 2.00
~W
STRT.M 55.0000:
STOP.M 276.0000:
STEP.M 0.1250:
NULL. -999.2500:
UWI. F11046:
~C
DEPT.M :
GR.API :
RML.OHMM :
RI. :
RXO.OHMM :
CALI.CM :
DEN.GM/CC :
SP.MV :
~A
# ...
   88.7500    84.8680     8.0210     6.0550     8.5570    25.0610     2.1980   -20.7950 
   88.8750    87.5270     7.8860     5.8580     7.9030    25.0480     2.1960   -19.9770 
   89.0000    86.1690     7.9500     5.7940     7.1620    25.0250     2.2140   -19.1230 
   89.1250    81.5770     8.3370     5.9750     7.1250    25.0310     2.2680   -18.4810 
   89.2500    76.1440     8.9440     6.3700     8.3860    25.0520     2.3380   -18.1530 
   89.3750    72.0980     9.6020     6.9060    12.0400    25.0620     2.3950   -18.2090 
   89.5000    71.5620    10.0960     7.4320    13.7380    25.0560     2.4100   -18.6840 
   89.6250    72.6920    10.2000     7.7420    11.2430    25.0400     2.3680   -19.4400 
   89.7500    70.1000     9.9660     7.7960     9.7370    25.0320     2.3030   -20.3680 
   89.8750    65.1500     9.5150     7.6440     9.7050    25.0560     2.2460   -21.1630 
   90.0000    63.4410     8.9910     7.3780    10.0130    25.0620     2.2170   -21.6130 
   90.1250    66.6190     8.5030     7.0820     9.7580    24.9860     2.2200   -21.3970 
   90.2500    71.8710     8.0700     6.7900     8.8280    24.8860     2.2360   -20.4840 
   90.3750    78.5360     7.6870     6.4910     7.2040    24.8020     2.2550   -19.0180 
   90.5000    84.7000     7.3570     6.1910     6.2170    24.7380     2.2720   -17.1450 
   90.6250    86.9650     7.0970     5.9290     5.7080    24.7220     2.2850   -15.1190 
   90.7500    88.9060     6.8860     5.7200     5.5940    24.7450     2.2930   -13.0960 
   90.8750    92.4550     6.6910     5.5470     5.5670    24.7520     2.2990   -11.3380 
   91.0000    94.1740     6.4920     5.3820     5.5870    24.7570     2.3020    -9.9490 
   91.1250    92.8510     6.3100     5.2220     5.4200    24.8060     2.3020    -9.1300 
   91.2500    92.5840     6.2030     5.1000     5.2320    24.9080     2.2970    -8.8420 
   91.3750    93.4230     6.2300     5.0620     5.1070    25.0080     2.2870    -8.9610 
   91.5000    91.8930     6.4230     5.1420     5.2390    25.0420     2.2750    -9.4430 
   91.6250    88.1520     6.7860     5.3650     6.0120    24.9980     2.2590   -10.2560 
   91.7500    84.4980     7.2220     5.6810     6.9810    24.9230     2.2420   -11.1910 
   91.8750    80.2290     7.6380     6.0320     7.4500    24.8780     2.2260   -12.1680 
   92.0000    75.1020     7.9490     6.3460     7.4830    24.8630     2.2140   -13.1480 
   92.1250    73.0390     8.0770     6.5310     7.6430    24.8650     2.2100   -13.9590 
   92.2500    74.5950     8.0580     6.5780     7.9870    24.8760     2.2150   -14.4140 
   92.3750    77.7170     7.9380     6.5070     7.9860    24.9170     2.2230   -14.4430 
   92.5000    80.8020     7.7690     6.3610     7.4500    25.0060     2.2330   -14.1180 
   92.6250    82.3850     7.5820     6.1730     6.7120    25.0580     2.2420   -13.4800 
   92.7500    84.1700     7.3870     5.9670     6.7330    24.9710     2.2560   -12.7570 
   92.8750    86.6480     7.1760     5.7500     6.9930    24.7590     2.2770   -11.8830 
   93.0000    90.4240     6.9480     5.5240     6.6180    24.6030     2.3050   -10.9630 
   93.1250    93.4280     6.7260     5.3090     5.6850    24.5970     2.3280   -10.1890 
   93.2500    94.1730     6.5650     5.1340     5.3730    24.6880     2.3390    -9.6560 
   93.3750    92.5890     6.5460     5.0390     5.4690    24.7900     2.3370    -9.5080 
   93.5000    88.6210     6.7630     5.0810     5.7840    24.8730     2.3260    -9.6690 
   93.6250    83.1610     7.3670     5.3720     6.3250    24.9600     2.3130   -10.0900 
   93.7500    80.2200     8.3380     5.9420     7.1080    25.0510     2.2960   -10.6510 
   93.8750    79.9660     9.6070     6.8010     8.6690    25.1090     2.2730   -11.4510 
   94.0000    78.4050    10.9810     7.8810    11.7500    25.1090     2.2430   -12.4090 
   94.1250    73.9850    12.0610     8.9420    16.9820    25.0310     2.2150   -13.5470 
   94.2500    70.9750    12.5340     9.6340    18.1350    24.9370     2.1980   -14.8230 
   94.3750    71.0450    12.2760     9.7350    14.7170    24.9630     2.1960   -16.1170 
   94.5000    70.8420    11.4410     9.2700    11.7180    25.1780     2.2030   -17.4140 
   94.6250    68.1540    10.4520     8.5010    10.7180    25.4750     2.2060   -18.5490 
   94.7500    65.1980     9.8350     7.8540    10.5020    25.7580     2.1920   -19.4800 
   94.8750    63.6920     9.9200     7.6000    10.2950    25.9800     2.1660   -20.1500 
   95.0000    63.2880    10.8760     7.9230    10.2080    26.0500     2.1560   -20.5150 
   95.1250    62.1490    12.7780     9.0410    11.8920    25.8420     2.2050   -20.5510 
   95.2500    60.0700    15.0660    10.7620    18.2240    25.4240     2.3100   -20.3800 
   95.3750    57.0570    17.0080    12.6720    31.2830    25.0340     2.4340   -20.1360 
   95.5000    54.3100    17.7900    13.9720    37.9800    24.8170     2.5170   -19.9160 
   95.6250    54.9420    16.7800    13.6950    28.6180    24.7540     2.5040   -19.8200 
   95.7500    59.6970    14.7540    12.3190    17.8090    24.7400     2.4200   -19.9590 
   95.8750    65.6260    12.5910    10.6380    12.6880    24.7390     2.3110   -20.3220 
   96.0000    68.9110    10.9750     9.2560    11.3640    24.7390     2.2210   -20.9970 
   96.1250    68.1300    10.2520     8.4940    11.2090    24.7400     2.1790   -21.8150 
   96.2500    65.8190    10.1070     8.2090    10.8630    24.7550     2.1690   -22.6110 
   96.3750    64.2170    10.2590     8.2390    10.6830    24.7940     2.1780   -23.3160 
   96.5000    64.1950    10.4610     8.4010    10.6650    24.8450     2.1910   -23.7980 
   96.6250    64.7370    10.5220     8.5180    10.5680    24.8810     2.2000   -24.1220 
   96.7500    64.9400    10.4160     8.5170    10.3580    24.9110     2.2020   -24.3140 
   96.8750    65.3620    10.1850     8.4030    10.2690    24.9280     2.1980   -24.4650 
   97.0000    64.1530     9.9010     8.2190    10.2910    24.9340     2.1910   -24.5310 
   97.1250    59.7650     9.6250     8.0160    10.2390    24.9340     2.1840   -24.6300 
   97.2500    57.2790     9.3780     7.8260    10.2220    24.9340     2.1770   -24.7080 
   97.3750    59.9650     9.1540     7.6420    10.2040    24.9340     2.1710   -24.6710 
   97.5000    65.1030     8.9660     7.4550    10.1630    24.9160     2.1710   -24.5670 
   97.6250    66.9700     8.8850     7.3090    10.0240    24.8430     2.1840   -24.3640 
   97.7500    66.5050     8.9740     7.2780     9.8890    24.7230     2.2040   -24.1860 
   97.8750    66.6280     9.2580     7.4170     9.7500    24.6300     2.2190   -24.0030 
   98.0000    67.8300     9.6720     7.7170     9.7330    24.5960     2.2130   -23.7680 
   98.1250    69.2310    10.0290     8.0700    11.8770    24.7020     2.1790   -23.4890 
   98.2500    69.9470    10.1290     8.2750    16.5530    24.8930     2.1330   -23.1970 
   98.3750    68.4370     9.8890     8.1990    16.8460    24.9620     2.0950   -22.9700 
   98.5000    65.6350     9.3730     7.8450    11.3510    24.7670     2.0810   -22.8220 
   98.6250    65.8840     8.7810     7.3560     8.8590    24.6310     2.0990   -22.6920 
   98.7500    68.1550     8.3340     6.9330     8.2540    24.6820     2.1320   -22.5750 
   98.8750    70.1030     8.1190     6.6690     8.4580    24.9080     2.1670   -22.4160 
   99.0000    69.8120     8.1220     6.5850     8.8850    25.1190     2.1950   -22.3150 
   99.1250    69.4980     8.2730     6.6530     8.6750    25.1630     2.2120   -22.2010 
   99.2500    70.1740     8.4640     6.7820     8.1310    25.1420     2.2180   -22.2110 
   99.3750    70.8980     8.6540     6.9340     7.8540    25.1680     2.2150   -22.4190 
   99.5000    70.7990     8.8370     7.1020     8.1540    25.2090     2.2030   -22.7480 
   99.6250    68.6080     9.0090     7.2860     8.7790    25.1540     2.1870   -23.2990 
   99.7500    65.8360     9.1490     7.4690     9.5360    25.0950     2.1740   -23.8070 
   99.8750    65.4950     9.2220     7.6190    10.2010    25.1080     2.1690   -24.2830 
