~V
VERS. 2.00: Ver 2.00
~W
STRT.M 50.0000:
STOP.M 270.0000:
STEP.M 0.1250:
NULL. -999.2500:
UWI. F11070:
~C
DEPT.M :
DEN.GM/CC :
GR.API :
RML.OHMM :
RI. :
RXO.OHMM :
CALI.CM :
SP.MV :
~A
# ...
  230.0000     2.2540    59.8970   148.9030   132.0750   150.7010    25.7500   -20.2330 
  230.1250     2.2620    61.2830   160.3890   142.0010   161.0130    25.7060   -20.1710 
  230.2500     2.2550    62.6440   174.1590   154.1300   181.3620    25.7190   -20.0620 
  230.3750     2.2330    63.6760   187.4440   166.1080   229.2400    25.5920   -19.9450 
  230.5000     2.2090    63.5360   197.3250   175.4810   278.0570    25.1620   -19.8610 
  230.6250     2.2000    60.9930   201.1420   179.9140   280.0120    24.7350   -19.7950 
  230.7500     2.2020    58.2360   200.7380   180.6140   246.0010    24.8600   -19.7480 
  230.8750     2.2070    57.9020   199.0400   179.8190   217.2860    25.1510   -19.7190 
  231.0000     2.2080    59.9960   199.2260   180.3010   206.8580    25.3000   -19.7020 
  231.1250     2.2050    60.9590   203.6200   184.4510   216.8260    25.4910   -19.6530 
  231.2500     2.2010    58.8000   210.2650   190.9740   237.0120    25.6980   -19.6040 
  231.3750     2.2030    56.6040   215.2970   196.7610   256.8640    25.7700   -19.6060 
  231.5000     2.2100    57.1240   214.1240   197.8420   269.8970    25.7970   -19.6530 
  231.6250     2.2160    57.4010   203.0200   190.3440   263.6630    25.7670   -19.7600 
  231.7500     2.2170    56.4790   185.6680   176.5030   232.5320    25.6710   -19.8850 
  231.8750     2.2140    57.1170   165.9930   159.4290   181.6910    25.5110   -19.9370 
  232.0000     2.2120    60.4040   147.2050   142.2670   152.6180    25.2600   -19.8730 
  232.1250     2.2130    62.7870   131.7460   127.6940   150.3120    24.8310   -19.8180 
  232.2500     2.2130    62.7410   119.9830   116.4090   142.3810    24.3840   -19.8700 
  232.3750     2.2090    61.9630   112.2550   108.7660   121.1040    24.1600   -19.9580 
  232.5000     2.2020    61.9310   108.7450   104.9410   108.6330    24.0340   -20.0500 
  232.6250     2.1950    62.4370   110.0040   105.5390   105.3820    23.9020   -20.0850 
  232.7500     2.1900    62.2180   114.7120   109.4900   110.9820    23.6290   -20.0620 
  232.8750     2.1910    60.6580   121.7450   115.9310   117.0090    23.4000   -19.9980 
  233.0000     2.1970    58.8520   129.2740   123.3260   122.7190    23.2850   -19.9280 
  233.1250     2.2060    59.1960   133.9850   128.6730   115.2450    23.2590   -19.8910 
  233.2500     2.2120    61.4550   133.8540   129.6580   108.6160    23.2190   -19.8670 
  233.3750     2.2140    64.0700   128.8860   125.7470   105.8360    23.1460   -19.8470 
  233.5000     2.2160    65.1940   121.2780   118.5970   103.4520    23.0440   -19.8060 
  233.6250     2.2160    64.1240   114.5270   111.4200   101.5630    22.8300   -19.7360 
  233.7500     2.2120    63.2180   110.9540   106.8730   100.6790    22.6500   -19.6140 
  233.8750     2.2040    62.6360   111.4240   106.0690   101.7740    22.6780   -19.4820 
  234.0000     2.1950    63.7720   115.7380   109.0060   104.6380    22.8580   -19.4210 
  234.1250     2.1920    66.0100   122.7140   114.7910   106.1270    22.8640   -19.4300 
  234.2500     2.1980    65.1800   129.2980   120.6290   105.6130    22.7520   -19.3850 
  234.3750     2.2090    62.5390   132.9180   124.1240   105.3970    22.6730   -19.2520 
  234.5000     2.2200    62.5620   132.0690   123.6980   104.6450    22.6970   -19.0550 
  234.6250     2.2270    66.6770   127.0820   119.2160   103.5120    22.8070   -18.7900 
  234.7500     2.2320    67.4880   121.4250   113.6710   102.6150    22.8790   -18.5090 
  234.8750     2.2370    63.4720   117.6350   109.5220   101.9680    22.9010   -18.2690 
  235.0000     2.2400    59.9440   117.2810   108.4730   103.0250    22.9280   -18.1030 
  235.1250     2.2380    60.5940   121.3870   111.7110   108.6430    22.9730   -17.9460 
  235.2500     2.2320    62.3260   128.0990   117.6740   111.9580    23.0540   -17.7760 
  235.3750     2.2260    62.2160   134.5190   123.9250   113.1590    23.1860   -17.6300 
  235.5000     2.2200    60.4240   136.5580   126.9380   113.4220    23.4220   -17.4990 
  235.6250     2.2160    60.1100   129.8100   122.5680   110.0290    23.6120   -17.4040 
  235.7500     2.2150    62.8820   116.6720   112.1350    96.5060    23.6920   -17.3920 
  235.8750     2.2190    66.7080   101.0850    98.6320    81.0600    23.6430   -17.4670 
  236.0000     2.2300    68.1440    86.7780    85.4380    72.5550    23.5180   -17.5350 
  236.1250     2.2480    68.1670    76.2130    75.2000    68.7600    23.4460   -17.5370 
  236.2500     2.2670    70.0280    68.8390    67.8870    67.0360    23.4820   -17.5050 
  236.3750     2.2830    72.1300    63.9660    62.9920    62.2470    23.4830   -17.4590 
  236.5000     2.2930    70.2530    60.8680    59.8310    56.6540    23.3510   -17.4190 
  236.6250     2.2920    66.5970    59.0560    57.9270    56.5190    23.2530   -17.4130 
  236.7500     2.2830    65.3200    57.8920    56.7000    57.6900    23.2160   -17.4530 
  236.8750     2.2680    64.8160    57.1810    56.0070    58.3370    23.2310   -17.4930 
  237.0000     2.2460    62.7300    56.8190    55.7880    57.8590    23.3040   -17.4990 
  237.1250     2.2120    60.3410    56.7350    55.9720    58.5180    23.6770   -17.4580 
  237.2500     2.1770    60.5100    56.7680    56.2560    60.2380    24.4130   -17.4100 
  237.3750     2.1590    61.5740    56.8180    56.4020    58.0400    24.9330   -17.3900 
  237.5000     2.1730    61.3210    56.8430    56.3290    51.4610    24.7690   -17.4250 
  237.6250     2.2210    60.1740    56.9490    56.2280    45.6440    23.9880   -17.5340 
  237.7500     2.2780    60.7150    57.2650    56.3550    44.3240    23.4050   -17.6300 
  237.8750     2.3190    62.5740    57.8050    56.7590    47.9800    23.2210   -17.6570 
  238.0000     2.3310    62.0550    58.4240    57.3040    53.8690    23.3280   -17.5960 
  238.1250     2.3160    57.9410    58.8040    57.6570    60.9030    23.6200   -17.5000 
  238.2500     2.2920    55.7500    58.7020    57.5710    64.0190    23.7900   -17.4100 
  238.3750     2.2640    57.1630    58.0310    56.9480    62.3160    23.9610   -17.2930 
  238.5000     2.2360    59.2030    56.8630    55.8090    57.0170    24.2420   -17.1140 
  238.6250     2.2210    59.7960    55.3810    54.2430    56.4440    24.4910   -16.8270 
  238.7500     2.2270    61.0510    53.9940    52.6620    60.3420    24.4530   -16.4760 
  238.8750     2.2480    62.2510    53.1250    51.5410    65.2260    24.2240   -16.0980 
  239.0000     2.2680    61.3850    53.2140    51.3400    60.5560    23.9330   -15.7230 
  239.1250     2.2720    59.6250    54.9260    52.6420    52.9360    23.7710   -15.3470 
  239.2500     2.2710    59.8520    58.3510    55.4860    52.8800    23.6330   -14.9750 
  239.3750     2.2720    60.8460    63.5540    59.9380    59.7510    23.4360   -14.6440 
  239.5000     2.2730    61.0330    70.2500    65.7740    61.5010    23.3250   -14.3920 
  239.6250     2.2580    62.0570    77.7950    72.4100    57.9380    23.2950   -14.2500 
  239.7500     2.2330    62.8410    85.0750    78.8050    53.4570    23.2200   -14.1630 
  239.8750     2.2120    62.8140    91.3420    84.2610    47.5910    23.0950   -14.1080 
  240.0000     2.2040    63.0750    96.1540    88.3490    42.2090    22.9350   -14.0870 
  240.1250     2.2070    65.4530    99.1030    90.6910    45.4690    22.9020   -14.1480 
  240.2500     2.2150    66.8300   100.5220    91.6240    59.9070    23.2010   -14.2940 
  240.3750     2.2220    65.0810   100.6970    91.4080    77.4510    23.6700   -14.4960 
  240.5000     2.2240    64.6630   100.2840    90.5850    83.4310    23.9930   -14.6970 
  240.6250     2.2270    65.8130   100.1610    89.9180    84.2760    23.9590   -14.8770 
  240.7500     2.2330    64.5330   100.6110    89.7860    88.0970    23.6970   -15.0390 
  240.8750     2.2350    61.5860   101.3880    90.0910    91.2560    23.4990   -15.1870 
  241.0000     2.2300    60.5760   102.0620    90.4950    94.1940    23.5810   -15.3200 
  241.1250     2.2230    62.8250   102.2240    90.6590    96.5890    24.0130   -15.3990 
