~V
VERS. 2.00: Ver 2.00
~W
STRT.M 58.0000:
STOP.M 271.0000:
STEP.M 0.1250:
NULL. -999.2500:
UWI. F11072:
~C
DEPT.M :
DEN.GM/CC :
GR.API :
RML.OHMM :
RI. :
RXO.OHMM :
CALI.CM :
SP.MV :
~A
# ...
  136.7500     2.2330    61.1850     9.1740     8.5150     8.9380    24.3260    -8.0910 
  136.8750     2.2400    66.0240     8.8730     8.3170     8.3780    24.2060    -8.0030 
  137.0000     2.2320    67.7190     8.7720     8.2260     7.9770    24.1410    -7.8650 
  137.1250     2.2130    62.9730     8.9490     8.3370     7.9500    24.1430    -7.6790 
  137.2500     2.1960    58.7730     9.2590     8.5750     8.2510    24.2290    -7.4640 
  137.3750     2.1940    58.3410     9.5310     8.8180     8.7550    24.3690    -7.2160 
  137.5000     2.2140    58.5620     9.5820     8.9180     9.1070    24.5030    -6.9360 
  137.6250     2.2550    59.9100     9.2190     8.6940     9.0570    24.5380    -6.6310 
  137.7500     2.3020    64.7910     8.5190     8.1680     8.7330    24.4190    -6.3050 
  137.8750     2.3390    72.1460     7.6210     7.4380     8.0970    24.2530    -5.9640 
  138.0000     2.3590    76.3970     6.7160     6.6530     7.1760    24.2010    -5.6180 
  138.1250     2.3610    73.8660     6.0040     5.9870     6.3260    24.3830    -5.2880 
  138.2500     2.3550    72.6860     5.5330     5.5080     5.8890    24.6480    -4.9870 
  138.3750     2.3480    74.9680     5.2940     5.2280     5.7050    24.8770    -4.7280 
  138.5000     2.3420    75.1750     5.2410     5.1250     5.6590    24.9680    -4.5160 
  138.6250     2.3390    69.6850     5.3230     5.1660     5.6850    24.9720    -4.3570 
  138.7500     2.3370    66.9640     5.4430     5.2600     5.6430    24.9430    -4.2370 
  138.8750     2.3360    71.4130     5.5320     5.3410     5.6980    24.8500    -4.1540 
  139.0000     2.3370    76.9480     5.5300     5.3500     5.9470    24.7410    -4.0980 
  139.1250     2.3400    77.9660     5.3800     5.2280     5.9630    24.6790    -4.0640 
  139.2500     2.3460    77.9350     5.1240     4.9990     5.7900    24.6470    -4.0550 
  139.3750     2.3510    79.0880     4.8330     4.7170     5.5670    24.6190    -4.0770 
  139.5000     2.3530    80.0520     4.5980     4.4590     5.3470    24.5660    -4.1330 
  139.6250     2.3430    81.0270     4.5390     4.3290     5.1300    24.4510    -4.2290 
  139.7500     2.3230    82.5800     4.6890     4.3700     4.9700    24.3740    -4.3640 
  139.8750     2.3000    82.3590     5.0740     4.6130     5.1340    24.3320    -4.5340 
  140.0000     2.2840    78.7860     5.7080     5.0780     5.6970    24.2770    -4.7360 
  140.1250     2.2920    72.7700     6.6530     5.8250     6.6590    24.2510    -4.9770 
  140.2500     2.3240    68.8130     7.8470     6.8120     7.6900    24.2140    -5.2310 
  140.3750     2.3680    67.2350     9.2150     7.9910     9.1240    24.1810    -5.4880 
  140.5000     2.4000    66.2250    10.5980     9.2480    11.2080    24.2220    -5.7460 
  140.6250     2.3910    62.9660    11.7020    10.3490    13.9530    24.3680    -5.9920 
  140.7500     2.3470    59.3320    12.3310    11.0890    15.8840    24.5720    -6.2230 
  140.8750     2.2890    57.6380    12.4140    11.3520    15.9180    24.7700    -6.4370 
  141.0000     2.2400    57.1080    12.0620    11.1790    13.8900    24.8990    -6.6350 
  141.1250     2.2170    56.4850    11.5490    10.7610    11.7030    24.9590    -6.8110 
  141.2500     2.2150    57.3350    11.1790    10.3880    10.8460    25.0200    -6.9690 
  141.3750     2.2260    62.0070    11.0530    10.1850    10.6310    25.0350    -7.0960 
  141.5000     2.2370    68.6030    11.1360    10.1610    10.6000    25.0060    -7.1900 
  141.6250     2.2400    74.0250    11.3110    10.2570    10.5930    24.9980    -7.2580 
  141.7500     2.2340    74.6540    11.4390    10.3540    10.5420    25.0030    -7.2980 
  141.8750     2.2230    69.7580    11.4710    10.3920    10.4240    25.0230    -7.3100 
  142.0000     2.2100    64.2230    11.4080    10.3520    10.2960    25.0950    -7.2960 
  142.1250     2.2000    60.4410    11.2870    10.2400    10.2760    25.1530    -7.2500 
  142.2500     2.1960    57.8190    11.1610    10.1010    10.2920    25.1620    -7.1920 
  142.3750     2.1960    56.0040    11.0540     9.9630    10.2330    25.1550    -7.1400 
  142.5000     2.1970    56.7890    10.9780     9.8470    10.1860    25.1190    -7.0960 
  142.6250     2.1990    58.4340    10.9490     9.7810    10.1920    25.0320    -7.0530 
  142.7500     2.2010    56.4450    10.9880     9.7830    10.2050    24.9910    -7.0170 
  142.8750     2.2080    52.5300    11.1490     9.8980    10.2620    24.9640    -6.9810 
  143.0000     2.2240    52.2990    11.5060    10.1870    10.4490    24.9360    -6.9360 
  143.1250     2.2550    56.7700    12.1960    10.7650    10.8880    24.9390    -6.8770 
  143.2500     2.2930    59.7040    13.2240    11.6460    11.6000    24.9450    -6.8020 
  143.3750     2.3290    59.4960    14.5620    12.8200    12.7330    24.9600    -6.6980 
  143.5000     2.3540    59.5930    16.0600    14.1890    14.3760    24.9360    -6.5610 
  143.6250     2.3680    64.2080    17.3370    15.4600    16.4270    24.7780    -6.3900 
  143.7500     2.3790    67.3720    17.9610    16.2400    17.7090    24.5490    -6.1980 
  143.8750     2.3890    65.4510    17.5800    16.1720    18.7180    24.3690    -5.9990 
  144.0000     2.3970    61.8570    16.0880    15.0840    19.6030    24.2310    -5.8100 
  144.1250     2.3970    64.1380    13.6820    13.0600    19.1990    24.0610    -5.6500 
  144.2500     2.3880    71.0130    11.1250    10.7850    15.6460    23.8520    -5.5190 
  144.3750     2.3730    76.3440     8.9330     8.7410    10.4330    23.6530    -5.4250 
  144.5000     2.3560    78.5390     7.3880     7.2080     7.0610    23.6170    -5.3780 
  144.6250     2.3340    78.0920     6.6290     6.3450     6.0680    23.7760    -5.3880 
  144.7500     2.3050    76.6910     6.3980     5.9760     6.0990    23.9510    -5.4340 
  144.8750     2.2730    76.4770     6.5270     5.9830     6.5320    24.0310    -5.5020 
  145.0000     2.2410    76.0140     6.8620     6.2390     6.8960    24.0600    -5.5820 
  145.1250     2.2160    72.1410     7.2710     6.6310     7.1980    24.0790    -5.6660 
  145.2500     2.1910    67.8240     7.6500     7.0280     7.4610    24.1670    -5.7560 
  145.3750     2.1630    66.6020     7.9390     7.3560     7.7400    24.3040    -5.8510 
  145.5000     2.1320    65.3380     8.0850     7.5520     7.8370    24.4380    -5.9350 
  145.6250     2.1120    61.2220     8.0180     7.5390     7.9980    24.5900    -5.9970 
  145.7500     2.1150    60.5550     7.7880     7.3470     8.3290    24.7540    -6.0450 
  145.8750     2.1420    66.3900     7.4820     7.0450     8.4590    24.8660    -6.0870 
  146.0000     2.1800    75.0020     7.2220     6.7400     7.9420    24.8640    -6.1280 
  146.1250     2.2100    78.1050     7.1390     6.5510     7.1090    24.7360    -6.1640 
  146.2500     2.2240    74.6580     7.2150     6.4950     6.9980    24.5880    -6.1970 
  146.3750     2.2320    68.1860     7.3710     6.5270     7.8330    24.5160    -6.2320 
  146.5000     2.2440    63.3740     7.4930     6.5700     8.8320    24.5220    -6.2760 
  146.6250     2.2640    64.5930     7.4870     6.5490     8.9050    24.5350    -6.3330 
  146.7500     2.2790    67.5180     7.4130     6.4800     8.1760    24.5260    -6.4120 
  146.8750     2.2790    68.5650     7.4040     6.4480     7.3670    24.5300    -6.5150 
  147.0000     2.2610    67.2320     7.6090     6.5600     7.3440    24.5320    -6.6390 
  147.1250     2.2330    64.9200     8.1560     6.9360     7.9320    24.5660    -6.7840 
  147.2500     2.2060    61.8960     8.9420     7.5310     8.9170    24.6670    -6.9290 
  147.3750     2.1840    57.4520     9.8220     8.2610    10.1990    24.7820    -7.0650 
  147.5000     2.1690    54.6100    10.6270     9.0010    11.2730    24.8930    -7.1890 
  147.6250     2.1620    56.8090    11.1720     9.5840    11.9400    24.9740    -7.3020 
  147.7500     2.1590    61.4950    11.4430     9.9430    12.7900    25.0280    -7.3940 
  147.8750     2.1620    65.8240    11.4740    10.0720    14.2660    25.0630    -7.4600 
