~V
VERS. 2.00: Ver 2.00
~W
STRT.M 50.0000:
STOP.M 220.0000:
STEP.M 0.1250:
NULL. -999.2500:
UWI. F11004:
~C
DEPT.M :
SP.MV :
GR.API :
RML.OHMM :
RI. :
RXO.OHMM :
CALI.CM :
DEN.GM/CC :
~A
# ...
  106.2500   -12.0190    78.8440     8.6160     7.7600     6.5260    23.9110     2.3490 
  106.3750   -12.0190    86.8210     6.2730     5.8850     4.3370    23.6930     2.3080 
  106.5000   -12.3130    93.0860     5.3520     4.9480     4.4490    23.4940     2.2960 
  106.6250   -12.8000    95.8900     5.3580     4.7010     5.4060    23.4180     2.2840 
  106.7500   -13.4050    92.1610     5.9530     4.9880     6.6180    23.4030     2.2640 
  106.8750   -14.0810    83.7920     6.7890     5.6160     7.4630    23.4110     2.2460 
  107.0000   -14.7550    78.0010     7.4820     6.3190     7.2980    23.4990     2.2390 
  107.1250   -15.3650    77.4460     7.8470     6.8430     6.8880    23.6520     2.2380 
  107.2500   -15.9110    79.1220     7.9140     7.1150     6.6900    23.8190     2.2380 
  107.3750   -16.3930    79.2060     7.8350     7.1900     6.6550    23.9760     2.2340 
  107.5000   -16.7940    75.9840     7.7670     7.1740     6.7520    24.1270     2.2200 
  107.6250   -17.1560    71.9230     7.7560     7.1500     6.9930    24.2590     2.2010 
  107.7500   -17.4800    71.4320     7.7540     7.1130     7.3170    24.3400     2.1840 
  107.8750   -17.7290    74.3460     7.6940     7.0220     7.5340    24.3550     2.1760 
  108.0000   -17.9790    75.2140     7.5360     6.8350     7.3930    24.3320     2.1830 
  108.1250   -18.3110    72.2340     7.3370     6.6010     6.9490    24.3380     2.1980 
  108.2500   -18.6940    69.9280     7.1790     6.3880     6.5310    24.4010     2.2130 
  108.3750   -19.1190    70.5840     7.1370     6.2710     6.4320    24.4840     2.2190 
  108.5000   -19.6030    72.0190     7.2800     6.3180     6.7020    24.5010     2.2140 
  108.6250   -20.1470    72.4210     7.5650     6.5060     7.1250    24.3620     2.2020 
  108.7500   -20.7240    72.5070     7.9300     6.7930     7.6120    24.0230     2.1850 
  108.8750   -21.3090    70.4160     8.2840     7.1140     8.0820    23.5360     2.1670 
  109.0000   -21.7970    64.4750     8.5250     7.3760     8.3710    23.0930     2.1530 
  109.1250   -22.1790    59.8120     8.6390     7.5270     8.4290    22.8530     2.1470 
  109.2500   -22.5000    60.7290     8.6450     7.5580     8.3480    22.8220     2.1470 
  109.3750   -22.7120    63.7370     8.5880     7.4950     8.3540    22.9370     2.1470 
  109.5000   -22.7410    63.5050     8.5090     7.3860     8.7600    23.0870     2.1480 
  109.6250   -22.6570    62.7570     8.4440     7.2820     9.3060    23.1540     2.1470 
  109.7500   -22.5310    64.0010     8.4080     7.2050     9.4510    23.1760     2.1460 
  109.8750   -22.3810    65.3140     8.4120     7.1680     8.9470    23.2670     2.1470 
  110.0000   -22.2680    66.0620     8.4640     7.1870     8.3160    23.4230     2.1500 
  110.1250   -22.2130    67.8930     8.5460     7.2520     8.1670    23.4980     2.1510 
  110.2500   -22.2040    67.8090     8.6470     7.3550     8.4900    23.5010     2.1470 
  110.3750   -22.2280    63.4460     8.7530     7.4730     9.0080    23.6090     2.1420 
  110.5000   -22.2750    61.5640     8.8470     7.5830     9.3600    23.9290     2.1430 
  110.6250   -22.2910    63.9560     8.9170     7.6710     9.5260    24.2750     2.1520 
  110.7500   -22.2940    66.2340     8.9580     7.7330     9.6850    24.4770     2.1630 
  110.8750   -22.3000    65.3110     8.9730     7.7710     9.8390    24.4930     2.1720 
  111.0000   -22.2260    66.1620     8.9530     7.7780     9.7550    24.4090     2.1800 
  111.1250   -22.0490    70.1600     8.9020     7.7580     9.4020    24.3200     2.1870 
  111.2500   -21.8030    72.4960     8.8180     7.7190     9.0230    24.1910     2.1930 
  111.3750   -21.5420    70.5640     8.7160     7.6700     8.9060    23.9370     2.1970 
  111.5000   -21.2930    65.6330     8.6240     7.6250     9.0680    23.5660     2.1980 
  111.6250   -21.0650    61.2880     8.5700     7.5990     9.1530    23.3100     2.1990 
  111.7500   -20.8190    58.7920     8.5710     7.6060     8.9480    23.2980     2.2000 
  111.8750   -20.5580    59.1500     8.6420     7.6640     8.5490    23.4540     2.1980 
  112.0000   -20.3640    63.2100     8.7870     7.7830     8.3260    23.5730     2.1940 
  112.1250   -20.1760    66.2430     8.9750     7.9350     8.3800    23.5390     2.1930 
  112.2500   -19.9240    66.8720     9.1650     8.0840     8.5700    23.3680     2.1950 
  112.3750   -19.6420    66.1050     9.2960     8.1850     8.6880    23.1600     2.2000 
  112.5000   -19.3270    66.5130     9.2920     8.1770     8.6570    23.0650     2.2040 
  112.6250   -18.9670    70.1990     9.1600     8.0590     8.5960    23.1050     2.2070 
  112.7500   -18.5610    73.9860     8.9410     7.8560     8.5230    23.2180     2.2090 
  112.8750   -18.1150    73.3580     8.7320     7.6380     8.2870    23.3340     2.2160 
  113.0000   -17.6460    69.6010     8.7480     7.5610     8.0790    23.4210     2.2320 
  113.1250   -17.2110    66.5830     9.1630     7.7590     8.1430    23.5440     2.2570 
  113.2500   -16.7710    64.3090    10.1060     8.3450     8.5030    23.7020     2.2920 
  113.3750   -16.3010    60.3730    11.5860     9.3760     9.1240    23.7460     2.3430 
  113.5000   -15.8610    57.2830    13.3810    10.8130    10.3760    23.5820     2.4080 
  113.6250   -15.4490    56.7430    14.8850    12.2330    12.5010    23.4730     2.4580 
  113.7500   -15.0820    56.4420    15.6230    13.1970    14.7860    23.6160     2.4720 
  113.8750   -14.7740    55.6460    15.5390    13.5080    14.9770    23.9190     2.4560 
  114.0000   -14.5200    56.0310    15.0650    13.3540    12.7950    24.1460     2.4350 
  114.1250   -14.2790    57.1150    14.7460    13.1640    11.9620    24.2940     2.4300 
  114.2500   -14.0880    58.1220    14.6490    13.0390    15.2930    24.4140     2.4470 
  114.3750   -13.9000    59.3850    14.4820    12.8200    24.7790    24.4430     2.4800 
  114.5000   -13.7210    64.1910    13.6590    12.0840    30.2980    24.2920     2.4890 
  114.6250   -13.6340    71.6160    12.1120    10.7760    19.8760    24.1510     2.4500 
  114.7500   -13.6380    78.3390    10.2060     9.1850     9.4680    24.1410     2.3890 
  114.8750   -13.6920    81.7560     8.4950     7.7380     5.3610    24.1610     2.3400 
  115.0000   -13.7750    81.3030     7.4870     6.8060     5.1130    24.0620     2.3100 
  115.1250   -13.9230    79.8260     7.1360     6.3710     5.7290    23.9370     2.2870 
  115.2500   -14.1390    78.0500     7.2540     6.3380     6.2090    23.9070     2.2670 
  115.3750   -14.4170    77.0450     7.5490     6.5260     6.5030    23.9690     2.2490 
  115.5000   -14.7190    77.6860     7.7350     6.7240     6.3970    24.0890     2.2340 
  115.6250   -15.0330    78.8440     7.7630     6.8250     5.9970    24.2480     2.2220 
  115.7500   -15.4110    78.1440     7.7270     6.8560     5.6850    24.4030     2.2140 
  115.8750   -15.8380    74.5930     7.7540     6.8920     5.7440    24.4850     2.2130 
  116.0000   -16.2540    70.9040     7.9510     7.0210     6.3080    24.4480     2.2130 
  116.1250   -16.6610    69.2180     8.2720     7.2500     6.9870    24.3890     2.2120 
  116.2500   -17.0450    69.2110     8.6230     7.5370     7.4430    24.3830     2.2090 
  116.3750   -17.3630    68.5870     8.8810     7.7930     7.7220    24.4210     2.2080 
  116.5000   -17.5580    66.0900     8.9350     7.9000     8.0260    24.4510     2.2090 
  116.6250   -17.6210    66.7190     8.8430     7.8620     8.0920    24.4410     2.2080 
  116.7500   -17.5070    71.1140     8.7240     7.7460     7.6330    24.3960     2.2030 
  116.8750   -17.2700    73.0650     8.6940     7.6430     6.9670    24.3370     2.1950 
  117.0000   -16.9130    70.9140     8.7680     7.5910     6.7540    24.2800     2.1900 
  117.1250   -16.4330    70.6770     8.7750     7.5040     7.0430    24.2060     2.1940 
  117.2500   -15.8760    72.2840     8.5380     7.2680     7.5660    24.0880     2.2090 
  117.3750   -15.3590    72.4870     7.9740     6.8180     7.6410    23.9700     2.2340 
