~V
VERS. 2.00: Ver 2.00
~W
STRT.M 57.0000:
STOP.M 283.0000:
STEP.M 0.1250:
NULL. -999.2500:
UWI. F11039:
~C
DEPT.M :
SP.MV :
GR.API :
RML.OHMM :
RI. :
RXO.OHMM :
CALI.CM :
DEN.GM/CC :
~A
# ...
  169.5000   -11.0800    61.3740   115.2190   106.8620    97.7040    24.5810     2.2390 
  169.6250   -11.2530    62.2440   121.2400   111.4470   103.0560    24.6410     2.2420 
  169.7500   -11.4290    61.4320   126.9400   115.2450   103.4410    24.6800     2.2470 
  169.8750   -11.5790    58.5080   133.9890   119.6740   101.3390    24.7180     2.2530 
  170.0000   -11.7110    55.9160   144.2100   126.4800   100.1440    24.7610     2.2570 
  170.1250   -11.8150    54.4140   159.4450   137.3300   104.3180    24.7990     2.2560 
  170.2500   -11.8880    54.6530   181.1640   153.5090   117.3050    24.8120     2.2490 
  170.3750   -11.9870    55.0980   210.8380   176.2070   143.2700    24.7920     2.2350 
  170.5000   -12.0760    53.9410   245.2680   202.7800   177.4300    24.7450     2.2200 
  170.6250   -12.1510    51.7480   280.0980   229.7690   217.4280    24.6650     2.2070 
  170.7500   -12.2260    50.2530   309.4610   252.6730   271.9980    24.5620     2.1990 
  170.8750   -12.2920    50.2640   325.7010   265.8750   292.6360    24.5520     2.1950 
  171.0000   -12.3340    50.2540   329.1420   269.6380   288.2870    24.6210     2.1950 
  171.1250   -12.3570    49.6020   323.0300   266.1540   259.7700    24.7240     2.1970 
  171.2500   -12.3810    50.0250   312.3390   258.9690   214.3360    24.7920     2.2000 
  171.3750   -12.3320    53.0290   300.4410   250.7960   196.8800    24.7900     2.2030 
  171.5000   -12.2810    55.2990   287.6060   242.1310   202.1350    24.7530     2.2050 
  171.6250   -12.2570    53.7190   272.3560   231.8490   207.6800    24.7070     2.2060 
  171.7500   -12.2300    50.7270   253.5930   218.8940   203.7680    24.6600     2.2070 
  171.8750   -12.1810    51.8100   231.1920   202.7570   186.5600    24.6290     2.2080 
  172.0000   -12.1330    56.5420   207.6260   185.1130   165.4810    24.6230     2.2100 
  172.1250   -12.0890    61.7710   185.1230   167.6740   138.5490    24.6350     2.2130 
  172.2500   -12.0180    63.8490   165.4300   152.0040   123.7540    24.6600     2.2170 
  172.3750   -11.9910    62.2940   150.0120   139.5340   123.2150    24.6980     2.2210 
  172.5000   -11.9640    60.9350   138.1750   129.9700   121.2510    24.7340     2.2260 
  172.6250   -11.9230    60.6140   129.3770   122.9740   112.5230    24.7510     2.2290 
  172.7500   -11.9040    60.1950   122.8600   117.9310   102.8440    24.7570     2.2310 
  172.8750   -11.9240    59.9550   117.8950   114.1370    99.4210    24.7550     2.2320 
  173.0000   -11.9540    59.8080   113.4270   110.5850    98.0780    24.7490     2.2320 
  173.1250   -11.9880    57.2590   108.9380   106.7490    95.3040    24.7430     2.2330 
  173.2500   -12.0460    54.2470   104.1600   102.3560    90.9030    24.7400     2.2360 
  173.3750   -12.1220    56.9970    99.0740    97.3400    84.9260    24.7380     2.2390 
  173.5000   -12.1940    62.2980    94.1460    92.1860    80.5120    24.7380     2.2440 
  173.6250   -12.2710    63.0710    90.2570    87.6990    76.3050    24.7360     2.2500 
  173.7500   -12.3410    59.6150    88.7740    85.1570    72.6000    24.7290     2.2580 
  173.8750   -12.3920    56.3630    92.4210    87.1050    69.3550    24.7100     2.2650 
  174.0000   -12.4430    54.2440   102.6460    95.0390    64.2940    24.6820     2.2660 
  174.1250   -12.5120    53.1670   121.2070   110.7060    64.4440    24.6610     2.2580 
  174.2500   -12.5870    52.8790   149.0030   134.9780    79.6390    24.6650     2.2420 
  174.3750   -12.6460    53.3600   185.3010   167.4120   125.0950    24.6710     2.2230 
  174.5000   -12.7190    54.1820   222.2680   201.9750   183.7210    24.6750     2.2070 
  174.6250   -12.7750    54.9140   253.6340   232.5470   220.7080    24.6760     2.1960 
  174.7500   -12.8210    55.3380   274.2400   253.6720   228.0510    24.6770     2.1890 
  174.8750   -12.8000    54.9020   277.5790   261.8500   234.0340    24.6800     2.1850 
  175.0000   -12.7610    55.0050   280.4780   262.7780   243.0830    24.6910     2.1840 
  175.1250   -12.7310    56.5140   282.9280   261.2510   251.4030    24.7070     2.1860 
  175.2500   -12.7130    57.5700   282.7530   259.8880   257.1290    24.7250     2.1910 
  175.3750   -12.6940    56.8140   280.6670   258.5990   261.9560    24.7330     2.1980 
  175.5000   -12.6560    54.2370   277.4810   255.9170   265.0460    24.7360     2.2050 
  175.6250   -12.6140    52.2100   273.3220   250.6770   262.2100    24.7360     2.2130 
  175.7500   -12.5680    52.2430   266.5990   242.6190   257.1190    24.7370     2.2210 
  175.8750   -12.5670    54.3550   257.7880   232.7030   250.0910    24.7380     2.2290 
  176.0000   -12.5760    57.5840   248.5990   223.2020   233.7970    24.7400     2.2350 
  176.1250   -12.5520    58.6680   238.5350   215.3060   209.0040    24.7390     2.2400 
  176.2500   -12.5030    56.9120   229.2730   208.8600   193.2280    24.7360     2.2410 
  176.3750   -12.4530    54.9220   219.3130   202.1140   194.8730    24.7330     2.2420 
  176.5000   -12.3880    54.9450   206.7780   193.1730   201.4380    24.7250     2.2440 
  176.6250   -12.3320    55.9780   191.3870   181.4030   201.6670    24.7060     2.2490 
  176.7500   -12.2610    56.5110   174.5470   167.6550   176.4220    24.6670     2.2540 
  176.8750   -12.2050    58.7560   159.0600   154.1650   141.3570    24.6040     2.2560 
  177.0000   -12.1830    61.9200   146.6240   142.8860   118.4430    24.5370     2.2550 
  177.1250   -12.1880    63.5690   137.6340   134.5630   112.6440    24.4900     2.2520 
  177.2500   -12.2080    61.5320   131.7930   129.1750   117.0410    24.4690     2.2510 
  177.3750   -12.2450    57.9970   129.0850   126.8220   127.0570    24.4600     2.2510 
  177.5000   -12.2760    56.9440   128.7180   126.7600   136.2040    24.4470     2.2500 
  177.6250   -12.3070    58.0960   130.3380   128.6660   134.7690    24.4170     2.2470 
  177.7500   -12.3560    59.3580   133.3130   131.9840   122.1370    24.3690     2.2430 
  177.8750   -12.4150    59.1270   136.4500   135.6630   125.1340    24.3140     2.2420 
  178.0000   -12.4580    59.3750   138.3830   138.3400   132.2020    24.3210     2.2460 
  178.1250   -12.4970    60.2410   138.4260   139.2440   135.7150    24.4070     2.2540 
  178.2500   -12.5470    59.3800   136.6900   138.3190   131.8950    24.5390     2.2610 
  178.3750   -12.5850    58.0730   134.0330   136.2010   127.8600    24.6110     2.2610 
  178.5000   -12.6370    57.4140   131.8360   134.2630   129.8380    24.6070     2.2530 
  178.6250   -12.6890    57.7920   130.7390   133.2690   146.4350    24.5740     2.2420 
  178.7500   -12.7690    58.7840   130.6050   133.2440   169.7300    24.5960     2.2310 
  178.8750   -12.8400    58.3700   130.4830   133.3200   166.3140    24.7060     2.2260 
  179.0000   -12.9100    55.7020   129.1720   132.2190   153.1110    24.7720     2.2240 
  179.1250   -12.9950    52.0270   125.8100   128.9780   148.4080    24.7840     2.2250 
  179.2500   -13.1010    49.9220   119.9810   123.0860   142.4320    24.7690     2.2270 
  179.3750   -13.2200    50.5920   111.9670   114.6630   132.3340    24.7460     2.2300 
  179.5000   -13.3670    53.2500   103.9960   105.8900   120.7410    24.7220     2.2360 
  179.6250   -13.5320    56.4010    98.5930    99.2400   110.4630    24.6820     2.2450 
  179.7500   -13.7070    56.7710    98.4730    97.4230    99.2270    24.6040     2.2560 
  179.8750   -13.8810    54.6070   107.9120   104.6690    88.3350    24.4700     2.2620 
  180.0000   -14.0190    53.6440   128.0870   122.1840    91.2050    24.3380     2.2620 
  180.1250   -14.1340    53.9920   160.4090   151.0790   120.9500    24.2970     2.2570 
  180.2500   -14.2090    54.2510   204.3830   190.3390   176.5700    24.3550     2.2490 
  180.3750   -14.2540    54.9740   256.4660   235.8390   250.9040    24.4820     2.2420 
  180.5000   -14.2560    55.3470   306.6330   278.4220   293.3020    24.5860     2.2390 
  180.6250   -14.2120    53.5130   345.7640   310.6600   318.7600    24.6440     2.2380 
