~V
VERS. 2.00: Ver 2.00
~W
STRT.M 55.0000:
STOP.M 281.0000:
STEP.M 0.1250:
NULL. -999.2500:
UWI. F11051:
~C
DEPT.M :
SP.MV :
GR.API :
RML.OHMM :
RI. :
RXO.OHMM :
CALI.CM :
DEN.GM/CC :
~A
# ...
  268.7500    -8.0000    58.7050     7.3250     6.2690     7.2230    24.1210     2.3440 
  268.8750    -7.9890    58.1580     7.2130     6.1670     7.5240    24.0300     2.3940 
  269.0000    -7.9830    56.8660     7.1380     6.0990     7.4470    23.9640     2.4410 
  269.1250    -7.9840    56.3000     7.0900     6.0590     7.1490    24.0320     2.4520 
  269.2500    -7.9690    56.1100     7.0610     6.0340     7.0130    24.0620     2.4240 
  269.3750    -7.9410    55.6500     7.0450     6.0240     6.9550    24.1450     2.3730 
  269.5000    -7.9120    55.1000     7.0280     6.0240     6.7730    24.3510     2.3190 
  269.6250    -7.9230    55.1650     6.9990     6.0260     6.6350    24.7100     2.2830 
  269.7500    -7.9260    55.2030     6.9620     6.0190     6.6750    24.9530     2.2620 
  269.8750    -7.9230    53.9520     6.9320     5.9960     6.7640    24.8230     2.2490 
  270.0000    -7.9270    52.9100     6.9250     5.9560     6.8300    24.6210     2.2360 
  270.1250    -7.9030    53.9610     6.9430     5.9080     7.1090    24.5610     2.2280 
  270.2500    -7.8910    55.4850     6.9570     5.8660     7.3040    24.7700     2.2330 
  270.3750    -7.8750    55.4850     6.9450     5.8350     7.3650    25.1790     2.2520 
  270.5000    -7.8620    55.4850     6.9020     5.8140     6.8650    25.3840     2.2750 
  270.6250    -7.8330    55.4850     6.8530     5.7920     6.1600    25.4380     2.2780 
  270.7500    -7.8020    55.4850     6.8250     5.7580     5.5680    25.2100     2.2580 
  270.8750    -7.7750    55.4850     6.8270     5.7140     5.2590    25.2250     2.2240 
  271.0000    -7.7480    55.4850     6.8400     5.6740     5.1530    25.9830     2.1890 
  271.1250    -7.7400    55.4850     6.8390     5.6630     4.9450    26.7420     2.1710 
  271.2500    -7.7100    55.4850     6.8420     5.6900     4.7750    26.5680     2.1740 
  271.3750    -7.6980    55.4850     6.8830     5.7560     4.8340    25.8650     2.1990 
  271.5000    -7.7140    55.4850     6.9930     5.8570     5.1300    25.3060     2.2450 
  271.6250    -7.7270    55.4850     7.1980     5.9910     5.4530    24.8240     2.3020 
  271.7500    -7.7580    55.4850     7.4650     6.1550     5.8280    24.4090     2.3560 
  271.8750    -7.7940    55.4850     7.7520     6.3430     6.1460    24.2090     2.4000 
  272.0000    -7.8020    55.4850     8.0060     6.5320     6.2940    24.1970     2.4290 
  272.1250    -7.7980    55.4850     8.1600     6.6780     6.2730    24.1510     2.4340 
  272.2500    -7.8000    55.4850     8.1930     6.7490     6.2480    24.1470     2.4190 
  272.3750    -7.8110    55.4850     8.1030     6.7300     6.1950    24.1430     2.3920 
  272.5000    -7.7980    55.4850     7.9230     6.6330     6.1510    24.1470     2.3630 
  272.6250    -7.7600    55.4850     7.7230     6.4820     6.2630    24.2210     2.3430 
  272.7500    -7.6950    55.4850     7.5710     6.3180     6.6960    24.3490     2.3320 
  272.8750    -7.6120    55.4850     7.4860     6.1620     7.1030    24.4720     2.3240 
  273.0000    -7.5320    55.4850     7.4570     6.0320     7.5390    24.5790     2.3150 
  273.1250    -7.4470    55.4850     7.4480     5.9550     7.7050    24.8350     2.3140 
  273.2500    -7.3680    55.4850     7.4240     5.9300     7.3010    24.9710     2.3220 
  273.3750    -7.2570    55.4850     7.3880     5.9570     6.4120    25.0180     2.3350 
  273.5000    -7.1560    55.4850     7.3650     6.0210     5.9940    25.0280     2.3460 
  273.6250    -7.0620    55.4850     7.3810     6.1000     6.2170    24.9100     2.3490 
  273.7500    -6.9520    55.4850     7.4100     6.1710     6.7660    24.8470     2.3410 
  273.8750    -6.8570    55.4850     7.4230     6.2240     7.0560    24.9940     2.3200 
  274.0000    -6.7610    55.4850     7.4090     6.2580     6.8400    25.2830     2.2890 
  274.1250    -6.6800    55.4850     7.3880     6.2730     6.4090    25.2950     2.2550 
  274.2500    -6.5980    55.4850     7.3870     6.2780     5.9630    25.3560     2.2280 
  274.3750    -6.5250    55.4850     7.4090     6.2720     5.7110    25.6690     2.2190 
  274.5000    -6.4340    55.4850     7.4420     6.2590     5.5750    25.7650     2.2330 
  274.6250    -6.4450    55.4850     7.4680     6.2460     5.4590    25.2980     2.2660 
  274.7500    -6.4570    55.4850     7.4850     6.2390     5.5340    24.7370     2.3020 
  274.8750  -999.2500    55.4850     7.5050     6.2380     5.6960    24.5160     2.3270 
  275.0000  -999.2500    55.4850     7.5330     6.2420     5.6880    24.4370     2.3310 
  275.1250  -999.2500    55.4850     7.5450     6.2490     5.7150    24.3490     2.3110 
  275.2500  -999.2500    55.4850     7.5280     6.2550     5.7370    24.3740     2.2730 
  275.3750  -999.2500    55.4850     7.4950     6.2600     5.6830    24.5690     2.2220 
  275.5000  -999.2500    55.4850     7.4700     6.2630     5.6060    24.8650     2.1640 
  275.6250  -999.2500    55.4850     7.4720     6.2640     5.5190    25.0280     2.1150 
  275.7500  -999.2500    55.4850     7.4930     6.2620     5.4480    25.1780     2.0990 
  275.8750  -999.2500    55.4850     7.5230     6.2600     5.4560    25.3290     2.1470 
  276.0000  -999.2500    55.4850     7.5400     6.2580     5.5310    25.4360     2.2390 
  276.1250  -999.2500    55.4850     7.5360     6.2570     5.5690    25.0730     2.2550 
  276.2500  -999.2500    55.4850     7.5360     6.2570     5.5980    24.3560     2.1400 
  276.3750  -999.2500    55.4850     7.5360     6.2570     5.6690    23.8250     1.9480 
  276.5000  -999.2500    55.4850     7.5360     6.2570     5.6790    23.6610     1.8080 
  276.6250  -999.2500    55.4850     7.5360     6.2570     5.7810    23.7170     1.8550 
  276.7500  -999.2500    55.4850     7.5360     6.2570     6.0600    23.7740     2.0250 
  276.8750  -999.2500    55.4850     7.5360     6.2570     6.3980    23.7670     2.2140 
  277.0000  -999.2500    55.4850     7.5360     6.2570     6.4190    23.7200     2.3490 
  277.1250  -999.2500    55.4850     7.5360     6.2570     5.9840    23.7220     2.4120 
  277.2500  -999.2500    55.4850     7.5360     6.2570     5.6810    23.7580     2.4470 
  277.3750  -999.2500    55.4850     7.5360     6.2570     5.9840    23.7810     2.4630 
  277.5000  -999.2500    55.4850     7.5360     6.2570     6.2270    23.7640     2.4590 
  277.6250  -999.2500    55.4850     7.5360     6.2570     5.9210    23.7320     2.4450 
  277.7500  -999.2500    55.4850     7.5360     6.2570     5.7190    23.7110     2.4370 
  277.8750  -999.2500    55.4850     7.5360     6.2570     5.6780    23.7350     2.4440 
  278.0000  -999.2500    55.4850     7.5360     6.2570     5.3850    23.7360     2.4500 
  278.1250  -999.2500    55.4850     7.5360     6.2570     5.3540    23.5860     2.4310 
  278.2500  -999.2500    55.4850     7.5360     6.2570     5.7230    23.3850     2.3810 
  278.3750  -999.2500    55.4850     7.5360     6.2570     6.0650    23.1680     2.2920 
  278.5000  -999.2500    55.4850     7.5360     6.2570     6.1390    22.2040     2.2030 
  278.6250  -999.2500    55.4850     7.5360     6.2570     5.5390    19.7640     2.1320 
  278.7500  -999.2500    55.4850     7.5360     6.2570     4.7780    16.8210     2.0890 
  278.8750  -999.2500    55.4850     7.5360     6.2570     4.4530    15.5620     2.0740 
  279.0000  -999.2500    55.4850     7.5360     6.2570     4.4110    15.3880     2.0700 
  279.1250  -999.2500    55.4850     7.5360     6.2570     4.4130    15.3900     2.0680 
  279.2500  -999.2500    55.4850     7.5360     6.2570     4.4130    15.3910     2.0670 
  279.3750  -999.2500    55.4850     7.5360     6.2570     4.4120    15.3910     2.0670 
  279.5000  -999.2500    55.4850     7.5360     6.2570     4.4100    15.3880     2.0670 
  279.6250  -999.2500    55.4850     7.5360     6.2570     4.4090    15.3870     2.0660 
  279.7500  -999.2500    55.4850     7.5360     6.2570     4.4100    15.3870     2.0640 
  279.8750  -999.2500    55.4850     7.5360     6.2570     4.4110    15.3880     2.0630 
