~V
VERS. 2.00: Ver 2.00
~W
STRT.M 57.0000:
STOP.M 278.0000:
STEP.M 0.1250:
NULL. -999.2500:
UWI. F11043:
~C
DEPT.M :
SP.MV :
GR.API :
RML.OHMM :
RI. :
RXO.OHMM :
CALI.CM :
DEN.GM/CC :
~A
   57.0000    36.8810    72.8430     1.0080     0.3550     3.9010    23.9250     2.5760 
   57.1250    29.8980    70.4210     1.6690     0.7430     6.7800    23.8630     2.4530 
   57.2500    23.0790    68.2990     2.6710     1.4220     8.8410    23.8540     2.3110 
   57.3750    16.7090    69.6980     3.8180     2.4070     8.9460    23.8560     2.2060 
   57.5000    10.9610    72.1850     4.7780     3.5540     8.6130    23.8350     2.1550 
   57.6250     6.2310    72.0240     5.4180     4.6190     8.3960    23.8490     2.1450 
   57.7500     2.3930    72.0550     5.9560     5.5020     9.1720    23.8580     2.1480 
   57.8750    -0.5210    74.8710     6.4750     6.1680    11.0210    23.8600     2.1640 
   58.0000    -2.4890    81.4540     6.8850     6.5490    13.3810    23.8450     2.2030 
   58.1250    -3.6090    91.9430     6.9960     6.5440    11.8690    23.8550     2.2660 
   58.2500    -4.4200    99.3950     6.8940     6.3250     8.1150    23.8650     2.3160 
   58.3750    -5.0760    99.8080     6.7730     6.0860     6.5610    23.8510     2.3200 
   58.5000    -5.6310    94.8510     6.8020     5.9800     6.5210    23.8400     2.2830 
   58.6250    -6.2570    87.7030     7.0450     6.0690     7.1170    23.8410     2.2430 
   58.7500    -6.8300    83.2400     7.3300     6.2310     7.8650    23.8380     2.2230 
   58.8750    -7.2980    83.8080     7.4590     6.3280     8.6040    23.8470     2.2180 
   59.0000    -7.7110    87.9990     7.3440     6.2780     8.7050    23.8970     2.2200 
   59.1250    -8.0590    92.0420     7.1210     6.1330     7.6320    23.9470     2.2210 
   59.2500    -8.2570    93.8830     7.0410     6.0490     6.4330    23.9670     2.2190 
   59.3750    -8.3170    95.4200     7.2000     6.1130     5.8780    23.9660     2.2140 
   59.5000    -8.3510    95.3000     7.5580     6.3330     6.1010    23.9440     2.2190 
   59.6250    -8.2390    90.8890     7.9320     6.6130     6.7490    23.8930     2.2530 
   59.7500    -8.0360    87.7500     8.0870     6.7810     7.3200    23.8410     2.3060 
   59.8750    -7.8640    88.8520     7.9440     6.7390     7.0820    23.8130     2.3440 
   60.0000    -7.7820    92.2230     7.5800     6.4980     6.8360    23.8160     2.3380 
   60.1250    -7.8040    94.6450     7.1410     6.1410     6.9120    23.8280     2.3010 
   60.2500    -7.8910    96.1480     6.7430     5.7900     6.7700    23.8410     2.2700 
   60.3750    -7.9910    97.6000     6.4250     5.5000     6.3570    23.8430     2.2520 
   60.5000    -8.0300    98.4800     6.1900     5.2860     5.6750    23.8570     2.2440 
   60.6250    -8.0870    99.6410     6.0630     5.1500     5.2810    23.8790     2.2420 
   60.7500    -8.2190   102.3470     6.0500     5.0890     5.1570    23.8880     2.2490 
   60.8750    -8.3830   104.8720     6.1510     5.1180     5.3770    23.8680     2.2640 
   61.0000    -8.5660   107.5560     6.3420     5.2290     5.9080    23.8300     2.2780 
   61.1250    -8.7720   108.0640     6.6110     5.4110     6.0330    23.7350     2.2750 
   61.2500    -9.0170   105.5400     6.9330     5.6270     6.1680    23.7120     2.2610 
   61.3750    -9.3490   101.1220     7.2780     5.8410     6.1120    23.7140     2.2520 
   61.5000    -9.7920    96.9990     7.5790     6.0000     5.9880    23.7210     2.2560 
   61.6250   -10.2580    94.2850     7.6570     6.0040     6.5670    23.7070     2.2620 
   61.7500   -10.6700    93.0190     7.3880     5.8040     7.3620    23.7030     2.2650 
   61.8750   -11.0260    94.3660     6.7840     5.4080     7.3460    23.7080     2.2690 
   62.0000   -11.3100    96.7790     6.0860     4.9480     6.2030    23.7080     2.2850 
   62.1250   -11.5630    97.8770     5.8120     4.7100     5.5890    23.6970     2.3190 
   62.2500   -11.8430    96.8190     6.3820     4.9590     5.7000    23.6840     2.3670 
   62.3750   -12.1010    92.1170     8.2100     6.0220     7.0010    23.6870     2.4240 
   62.5000   -12.3160    84.7620    11.7480     8.3340    11.2220    23.7130     2.4810 
   62.6250   -12.5960    77.8530    17.7010    12.6240    23.9210    23.7580     2.5330 
   62.7500   -12.9860    73.3560    24.6750    18.1550    45.6090    23.7920     2.5680 
   62.8750   -13.4910    69.9400    28.9570    22.4620    60.5530    23.7490     2.5720 
   63.0000   -14.1330    68.2210    26.9450    22.4610    49.6860    23.5930     2.5320 
   63.1250   -14.9190    69.9020    20.5920    18.3260    28.1920    23.4710     2.4450 
   63.2500   -15.7470    74.2750    15.1230    13.9720    16.5800    23.4080     2.3450 
   63.3750   -16.5340    78.2070    11.6990    10.7770    11.7130    23.3930     2.2610 
   63.5000   -17.3050    77.9680    10.0010     8.8290    10.5680    23.4020     2.2090 
   63.6250   -18.0830    72.9770     9.5700     7.9400    10.6000    23.4060     2.1890 
   63.7500   -18.7730    68.5070     9.6960     7.6350    10.5620    23.3980     2.1790 
   63.8750   -19.3290    66.6120    10.0290     7.6640    10.3850    23.3900     2.1700 
   64.0000   -19.7700    66.4430    10.3210     7.8060    10.2700    23.3920     2.1600 
   64.1250   -20.1080    67.8140    10.4270     7.8920    10.3570    23.4010     2.1520 
   64.2500   -20.4070    71.3270    10.3820     7.8770    10.2260    23.3960     2.1460 
   64.3750   -20.6870    75.7700    10.2440     7.7760     9.8130    23.3880     2.1420 
   64.5000   -20.9220    77.7470    10.0740     7.6170     9.3870    23.3880     2.1390 
   64.6250   -21.0540    76.7670     9.9180     7.4330     9.1350    23.4000     2.1400 
   64.7500   -21.1650    75.4940     9.7960     7.2630     8.9860    23.3980     2.1440 
   64.8750   -21.3130    76.6420     9.7190     7.1330     8.8670    23.3940     2.1530 
   65.0000   -21.4700    78.8360     9.6950     7.0590     8.8740    23.3940     2.1660 
   65.1250   -21.5690    79.0280     9.7390     7.0460     8.9240    23.4030     2.1780 
   65.2500   -21.5700    77.7510     9.8220     7.0630     9.3020    23.4030     2.1810 
   65.3750   -21.5340    76.4470     9.9120     7.0890     9.5570    23.4040     2.1780 
   65.5000   -21.5110    77.2900     9.9750     7.1070     9.6150    23.4010     2.1750 
   65.6250   -21.5200    81.8190     9.9880     7.1000     9.4720    23.3910     2.1720 
   65.7500   -21.5110    85.9190     9.9710     7.0570     9.3660    23.3860     2.1690 
   65.8750   -21.4510    85.1390     9.9390     6.9820     9.2060    23.3910     2.1610 
   66.0000   -21.3210    80.0100     9.8980     6.8860     9.0620    23.4010     2.1470 
   66.1250   -21.1540    78.6310     9.8480     6.7980     8.9970    23.4000     2.1310 
   66.2500   -21.0330    80.7920     9.8070     6.7380     8.9270    23.3950     2.1180 
   66.3750   -20.9630    81.6360     9.8080     6.7220     8.7790    23.4000     2.1140 
   66.5000   -20.8980    79.0130     9.8810     6.7530     8.5940    23.4040     2.1200 
   66.6250   -20.7770    76.0120    10.0230     6.8310     8.7970    23.4020     2.1310 
   66.7500   -20.6500    75.7570    10.1630     6.9220     9.1670    23.4030     2.1420 
   66.8750   -20.5140    76.7300    10.2320     6.9860     9.6430    23.3950     2.1470 
   67.0000   -20.3720    76.9050    10.1860     6.9870     9.6970    23.3860     2.1460 
   67.1250   -20.1560    75.7030    10.0500     6.9180     9.3310    23.3880     2.1440 
   67.2500   -19.8890    74.7380     9.9500     6.8510     9.0850    23.3960     2.1450 
   67.3750   -19.6120    75.8250     9.9610     6.8410     9.4120    23.3950     2.1490 
   67.5000   -19.3270    77.7350    10.0970     6.9140    10.0080    23.3800     2.1570 
   67.6250   -19.0560    78.5550    10.2940     7.0410    11.1740    23.3800     2.1720 
   67.7500   -18.7950    80.0870    10.4070     7.1310    12.5950    23.3990     2.2000 
   67.8750   -18.5380    81.9260    10.3360     7.1060    11.7560    23.4050     2.2310 
   68.0000   -18.2880    82.1250    10.0800     6.9520     9.1010    23.3970     2.2460 
   68.1250   -18.1290    80.9550     9.7430     6.7160     7.9120    23.3980     2.2310 
