~V
VERS. 2.00: Ver 2.00
~W
STRT.M 60.0000:
STOP.M 273.0000:
STEP.M 0.1250:
NULL. -999.2500:
UWI. F11028:
~C
DEPT.M :
DEN.GM/CC :
GR.API :
RML.OHMM :
RI. :
RXO.OHMM :
CALI.CM :
SP.MV :
~A
# ...
  183.7500     2.2860    94.0410    12.8980    12.4330     8.7350    21.6950   -19.7390 
  183.8750     2.2960   102.7750    10.3460     9.8970     6.5310    21.5690   -19.8010 
  184.0000     2.2990   104.7890     9.6000     8.9200     5.9240    21.4720   -19.9950 
  184.1250     2.2960    99.8950    10.0370     9.0740     6.1770    21.2560   -20.3410 
  184.2500     2.2900    92.3150    11.0070     9.8510     6.8660    21.1850   -20.7270 
  184.3750     2.2840    83.6340    12.1210    10.9270     7.6060    21.8420   -21.1780 
  184.5000     2.2800    78.3630    12.9780    11.9160     7.9550    22.4140   -21.6250 
  184.6250     2.2810    78.9480    13.2200    12.3920     7.8850    22.0890   -22.1110 
  184.7500     2.2890    79.4910    12.9870    12.3620     7.9570    21.7550   -22.5680 
  184.8750     2.3010    80.3940    12.5450    12.0050     8.2690    21.9610   -22.9830 
  185.0000     2.3150    85.3190    12.2290    11.5940     8.8370    22.7330   -23.3340 
  185.1250     2.3210    94.2330    12.4870    11.4770     9.2980    23.4560   -23.5960 
  185.2500     2.3140    98.3350    13.6100    11.9000     9.5170    23.7450   -23.8560 
  185.3750     2.2950    95.6360    16.0200    13.1460    10.0920    23.9140   -24.0420 
  185.5000     2.2690    92.2280    20.2450    15.5770    12.2940    23.8920   -24.1760 
  185.6250     2.2450    91.6900    27.2930    20.0020    16.6300    23.9110   -24.2190 
  185.7500     2.2270    90.9400    37.0170    26.5940    25.3750    23.8900   -24.1730 
  185.8750     2.2170    87.1720    48.7600    35.2380    39.0000    23.9600   -24.0540 
  186.0000     2.2120    82.3220    60.2550    44.5480    52.9620    23.9900   -23.8460 
  186.1250     2.2120    79.6520    65.7030    50.1450    59.2380    23.9530   -23.6130 
  186.2500     2.2120    77.3970    61.6650    48.5250    56.5970    23.9800   -23.3090 
  186.3750     2.2110    77.9220    49.5300    40.0950    51.5260    23.9940   -23.0010 
  186.5000     2.2090    81.2880    35.1730    29.3070    41.1090    23.9550   -22.7050 
  186.6250     2.2100    85.2880    24.6850    21.0120    25.1100    23.6980   -22.4460 
  186.7500     2.2160    88.9060    19.0310    16.0860    12.7200    23.4880   -22.3110 
  186.8750     2.2280    93.3620    17.7730    14.1380     7.8520    23.6160   -22.2960 
  187.0000     2.2400    96.0020    20.4730    14.8290     9.2540    23.6670   -22.4430 
  187.1250     2.2480    89.6310    27.8200    18.9030    20.2290    23.7820   -22.6990 
  187.2500     2.2490    80.7640    39.3290    26.6280    43.2330    24.0070   -23.0860 
  187.3750     2.2470    76.7580    54.4880    38.3550    59.8060    24.0840   -23.5840 
  187.5000     2.2450    77.3330    71.3340    52.9920    55.9500    24.0980   -24.1150 
  187.6250     2.2430    78.4080    85.9710    66.9990    60.6960    24.1130   -24.6660 
  187.7500     2.2400    77.2810    96.8650    77.8400    68.1910    24.1680   -25.1710 
  187.8750     2.2340    72.7040   105.3340    86.1370    76.8530    24.2480   -25.6030 
  188.0000     2.2270    66.7340   113.4190    93.6300    86.6120    24.3110   -25.9220 
  188.1250     2.2190    66.9580   121.9740   101.3840   100.9290    24.3440   -26.1640 
  188.2500     2.2120    71.8510   129.8650   108.9410   116.9470    24.3540   -26.3300 
  188.3750     2.2060    73.2540   134.7290   114.7230   130.1160    24.3580   -26.3920 
  188.5000     2.2020    69.5080   133.2260   116.1450   131.7950    24.3410   -26.4220 
  188.6250     2.2010    66.4410   121.5930   109.5470   120.0250    24.2890   -26.3930 
  188.7500     2.2010    65.9560   103.5000    96.6010    98.1050    24.2280   -26.3340 
  188.8750     2.2020    65.5550    83.6270    80.5050    72.2870    24.3360   -26.2280 
  189.0000     2.2060    64.3370    65.7230    64.6800    49.4170    24.3600   -26.1170 
  189.1250     2.2140    65.4500    51.9610    51.7410    38.3950    24.1740   -26.0510 
  189.2500     2.2220    68.8530    41.6080    41.7530    36.5270    23.8680   -25.9890 
  189.3750     2.2300    72.2610    34.1010    34.3810    34.4040    23.6940   -26.0040 
  189.5000     2.2370    72.5320    29.0180    29.2360    27.2740    23.6460   -26.0560 
  189.6250     2.2400    69.7770    26.5330    26.4120    21.8960    23.6030   -26.2280 
  189.7500     2.2410    67.6020    26.2770    25.5110    17.6610    23.6680   -26.4620 
  189.8750     2.2430    66.3180    28.4670    26.7020    14.8460    23.7480   -26.7870 
  190.0000     2.2450    65.2450    33.4770    30.4150    13.6240    23.4720   -27.2090 
  190.1250     2.2510    62.5330    42.1410    37.7940    16.7810    22.8180   -27.6890 
  190.2500     2.2580    59.4710    53.6230    48.4280    21.3960    22.0800   -28.2200 
  190.3750     2.2640    59.1300    66.5420    61.1380    23.0940    21.3900   -28.7460 
  190.5000     2.2670    62.2540    78.4600    73.3560    20.8670    21.0190   -29.3210 
  190.6250     2.2630    65.7590    86.1620    81.4410    18.4010    20.9540   -29.8890 
  190.7500     2.2550    65.7030    89.9460    85.2460    18.0150    20.8330   -30.4410 
  190.8750     2.2450    62.5450    91.5880    86.4040    20.1150    20.8140   -30.9710 
  191.0000     2.2350    58.5790    92.6120    86.6420    23.8700    20.8330   -31.4450 
  191.1250     2.2260    57.9020    92.4560    85.9360    30.1440    20.9430   -31.8570 
  191.2500     2.2210    60.1710    89.6010    83.1420    37.4960    21.1050   -32.2300 
  191.3750     2.2190    62.6240    83.5390    77.6690    42.0250    21.2660   -32.5740 
  191.5000     2.2210    64.4620    75.7820    70.5250    41.2340    21.3550   -32.8730 
  191.6250     2.2270    67.2130    69.5060    64.2110    36.5790    21.3810   -33.1400 
  191.7500     2.2360    70.1150    66.7620    60.6940    31.8630    21.3390   -33.3860 
  191.8750     2.2440    71.0970    68.2920    60.9090    30.3340    21.4340   -33.5810 
  192.0000     2.2460    69.3350    73.9320    65.0360    32.5170    21.4960   -33.7580 
  192.1250     2.2430    68.1740    83.0120    72.8380    40.6690    21.5090   -33.8580 
  192.2500     2.2360    67.4510    92.8780    81.9380    47.9140    21.5070   -33.8680 
  192.3750     2.2280    67.2270   100.9980    89.9440    51.5290    21.4700   -33.7780 
  192.5000     2.2230    68.5070   105.2880    94.6780    55.7760    21.5940   -33.5750 
  192.6250     2.2210    73.0670   104.8970    94.8080    62.4820    21.7450   -33.2640 
  192.7500     2.2200    76.7180   102.4260    92.3960    68.6310    21.9870   -32.8890 
  192.8750     2.2190    75.0180   100.0670    89.4380    71.9990    22.2410   -32.4900 
  193.0000     2.2160    70.1220    99.7060    87.7790    75.7640    22.5820   -32.0370 
  193.1250     2.2090    68.0310   103.8210    89.7120    78.1130    23.1420   -31.5750 
  193.2500     2.2020    69.3090   113.5770    96.5800    77.8030    23.4040   -31.1340 
  193.3750     2.1970    69.6060   130.4810   110.0360    87.2940    23.5870   -30.7660 
  193.5000     2.1990    64.8740   155.4200   130.9140   115.8590    23.7490   -30.4930 
  193.6250     2.2090    58.0780   186.9670   157.6110   187.6030    23.8920   -30.2610 
  193.7500     2.2250    55.9420   213.8340   180.7930   240.0530    23.7650   -30.0900 
  193.8750     2.2440    58.5470   221.1390   189.3180   237.6040    23.6990   -29.9150 
  194.0000     2.2590    62.7140   202.4450   177.2270   179.0330    23.7200   -29.7550 
  194.1250     2.2650    64.5930   167.8240   149.2810   103.2600    23.9380   -29.5900 
  194.2500     2.2620    63.6600   134.5220   119.8970    60.0440    23.9810   -29.4130 
  194.3750     2.2550    60.8590   107.5340    95.0740    45.7630    23.7100   -29.1900 
  194.5000     2.2430    60.0950    86.9410    75.9850    45.9760    23.3870   -28.8570 
  194.6250     2.2290    61.8800    72.0230    62.2900    41.5860    23.3200   -28.4440 
  194.7500     2.2180    62.9050    60.6610    51.9770    32.3890    23.6240   -27.8990 
  194.8750     2.2190    63.4950    52.3360    44.4660    29.4170    23.9150   -27.2860 
