~V
VERS. 2.00: Ver 2.00
~W
STRT.M 55.0000:
STOP.M 280.0000:
STEP.M 0.1250:
NULL. -999.2500:
UWI. F11032:
~C
DEPT.M :
DEN.GM/CC :
GR.API :
RML.OHMM :
RI. :
RXO.OHMM :
CALI.CM :
SP.MV :
~A
# ...
  145.0000     2.2260    88.0160     4.9490     4.1690     4.9210    24.3940   -14.1380 
  145.1250     2.2170    88.8890     4.9400     4.1700     4.9010    24.3380   -14.1330 
  145.2500     2.2090    87.1180     5.1770     4.3510     4.9530    24.2740   -14.2340 
  145.3750     2.2030    82.0600     5.6890     4.7310     5.4260    24.1700   -14.3730 
  145.5000     2.1990    74.5210     6.4340     5.2820     6.6330    23.9010   -14.4840 
  145.6250     2.1980    69.0590     7.2620     5.8990     8.1480    23.6290   -14.5210 
  145.7500     2.2010    69.9750     7.8890     6.3670     9.2530    23.5830   -14.4730 
  145.8750     2.2120    76.2030     8.0650     6.4950     9.8060    23.5750   -14.3340 
  146.0000     2.2310    83.0380     7.6920     6.2060     9.1600    23.5750   -14.0850 
  146.1250     2.2550    86.4890     6.8940     5.5930     8.0110    23.5780   -13.6800 
  146.2500     2.2730    87.6070     6.0610     4.9460     6.5520    23.6070   -13.1560 
  146.3750     2.2810    87.3990     5.4040     4.4250     5.3070    23.7760   -12.5680 
  146.5000     2.2780    86.7530     5.0060     4.0900     4.5490    23.9130   -11.9890 
  146.6250     2.2710    85.2930     4.8840     3.9470     4.4160    23.9060   -11.5110 
  146.7500     2.2680    84.4960     4.9160     3.9330     4.5200    23.9050   -11.1340 
  146.8750     2.2720    83.9460     5.0260     4.0280     4.6170    23.9040   -10.8070 
  147.0000     2.2780    83.6180     5.1540     4.2030     4.6990    23.9040   -10.5650 
  147.1250     2.2830    82.2360     5.2420     4.3990     4.8500    23.9030   -10.4640 
  147.2500     2.2830    82.1860     5.2750     4.5390     4.8430    23.8980   -10.3960 
  147.3750     2.2810    84.4990     5.2670     4.5810     4.7400    23.8940   -10.3560 
  147.5000     2.2790    85.9500     5.2420     4.5220     4.6240    23.8930   -10.3740 
  147.6250     2.2770    87.1980     5.2190     4.3950     4.4920    23.8930   -10.3760 
  147.7500     2.2760    89.8090     5.1960     4.2700     4.3870    23.8930   -10.3330 
  147.8750     2.2740    91.0000     5.1690     4.1850     4.3770    23.8930   -10.3130 
  148.0000     2.2720    85.7590     5.1310     4.1590     4.4300    23.8930   -10.3290 
  148.1250     2.2710    78.3320     5.0920     4.1680     4.4660    23.8930   -10.3220 
  148.2500     2.2700    77.4250     5.0700     4.1630     4.5220    23.8930   -10.2970 
  148.3750     2.2700    79.3880     5.0710     4.1300     4.5690    23.8930   -10.2720 
  148.5000     2.2710    78.9640     5.0930     4.0820     4.5490    23.8930   -10.2530 
  148.6250     2.2740    78.4450     5.1270     4.0430     4.5020    23.8940   -10.2900 
  148.7500     2.2770    80.6320     5.1690     4.0180     4.4920    23.8980   -10.3680 
  148.8750     2.2800    80.9600     5.2130     4.0000     4.5000    23.9030   -10.4660 
  149.0000     2.2810    79.0380     5.2560     3.9880     4.4880    23.9040   -10.5630 
  149.1250     2.2790    82.6550     5.2860     3.9980     4.5140    23.9040   -10.6840 
  149.2500     2.2770    88.5250     5.2910     4.0260     4.5060    23.9030   -10.8120 
  149.3750     2.2750    90.9100     5.2660     4.0460     4.4400    23.8970   -10.9390 
  149.5000     2.2750    89.3310     5.2210     4.0410     4.4150    23.8950   -11.0490 
  149.6250     2.2780    86.8180     5.1790     4.0260     4.4920    23.9170   -11.1080 
  149.7500     2.2790    85.9260     5.1630     4.0280     4.5530    24.0030   -11.1270 
  149.8750     2.2780    86.8070     5.1660     4.0460     4.6090    24.1160   -11.1330 
  150.0000     2.2740    88.3720     5.1630     4.0560     4.6400    24.1970   -11.1200 
  150.1250     2.2700    86.4680     5.1280     4.0180     4.6340    24.2080   -11.0840 
  150.2500     2.2680    80.8680     5.0720     3.9440     4.5760    24.2140   -11.0760 
  150.3750     2.2650    76.5410     5.0160     3.8850     4.4850    24.2310   -11.0770 
  150.5000     2.2590    76.7830     4.9750     3.8850     4.4150    24.2950   -11.0570 
  150.6250     2.2460    80.8390     4.9530     3.9340     4.4490    24.3460   -11.0110 
  150.7500     2.2290    83.0720     4.9310     3.9690     4.5490    24.3570   -10.9760 
  150.8750     2.2120    81.4000     4.8990     3.9530     4.6080    24.3540   -10.9560 
  151.0000     2.2010    79.5840     4.8510     3.8890     4.5790    24.3540   -10.9330 
  151.1250     2.2010    78.4270     4.7740     3.8110     4.4870    24.3530   -10.8830 
  151.2500     2.2090    76.4420     4.6680     3.7650     4.4230    24.3460   -10.8400 
  151.3750     2.2230    75.3960     4.5500     3.7640     4.3740    24.3000   -10.8330 
  151.5000     2.2390    77.3900     4.4510     3.7830     4.3060    24.2700   -10.8390 
  151.6250     2.2550    81.9960     4.4030     3.7920     4.2070    24.2200   -10.8670 
  151.7500     2.2700    85.2750     4.3910     3.7970     4.1520    24.2140   -10.9360 
  151.8750     2.2830    85.0040     4.3890     3.8110     4.1360    24.2250   -11.0040 
  152.0000     2.2910    82.6060     4.3680     3.8380     4.1310    24.2850   -11.0380 
  152.1250     2.2920    80.2260     4.3270     3.8580     4.0820    24.4160   -11.0710 
  152.2500     2.2880    79.2410     4.2890     3.8460     4.0290    24.4360   -11.1170 
  152.3750     2.2820    79.3830     4.2610     3.7760     4.0250    24.4340   -11.1160 
  152.5000     2.2760    82.7480     4.2320     3.6480     4.0470    24.4310   -11.0910 
  152.6250     2.2710    88.9720     4.1780     3.5090     4.0560    24.4310   -11.1100 
  152.7500     2.2690    90.5240     4.1040     3.4160     3.9950    24.4310   -11.1020 
  152.8750     2.2700    86.7300     4.0420     3.3900     3.8260    24.4340   -11.0620 
  153.0000     2.2730    83.0690     4.0430     3.4290     3.7050    24.4490   -11.0830 
  153.1250     2.2790    81.5650     4.1590     3.5210     3.7520    24.5380   -11.1570 
  153.2500     2.2830    80.1730     4.3550     3.6250     3.9470    24.5860   -11.1860 
  153.3750     2.2830    79.0470     4.5640     3.6980     4.3080    24.5940   -11.2100 
  153.5000     2.2740    79.8790     4.7080     3.6860     4.6600    24.5950   -11.2580 
  153.6250     2.2590    80.9040     4.6970     3.5560     4.6340    24.5950   -11.3050 
  153.7500     2.2450    80.1620     4.5720     3.3900     4.2620    24.5950   -11.3700 
  153.8750     2.2380    78.7620     4.4350     3.3130     3.9760    24.5950   -11.4300 
  154.0000     2.2400    78.4270     4.4170     3.4500     3.9360    24.5950   -11.4570 
  154.1250     2.2490    79.2250     4.6620     3.8810     4.1700    24.5950   -11.5010 
  154.2500     2.2580    78.2410     5.1560     4.4740     5.0200    24.5950   -11.5780 
  154.3750     2.2620    75.5000     5.8240     5.0520     6.6210    24.5950   -11.6510 
  154.5000     2.2570    74.5740     6.4760     5.4200     8.2360    24.5950   -11.7480 
  154.6250     2.2420    76.9350     6.7890     5.4200     7.9160    24.5940   -11.8800 
  154.7500     2.2220    77.5300     6.6820     5.2030     5.9570    24.5850   -11.9970 
  154.8750     2.2020    76.1930     6.2910     4.9430     5.0950    24.5280   -12.1370 
  155.0000     2.1890    78.0530     5.8660     4.7590     5.1020    24.4390   -12.3260 
  155.1250     2.1890    81.9760     5.6360     4.6980     5.3340    24.3020   -12.4690 
  155.2500     2.2000    83.6270     5.6170     4.7480     5.4550    24.2840   -12.5900 
  155.3750     2.2170    83.9770     5.7630     4.9320     5.2800    24.3020   -12.7300 
  155.5000     2.2330    84.4070     6.0360     5.2680     5.2110    24.4160   -12.8120 
  155.6250     2.2430    82.1630     6.4670     5.7640     5.4730    24.6370   -12.7990 
  155.7500     2.2470    77.7990     7.0540     6.3210     6.1580    24.6540   -12.7770 
  155.8750     2.2470    75.7800     7.7590     6.8310     7.5850    24.5970   -12.7460 
  156.0000     2.2450    76.2900     8.4540     7.2000     9.3150    24.5310   -12.6630 
  156.1250     2.2420    76.3750     8.9140     7.3860    10.0300    24.5200   -12.5760 
