~V
VERS. 2.00: Ver 2.00
~W
STRT.M 52.0000:
STOP.M 286.0000:
STEP.M 0.1250:
NULL. -999.2500:
UWI. F11061:
~C
DEPT.M :
GR.API :
RML.OHMM :
RI. :
RXO.OHMM :
CALI.CM :
DEN.GM/CC :
SP.MV :
~A
# ...
  198.2500    46.8640   143.4670   141.2720   107.1570    23.8400     2.2280   -30.0840 
  198.3750    46.4300   146.3680   145.1640   116.5540    24.1240     2.2210   -30.2510 
  198.5000    46.9850   148.1840   148.4860   138.6460    24.4020     2.2170   -30.4080 
  198.6250    47.1190   147.1830   149.3020   159.4560    24.5030     2.2150   -30.5580 
  198.7500    46.7430   143.2910   146.7510   160.6320    24.4010     2.2160   -30.7050 
  198.8750    47.4580   137.0180   141.1370   146.5150    24.1960     2.2180   -30.8240 
  199.0000    50.3430   130.2850   133.6680   133.4120    23.9820     2.2230   -30.8990 
  199.1250    53.3650   124.8670   126.2060   127.4490    23.8250     2.2280   -30.9500 
  199.2500    54.6450   120.0920   120.0390   123.5880    23.7430     2.2320   -30.9910 
  199.3750    53.8060   116.0220   115.8430   119.6520    23.7260     2.2320   -31.0190 
  199.5000    52.3330   114.2530   114.1530   115.2200    23.7820     2.2280   -31.0450 
  199.6250    50.7610   114.1190   114.6180   113.1500    23.9140     2.2210   -31.0610 
  199.7500    49.5740   115.6450   116.7440   116.7500    24.0820     2.2160   -31.0530 
  199.8750    50.4670   118.2650   119.8620   122.5460    24.1880     2.2120   -31.0220 
  200.0000    53.2030   121.8670   123.1690   122.5030    24.1470     2.2090   -30.9750 
  200.1250    54.4750   124.8390   126.0570   120.8260    23.9800     2.2040   -30.9110 
  200.2500    52.3840   127.0990   128.3240   124.6740    23.8040     2.1990   -30.8280 
  200.3750    49.6850   129.0640   130.1370   130.2350    23.7350     2.1940   -30.7200 
  200.5000    48.9820   131.3640   132.1810   132.5550    23.8030     2.1910   -30.5890 
  200.6250    49.4990   135.1690   135.4270   138.2570    23.9610     2.1890   -30.4340 
  200.7500    50.4640   141.2200   140.8490   144.9480    24.2220     2.1870   -30.2560 
  200.8750    50.8620   150.9140   149.1750   145.7790    24.5210     2.1840   -30.0650 
  201.0000    48.3670   164.4560   160.8100   133.8180    24.6790     2.1770   -29.8640 
  201.1250    44.8400   179.9590   174.2250   130.4440    24.7340     2.1680   -29.6350 
  201.2500    43.6410   194.9220   187.1140   150.2680    24.7560     2.1600   -29.3780 
  201.3750    44.7160   206.7220   197.0350   174.3990    24.7690     2.1570   -29.1060 
  201.5000    46.0220   213.0850   201.8880   174.1100    24.7870     2.1570   -28.8050 
  201.6250    47.2240   215.5880   203.0420   152.9980    24.7730     2.1590   -28.4850 
  201.7500    47.6510   217.6610   203.5130   129.7070    24.7140     2.1630   -28.1580 
  201.8750    45.5320   222.8870   206.5970   100.1590    24.6100     2.1660   -27.8240 
  202.0000    42.3430   233.7690   214.8610    73.2350    24.4560     2.1680   -27.4600 
  202.1250    41.2400   248.2790   226.8170    51.5650    24.2090     2.1690   -27.0700 
  202.2500    41.7000   262.2050   238.9620    35.9280    23.8670     2.1680   -26.6530 
  202.3750    41.4850   270.3210   246.8320    27.4970    23.5070     2.1650   -26.2030 
  202.5000    40.3480   266.3210   244.9430    25.1190    23.2100     2.1600   -25.7200 
  202.6250    39.6550   250.3820   232.8920    27.1110    23.0470     2.1570   -25.2120 
  202.7500    39.0960   226.5280   213.3550    34.0030    23.1080     2.1570   -24.6810 
  202.8750    38.8490   200.5140   190.7700    47.4700    23.4320     2.1600   -24.1280 
  203.0000    41.9960   177.4800   169.7360    71.6160    23.8980     2.1670   -23.5740 
  203.1250    46.8540   158.3980   151.8780   101.4380    24.3310     2.1770   -23.0480 
  203.2500    49.4570   142.0500   136.5750   122.1150    24.5730     2.1930   -22.5440 
  203.3750    49.0720   126.7780   122.3850   128.9900    24.6260     2.2190   -22.0620 
  203.5000    48.7860   111.5280   108.1710   128.0960    24.5540     2.2530   -21.6330 
  203.6250    50.2810    96.5280    93.9870   119.0150    24.4210     2.2850   -21.2450 
  203.7500    52.2690    82.7820    80.7340    96.9500    24.2830     2.3070   -20.8680 
  203.8750    54.1120    71.3570    69.4890    75.0210    24.2430     2.3160   -20.4930 
  204.0000    55.4890    63.3090    61.3660    57.9240    24.3710     2.3130   -20.1080 
  204.1250    56.6000    58.2670    56.1060    49.1560    24.5490     2.3040   -19.6950 
  204.2500    57.9350    55.5540    53.1170    43.9570    24.6560     2.2950   -19.2480 
  204.3750    58.3160    54.3690    51.6800    38.5420    24.6990     2.2890   -18.7730 
  204.5000    55.6400    53.8950    51.0520    34.9530    24.7270     2.2910   -18.2390 
  204.6250    52.2590    53.3770    50.4710    35.1190    24.7260     2.3060   -17.6400 
  204.7500    50.2210    52.3650    49.4370    38.4570    24.7240     2.3360   -16.9950 
  204.8750    48.9210    50.4960    47.5500    41.0330    24.7510     2.3810   -16.3160 
  205.0000    46.6180    47.0760    44.1250    42.6630    24.7650     2.4330   -15.6260 
  205.1250    44.6700    41.8430    38.9520    42.5680    24.7170     2.4750   -14.9420 
  205.2500    44.5880    34.9930    32.3030    41.8610    24.6040     2.4930   -14.2700 
  205.3750    46.0290    27.3690    25.0950    45.2000    24.4630     2.4790   -13.6040 
  205.5000    48.2390    20.4350    18.7720    51.9890    24.2880     2.4420   -12.9650 
  205.6250    50.6680    15.1310    14.0470    38.6790    24.1800     2.4040   -12.3740 
  205.7500    52.6500    11.6720    10.9500    18.9260    24.0990     2.3780   -11.8470 
  205.8750    52.9540     9.7880     9.1840     8.9280    23.9460     2.3670   -11.3850 
  206.0000    50.6740     9.0990     8.4460     6.5500    23.8030     2.3700   -10.9810 
  206.1250    48.6830     9.0200     8.2760     6.3830    23.9000     2.3770   -10.6300 
  206.2500    48.8530     9.1630     8.3560     6.7180    24.0930     2.3780   -10.3480 
  206.3750    51.2870     9.2790     8.4540     6.7560    24.0800     2.3730   -10.1270 
  206.5000    55.1420     9.1850     8.3780     6.6150    23.7730     2.3630    -9.9680 
  206.6250    59.6740     8.8630     8.0810     6.3840    23.4420     2.3510    -9.8740 
  206.7500    64.7670     8.3760     7.6080     6.0900    23.3760     2.3380    -9.8280 
  206.8750    68.3310     7.8510     7.0630     5.7570    23.6300     2.3270    -9.8240 
  207.0000    66.4460     7.5270     6.6330     5.5470    24.0590     2.3280    -9.8870 
  207.1250    60.6930     7.6160     6.4900     5.3110    24.3800     2.3510   -10.0210 
  207.2500    55.8200     8.2620     6.7530     5.2840    24.3740     2.3990   -10.2230 
  207.3750    56.2580     9.3560     7.4420     6.1690    24.1400     2.4630   -10.5070 
  207.5000    58.6110    10.7150     8.4460     8.8380    23.9220     2.5240   -10.8780 
  207.6250    58.2520    11.8480     9.4530    13.4230    23.7780     2.5580   -11.3140 
  207.7500    56.3690    12.2810    10.1580    19.6830    23.7850     2.5550   -11.8120 
  207.8750    56.6880    12.2820    10.3690    23.1580    23.9630     2.5230   -12.3710 
  208.0000    60.6110    11.8740    10.0960    19.1420    24.2490     2.4760   -12.9710 
  208.1250    64.9850    11.4170     9.7070    12.9120    24.4840     2.4320   -13.5610 
  208.2500    67.4630    11.3220     9.5410    10.1960    24.6260     2.4020   -14.1080 
  208.3750    68.2340    11.7840     9.7750    10.7120    24.7380     2.3910   -14.5830 
  208.5000    69.8030    12.7450    10.4210    11.4420    24.8510     2.4040   -14.9510 
  208.6250    73.8380    13.8060    11.2180    12.1490    24.8310     2.4320   -15.2040 
  208.7500    78.6870    14.5650    11.8600    13.2410    24.6820     2.4580   -15.3530 
  208.8750    80.9570    14.7420    12.0950    14.9100    24.4990     2.4680   -15.4050 
  209.0000    79.0470    14.2220    11.7710    16.5250    24.3870     2.4530   -15.3600 
  209.1250    76.3580    13.3080    11.0830    15.7920    24.3740     2.4230   -15.2730 
  209.2500    75.4040    12.3480    10.2910    12.5430    24.5190     2.3970   -15.1870 
  209.3750    77.1220    11.6100     9.6170     9.7620    24.7960     2.3850   -15.1200 
