~V
VERS. 2.00: Ver 2.00
~W
STRT.M 50.0000:
STOP.M 278.0000:
STEP.M 0.1250:
NULL. -999.2500:
UWI. F11029:
~C
DEPT.M :
SP.MV :
DEN.GM/CC :
GR.API :
RML.OHMM :
RI. :
RXO.OHMM :
CALI.CM :
~A
# ...
  117.5000    -7.1280     2.3140    72.4940     8.8640     7.3360     7.0180    23.2630 
  117.6250    -8.0590     2.2560    75.4060     7.9550     6.5160     6.6730    23.2190 
  117.7500    -8.9320     2.2280    76.2640     7.5390     6.0480     6.9030    23.2200 
  117.8750    -9.7240     2.2180    75.6160     7.5410     5.9280     7.0700    23.2580 
  118.0000   -10.3730     2.2140    73.5990     7.7950     6.0640     7.0210    23.3000 
  118.1250   -10.8680     2.2100    71.3580     8.1200     6.3370     7.1250    23.2910 
  118.2500   -11.2720     2.2040    69.9810     8.3750     6.6040     7.2320    23.2450 
  118.3750   -11.5990     2.1960    70.2390     8.5060     6.7990     7.3060    23.1870 
  118.5000   -11.8400     2.1870    72.3210     8.5060     6.8960     7.3360    23.1140 
  118.6250   -11.8570     2.1780    74.0630     8.3780     6.8810     7.2530    23.0340 
  118.7500   -11.6820     2.1710    74.0550     8.1790     6.7920     7.1760    23.0720 
  118.8750   -11.3560     2.1670    72.4170     7.9490     6.6560     7.1820    23.1440 
  119.0000   -10.9150     2.1650    70.8640     7.7230     6.4970     7.0520    23.1770 
  119.1250   -10.3930     2.1650    71.2210     7.5350     6.3430     6.9230    23.2140 
  119.2500    -9.8270     2.1680    73.3590     7.3960     6.2170     7.2020    23.2450 
  119.3750    -9.2410     2.1800    75.1320     7.3040     6.1280     7.8620    23.2580 
  119.5000    -8.6430     2.2030    74.9840     7.2510     6.0740     8.2540    23.2610 
  119.6250    -8.1180     2.2300    73.9760     7.2260     6.0550     8.2220    23.1710 
  119.7500    -7.6500     2.2470    74.6940     7.2140     6.0590     8.1930    23.0820 
  119.8750    -7.2440     2.2430    74.6610     7.2110     6.0770     8.2420    23.1990 
  120.0000    -6.9050     2.2200    71.4660     7.2140     6.1010     8.3010    23.5130 
  120.1250    -6.5990     2.1890    68.6370     7.2330     6.1330     8.2680    23.5390 
  120.2500    -6.3310     2.1650    71.0530     7.2660     6.1760     7.7260    23.4350 
  120.3750    -6.0440     2.1540    77.1230     7.3030     6.2310     7.0780    23.3720 
  120.5000    -5.7190     2.1550    82.8890     7.3260     6.2790     7.0300    23.3740 
  120.6250    -5.4080     2.1660    84.2610     7.3310     6.2910     7.7390    23.3420 
  120.7500    -5.0560     2.1840    81.1730     7.3740     6.2820     8.6230    23.2770 
  120.8750    -4.6610     2.2050    76.8760     7.5410     6.3230     9.0340    23.2410 
  121.0000    -4.2850     2.2200    75.5670     7.9070     6.5150     8.7590    23.2770 
  121.1250    -3.9600     2.2230    76.9490     8.4830     6.9610     8.8540    23.3250 
  121.2500    -3.6070     2.2150    75.7040     9.0730     7.5400     9.4240    23.3290 
  121.3750    -3.2290     2.2060    70.9900     9.4690     8.0460    10.2930    23.3080 
  121.5000    -2.8650     2.2060    65.9590     9.5520     8.2720    10.8460    23.3150 
  121.6250    -2.5060     2.2270    65.0990     9.4190     8.1620     9.7510    23.3360 
  121.7500    -2.1700     2.2740    66.9050     9.4710     8.0330     7.8550    23.3730 
  121.8750    -1.8480     2.3440    67.4040    10.1050     8.2240     7.1760    23.3970 
  122.0000    -1.4820     2.4300    65.9460    11.7370     9.0440     8.3910    23.3690 
  122.1250    -1.0200     2.5180    63.8390    14.6160    10.8630    12.1280    23.2830 
  122.2500    -0.5560     2.5910    59.5450    17.7940    13.4400    15.2170    23.3070 
  122.3750    -0.1570     2.6400    53.6550    20.0640    16.0560    17.1850    23.4570 
  122.5000     0.1490     2.6590    49.6130    20.5060    17.4280    17.9950    23.7530 
  122.6250     0.3290     2.6410    50.8830    18.9480    16.5230    16.6540    23.9600 
  122.7500     0.4400     2.5980    53.2910    16.7530    14.6300    13.4880    24.0300 
  122.8750     0.5410     2.5470    54.4570    15.0320    12.9400    10.2910    24.0280 
  123.0000     0.6680     2.5120    55.6820    14.4990    12.0940     8.5400    23.9570 
  123.1250     0.7740     2.5150    57.1030    15.5470    12.4810    10.2650    23.6170 
  123.2500     0.8290     2.5490    56.7740    17.7160    13.9390    14.0660    23.4100 
  123.3750     0.8560     2.5950    53.7270    20.5690    16.3290    17.4070    23.3360 
  123.5000     0.8640     2.6370    49.9840    23.4940    19.2540    17.9820    23.3710 
  123.6250     0.8450     2.6650    49.0640    25.6560    21.8570    18.0580    23.4160 
  123.7500     0.7740     2.6790    49.5070    26.7270    23.4560    18.7350    23.4560 
  123.8750     0.6330     2.6810    49.4800    26.7310    23.9340    20.5700    23.4820 
  124.0000     0.3800     2.6690    48.0740    25.9370    23.5520    22.0080    23.4910 
  124.1250     0.0330     2.6440    47.0030    24.6200    22.5330    21.6500    23.5010 
  124.2500    -0.3280     2.6140    47.0990    23.1220    21.1870    17.4390    23.4670 
  124.3750    -0.6790     2.5860    47.1180    21.6420    19.7220    14.0490    23.4150 
  124.5000    -0.9660     2.5630    46.8170    20.3730    18.3620    12.2440    23.4050 
  124.6250    -1.1600     2.5440    47.6130    19.5390    17.3690    11.8410    23.4430 
  124.7500    -1.3670     2.5270    49.0450    19.1370    16.7850    12.4330    23.4830 
  124.8750    -1.5830     2.5150    49.6550    19.1320    16.5950    14.4060    23.4690 
  125.0000    -1.7290     2.5070    49.5640    19.4580    16.7420    17.6690    23.4430 
  125.1250    -1.7640     2.5060    50.2650    20.0940    17.2280    17.0510    23.3990 
  125.2500    -1.6980     2.5130    50.7080    20.9530    17.9810    16.5740    23.3200 
  125.3750    -1.5460     2.5280    50.9080    21.9880    18.9740    16.4380    23.2130 
  125.5000    -1.4060     2.5520    50.9750    23.1140    20.1450    17.0210    23.2260 
  125.6250    -1.3070     2.5810    51.1010    24.1550    21.3520    18.3300    23.2910 
  125.7500    -1.1660     2.6060    51.7700    24.9190    22.3640    19.3060    23.3970 
  125.8750    -1.0150     2.6210    53.0800    25.2630    22.9840    18.9000    23.4750 
  126.0000    -0.8680     2.6200    53.3910    25.1370    23.1140    17.5450    23.4850 
  126.1250    -0.6950     2.6030    50.1750    24.5460    22.7240    17.2360    23.5430 
  126.2500    -0.5410     2.5810    47.5510    23.7000    22.0260    17.2310    23.6170 
  126.3750    -0.4730     2.5640    48.4620    22.7200    21.1470    16.9040    23.6590 
  126.5000    -0.4500     2.5540    51.8870    21.6940    20.1830    17.0620    23.6450 
  126.6250    -0.3900     2.5390    53.5010    20.7060    19.2010    17.0980    23.5840 
  126.7500    -0.2850     2.5010    51.7130    19.8360    18.2820    16.0000    23.4920 
  126.8750    -0.1570     2.4390    49.5240    19.1760    17.5210    14.9010    23.6440 
  127.0000    -0.0450     2.3720    50.2430    18.8100    17.0280    14.3550    24.2100 
  127.1250    -0.0160     2.3420    53.4040    18.8380    16.9390    14.0670    24.6760 
  127.2500    -0.0550     2.3650    55.0110    19.1730    17.1980    13.5310    24.7400 
  127.3750    -0.0550     2.4340    52.4870    19.7340    17.7400    13.8370    24.6020 
  127.5000     0.0370     2.5160    49.1250    20.4230    18.4600    15.4510    24.0960 
  127.6250     0.1350     2.5710    49.9260    21.1610    19.2470    17.5960    23.7860 
  127.7500     0.1480     2.5830    54.1610    21.9070    20.0280    17.8730    23.6140 
  127.8750     0.1270     2.5620    56.5960    22.6570    20.8150    17.4260    23.6690 
  128.0000     0.0800     2.5310    53.7000    23.3770    21.6150    17.7860    23.8800 
  128.1250     0.0750     2.5210    49.2020    23.9210    22.3240    19.1200    23.9870 
  128.2500     0.1370     2.5360    49.0800    24.1500    22.7620    19.2180    23.8700 
  128.3750     0.1800     2.5600    52.3180    23.9870    22.7790    18.6510    23.5820 
  128.5000     0.1050     2.5740    55.9680    23.4960    22.3760    17.6670    23.4040 
  128.6250    -0.0680     2.5590    57.4290    22.8930    21.7460    15.8880    23.4880 
