~V
VERS. 2.00: Ver 2.00
~W
STRT.M 52.0000:
STOP.M 282.0000:
STEP.M 0.1250:
NULL. -999.2500:
UWI. F11052:
~C
DEPT.M :
SP.MV :
GR.API :
RML.OHMM :
RI. :
RXO.OHMM :
CALI.CM :
DEN.GM/CC :
~A
# ...
  220.7500   -21.0020    60.8170   202.9480   191.5680   234.1560    25.7050     2.1890 
  220.8750   -21.1310    60.8600   198.0170   188.3220   240.7690    25.7050     2.1810 
  221.0000   -21.3010    62.4020   191.2690   183.1110   326.3040    25.7050     2.1730 
  221.1250   -21.2900    65.8280   183.0510   175.8210   341.9230    25.7050     2.1660 
  221.2500   -21.3710    68.0160   174.8150   167.9150   240.2460    25.7050     2.1610 
  221.3750   -21.5460    66.4240   167.8940   160.8830   169.8200    25.7050     2.1580 
  221.5000   -21.5720    62.8980   163.2840   155.9560   142.0250    25.7050     2.1560 
  221.6250   -21.5430    62.4630   161.5540   154.0740   140.2740    25.7050     2.1560 
  221.7500   -21.4980    65.2150   161.4250   154.1590   151.1950    25.7040     2.1570 
  221.8750   -21.3840    66.3070   161.6830   154.9200   163.3100    25.6960     2.1580 
  222.0000   -21.2080    63.1430   161.3900   155.1470   164.3250    25.6820     2.1610 
  222.1250   -21.0110    59.8990   160.4410   154.4060   155.7550    25.6760     2.1670 
  222.2500   -20.8230    61.5080   159.9700   153.8670   155.3530    25.6910     2.1740 
  222.3750   -20.5980    66.1830   161.0880   155.0470   160.6870    25.6880     2.1820 
  222.5000   -20.3450    68.4080   164.0500   158.9750   180.0270    25.6450     2.1880 
  222.6250   -20.2060    63.6660   166.9660   164.7580   208.3060    25.5770     2.1890 
  222.7500   -20.1480    57.5420   166.0690   168.0250   221.6500    25.5800     2.1830 
  222.8750   -20.0250    55.2080   158.3080   164.2850   220.4410    25.6070     2.1720 
  223.0000   -19.9260    57.5570   143.0620   151.3960   206.4720    25.5960     2.1610 
  223.1250   -19.8840    61.8760   122.6840   131.0300   171.9550    25.5430     2.1560 
  223.2500   -19.6850    65.7830   102.6700   109.8470   117.4560    25.4530     2.1620 
  223.3750   -19.4770    68.1730    86.1940    91.7850    79.7820    25.3400     2.1760 
  223.5000   -19.4020    66.8410    74.5960    78.5840    64.6130    25.2130     2.1920 
  223.6250   -19.2600    64.2560    68.4970    71.0760    59.6150    25.1550     2.2050 
  223.7500   -19.1150    65.5550    66.2720    67.7370    58.8230    25.1140     2.2140 
  223.8750   -19.0670    68.3530    67.1290    67.8670    58.5240    24.9740     2.2200 
  224.0000   -18.9830    67.2020    70.3640    70.7840    63.7080    24.7550     2.2270 
  224.1250   -18.9090    62.8910    75.5570    76.0360    71.7330    24.8730     2.2340 
  224.2500   -19.0170    61.4760    81.7720    82.5320    80.5380    25.3180     2.2400 
  224.3750   -19.1340    61.9110    88.4090    89.6450    89.1890    25.7650     2.2410 
  224.5000   -19.1620    60.0270    94.7780    96.7080    95.7380    26.0190     2.2390 
  224.6250   -19.3020    57.7850    99.7460   102.6230   101.2450    26.1060     2.2350 
  224.7500   -19.4970    58.9630   102.5970   106.4640   104.7390    26.1650     2.2310 
  224.8750   -19.6650    61.4720   102.8430   107.4450   108.2610    26.2140     2.2280 
  225.0000   -19.8700    62.9970   100.5800   105.3670   113.4730    26.2510     2.2270 
  225.1250   -20.1620    64.4080    96.4800   100.7470   105.9480    26.2660     2.2280 
  225.2500   -20.4410    65.4590    92.1830    95.6040    89.6920    26.2300     2.2310 
  225.3750   -20.6460    64.5560    88.7440    91.2980    79.8810    26.1130     2.2330 
  225.5000   -20.9310    62.1070    86.7430    88.6120    82.4070    25.9920     2.2370 
  225.6250   -21.2530    60.3190    86.4240    87.9370    90.6530    25.9640     2.2410 
  225.7500   -21.4270    59.4370    87.1250    88.5310    97.2970    26.0400     2.2420 
  225.8750   -21.5640    60.7020    88.3720    89.7900    95.3590    26.0470     2.2380 
  226.0000   -21.8180    64.5970    89.8200    91.1920    91.0030    26.0260     2.2270 
  226.1250   -22.0000    67.2790    91.3730    92.4830    91.2160    26.0170     2.2150 
  226.2500   -22.1020    65.8080    93.0960    93.7640    92.5280    26.0350     2.2090 
  226.3750   -22.2680    63.1170    95.0610    95.1320    93.4050    26.0560     2.2130 
  226.5000   -22.3490    61.2780    97.2430    96.5640    95.6140    26.0370     2.2230 
  226.6250   -22.3810    60.1690    99.5980    97.9380    96.3380    25.9370     2.2370 
  226.7500   -22.5430    59.2420   102.1960    99.2710    95.1840    25.8900     2.2510 
  226.8750   -22.7000    59.8030   105.4150   100.8690    91.2560    25.9540     2.2640 
  227.0000   -22.7740    61.8740   109.9080   103.3860    89.9400    26.0090     2.2740 
  227.1250   -22.9400    62.8710   117.0150   108.1530    95.7670    25.8930     2.2780 
  227.2500   -23.1250    62.6330   127.5550   115.8260   103.4550    25.8140     2.2740 
  227.3750   -23.2690    61.6190   140.8380   127.1050   125.5300    25.8360     2.2620 
  227.5000   -23.4950    60.5140   155.4330   142.3730   172.0300    25.8480     2.2460 
  227.6250   -23.6250    60.4240   172.0780   161.5940   246.3960    25.8220     2.2320 
  227.7500   -23.5480    61.3740   191.6730   182.0620   276.7600    25.8330     2.2260 
  227.8750   -23.3970    63.2150   212.4590   200.9470   255.1750    25.8560     2.2280 
  228.0000   -23.2120    63.8710   230.6070   215.7720   239.3010    25.8640     2.2340 
  228.1250   -22.8630    62.6290   243.6000   225.0760   244.5260    25.9150     2.2370 
  228.2500   -22.4160    60.2870   254.2360   231.7400   260.9460    25.9370     2.2330 
  228.3750   -21.9830    57.3740   265.3050   238.9450   253.5100    25.9380     2.2220 
  228.5000   -21.4730    55.4350   279.2190   249.3450   278.5320    25.9430     2.2100 
  228.6250   -20.8520    55.0200   297.0140   264.4870   375.2790    25.9190     2.2020 
  228.7500   -20.3390    55.7650   315.1760   281.5620   390.4180    25.8830     2.1980 
  228.8750   -19.9370    57.3140   327.9970   295.6470   408.7420    25.8570     2.1950 
  229.0000   -19.4640    58.3850   328.8980   300.1120   414.5510    25.8710     2.1920 
  229.1250   -19.1200    58.1570   311.6090   287.5520   507.2000    25.9250     2.1930 
  229.2500   -18.8810    57.9990   282.1100   262.3780   471.4070    25.9600     2.1990 
  229.3750   -18.5730    58.9750   247.8740   231.3840   313.0600    25.9770     2.2100 
  229.5000   -18.3600    59.7110   216.2470   201.7370   216.5220    25.9660     2.2210 
  229.6250   -18.2140    59.5770   192.9490   179.4680   178.1670    25.9490     2.2270 
  229.7500   -17.9930    60.0690   177.1040   164.6720   157.4510    25.9260     2.2260 
  229.8750   -17.8050    60.5750   166.5260   155.7580   149.2610    25.8990     2.2150 
  230.0000   -17.6700    59.8670   158.1390   149.7760   146.9450    25.8540     2.1980 
  230.1250   -17.3650    59.1820   148.8270   143.1250   157.2800    25.7360     2.1840 
  230.2500   -17.0590    60.6500   137.7030   134.1370   158.8880    25.5960     2.1810 
  230.3750   -16.8100    63.7420   125.9840   123.5780   142.7690    25.5170     2.1920 
  230.5000   -16.4490    65.6390   116.0800   113.7960   112.9100    25.5350     2.2100 
  230.6250   -16.1690    63.2850   111.4190   108.7470    93.7840    25.5710     2.2290 
  230.7500   -16.0080    61.4040   112.1230   110.2100    89.9770    25.5740     2.2570 
  230.8750   -15.6860    63.6420   115.4740   117.5730    95.3200    25.4730     2.3110 
  231.0000   -15.2960    67.1020   114.9830   124.9800   111.2900    25.3540     2.4040 
  231.1250   -15.0510    68.2140   101.6870   117.1680   149.4550    25.2460     2.5260 
  231.2500   -14.7290    67.4820    78.0630    90.9200   214.4240    25.1730     2.6360 
  231.3750   -14.3100    69.5450    51.8650    58.5470   159.8600    25.1310     2.6980 
  231.5000   -13.9280    76.2550    30.8690    33.3730    50.0770    25.1490     2.6970 
  231.6250   -13.4980    84.4590    18.9960    19.9280    18.9670    25.2750     2.6440 
  231.7500   -12.9450    88.6900    12.8310    13.1180     9.8770    25.3420     2.5810 
  231.8750   -12.4880    87.2870    10.0020     9.9230     8.2630    25.3670     2.5320 
