~V
VERS. 2.00: Ver 2.00
~W
STRT.M 50.0000:
STOP.M 281.0000:
STEP.M 0.1250:
NULL. -999.2500:
UWI. F11064:
~C
DEPT.M :
SP.MV :
GR.API :
RML.OHMM :
RI. :
RXO.OHMM :
CALI.CM :
DEN.GM/CC :
~A
# ...
  241.2500    -0.5050    73.9700    19.4050    15.5710    23.1720    23.5500     2.3170 
  241.3750    -0.4200    69.4890    19.5120    16.1600    18.1280    23.4890     2.2730 
  241.5000    -0.3140    69.0990    18.9850    16.0790    17.4360    23.7750     2.2330 
  241.6250    -0.2300    70.0450    18.4910    15.7890    18.4800    24.1670     2.2080 
  241.7500    -0.1610    68.2240    18.2580    15.5850    19.5240    24.5190     2.1990 
  241.8750    -0.1100    65.4930    18.1340    15.4390    20.8560    24.8040     2.2050 
  242.0000    -0.0680    65.3420    17.8780    15.2110    21.7670    24.9520     2.2190 
  242.1250    -0.0440    67.9280    17.3390    14.7660    20.3140    24.9700     2.2350 
  242.2500    -0.0300    70.2570    16.6800    14.2020    17.9480    24.9340     2.2540 
  242.3750    -0.0290    71.4240    16.0620    13.6360    16.9090    24.9000     2.2730 
  242.5000    -0.0100    73.3230    15.5380    13.1270    16.5640    24.9030     2.2860 
  242.6250     0.0480    77.2000    14.9780    12.6100    16.6630    24.9040     2.2910 
  242.7500     0.1280    80.2190    14.1500    11.9180    16.3240    24.8690     2.2930 
  242.8750     0.2170    80.3290    12.9420    10.9490    15.4710    24.8180     2.2940 
  243.0000     0.2970    79.4060    11.5050     9.7870    14.4830    24.8260     2.2950 
  243.1250     0.3690    81.6250    10.3340     8.7670    12.5540    24.8260     2.2900 
  243.2500     0.4570    83.3410     9.8510     8.2000     9.8170    24.8060     2.2780 
  243.3750     0.5680    80.7710    10.2710     8.2630     8.9100    24.7750     2.2600 
  243.5000     0.6660    76.1870    11.6110     9.0220    11.2810    24.7650     2.2460 
  243.6250     0.7430    73.1500    13.6930    10.4850    20.7700    24.8300     2.2460 
  243.7500     0.8100    70.0410    15.7900    12.2010    28.5610    24.9030     2.2590 
  243.8750     0.8740    67.0950    17.2270    13.6570    24.3070    24.8950     2.2750 
  244.0000     0.9310    66.3410    17.6300    14.4340    17.3830    24.8950     2.2880 
  244.1250     0.9860    67.3290    17.1490    14.4390    16.1180    24.9000     2.3000 
  244.2500     1.0420    68.1160    16.4960    14.1460    16.9120    24.8650     2.3130 
  244.3750     1.0840    67.5160    15.9500    13.7960    18.6850    24.8180     2.3220 
  244.5000     1.0860    65.8510    15.4540    13.4090    20.2010    24.8050     2.3150 
  244.6250     1.0700    64.8950    14.7120    12.8150    19.9040    24.8300     2.2880 
  244.7500     1.0380    66.3250    13.6400    11.9600    15.9230    24.8620     2.2600 
  244.8750     1.0070    70.1590    12.3740    10.9340    12.9560    24.8710     2.2430 
  245.0000     0.9660    73.5360    11.1420     9.9060    11.7360    24.8470     2.2440 
  245.1250     0.9180    74.0310    10.1830     9.0680    11.0890    24.7110     2.2640 
  245.2500     0.8880    72.9770     9.5380     8.4780     9.9370    24.4060     2.2850 
  245.3750     0.8760    74.3650     9.1920     8.1490     8.9460    24.0800     2.2940 
  245.5000     0.8830    76.8770     9.0810     8.0510     9.1110    23.9180     2.2930 
  245.6250     0.8910    74.3910     9.1360     8.1330     9.9330    24.0710     2.2930 
  245.7500     0.9360    70.0960     9.2380     8.2760    10.2740    24.3480     2.2960 
  245.8750     1.0040    71.1870     9.3100     8.4040    10.3160    24.5820     2.3010 
  246.0000     1.0870    76.9250     9.3110     8.4720    10.2410    24.6920     2.3030 
  246.1250     1.1620    77.7730     9.2610     8.4880    10.0080    24.7230     2.3110 
  246.2500     1.2220    73.6290     9.2500     8.5240     9.9760    24.7340     2.3290 
  246.3750     1.2730    70.6630     9.3480     8.6430    10.0450    24.6980     2.3570 
  246.5000     1.3150    72.6670     9.5760     8.8630    10.0510    24.6020     2.3830 
  246.6250     1.3360    76.1950     9.8730     9.1330    10.1970    24.4150     2.3930 
  246.7500     1.3250    76.0460    10.0900     9.3310    10.7300    24.2920     2.3820 
  246.8750     1.2790    73.7100    10.1210     9.3590    11.3410    24.2400     2.3560 
  247.0000     1.2080    73.0660     9.9780     9.2060    11.0920    24.2140     2.3310 
  247.1250     1.0970    75.4600     9.8500     9.0140    10.3790    24.0990     2.3250 
  247.2500     0.9590    76.1430     9.9600     8.9930    10.1080    23.8680     2.3410 
  247.3750     0.8200    73.2560    10.4400     9.2720    10.8520    23.6560     2.3790 
  247.5000     0.6850    68.1620    11.3660     9.9330    13.2940    23.5920     2.4250 
  247.6250     0.5290    63.1370    12.8530    11.1070    19.2980    23.7610     2.4340 
  247.7500     0.3450    60.6000    14.8250    12.7470    23.4400    24.0950     2.3940 
  247.8750     0.1700    62.1790    17.3520    14.8940    19.8880    24.4540     2.3430 
  248.0000     0.0040    66.8900    20.6440    17.6990    19.7830    24.5910     2.3180 
  248.1250    -0.1630    69.4450    25.2120    21.6420    26.7930    24.4580     2.3280 
  248.2500    -0.3370    69.7270    30.9780    26.7750    38.6970    24.3530     2.3510 
  248.3750    -0.5100    70.3580    37.3980    32.7940    49.7450    24.4030     2.3670 
  248.5000    -0.6950    70.6880    42.8750    38.4600    69.7090    24.4540     2.3640 
  248.6250    -0.8810    69.5610    44.1380    40.8680    76.7130    24.4400     2.3450 
  248.7500    -1.0450    69.8520    40.8420    39.1270    67.7180    24.4850     2.3290 
  248.8750    -1.2000    72.6940    34.9340    34.4990    43.4720    24.4200     2.3170 
  249.0000    -1.3520    74.8590    28.9640    29.1950    22.8250    24.1350     2.3030 
  249.1250    -1.5190    72.0810    24.7470    25.0430    19.8470    24.0120     2.2870 
  249.2500    -1.7420    68.0390    22.3680    22.4380    24.4320    24.1470     2.2800 
  249.3750    -2.0000    65.6630    21.6090    21.3230    29.8430    24.4680     2.2870 
  249.5000    -2.2530    63.8650    22.1020    21.4640    31.9890    24.7950     2.3020 
  249.6250    -2.5130    60.6830    23.4590    22.5990    31.3110    24.8700     2.3190 
  249.7500    -2.7920    59.9880    25.0410    24.1010    33.8520    24.6590     2.3380 
  249.8750    -3.0800    64.7370    26.5580    25.6270    32.7420    24.1890     2.3590 
  250.0000    -3.3610    70.1040    27.9830    27.0640    25.6790    23.7810     2.3810 
  250.1250    -3.6130    68.9850    29.6900    28.6670    18.2750    23.6250     2.3960 
  250.2500    -3.8300    64.7900    32.3020    30.9890    15.6970    23.4490     2.4080 
  250.3750    -4.0160    62.4620    36.5990    34.7800    19.8550    23.0360     2.4240 
  250.5000    -4.1770    64.9480    43.4090    40.9180    25.7710    22.6300     2.4480 
  250.6250    -4.3290    71.0160    53.5380    50.3730    29.2350    22.4760     2.4740 
  250.7500    -4.4900    75.5200    64.2720    60.6840    33.5800    22.5770     2.4950 
  250.8750    -4.6510    75.6420    69.2940    66.2280    44.3440    22.8550     2.5090 
  251.0000    -4.8150    73.3050    61.7590    60.6260    58.0880    23.2690     2.5140 
  251.1250    -4.9890    71.3260    43.9390    44.4140    73.7020    23.6630     2.4920 
  251.2500    -5.1620    68.5420    27.7450    28.4590    51.1500    23.8610     2.4460 
  251.3750    -5.3400    65.0840    16.9100    17.2820    22.9440    23.9610     2.3970 
  251.5000    -5.5210    62.6760    10.7940    10.8540     9.8910    24.0710     2.3670 
  251.6250    -5.6820    62.2210     8.0200     8.0630     6.5720    24.1750     2.3620 
  251.7500    -5.8190    62.0280     6.7540     7.0950     5.5770    24.2150     2.3650 
  251.8750    -5.9280    60.8040     6.3300     6.3770     5.3250    24.2110     2.3720 
  252.0000    -5.9880    58.6900     6.3310     6.2060     5.3980    24.1960     2.3830 
  252.1250    -5.9890    57.5770     6.4700     6.3320     5.5640    24.1400     2.3830 
  252.2500    -5.9720    57.7110     6.5620     6.5040     5.7760    24.0860     2.3830 
  252.3750    -5.9360    57.7150     6.5750     6.6240     5.9480    24.0520     2.3880 
