~V
VERS. 2.00: Ver 2.00
~W
STRT.M 55.0000:
STOP.M 274.0000:
STEP.M 0.1250:
NULL. -999.2500:
UWI. F11049:
~C
DEPT.M :
SP.MV :
GR.API :
RML.OHMM :
RI. :
RXO.OHMM :
CALI.CM :
DEN.GM/CC :
~A
# ...
  257.5000    -4.8140    66.0050     6.9050     5.4260     6.8260    24.2820     2.4730 
  257.6250    -4.9220    66.1920     6.9840     5.4900     6.8280    24.2220     2.4610 
  257.7500    -4.9500    63.8420     7.0780     5.5540     6.8190    24.1900     2.4560 
  257.8750    -5.0430    59.9340     7.1960     5.6310     6.9090    24.1780     2.4690 
  258.0000    -5.1110    57.8300     7.3390     5.7210     7.0170    24.1770     2.4920 
  258.1250    -5.0500    58.7830     7.4830     5.8020     7.0780    24.1790     2.5070 
  258.2500    -5.0250    59.3500     7.5860     5.8570     7.0520    24.1750     2.5070 
  258.3750    -5.0680    58.8250     7.6150     5.8810     7.0600    24.1770     2.4900 
  258.5000    -5.0240    60.9520     7.5750     5.8820     7.1080    24.1860     2.4610 
  258.6250    -5.0050    65.3740     7.5040     5.8710     7.3260    24.1840     2.4320 
  258.7500    -5.0260    67.3870     7.4540     5.8610     7.6840    24.1770     2.4150 
  258.8750    -4.9460    66.2550     7.4360     5.8540     8.1820    24.1780     2.4070 
  259.0000    -4.8930    64.9220     7.4430     5.8500     8.6540    24.1870     2.4040 
  259.1250    -4.9680    65.3590     7.4490     5.8440     8.2940    24.1840     2.4030 
  259.2500    -4.9840    64.8460     7.4410     5.8350     7.6200    24.1790     2.4060 
  259.3750    -4.9590    62.6610     7.4190     5.8220     7.3520    24.1820     2.4100 
  259.5000    -5.0260    60.8990     7.3860     5.8030     7.6210    24.1850     2.4140 
  259.6250    -4.9960    61.1630     7.3340     5.7710     8.2300    24.1820     2.4160 
  259.7500    -4.9700    61.9370     7.2610     5.7300     8.6250    24.1750     2.4150 
  259.8750    -4.9940    62.8660     7.1880     5.6970     8.4480    24.1620     2.4150 
  260.0000    -5.0110    65.7470     7.1710     5.7090     8.2480    24.1230     2.4180 
  260.1250    -4.9770    70.1820     7.3300     5.8440     8.2920    24.0730     2.4310 
  260.2500    -4.9620    72.3010     7.7110     6.1280     8.4620    24.0850     2.4520 
  260.3750    -4.9730    71.4110     8.3210     6.5620     8.5910    24.0990     2.4780 
  260.5000    -4.9420    69.5940     9.0910     7.1030     8.4600    24.0540     2.5030 
  260.6250    -4.9650    69.4660     9.8600     7.6540     8.3540    24.0430     2.5200 
  260.7500    -4.9750    68.9280    10.3990     8.0740     8.3150    24.0760     2.5290 
  260.8750    -4.9900    65.9210    10.5150     8.2340     8.2620    24.0990     2.5260 
  261.0000    -5.0440    62.6260    10.1420     8.0690     8.2030    24.0690     2.5090 
  261.1250    -5.1380    61.7880     9.3550     7.5910     8.0220    24.0800     2.4810 
  261.2500    -5.2050    61.6890     8.4740     6.9980     7.6790    24.1290     2.4510 
  261.3750    -5.2070    61.4450     7.7210     6.4420     7.3350    24.1550     2.4270 
  261.5000    -5.1890    62.2020     7.2380     6.0360     7.1720    24.1580     2.4160 
  261.6250    -5.1580    64.9860     7.1290     5.8730     7.2530    24.1580     2.4210 
  261.7500    -5.1630    66.9410     7.2990     5.9160     7.6880    24.1580     2.4350 
  261.8750    -5.1920    67.5160     7.6580     6.1290     8.5160    24.1580     2.4490 
  262.0000    -5.1440    66.3770     8.0780     6.4460     9.2220    24.1580     2.4580 
  262.1250    -5.0360    63.1780     8.3960     6.7670     9.6670    24.1570     2.4600 
  262.2500    -5.0240    60.3950     8.5470     7.0030    10.1840    24.1550     2.4610 
  262.3750    -5.1030    59.0800     8.5440     7.1260    10.5470    24.1560     2.4630 
  262.5000    -5.1780    59.7970     8.4570     7.1510    10.1720    24.1570     2.4690 
  262.6250    -5.2860    62.8270     8.3820     7.1230     8.7920    24.1580     2.4750 
  262.7500    -5.4150    65.6580     8.3780     7.0970     7.9820    24.1590     2.4770 
  262.8750    -5.5490    66.3320     8.4550     7.0970     7.6160    24.1580     2.4720 
  263.0000    -5.7140    64.6530     8.5910     7.1220     7.5420    24.1550     2.4640 
  263.1250    -5.8520    62.9350     8.7350     7.1620     7.8080    24.1540     2.4580 
  263.2500    -5.9600    62.3390     8.8460     7.2030     8.1330    24.1530     2.4570 
  263.3750    -6.0900    62.9330     8.9290     7.2440     8.2570    24.1420     2.4600 
  263.5000    -6.2730    63.3710     9.0210     7.3000     8.2710    24.1290     2.4660 
  263.6250    -6.4500    63.3400     9.1800     7.4070     8.7430    24.1270     2.4690 
  263.7500    -6.5860    63.3400     9.4280     7.5860     9.7240    24.1330     2.4700 
  263.8750    -6.6730    63.3400     9.7730     7.8450    10.9240    24.1360     2.4740 
  264.0000    -6.7530    63.3400    10.2050     8.1690    11.3880    24.1310     2.4840 
  264.1250    -6.9370    63.3400    10.6960     8.5260    11.6010    24.1330     2.4950 
  264.2500    -7.1000    63.3400    11.1680     8.8520    12.1760    24.1330     2.5010 
  264.3750    -7.1760    63.3400    11.5170     9.0890    14.1450    24.1140     2.5030 
  264.5000    -7.1600    63.3400    11.6260     9.1760    18.4070    24.1040     2.5040 
  264.6250    -7.1210    63.3400    11.3590     9.0400    25.3940    24.1050     2.5000 
  264.7500    -7.1040    63.3400    10.7900     8.7170    28.5490    24.0840     2.4820 
  264.8750    -7.0730    63.3400    10.0300     8.2580    25.3620    24.0630     2.4510 
  265.0000    -7.0240    63.3400     9.2340     7.7500    14.2910    24.0620     2.4220 
  265.1250    -6.9420    63.3400     8.5940     7.3150    10.6920    24.0780     2.4090 
  265.2500    -6.9070    63.3400     8.1960     7.0310    10.1970    24.0750     2.4120 
  265.3750    -6.8850    63.3400     8.0620     6.9230    10.3540    24.1000     2.4230 
  265.5000    -6.9060    63.3400     8.1460     6.9650     9.7820    24.1160     2.4300 
  265.6250    -6.9180    63.3400     8.3580     7.0910     9.0580    24.1010     2.4290 
  265.7500    -6.8500    63.3400     8.5640     7.1990     9.0540    24.0820     2.4250 
  265.8750    -6.8420    63.3400     8.6990     7.2490     9.1910    24.0950     2.4200 
  266.0000    -6.8610    63.3400     8.7460     7.2480     8.7230    24.1000     2.4180 
  266.1250    -6.8130    63.3400     8.7230     7.2290     7.8830    24.0820     2.4140 
  266.2500    -6.7500    63.3400     8.6850     7.2200     7.0990    24.0890     2.4070 
  266.3750    -6.6920    63.3400     8.6570     7.2230     7.4820    24.0890     2.4000 
  266.5000    -6.6330    63.3400     8.6450     7.2300     7.5820    24.0400     2.3970 
  266.6250    -6.5990    63.3400     8.6480     7.2310     7.6320    24.0020     2.4000 
  266.7500    -6.5800    63.3400     8.6700     7.2240     7.7000    23.9820     2.4070 
  266.8750    -6.5710    63.3400     8.7050     7.2150     7.5130    23.9830     2.4160 
  267.0000    -6.5700    63.3400     8.7380     7.2100     7.3350    23.9920     2.4280 
  267.1250    -6.5620    63.3400     8.7480     7.2100     7.4510    23.9910     2.4440 
  267.2500    -6.5780    63.3400     8.7330     7.2120     7.4240    23.9840     2.4590 
  267.3750    -6.5950    63.3400     8.7050     7.2160     6.9970    23.9830     2.4620 
  267.5000  -999.2500    63.3400     8.6770     7.2240     6.6480    23.9770     2.4480 
  267.6250  -999.2500    63.3400     8.6630     7.2340     6.7350    23.9760     2.4290 
  267.7500  -999.2500    63.3400     8.6600     7.2430     6.7760    23.9800     2.4160 
  267.8750  -999.2500    63.3400     8.6610     7.2460     6.7890    23.9900     2.4110 
  268.0000  -999.2500    63.3400     8.6630     7.2390     6.8010    23.9920     2.4100 
  268.1250  -999.2500    63.3400     8.6660     7.2250     6.8650    23.9800     2.4110 
  268.2500  -999.2500    63.3400     8.6710     7.2150     7.0080    23.9740     2.4180 
  268.3750  -999.2500    63.3400     8.6790     7.2160     7.2760    23.9760     2.4300 
  268.5000  -999.2500    63.3400     8.6990     7.2260     7.6290    23.9760     2.4410 
  268.6250  -999.2500    63.3400     8.7450     7.2400     8.0120    23.9700     2.4440 
