~V
VERS. 2.00: Ver 2.00
~W
STRT.M 52.0000:
STOP.M 271.0000:
STEP.M 0.1250:
NULL. -999.2500:
UWI. F11069:
~C
DEPT.M :
GR.API :
RML.OHMM :
RI. :
RXO.OHMM :
CALI.CM :
DEN.GM/CC :
SP.MV :
~A
# ...
   63.2500    81.1120     7.6460     7.2500     9.0430    24.1260     2.1970   -11.3480 
   63.3750    78.9700     7.8300     7.3130     9.3040    24.1430     2.1940   -11.3530 
   63.5000    74.3830     8.0020     7.3660     9.3900    24.1600     2.1940   -11.3130 
   63.6250    71.2520     8.1250     7.3950     9.3640    24.1910     2.1900   -11.2840 
   63.7500    71.9590     8.1900     7.3960     9.3110    24.2790     2.1790   -11.3240 
   63.8750    73.2680     8.1930     7.3720     9.2420    24.4040     2.1630   -11.3920 
   64.0000    73.3740     8.1290     7.3260     9.2270    24.4320     2.1470   -11.4600 
   64.1250    74.6930     8.0010     7.2650     9.1750    24.2960     2.1400   -11.4830 
   64.2500    75.8940     7.8480     7.2010     8.9810    24.1530     2.1420   -11.4470 
   64.3750    75.8730     7.7130     7.1470     8.7580    24.1300     2.1520   -11.3890 
   64.5000    76.8080     7.6280     7.1090     8.6360    24.1620     2.1640   -11.3680 
   64.6250    78.7790     7.6110     7.0890     8.7630    24.1340     2.1740   -11.3400 
   64.7500    76.5510     7.6420     7.0800     8.8950    24.0750     2.1810   -11.2800 
   64.8750    71.3220     7.7050     7.0800     8.9070    24.0390     2.1850   -11.2200 
   65.0000    69.3250     7.7860     7.0890     8.5510    24.0550     2.1880   -11.1990 
   65.1250    71.3560     7.8540     7.1100     8.0220    24.0960     2.1890   -11.2010 
   65.2500    70.0080     7.8850     7.1370     8.1700    24.0770     2.1920   -11.1960 
   65.3750    64.9160     7.8700     7.1620     8.7350    23.9920     2.1950   -11.2190 
   65.5000    62.2670     7.8200     7.1700     8.9630    23.9160     2.1960   -11.2370 
   65.6250    63.5600     7.7710     7.1510     8.9920    23.8850     2.1950   -11.2180 
   65.7500    62.9940     7.7570     7.1220     9.1070    23.8650     2.1910   -11.1660 
   65.8750    60.5310     7.7870     7.1090     9.2160    23.8480     2.1870   -11.0730 
   66.0000    60.4310     7.8510     7.1380     9.3920    23.8150     2.1840   -10.9100 
   66.1250    64.2980     7.9360     7.2360     9.6390    23.8000     2.1860   -10.7050 
   66.2500    67.9910     8.0370     7.3790     9.9370    23.8120     2.1940   -10.5340 
   66.3750    69.1440     8.1570     7.5380    10.2760    23.8230     2.2040   -10.3410 
   66.5000    67.4530     8.2840     7.6850    10.4170    23.8140     2.2130   -10.1030 
   66.6250    64.7300     8.3740     7.7880    10.3240    23.7660     2.2160    -9.9230 
   66.7500    62.7330     8.3880     7.8270    10.2930    23.7450     2.2150    -9.8280 
   66.8750    60.9670     8.3110     7.7920    10.2570    23.7650     2.2100    -9.7320 
   67.0000    60.4050     8.1720     7.6830     9.9600    23.7380     2.2030    -9.6340 
   67.1250    64.4610     8.0510     7.5240     9.5820    23.6340     2.1950    -9.6440 
   67.2500    68.4280     7.9930     7.3630     9.2740    23.5370     2.1870    -9.6830 
   67.3750    67.9030     7.9780     7.2300     9.0310    23.3590     2.1840    -9.7150 
   67.5000    64.3530     7.9520     7.1360     9.0060    23.1270     2.1870    -9.7430 
   67.6250    62.9160     7.8800     7.0840     9.6140    23.1180     2.1910    -9.6740 
   67.7500    64.3430     7.8010     7.0560     9.7610    23.2320     2.1920    -9.5440 
   67.8750    65.8970     7.7720     7.0350     8.9380    23.3260     2.1840    -9.4440 
   68.0000    65.3940     7.8180     7.0080     8.3320    23.3050     2.1700    -9.3730 
   68.1250    63.7200     7.9000     6.9680     8.4820    23.2350     2.1560    -9.2500 
   68.2500    64.6920     7.9480     6.9260     8.8300    23.2840     2.1480    -9.1080 
   68.3750    68.3340     7.9510     6.8980     9.2860    23.4980     2.1470    -8.9990 
   68.5000    69.7880     7.9510     6.9030     9.5580    23.8280     2.1510    -8.9310 
   68.6250    66.8680     8.0210     6.9530     9.8680    24.1460     2.1540    -8.9030 
   68.7500    63.7390     8.1770     7.0410    10.1240    24.3320     2.1540    -8.8600 
   68.8750    61.5840     8.4110     7.1790    10.3880    24.3900     2.1530    -8.7980 
   69.0000    61.0860     8.7090     7.3910    10.5510    24.4000     2.1570    -8.7080 
   69.1250    63.2470     9.0510     7.6960    10.5380    24.4400     2.1770    -8.5700 
   69.2500    67.5500     9.3740     8.0560    10.6070    24.4460     2.2120    -8.3830 
   69.3750    70.7800     9.5770     8.4000    11.1060    24.4100     2.2560    -8.1390 
   69.5000    71.0890     9.5340     8.6030    12.0530    24.3470     2.2920    -7.8470 
   69.6250    70.3140     9.0850     8.4630    11.6360    24.2590     2.3060    -7.5710 
   69.7500    71.4840     8.3150     7.9740    10.4540    24.2230     2.3020    -7.3420 
   69.8750    75.7650     7.3840     7.2240     9.0820    24.2300     2.2930    -7.0850 
   70.0000    83.1830     6.5240     6.4040     7.6610    24.2860     2.2910    -6.8110 
   70.1250    91.9430     6.0190     5.7780     6.7790    24.4420     2.3030    -6.6120 
   70.2500    99.1510     5.9370     5.4690     6.2250    24.6130     2.3200    -6.4810 
   70.3750   102.1630     6.2610     5.5140     6.0580    24.7150     2.3340    -6.4160 
   70.5000    98.5820     6.8760     5.8800     6.8110    24.6520     2.3360    -6.4350 
   70.6250    88.7560     7.5830     6.4820     9.4300    24.5080     2.3220    -6.5300 
   70.7500    79.1770     8.1330     7.0750    11.8740    24.4080     2.2950    -6.6610 
   70.8750    72.6210     8.3850     7.4590    11.2760    24.3440     2.2600    -6.8370 
   71.0000    68.6660     8.3200     7.5440     9.8120    24.3230     2.2270    -7.0560 
   71.1250    66.3170     8.0350     7.3690     9.2770    24.2970     2.2040    -7.2430 
   71.2500    66.8770     7.7450     7.1300     9.2830    24.2480     2.1930    -7.4160 
   71.3750    69.0880     7.5540     6.9370     9.2630    24.2030     2.1890    -7.6050 
   71.5000    71.0990     7.4790     6.8300     9.2340    24.2030     2.1840    -7.7810 
   71.6250    71.4130     7.4840     6.7940     9.1020    24.2650     2.1750    -7.8780 
   71.7500    70.2680     7.5190     6.7780     8.4350    24.3040     2.1650    -7.9200 
   71.8750    69.6910     7.5800     6.7640     7.4720    24.2870     2.1560    -7.9500 
   72.0000    71.5600     7.6770     6.7520     6.7480    24.2640     2.1490    -7.9390 
   72.1250    73.6530     7.7980     6.7490     8.2930    24.3460     2.1450    -7.9000 
   72.2500    72.7420     7.8900     6.7600     9.0640    24.5320     2.1440    -7.8630 
   72.3750    69.8270     7.8970     6.7810     9.5600    24.7060     2.1480    -7.7770 
   72.5000    68.7410     7.7810     6.8020     9.8950    24.7950     2.1540    -7.6010 
   72.6250    70.0230     7.5250     6.8060     9.8940    24.8400     2.1560    -7.4150 
   72.7500    70.3740     7.2110     6.7870     9.4970    24.8920     2.1500    -7.2360 
   72.8750    69.3500     6.9280     6.7560     9.0800    24.8980     2.1400    -7.0210 
   73.0000    69.0480     6.7620     6.7350     8.9570    24.7880     2.1350    -6.8160 
   73.1250    71.2840     6.7860     6.7520     9.4040    24.5710     2.1420    -6.6770 
   73.2500    74.0320     6.9480     6.8030     9.4390    24.3900     2.1570    -6.5080 
   73.3750    74.8260     7.1890     6.8710     9.3780    24.3070     2.1710    -6.3150 
   73.5000    72.9780     7.4470     6.9310     9.3460    24.2970     2.1800    -6.1840 
   73.6250    70.9030     7.6680     6.9710     9.4670    24.3120     2.1810    -6.1620 
   73.7500    70.4070     7.8240     7.0020     9.4800    24.3000     2.1790    -6.1570 
   73.8750    70.3500     7.9010     7.0390     9.5200    24.2650     2.1760    -6.1390 
   74.0000    69.7770     7.9110     7.0850     9.6280    24.2290     2.1740    -6.0860 
   74.1250    69.7540     7.8740     7.1090     9.6170    24.2270     2.1730    -5.9720 
   74.2500    71.8240     7.7960     7.0700     9.3900    24.2440     2.1760    -5.8710 
   74.3750    74.2840     7.6440     6.9230     9.2220    24.2540     2.1840    -5.7780 
