~V
VERS. 2.00: Ver 2.00
~W
STRT.M 40.0000:
STOP.M 275.0000:
STEP.M 0.1250:
NULL. -999.2500:
UWI. F11027:
~C
DEPT.M :
DEN.GM/CC :
GR.API :
RML.OHMM :
RI. :
RXO.OHMM :
CALI.CM :
SP.MV :
~A
# ...
   62.5000     2.2720    97.9060     6.6670     6.2910     5.4880    25.0900   -12.6590 
   62.6250     2.2790    98.0030     6.7320     6.3090     5.7990    24.8780   -13.2930 
   62.7500     2.2940    96.6540     6.7110     6.2820     5.7240    24.7820   -13.7790 
   62.8750     2.3120    98.6170     6.6240     6.2000     5.5370    24.8790   -14.1130 
   63.0000     2.3270   105.1740     6.5250     6.0790     5.3690    24.9970   -14.4160 
   63.1250     2.3320   108.6300     6.4900     5.9730     5.2960    25.0150   -14.7780 
   63.2500     2.3220   103.3110     6.5370     5.9220     5.4570    24.9970   -15.1210 
   63.3750     2.2960    94.6000     6.6640     5.9300     5.5420    24.9660   -15.3780 
   63.5000     2.2580    90.6630     6.8790     6.0090     5.6230    24.8850   -15.6370 
   63.6250     2.2300    91.5610     7.2670     6.2540     6.4220    24.7430   -15.8840 
   63.7500     2.2420    90.4420     7.8970     6.7390     7.3780    24.7110   -16.1160 
   63.8750     2.3050    85.2540     8.8010     7.5000     7.3560    24.8630   -16.3850 
   64.0000     2.4040    78.2850     9.8680     8.4720     7.8800    24.9930   -16.7790 
   64.1250     2.4880    72.9180    10.6930     9.3500    13.0140    24.9620   -17.2330 
   64.2500     2.5140    70.3120    10.8910     9.7010    19.4750    24.8430   -17.7120 
   64.3750     2.4780    69.9570    10.3710     9.3380    16.3020    24.6410   -18.2880 
   64.5000     2.4030    70.3620     9.4190     8.4880     8.7360    24.4710   -18.8960 
   64.6250     2.3260    73.9460     8.6150     7.6260     6.9340    24.4150   -19.6430 
   64.7500     2.2650    78.8450     8.3400     7.0990     6.2340    24.4380   -20.5080 
   64.8750     2.2170    78.4050     8.6480     7.0340     6.8350    24.5390   -21.4600 
   65.0000     2.1740    71.3170     9.3480     7.4120     7.6740    24.6680   -22.4300 
   65.1250     2.1400    64.3020    10.0330     8.0240     8.2040    24.9530   -23.3250 
   65.2500     2.1230    62.7470    10.3280     8.4670     8.2580    25.2570   -24.0110 
   65.3750     2.1310    64.2430    10.1330     8.5200     8.1880    25.6610   -24.4740 
   65.5000     2.1570    66.6420     9.6060     8.2200     7.9920    26.0110   -24.7800 
   65.6250     2.1860    69.6830     9.0810     7.7950     7.4480    25.8970   -24.8760 
   65.7500     2.1980    71.1070     8.8150     7.5010     7.1630    25.6060   -24.9050 
   65.8750     2.1900    69.0810     8.8630     7.4270     8.9530    25.3640   -24.9530 
   66.0000     2.1670    64.8910     9.1430     7.5540    13.9110    25.2760   -24.9210 
   66.1250     2.1410    62.6370     9.4860     7.7870    14.9140    25.4220   -24.8370 
   66.2500     2.1270    63.9590     9.7160     7.9770    11.2710    25.6610   -24.9020 
   66.3750     2.1290    66.7120     9.7600     8.0350     8.9190    25.9420   -25.0820 
   66.5000     2.1460    68.4550     9.6380     7.9440     8.1080    26.0440   -25.2380 
   66.6250     2.1720    68.5620     9.4280     7.7550     7.9610    25.6570   -25.3660 
   66.7500     2.1890    68.8350     9.2440     7.5670     7.9170    25.0470   -25.4850 
   66.8750     2.1860    69.3290     9.1410     7.4220     8.0120    24.7300   -25.4490 
   67.0000     2.1650    67.6400     9.1400     7.3370     8.1020    24.9440   -25.2620 
   67.1250     2.1430    63.2450     9.2590     7.3450     8.1410    25.5480   -24.9950 
   67.2500     2.1430    60.5110     9.4540     7.4310     8.1060    26.0150   -24.6800 
   67.3750     2.1680    61.9130     9.6850     7.5710     8.2070    26.1050   -24.2860 
   67.5000     2.2060    64.3800     9.9050     7.7230     8.9110    25.8540   -23.8770 
   67.6250     2.2360    63.9620    10.0670     7.8340     9.8300    25.3830   -23.6110 
   67.7500     2.2430    62.9280    10.1740     7.8870     9.7130    24.9730   -23.3830 
   67.8750     2.2330    64.2880    10.2490     7.9010     8.5180    24.7180   -23.1860 
   68.0000     2.2140    66.0490    10.3110     7.9130     7.8110    24.6900   -23.1080 
   68.1250     2.2000    65.0080    10.3580     7.9440     7.9270    24.8210   -23.2130 
   68.2500     2.1920    63.1780    10.3690     7.9810     8.1060    24.8200   -23.3920 
   68.3750     2.1900    63.4600    10.3290     8.0020     8.2770    24.6800   -23.6710 
   68.5000     2.1910    64.9340    10.2460     7.9890     8.1800    24.5820   -24.0840 
   68.6250     2.1920    64.0280    10.1660     7.9480     7.8980    24.5920   -24.5090 
   68.7500     2.1920    61.4090    10.1550     7.9240     7.8820    24.4800   -24.8810 
   68.8750     2.1880    58.9810    10.2510     7.9650     8.2180    24.2350   -25.2620 
   69.0000     2.1840    57.3300    10.4540     8.0930     8.6230    24.1250   -25.6590 
   69.1250     2.1870    57.1170    10.7240     8.3020     8.7430    24.2560   -25.9430 
   69.2500     2.1970    57.3820    10.9710     8.5290     8.6580    24.6220   -26.1110 
   69.3750     2.2120    59.3310    11.1300     8.7100     8.4440    24.8190   -26.2010 
   69.5000     2.2260    62.8370    11.1590     8.7970     8.3080    24.7130   -26.1660 
   69.6250     2.2330    65.9370    11.0380     8.7560     8.1540    24.3580   -25.9310 
   69.7500     2.2360    68.5070    10.8290     8.6330     8.1010    23.9790   -25.6930 
   69.8750     2.2360    68.9780    10.5870     8.4710     8.1170    23.7360   -25.4870 
   70.0000     2.2330    67.3010    10.3620     8.3090     8.0850    23.6620   -25.2320 
   70.1250     2.2300    65.5000    10.2070     8.1850     7.9950    23.7080   -24.9340 
   70.2500     2.2250    67.7340    10.1240     8.1140     7.9290    23.7970   -24.6730 
   70.3750     2.2210    73.3080    10.1010     8.0940     7.8390    23.8580   -24.3760 
   70.5000     2.2190    74.9210    10.1090     8.1080     7.8460    23.9030   -24.0290 
   70.6250     2.2210    71.4640    10.1030     8.1300     7.9530    23.9680   -23.7560 
   70.7500     2.2240    68.9090    10.0550     8.1360     8.0650    24.0330   -23.5020 
   70.8750     2.2270    69.3230     9.9590     8.1070     8.0740    24.0450   -23.1730 
   71.0000     2.2290    70.9280     9.8360     8.0450     7.9680    24.0250   -22.8580 
   71.1250     2.2300    71.1990     9.7390     7.9790     7.8450    24.0050   -22.6670 
   71.2500     2.2310    70.6960     9.7070     7.9500     7.7150    23.9840   -22.5250 
   71.3750     2.2340    69.0870     9.7530     7.9800     7.6240    23.9800   -22.4610 
   71.5000     2.2390    66.3510     9.8550     8.0710     7.7490    24.0120   -22.5280 
   71.6250     2.2450    64.2310     9.9520     8.1990     7.8870    24.0600   -22.7810 
   71.7500     2.2490    64.6940     9.9750     8.3080     7.7930    24.0970   -23.1200 
   71.8750     2.2500    66.6880     9.8900     8.3560     7.5320    24.1190   -23.5270 
   72.0000     2.2490    68.1360     9.7110     8.3220     7.4140    24.1100   -24.0050 
   72.1250     2.2410    68.4250     9.5330     8.2170     7.3570    24.0390   -24.5070 
   72.2500     2.2210    68.7880     9.5140     8.1350     7.3530    23.9260   -24.9480 
   72.3750     2.1940    68.7510     9.7930     8.2100     7.3690    23.8080   -25.3750 
   72.5000     2.1720    66.9550    10.4400     8.5600     7.5100    23.8010   -25.7990 
   72.6250     2.1740    63.7910    11.4010     9.2610     7.9360    24.0700   -25.9860 
   72.7500     2.1940    59.6200    12.3280    10.1190     9.4920    24.4750   -26.0190 
   72.8750     2.2150    55.9170    12.8490    10.8310    12.5170    24.6750   -26.0390 
   73.0000     2.2220    56.0500    12.6750    11.0150    16.1150    24.6940   -25.9830 
   73.1250     2.2060    59.7240    11.7340    10.3770    11.5510    24.5700   -25.7890 
   73.2500     2.1840    63.6060    10.5970     9.3390     9.4070    24.4290   -25.6410 
   73.3750     2.1710    65.4640     9.8470     8.3870     8.5380    24.3610   -25.5160 
   73.5000     2.1810    65.5370     9.9730     7.9220     8.4220    24.4880   -25.3170 
   73.6250     2.2310    65.4480    11.3770     8.3510     8.4340    24.8160   -25.1080 
