~V
VERS. 2.00: Ver 2.00
~W
STRT.M 60.0000:
STOP.M 273.0000:
STEP.M 0.1250:
NULL. -999.2500:
UWI. F11028:
~C
DEPT.M :
DEN.GM/CC :
GR.API :
RML.OHMM :
RI. :
RXO.OHMM :
CALI.CM :
SP.MV :
~A
# ...
  262.5000     2.4600    56.7700    11.8380    11.3810     9.5600    22.9120   -13.6840 
  262.6250     2.4570    56.7700    12.0460    11.5530    10.0500    22.8670   -13.7440 
  262.7500     2.4520    56.7700    12.2810    11.7480    10.6580    22.7540   -13.7940 
  262.8750     2.4440    56.7700    12.5030    11.9620    11.3320    22.6960   -13.8350 
  263.0000     2.4340    56.7700    12.6780    12.1780    11.6750    22.6400   -13.8850 
  263.1250     2.4220    56.7700    12.7670    12.3500    11.6260    22.6800   -13.9770 
  263.2500     2.4090    56.7700    12.7730    12.4390    11.5300    22.8170   -14.0620 
  263.3750     2.3960    56.7700    12.6950    12.4220    11.5500    22.9060   -14.1480 
  263.5000     2.3870    56.7700    12.5300    12.3000    11.6070    22.8850   -14.2390 
  263.6250     2.3840    56.7700    12.2830    12.0900    11.3300    22.9210   -14.3710 
  263.7500     2.3860    56.7700    12.0080    11.8420    10.5390    22.8760   -14.5200 
  263.8750     2.3900    56.7700    11.7590    11.5950     9.6360    22.7710   -14.7110 
  264.0000     2.3960    56.7700    11.5940    11.3940     9.2960    22.7270   -14.8930 
  264.1250     2.4040    56.7700    11.5940    11.3110     9.0430    22.5820   -15.0700 
  264.2500     2.4160    56.7700    11.7770    11.3800     9.1500    22.3560   -15.2830 
  264.3750     2.4320    56.7700    12.1430    11.6260     9.9180    22.4840   -15.4740 
  264.5000     2.4490    56.7700    12.6640    12.0410    11.7430    22.6060   -15.6620 
  264.6250     2.4630    56.7700    13.2840    12.5990    13.2520    22.7690   -15.8280 
  264.7500     2.4730    56.7700    13.9000    13.2080    14.1650    22.9350   -15.9580 
  264.8750     2.4800    56.7700    14.4410    13.8010    16.0730    22.9590   -16.0830 
  265.0000     2.4870    56.7700    15.4750    14.3330    19.0480    22.9270   -16.2050 
  265.1250     2.4950    56.7700    15.7770    14.7800    20.0700    22.8630   -16.2960 
  265.2500     2.5010    56.7700    16.1600    15.1720    19.0900    22.7170   -16.3570 
  265.3750     2.5010    56.7700    16.3620    15.5080    17.9510    22.6880   -16.4410 
  265.5000     2.4930    56.7700    16.3430    15.7380    17.5360    22.7700   -16.5530 
  265.6250     2.4760    56.7700    16.2200    15.7170    18.1260    22.8440   -16.6310 
  265.7500     2.4550    56.7700    16.0590    15.3950    17.4380    22.8300   -16.6990 
  265.8750     2.4350    56.7700    15.8440    14.8120    14.5330    22.7450   -16.7080 
  266.0000     2.4190    56.7700    15.1140    14.1150    11.1810    22.5920   -16.6870 
  266.1250     2.4120    56.7700    14.4700    13.5070     8.9810    22.4520   -16.6410 
  266.2500     2.4130    56.7700    14.0900    13.0700     7.7860    22.0980   -16.5500 
  266.3750     2.4190    56.7700    13.9050    12.7810     7.0770    21.9040   -16.4260 
  266.5000     2.4290    56.7700    13.8020    12.5770     6.9040    21.9050   -16.2900 
  266.6250     2.4400    56.7700    13.6790    12.4060     7.1230    22.0310   -16.1910 
  266.7500     2.4480    56.7700    13.4670    12.2600     7.6860    22.3500   -16.1410 
  266.8750     2.4500    56.7700    13.1480    12.1550     8.1430    22.6140   -16.1590 
  267.0000     2.4440    56.7700    12.8180    12.1030     8.3680    22.8080   -16.2290 
  267.1250     2.4260    56.7700    12.6580    12.0980     8.3080    22.8450   -16.3310 
  267.2500     2.3950    56.7700    12.5470    12.1110     8.0920    22.8700   -16.4950 
  267.3750     2.3550    56.7700    12.5130    12.1260     7.7090    22.6600   -16.6950 
  267.5000     2.3100    56.7700    12.6850    12.1410     7.2900    22.0520   -16.8940 
  267.6250     2.2660    56.7700    12.6850    12.1410     6.7700    19.6940   -17.0780 
  267.7500     2.2280    56.7700    12.6850    12.1410     6.3890    17.7890   -17.2520 
  267.8750     2.1990    56.7700    12.6850    12.1410     6.3380    15.1650   -17.3930 
  268.0000     2.1810    56.7700    12.6850    12.1410     6.5680    12.2960   -17.5410 
  268.1250     2.1780    56.7700    12.6850    12.1410     6.5970    11.8650   -17.6940 
  268.2500     2.1900    56.7700    12.6850    12.1410     6.5250    11.8850   -17.9810 
  268.3750     2.2120    56.7700    12.6850    12.1410     6.6660    12.0010   -18.1270 
  268.5000     2.2390    56.7700    12.6850    12.1410     7.1360    12.0740   -18.3350 
  268.6250     2.2590    56.7700    12.6850    12.1410     7.6040    12.2140   -18.5840 
  268.7500     2.2650    56.7700    12.6850    12.1410     8.2330    12.4290   -18.8720 
  268.8750     2.2550    56.7700    12.6850    12.1410     8.8200    12.6940   -19.2200 
  269.0000     2.2300    56.7700    12.6850    12.1410     9.2730    13.0260   -19.5590 
  269.1250     2.1960    56.7700    12.6850    12.1410     9.7200    13.8290   -19.8100 
  269.2500     2.1640    56.7700    12.6850    12.1410    10.0970    14.5910   -19.8790 
  269.3750     2.1380    56.7700    12.6850    12.1410     9.9710    13.9360   -19.8910 
  269.5000     2.1220    56.7700    12.6850    12.1410     9.9150    13.7160   -19.8120 
  269.6250     2.1170    56.7700    12.6850    12.1410     9.1050    12.5190   -19.6500 
  269.7500     2.1190    56.7700    12.6850    12.1410     8.6040    12.1920   -19.3540 
  269.8750     2.1240    56.7700    12.6850    12.1410     7.9380    11.8270   -18.9410 
  270.0000     2.1280    56.7700    12.6850    12.1410     7.4190    11.4650   -18.4780 
  270.1250     2.1270    56.7700    12.6850    12.1410     7.4350    11.3200   -18.2860 
  270.2500     2.1190    56.7700    12.6850    12.1410     7.8780    11.0950   -18.2860 
  270.3750     2.1060    56.7700    12.6850    12.1410     8.0690    11.0130  -999.2500 
  270.5000     2.0900    56.7700    12.6850    12.1410     7.8330    10.9800  -999.2500 
  270.6250     2.0780    56.7700    12.6850    12.1410     7.5510    10.8140  -999.2500 
  270.7500     2.0700    56.7700    12.6850    12.1410     7.2790    10.4690  -999.2500 
  270.8750     2.0650    56.7700    12.6850    12.1410     7.2390     9.9080  -999.2500 
  271.0000     2.0590    56.7700    12.6850    12.1410     7.4610     9.3980  -999.2500 
  271.1250     2.0480    56.7700    12.6850    12.1410     7.7720     8.9950  -999.2500 
  271.2500     2.0400    56.7700    12.6850    12.1410     7.8960     8.9320  -999.2500 
  271.3750     2.0200    56.7700    12.6850    12.1410     7.9260     8.9190  -999.2500 
  271.5000     2.0140    56.7700    12.6850    12.1410     7.9250     8.9190  -999.2500 
  271.6250     2.0100    56.7700    12.6850    12.1410     7.9210     8.9190  -999.2500 
  271.7500     2.0080    56.7700    12.6850    12.1410     7.9190     8.9190  -999.2500 
  271.8750     2.0060    56.7700    12.6850    12.1410     7.9160     8.9190  -999.2500 
  272.0000     2.0050    56.7700    12.6850    12.1410     7.9120     8.9190  -999.2500 
  272.1250     2.0050    56.7700    12.6850    12.1410     7.9110     8.9190  -999.2500 
  272.2500     2.0050    56.7700    12.6850    12.1410     7.9120     8.9190  -999.2500 
  272.3750     2.0050    56.7700    12.6850    12.1410     7.9110     8.9190  -999.2500 
  272.5000     2.0060  -999.2500  -999.2500  -999.2500  -999.2500  -999.2500  -999.2500 
  272.6250     2.0080  -999.2500  -999.2500  -999.2500  -999.2500  -999.2500  -999.2500 
  272.7500     2.0100  -999.2500  -999.2500  -999.2500  -999.2500  -999.2500  -999.2500 
  272.8750     2.0130  -999.2500  -999.2500  -999.2500  -999.2500  -999.2500  -999.2500 
  273.0000  -999.2500  -999.2500  -999.2500  -999.2500  -999.2500  -999.2500  -999.2500 
