~V
VERS. 2.00: Ver 2.00
~W
STRT.M 50.0000:
STOP.M 229.0000:
STEP.M 0.1250:
NULL. -999.2500:
UWI. F11009:
~C
DEPT.M :
DEN.GM/CC :
GR.API :
RML.OHMM :
RI. :
RXO.OHMM :
CALI.CM :
SP.MV :
~A
# ...
  196.2500     2.3610    98.0740    10.1360     9.9770     9.3980    23.0400    -6.4340 
  196.3750     2.3740   100.2000     9.9320     9.5730     8.9680    23.3660    -6.2940 
  196.5000     2.3900    96.2170    10.5670     9.6760     9.2750    23.7460    -6.0690 
  196.6250     2.4070    90.3280    12.6950    10.6910    10.6900    23.9640    -5.8330 
  196.7500     2.4120    84.7170    16.1910    12.8200    13.2510    23.9900    -5.6730 
  196.8750     2.3950    78.3190    20.8710    16.3240    17.3560    23.7980    -5.5600 
  197.0000     2.3520    72.8460    26.4480    21.2270    24.1030    23.3370    -5.4660 
  197.1250     2.2960    70.7360    32.2080    27.0120    29.5410    22.7690    -5.3590 
  197.2500     2.2510    70.2280    36.7630    32.1960    31.5260    22.4140    -5.2610 
  197.3750     2.2270    69.7620    38.9800    35.4730    32.4250    22.4520    -5.2060 
  197.5000     2.2220    69.7070    38.4930    36.1380    33.9710    22.9160    -5.2080 
  197.6250     2.2290    70.0220    35.6380    34.1710    33.7810    23.5420    -5.1700 
  197.7500     2.2400    68.8980    31.9580    31.0330    33.2770    23.9650    -5.0220 
  197.8750     2.2520    67.0880    28.3660    27.6790    33.6520    24.0510    -4.8130 
  198.0000     2.2620    68.7080    25.4180    24.7580    32.2370    23.9050    -4.5790 
  198.1250     2.2660    72.6400    23.4960    22.7390    24.9840    23.6760    -4.3830 
  198.2500     2.2620    73.8350    22.3890    21.5190    21.5570    23.3920    -4.2150 
  198.3750     2.2550    72.0940    21.8570    20.9250    22.1530    22.9750    -4.0930 
  198.5000     2.2500    70.6060    21.5950    20.6970    22.9110    22.4190    -4.0070 
  198.6250     2.2520    69.9990    21.2820    20.5370    22.8150    22.0480    -4.0100 
  198.7500     2.2580    68.8810    20.7470    20.2070    22.9460    22.1260    -4.1200 
  198.8750     2.2640    69.4720    19.9930    19.6440    22.3700    22.6390    -4.2770 
  199.0000     2.2680    71.8860    19.1390    18.9170    20.4450    23.4090    -4.4030 
  199.1250     2.2710    72.8910    18.3810    18.1930    18.3360    23.9650    -4.4030 
  199.2500     2.2730    72.3770    17.8700    17.6380    17.9830    24.2730    -4.3470 
  199.3750     2.2760    72.7000    17.7140    17.3730    18.3320    24.4280    -4.2100 
  199.5000     2.2780    73.1480    17.9900    17.4890    18.5060    24.4760    -4.0320 
  199.6250     2.2750    71.5830    18.7950    18.1090    19.0180    24.4990    -3.8120 
  199.7500     2.2680    70.1370    19.9890    19.1390    20.0390    24.4890    -3.5420 
  199.8750     2.2600    71.0620    21.4330    20.4790    21.6090    24.4700    -3.2530 
  200.0000     2.2530    73.7720    22.9230    21.9540    23.8480    24.5060    -3.0010 
  200.1250     2.2500    74.7470    24.1620    23.2640    26.4090    24.4990    -2.8090 
  200.2500     2.2510    71.9810    24.9890    24.1820    28.0440    24.4160    -2.6870 
  200.3750     2.2540    68.5030    25.3830    24.6180    28.4160    24.2880    -2.6400 
  200.5000     2.2560    68.3530    25.4930    24.6640    28.2050    24.1310    -2.6490 
  200.6250     2.2550    70.8980    25.6460    24.5890    26.8960    24.0690    -2.7560 
  200.7500     2.2530    71.3220    26.1740    24.7610    26.2080    24.2120    -2.9570 
  200.8750     2.2550    68.2970    27.2760    25.4210    26.8370    24.3880    -3.2150 
  201.0000     2.2640    64.0710    28.9990    26.6890    28.6520    24.4650    -3.4920 
  201.1250     2.2820    62.4450    31.2380    28.5790    31.8250    24.4280    -3.8170 
  201.2500     2.2990    64.5390    33.5140    30.7010    35.8530    24.3320    -4.1770 
  201.3750     2.3070    68.3060    35.3370    32.6170    39.6590    24.1710    -4.5040 
  201.5000     2.3060    70.5500    36.2470    33.8540    41.6860    23.9520    -4.7930 
  201.6250     2.3080    70.8510    35.8200    33.9100    40.6980    23.7500    -5.0350 
  201.7500     2.3170    69.8550    34.4270    32.9940    38.3070    23.5600    -5.2050 
  201.8750     2.3290    67.4330    32.4850    31.4290    35.0940    23.4870    -5.2420 
  202.0000     2.3320    66.3540    30.4310    29.6140    32.0240    23.6170    -5.2010 
  202.1250     2.3230    69.2360    28.6480    27.9220    29.6640    23.8570    -5.1020 
  202.2500     2.3130    71.6940    27.2510    26.5270    26.0780    23.8590    -4.9690 
  202.3750     2.3110    73.1230    26.2380    25.4740    23.7620    23.6180    -4.8490 
  202.5000     2.3180    76.2990    25.4810    24.6890    22.7080    23.3730    -4.7110 
  202.6250     2.3310    80.0630    24.6750    23.9190    21.3090    23.5060    -4.5650 
  202.7500     2.3460    79.7880    23.5090    22.8410    19.0710    23.7460    -4.3810 
  202.8750     2.3650    76.8190    21.8950    21.3220    18.5300    23.9800    -4.2870 
  203.0000     2.3840    75.5360    20.0150    19.4870    19.6660    24.0040    -4.2770 
  203.1250     2.3890    78.6260    18.3460    17.7320    21.5720    23.6450    -4.3860 
  203.2500     2.3760    84.3930    17.2850    16.4410    20.0410    23.2250    -4.5380 
  203.3750     2.3540    90.2690    17.0250    15.8190    16.3920    23.1340    -4.7100 
  203.5000     2.3390    93.2400    17.5710    15.9270    16.6270    23.4380    -4.9120 
  203.6250     2.3390    94.2970    18.8440    16.7980    17.8480    23.9630    -5.0650 
  203.7500     2.3470    96.5990    20.4290    18.1130    19.2900    24.2330    -5.2640 
  203.8750     2.3530   101.4460    21.9920    19.5820    21.9970    24.2320    -5.4120 
  204.0000     2.3540   106.9140    23.2330    20.8770    26.8270    24.1130    -5.4910 
  204.1250     2.3490   110.0670    23.9170    21.6920    31.2690    23.9760    -5.4110 
  204.2500     2.3450   108.6080    24.2040    22.1050    33.8960    23.9660    -5.1980 
  204.3750     2.3520   104.1920    24.2870    22.2780    34.3390    24.0320    -4.9860 
  204.5000     2.3760   101.1360    24.3440    22.3890    30.8000    24.0630    -4.7490 
  204.6250     2.4260    99.3250    24.4680    22.5520    26.5540    23.8950    -4.4990 
  204.7500     2.4880    94.4060    24.5510    22.7110    26.8320    23.6880    -4.2710 
  204.8750     2.5440    85.4660    24.3280    22.6560    29.7860    23.5070    -4.0670 
  205.0000     2.5800    75.8200    23.4500    22.0570    31.7960    23.3860    -3.8180 
  205.1250     2.5800    71.1060    21.4980    20.4610    27.8610    23.2430    -3.5830 
  205.2500     2.5530    71.1500    18.7380    18.0350    23.6460    22.9550    -3.4100 
  205.3750     2.5120    72.8860    15.6300    15.1540    21.9490    22.5950    -3.1990 
  205.5000     2.4710    71.6160    12.6890    12.3120    19.1340    22.3100    -2.9380 
  205.6250     2.4460    65.4040    10.2280     9.9820    13.5510    22.2360    -2.6400 
  205.7500     2.4350    60.2070     8.2230     8.2060     8.7090    22.3220    -2.2470 
  205.8750     2.4290    61.6400     6.7490     6.9170     6.5650    22.4060    -1.8020 
  206.0000     2.4140    71.3940     5.8410     6.0090     5.9620    22.4860    -1.3600 
  206.1250     2.3870    86.7760     5.3910     5.4280     5.8180    22.6080    -0.9250 
  206.2500     2.3600   100.0640     5.1090     5.0570     5.4070    22.9550    -0.5270 
  206.3750     2.3450   106.7110     4.9520     4.8560     4.9340    23.4860    -0.1960 
  206.5000     2.3450   106.8060     4.9110     4.7940     4.9070    23.8630     0.0670 
  206.6250     2.3530   104.8270     4.9650     4.8520     5.1990    24.0350     0.2820 
  206.7500     2.3610   103.4990     5.0530     4.9640     5.5640    24.0700     0.4690 
  206.8750     2.3670   102.4250     5.1320     5.0780     5.7770    24.0960     0.6180 
  207.0000     2.3730   102.2350     5.1750     5.1540     5.8920    24.1080     0.7080 
  207.1250     2.3810   104.0040     5.1660     5.1630     5.8820    24.1000     0.7360 
  207.2500     2.3890   104.8740     5.1280     5.1260     5.8160    24.0840     0.7490 
  207.3750     2.3960   104.0560     5.0750     5.0630     5.7360    24.0480     0.7520 
