~V
VERS. 2.00: Ver 2.00
~W
STRT.M 50.0000:
STOP.M 278.0000:
STEP.M 0.1250:
NULL. -999.2500:
UWI. F11029:
~C
DEPT.M :
SP.MV :
DEN.GM/CC :
GR.API :
RML.OHMM :
RI. :
RXO.OHMM :
CALI.CM :
~A
# ...
   72.5000   -14.9980     2.2360    72.6350     7.2360     6.1830     8.8640    25.3500 
   72.6250   -15.2220     2.2490    75.7160     7.2030     6.1970     8.3930    25.4110 
   72.7500   -15.1030     2.2770    77.7670     7.1450     6.1730     8.6140    25.5740 
   72.8750   -14.6700     2.3100    77.8720     7.0320     6.0870     9.5460    25.7900 
   73.0000   -14.0150     2.3310    80.0730     6.8240     5.9020    11.5650    25.8910 
   73.1250   -13.1770     2.3290    84.8520     6.4930     5.5890     8.7050    25.8900 
   73.2500   -12.2920     2.3130    86.4830     6.1150     5.2140     7.1990    25.8950 
   73.3750   -11.5210     2.2940    85.2500     5.7840     4.8650     6.2460    25.9530 
   73.5000   -10.9760     2.2840    85.9540     5.5890     4.6240     5.6370    26.0560 
   73.6250   -10.7790     2.2910    91.2430     5.6020     4.5650     5.3240    26.1480 
   73.7500   -10.8940     2.3060    95.7670     5.7640     4.6510     5.6780    26.1890 
   73.8750   -11.2560     2.3190    95.0520     6.0050     4.8380     6.8750    26.1230 
   74.0000   -11.7570     2.3220    88.2430     6.2460     5.0590     8.3570    26.0150 
   74.1250   -12.3510     2.3070    81.1520     6.4290     5.2430     8.2660    26.0320 
   74.2500   -13.0120     2.2820    78.5360     6.5830     5.3840     7.7080    26.1840 
   74.3750   -13.7150     2.2550    78.6520     6.7680     5.5240     7.7820    26.4060 
   74.5000   -14.3610     2.2320    79.4440     7.0400     5.7250     8.0510    26.6240 
   74.6250   -14.7930     2.2120    79.0400     7.4050     6.0350     8.3320    26.7580 
   74.7500   -14.9740     2.1920    75.3410     7.7510     6.3970     8.7970    26.7800 
   74.8750   -14.8740     2.1750    70.1570     7.9460     6.7020     9.7970    26.6480 
   75.0000   -14.5140     2.1690    68.3480     7.8920     6.8320    10.8540    26.4210 
   75.1250   -13.9210     2.1810    73.7550     7.5600     6.6980    10.1820    26.0540 
   75.2500   -13.1820     2.2060    81.6430     7.1280     6.4160     8.1280    25.6910 
   75.3750   -12.3280     2.2350    87.3560     6.7490     6.1200     7.1360    25.4680 
   75.5000   -11.4240     2.2610    87.9900     6.5210     5.9130     6.8600    25.3530 
   75.6250   -10.5290     2.2780    85.0380     6.4680     5.8490     6.8380    25.2640 
   75.7500    -9.6820     2.2890    83.1740     6.4700     5.8530     6.8630    25.1910 
   75.8750    -8.9110     2.2960    83.9360     6.4270     5.8350     7.2210    25.2350 
   76.0000    -8.2380     2.3020    86.8950     6.2740     5.7160     6.6930    25.4220 
   76.1250    -7.6790     2.3090    94.2930     5.9930     5.4550     5.4040    25.6780 
   76.2500    -7.2200     2.3190   104.5890     5.6490     5.1180     4.6840    25.8550 
   76.3750    -6.8670     2.3310   111.9600     5.2810     4.7510     4.5050    25.9190 
   76.5000    -6.5950     2.3420   112.3540     4.9260     4.3840     4.5030    25.9580 
   76.6250    -6.4130     2.3450   108.7660     4.6760     4.0660     4.4820    26.0860 
   76.7500    -6.3070     2.3390   106.9710     4.6870     3.8790     4.4440    26.1530 
   76.8750    -6.2960     2.3330   107.4270     5.2090     3.9560     4.4540    26.1390 
   77.0000    -6.4190     2.3450   105.9760     6.5750     4.5000     4.7870    26.0620 
   77.1250    -6.7130     2.3990    99.1290     9.3920     6.0270     7.7400    25.8390 
   77.2500    -7.1810     2.4920    88.0120    13.5980     8.8750    18.0870    25.6240 
   77.3750    -7.8300     2.6040    74.4650    18.5620    13.2190    39.3520    25.4990 
   77.5000    -8.6920     2.6990    63.0640    22.6300    18.2170    61.2570    25.4450 
   77.6250    -9.8430     2.7300    60.9870    23.1980    20.5860    58.5860    25.4120 
   77.7500   -11.2730     2.6900    65.7840    20.4230    18.9110    45.3930    25.3560 
   77.8750   -12.9790     2.5960    69.4820    15.9830    15.0820    27.8880    25.2540 
   78.0000   -14.8570     2.4780    67.4450    11.9340    11.4790    15.1090    25.1330 
   78.1250   -16.8260     2.3700    63.4180     9.5850     9.2090    11.4520    25.1530 
   78.2500   -18.7510     2.2880    62.2430     8.4980     7.9260    11.2210    25.2570 
   78.3750   -20.5580     2.2320    61.6600     8.1710     7.3130    12.1810    25.3240 
   78.5000   -22.1960     2.1950    60.3520     8.1940     7.1100    12.3270    25.3430 
   78.6250   -23.5610     2.1740    61.4640     8.2780     7.0990    11.4510    25.3400 
   78.7500   -24.6590     2.1660    63.0960     8.2830     7.0840    10.7150    25.3000 
   78.8750   -25.4810     2.1700    61.9480     8.2120     7.0250    10.3360    25.1770 
   79.0000   -26.0750     2.1810    59.1620     8.1130     6.9430    10.0890    25.0490 
   79.1250   -26.4690     2.1890    58.9190     8.0340     6.8700     9.9820    25.0680 
   79.2500   -26.7360     2.1890    60.1580     7.9870     6.8170    10.1820    25.2280 
   79.3750   -26.8740     2.1820    61.6350     7.9720     6.7840    10.1780    25.3180 
   79.5000   -26.8760     2.1730    62.6170     7.9920     6.7720     9.8550    25.3390 
   79.6250   -26.7400     2.1680    60.4220     8.0560     6.7890     9.8470    25.3510 
   79.7500   -26.4950     2.1690    56.9680     8.1450     6.8310     9.9970    25.3830 
   79.8750   -26.2040     2.1740    56.8970     8.2330     6.8810    10.1060    25.4470 
   80.0000   -25.9060     2.1790    59.3170     8.2900     6.9160    10.0730    25.4840 
   80.1250   -25.6440     2.1820    58.9740     8.2890     6.9080    10.1770    25.4630 
   80.2500   -25.3920     2.1830    58.1580     8.2490     6.8560    10.3170    25.4280 
   80.3750   -25.1020     2.1840    59.8910     8.1950     6.7780    10.4080    25.4140 
   80.5000   -24.8020     2.1840    62.8300     8.1530     6.6970    10.4410    25.4120 
   80.6250   -24.5690     2.1840    64.3960     8.1320     6.6340    10.3260    25.4160 
   80.7500   -24.3770     2.1820    65.2370     8.1130     6.5800    10.2040    25.4440 
   80.8750   -24.1900     2.1790    65.7180     8.0800     6.5230    10.2180    25.5210 
   81.0000   -24.0220     2.1760    66.5200     8.0280     6.4540    10.4210    25.6190 
   81.1250   -23.8720     2.1790    67.8270     7.9730     6.3780    10.2180    25.6660 
   81.2500   -23.7780     2.1870    66.9130     7.9430     6.3130     9.5920    25.6890 
   81.3750   -23.8180     2.2000    62.4580     7.9560     6.2800     9.4440    25.7170 
   81.5000   -23.9730     2.2120    58.8880     8.0230     6.2940    10.0560    25.7340 
   81.6250   -24.2060     2.2200    58.6800     8.1400     6.3660    10.9090    25.7290 
   81.7500   -24.5250     2.2190    57.8770     8.2770     6.4750    11.0530    25.7120 
   81.8750   -24.8870     2.2050    55.9350     8.4100     6.6000    11.1590    25.7120 
   82.0000   -25.2370     2.1770    55.7950     8.5170     6.7190    11.7390    25.7190 
   82.1250   -25.4930     2.1430    59.9670     8.5730     6.8010    12.5260    25.8030 
   82.2500   -25.5740     2.1180    63.5990     8.5770     6.8390    12.0700    25.9130 
   82.3750   -25.4550     2.1110    65.0680     8.5260     6.8280    10.8750    25.9780 
   82.5000   -25.2250     2.1210    64.2830     8.4220     6.7710     9.8510    26.0110 
   82.6250   -24.9590     2.1410    62.4610     8.2780     6.6730    10.0440    26.0380 
   82.7500   -24.6570     2.1600    60.3740     8.1270     6.5630    10.3110    26.0550 
   82.8750   -24.3660     2.1750    58.7980     7.9950     6.4660    10.1360    26.0670 
   83.0000   -24.1030     2.1860    59.7480     7.9040     6.4000     9.6340    26.1030 
   83.1250   -23.8470     2.1940    63.3460     7.8770     6.3850     9.2980    26.1980 
   83.2500   -23.6110     2.1990    66.9030     7.8970     6.4110     9.4020    26.3050 
   83.3750   -23.3320     2.1980    67.8750     7.9350     6.4610     9.9630    26.3880 
   83.5000   -22.8340     2.1900    65.0670     7.9360     6.4940    10.5550    26.4710 
   83.6250   -21.9420     2.1760    61.3460     7.8110     6.4330    10.3850    26.6270 
