~V
VERS. 2.00: Ver 2.00
~W
STRT.M 45.0000:
STOP.M 277.0000:
STEP.M 0.1250:
NULL. -999.2500:
UWI. F11056:
~C
DEPT.M :
GR.API :
RML.OHMM :
RI. :
RXO.OHMM :
CALI.CM :
DEN.GM/CC :
SP.MV :
~A
# ...
  258.7500    68.2120    10.3490     8.9070     8.8930    25.0970     2.4790   -13.0550 
  258.8750    68.2590    10.2590     8.8580     8.7710    25.0890     2.4890   -12.9020 
  259.0000    68.2920    10.1590     8.8040     8.7660    25.0470     2.5020   -12.7480 
  259.1250    70.0720    10.0420     8.7360     8.8380    24.9990     2.5140   -12.5790 
  259.2500    73.3850     9.9170     8.6570     8.9690    24.9700     2.5240   -12.3920 
  259.3750    75.6250     9.8100     8.5850     9.6210    24.9580     2.5270   -12.1710 
  259.5000    73.4890     9.7810     8.5640    10.3330    24.9860     2.5220   -11.9340 
  259.6250    68.0860     9.8520     8.6220    10.1960    25.1030     2.5130   -11.6730 
  259.7500    62.9660    10.0210     8.7690     9.1080    25.3170     2.5070   -11.3890 
  259.8750    61.7660    10.2420     8.9770     8.8360    25.5160     2.5050   -11.1080 
  260.0000    62.9250    10.4140     9.1610     8.7550    25.4960     2.5080   -10.8630 
  260.1250    63.3710    10.4540     9.2350     8.4670    25.4320     2.5100   -10.6270 
  260.2500    64.4600    10.3380     9.1640     8.1500    25.4320     2.5120   -10.3560 
  260.3750    68.1040    10.1120     8.9780     8.2620    25.5140     2.5130   -10.0260 
  260.5000    71.0600     9.8740     8.7630     8.4010    25.6510     2.5130    -9.6470 
  260.6250    70.4560     9.7170     8.6090     8.4220    25.6830     2.5100    -9.3100 
  260.7500    69.0350     9.6760     8.5520     7.9310    25.5950     2.5030    -9.0140 
  260.8750    68.2220     9.7420     8.5940     7.3340    25.5060     2.4930    -8.7210 
  261.0000    67.6330     9.8740     8.7080     7.0620    25.4920     2.4860    -8.3990 
  261.1250    67.1790     9.9950     8.8290     7.4790    25.6790     2.4860    -8.1140 
  261.2500    66.2120    10.0610     8.9150     7.7260    26.0380     2.4920    -7.9010 
  261.3750    63.5480    10.0520     8.9420     7.7880    26.2830     2.5020    -7.7420 
  261.5000    61.0980     9.9690     8.9010     7.6860    26.1710     2.5110    -7.6020 
  261.6250    61.8260     9.8590     8.8270     7.6390    25.9490     2.5160    -7.4340 
  261.7500    64.6360     9.7600     8.7500     7.5400    25.8910     2.5160    -7.2480 
  261.8750    66.2810     9.7050     8.7030     7.4600    25.9140     2.5130    -7.0590 
  262.0000    65.2760     9.7290     8.7250     7.4940    25.9860     2.5070    -6.8740 
  262.1250    62.3220     9.8320     8.8210     7.9060    26.5620     2.4990    -6.6550 
  262.2500    59.4230    10.0130     8.9880     8.7440    27.2770     2.4910    -6.3950 
  262.3750    58.3850    10.2600     9.2160     9.0750    27.2220     2.4850    -6.1170 
  262.5000    60.3700    10.5600     9.4920     9.4900    26.3910     2.4810    -5.8340 
  262.6250    64.2390    10.8660     9.7760     9.7480    26.2540     2.4830    -5.5970 
  262.7500    66.5820    11.1360    10.0340     9.8010    26.5800     2.4900    -5.4420 
  262.8750    64.5830    11.3320    10.2310     9.2260    27.0790     2.5010    -5.3550 
  263.0000    61.7610    11.4140    10.3290     8.8400    27.4370     2.5110    -5.2920 
  263.1250    62.2450    11.4120    10.3450     8.8230    27.1470     2.5170    -5.2070 
  263.2500    64.8110    11.3650    10.3080     8.6380    26.3380     2.5180    -5.1180 
  263.3750    65.8180    11.3320    10.2700     8.3990    25.8150     2.5160    -5.0590 
  263.5000    63.1450    11.3820    10.3050     8.4840    25.7860     2.5150    -5.0350 
  263.6250    58.1880    11.5280    10.4330     8.8690    26.0340     2.5170    -4.9720 
  263.7500    53.7670    11.7460    10.6450     9.8990    26.3360     2.5210    -4.8000 
  263.8750    52.8430    11.9900    10.9100    11.6300    26.2660     2.5250    -4.5580 
  264.0000    55.2280    12.1890    11.1680    13.2630    25.6900     2.5250    -4.3430 
  264.1250    57.3920    12.2970    11.3570    14.5640    25.4120     2.5240    -4.2010 
  264.2500    58.2140    12.2910    11.4380    14.4870    25.2580     2.5260    -4.1000 
  264.3750    58.2170    12.1630    11.3910    13.4930    25.1910     2.5300    -3.9900 
  264.5000    59.0810    11.9100    11.1990    13.6090    25.3350     2.5350    -3.8830 
  264.6250    61.6000    11.5910    10.9240    13.5140    25.7330     2.5370    -3.8300 
  264.7500    64.6750    11.2610    10.6310    12.8650    26.1860     2.5340    -3.8670 
  264.8750    65.8520    10.9750    10.3750    11.8190    26.6240     2.5260    -3.9410 
  265.0000    63.6490    10.7810    10.2010    12.2790    27.2660     2.5140    -3.9760 
  265.1250    61.4510    10.6590    10.0960    14.6870    27.8990     2.5000    -3.9410 
  265.2500    61.5700    10.5760    10.0360    16.9930    28.2550     2.4870    -3.8480 
  265.3750    63.2480    10.4940     9.9830    16.2530    28.6490     2.4770    -3.7480 
  265.5000    64.1180    10.3820     9.9010    13.4040    29.5650     2.4740    -3.6090 
  265.6250    63.9120    10.2430     9.7940    10.5910    29.7340     2.4770    -3.4250 
  265.7500    63.8240    10.0950     9.6770     9.3250    28.8580     2.4820    -3.2410 
  265.8750    64.6070     9.9530     9.5660     8.8480    27.6900     2.4890    -3.0530 
  266.0000    65.5080     9.8390     9.4840     8.6060    26.8660     2.4960    -2.8780 
  266.1250    65.4000     9.7610     9.4340     8.4660    25.9710     2.5050    -2.7420 
  266.2500    63.2460     9.7280     9.4130     8.4110    25.1810     2.5150    -2.6380 
  266.3750    60.9150     9.7420     9.4200     8.5310    24.6500     2.5220    -2.5400 
  266.5000    60.9140     9.8070     9.4560     8.8260    24.5090     2.5210    -2.4690 
  266.6250    60.9140     9.9060     9.5160     9.1110    24.4720     2.5120    -2.3520 
  266.7500    60.9140    10.0270     9.5970     9.2910    24.4790     2.5000    -2.1410 
  266.8750    60.9140    10.1560     9.6950     9.3160    24.4900     2.4940    -1.8750 
  267.0000    60.9140    10.2770     9.7990     9.4560    24.4740     2.4980    -1.5910 
  267.1250    60.9140    10.3810     9.8970     9.7660    24.4680     2.5090    -1.3250 
  267.2500    60.9140    10.4660     9.9810    10.3120    24.4670     2.5200    -1.0590 
  267.3750    60.9140    10.5360    10.0470    10.7690    24.4670     2.5260    -0.7870 
  267.5000    60.9140    10.5920    10.0930    11.4480    24.4660     2.5260    -0.5440 
  267.6250    60.9140    10.6300    10.1170    12.2240    24.4680     2.5240    -0.3950 
  267.7500    60.9140    10.6440    10.1180    12.6570    24.4690     2.5250    -0.3400 
  267.8750    60.9140    10.6320    10.0970    12.8350    24.4690     2.5280    -0.3400 
  268.0000    60.9140    10.6080    10.0660    13.2730    24.4690     2.5320    -0.3750 
  268.1250    60.9140    10.5940    10.0530    13.4430    24.4680     2.5380    -0.3980 
  268.2500    60.9140    10.6040    10.0770    13.0450    24.4650     2.5460    -0.4340 
  268.3750    60.9140    10.6360    10.1430    12.5570    24.4650     2.5560    -0.5150 
  268.5000    60.9140    10.6670    10.2290    12.1760    24.4640     2.5580    -0.6080 
  268.6250    60.9140    10.6680    10.2940    11.6750    24.4720     2.5450    -0.6180 
  268.7500    60.9140    10.6340    10.3170    11.4610    24.4920     2.5200    -0.5740 
  268.8750    60.9140    10.5780    10.3030    11.3670    24.5180     2.4910    -0.5280 
  269.0000    60.9140    10.5430    10.2850    10.2950    24.5290     2.4760    -0.5410 
  269.1250    60.9140    10.5600    10.3060     8.7140    24.5300     2.4720    -0.5730 
  269.2500    60.9140    10.6370    10.3870     8.3480    24.5290     2.4810    -0.6090 
  269.3750    60.9140    10.7570    10.5190     9.0550    24.5290     2.4950    -0.6300 
  269.5000    60.9140    10.8720    10.6620    10.4070    24.5290     2.5080    -0.6530 
  269.6250    60.9140    10.9360    10.7560    11.0740    24.5300     2.5170    -0.7390 
  269.7500    60.9140    10.9280    10.7680    10.7870    24.5350     2.5200    -0.8300 
  269.8750    60.9140    10.8530    10.7010    10.2740    24.5420     2.5210    -0.9380 
