~V
VERS. 2.00: Ver 2.00
~W
STRT.M 55.0000:
STOP.M 283.0000:
STEP.M 0.1250:
NULL. -999.2500:
UWI. F11062:
~C
DEPT.M :
SP.MV :
GR.API :
RML.OHMM :
RI. :
RXO.OHMM :
CALI.CM :
DEN.GM/CC :
~A
# ...
   66.2500   -20.7860    55.1440     7.2160     6.1820     9.8970    23.2460     2.1450 
   66.3750   -19.5670    59.0170     7.3990     6.2930     9.9910    23.3370     2.1630 
   66.5000   -18.2210    64.9790     7.9840     6.6710     9.5790    23.3500     2.2080 
   66.6250   -16.8230    66.7300     9.0360     7.3980     9.4600    23.3550     2.2880 
   66.7500   -15.4360    64.5410    10.2160     8.2810    10.5630    23.3610     2.3870 
   66.8750   -14.1190    61.2380    11.1060     9.0410    12.7900    23.3480     2.4770 
   67.0000   -12.9330    59.5030    11.2890     9.3510    17.0090    23.3140     2.5250 
   67.1250   -12.0060    62.9260    10.4330     8.8700    19.1410    23.2670     2.5050 
   67.2500   -11.3320    70.2180     8.9740     7.8420    15.6410    23.2100     2.4460 
   67.3750   -10.8830    75.2850     7.4430     6.6540     9.8860    23.1100     2.3770 
   67.5000   -10.6840    77.0740     6.2990     5.6780     6.8950    22.9530     2.3180 
   67.6250   -10.7210    78.3100     5.8390     5.1640     6.2360    22.8300     2.2780 
   67.7500   -10.9450    79.1210     5.9160     5.0510     6.1900    22.7670     2.2550 
   67.8750   -11.3010    78.9560     6.4130     5.2850     6.2740    22.7960     2.2480 
   68.0000   -11.7370    79.9420     7.2020     5.7980     6.3660    22.9270     2.2600 
   68.1250   -12.2200    82.3520     8.1340     6.5090     6.6500    23.2180     2.2950 
   68.2500   -12.7550    80.8580     8.9760     7.2320     6.9880    23.5480     2.3380 
   68.3750   -13.2860    74.9300     9.5420     7.8110     7.4500    23.6620     2.3720 
   68.5000   -13.7910    69.7450     9.7120     8.1180     8.0850    23.4250     2.3780 
   68.6250   -14.2130    69.3900     9.4760     8.0800     8.2990    23.0310     2.3520 
   68.7500   -14.5770    71.2970     9.1140     7.8730     8.3120    22.8210     2.3220 
   68.8750   -14.8870    73.9900     8.8520     7.6660     8.4470    22.7900     2.3110 
   69.0000   -15.1560    75.7280     8.8090     7.5720     8.8460    22.8580     2.3230 
   69.1250   -15.4410    74.2410     8.9820     7.6230     9.2930    22.9900     2.3420 
   69.2500   -15.7280    70.7690     9.2040     7.7320    10.3360    23.1370     2.3430 
   69.3750   -16.0570    68.9110     9.3470     7.8140    12.1980    23.2450     2.3160 
   69.5000   -16.3920    69.6740     9.3440     7.8130    12.3840    23.3060     2.2700 
   69.6250   -16.8200    67.9180     9.2090     7.7190    11.5250    23.3450     2.2240 
   69.7500   -17.2790    63.6280     9.0530     7.6020    11.8400    23.3810     2.1900 
   69.8750   -17.7290    60.3860     8.9450     7.5170    12.5260    23.4170     2.1700 
   70.0000   -18.1540    60.7540     8.9090     7.4940    11.3960    23.4680     2.1600 
   70.1250   -18.4600    62.8640     8.9330     7.5380    10.1240    23.5680     2.1600 
   70.2500   -18.6380    63.1250     8.9640     7.6060     9.7720    23.7290     2.1640 
   70.3750   -18.6920    61.0840     8.9770     7.6700     9.9800    23.9170     2.1700 
   70.5000   -18.6640    58.9820     8.9710     7.7200    10.1650    24.0690     2.1740 
   70.6250   -18.5270    59.8270     8.9520     7.7480     9.9890    24.1330     2.1720 
   70.7500   -18.2470    61.5580     8.9370     7.7620     9.6620    24.1590     2.1660 
   70.8750   -17.8760    61.4910     8.9350     7.7630     9.4990    24.1860     2.1580 
   71.0000   -17.4100    60.3160     8.9420     7.7490     9.4190    24.2230     2.1520 
   71.1250   -16.8520    60.1900     8.9280     7.6950     9.4210    24.2580     2.1480 
   71.2500   -16.2240    61.0100     8.8430     7.5750     9.2420    24.2800     2.1500 
   71.3750   -15.5510    62.7700     8.6400     7.3600     9.0070    24.2990     2.1590 
   71.5000   -14.8190    65.2830     8.2930     7.0360     8.8000    24.3210     2.1790 
   71.6250   -14.1140    70.0860     7.8040     6.6100     8.5260    24.3300     2.2110 
   71.7500   -13.5330    75.9870     7.2850     6.1620     8.0640    24.3300     2.2440 
   71.8750   -13.0950    81.8470     6.8690     5.7850     7.3890    24.3190     2.2700 
   72.0000   -12.8390    85.7210     6.7280     5.5910     6.6850    24.2850     2.2800 
   72.1250   -12.8380    84.8300     7.1470     5.7760     6.6540    24.2240     2.2720 
   72.2500   -13.0850    79.3460     8.1870     6.4040     7.4270    24.1690     2.2600 
   72.3750   -13.5150    69.5980     9.8200     7.5060     9.2540    24.1770     2.2560 
   72.5000   -14.1430    58.7560    11.8050     8.9820    12.9940    24.2420     2.2630 
   72.6250   -14.8820    51.6980    13.5760    10.5060    19.6070    24.2890     2.2730 
   72.7500   -15.6610    48.6510    14.5460    11.5930    26.6030    24.2510     2.2710 
   72.8750   -16.4220    49.7360    14.3810    11.8750    32.3270    24.0560     2.2520 
   73.0000   -17.1430    52.7560    13.1670    11.2660    33.2900    23.6540     2.2200 
   73.1250   -17.7620    54.6350    11.4480    10.0590    21.9630    23.0900     2.1920 
   73.2500   -18.2550    55.2500     9.9820     8.8840    13.2500    22.6250     2.1750 
   73.3750   -18.6990    56.1300     9.0700     8.0260     9.6530    22.2720     2.1700 
   73.5000   -19.0690    56.5920     8.7110     7.5490     8.6300    22.0240     2.1700 
   73.6250   -19.4010    54.6580     8.7720     7.4270     8.6390    22.0150     2.1720 
   73.7500   -19.6750    53.2660     8.9750     7.4810     8.9030    22.2870     2.1740 
   73.8750   -19.9210    53.0740     9.1820     7.6080     9.2510    22.7780     2.1750 
   74.0000   -20.1470    53.2720     9.3230     7.7370     9.4910    23.3710     2.1770 
   74.1250   -20.3210    55.1250     9.3800     7.8290     9.7070    23.9210     2.1770 
   74.2500   -20.5150    56.0040     9.3950     7.8890     9.8640    24.2640     2.1730 
   74.3750   -20.6440    54.1120     9.3970     7.9280    10.0380    24.4050     2.1660 
   74.5000   -20.7240    51.2670     9.4010     7.9580    10.1840    24.4520     2.1570 
   74.6250   -20.6770    52.4730     9.4130     7.9790    10.4230    24.4660     2.1500 
   74.7500   -20.5670    54.8440     9.4270     7.9910    10.7820    24.3910     2.1470 
   74.8750   -20.4010    55.3570     9.4400     7.9900    11.5220    24.1840     2.1470 
   75.0000   -20.1350    54.6120     9.4460     7.9720    12.3620    23.8690     2.1490 
   75.1250   -19.7990    53.3700     9.4330     7.9290    12.2270    23.5670     2.1500 
   75.2500   -19.4080    51.2620     9.4000     7.8660    11.1370    23.3410     2.1530 
   75.3750   -19.0070    50.5000     9.3500     7.7880    10.9340    23.2440     2.1580 
   75.5000   -18.5820    52.3260     9.2940     7.7050    11.0680    23.3610     2.1650 
   75.6250   -18.2280    54.9000     9.2520     7.6350    10.2080    23.6460     2.1720 
   75.7500   -17.9030    56.2640     9.2370     7.5870     9.6720    23.7290     2.1770 
   75.8750   -17.6070    56.7200     9.2540     7.5690     9.4780    23.5670     2.1780 
   76.0000   -17.4200    58.1060     9.2980     7.5800     9.4830    23.3370     2.1780 
   76.1250   -17.3190    60.1360     9.3650     7.6170     9.5600    23.2350     2.1770 
   76.2500   -17.2570    62.0880     9.4380     7.6630     9.6050    23.2060     2.1760 
   76.3750   -17.2320    64.7810     9.5140     7.7120     9.6080    23.2010     2.1750 
   76.5000   -17.2890    66.2080     9.5930     7.7610     9.6370    23.1950     2.1740 
   76.6250   -17.3050    62.5750     9.6820     7.8130     9.7100    23.1650     2.1740 
   76.7500   -17.3090    56.8280     9.7760     7.8670     9.7780    23.0980     2.1760 
   76.8750   -17.3040    52.7270     9.8610     7.9190     9.8310    22.9810     2.1790 
   77.0000   -17.2380    51.5880     9.9180     7.9560     9.9470    22.7900     2.1850 
   77.1250   -17.1330    52.8540     9.9250     7.9630    10.0900    22.4670     2.1920 
   77.2500   -17.0170    55.7680     9.8940     7.9430    10.1390    22.1030     2.1990 
   77.3750   -16.9050    58.0170     9.8460     7.9080    10.0670    21.9290     2.2040 
