~V
VERS. 2.00: Ver 2.00
~W
STRT.M 52.0000:
STOP.M 271.0000:
STEP.M 0.1250:
NULL. -999.2500:
UWI. F11069:
~C
DEPT.M :
GR.API :
RML.OHMM :
RI. :
RXO.OHMM :
CALI.CM :
DEN.GM/CC :
SP.MV :
~A
# ...
  108.2500    68.6200     6.9420     6.0110     8.8450    24.0060     2.1130    -2.3520 
  108.3750    70.2590     8.3670     6.7080     9.4180    24.2040     2.1280    -2.2010 
  108.5000    74.6540    11.1190     8.3990    12.4210    24.2230     2.1950    -2.0360 
  108.6250    75.7220    15.5110    11.7840    24.7030    24.3340     2.3240    -1.9570 
  108.7500    72.0500    20.5310    16.6740    54.6050    24.5650     2.4760    -1.9140 
  108.8750    67.0980    24.4200    21.8080    88.7340    24.7260     2.6090    -1.8580 
  109.0000    64.7910    25.2480    24.3510   100.5820    24.7530     2.6850    -1.8240 
  109.1250    64.4960    21.9610    21.7900    84.2670    24.7030     2.6750    -1.8800 
  109.2500    64.1100    16.9910    17.1000    51.6010    24.6640     2.6000    -1.9710 
  109.3750    64.9610    12.4940    12.7850    26.9630    24.6850     2.4860    -2.0910 
  109.5000    67.7780     9.5620     9.7590    14.9270    24.7550     2.3620    -2.2600 
  109.6250    71.1310     8.2790     8.0910    10.8070    24.6410     2.2590    -2.4190 
  109.7500    72.2240     7.8580     7.2500     9.5170    24.3240     2.1910    -2.5600 
  109.8750    71.3200     7.9430     6.9970     9.0270    23.9600     2.1580    -2.6920 
  110.0000    71.0030     8.2660     7.1130     8.8060    23.6400     2.1500    -2.7940 
  110.1250    71.9870     8.5760     7.3820     8.8250    23.4860     2.1550    -2.8390 
  110.2500    72.8260     8.7590     7.6150     8.8660    23.4500     2.1620    -2.8840 
  110.3750    72.9640     8.8020     7.7510     8.8460    23.4830     2.1690    -2.9530 
  110.5000    72.6470     8.7370     7.7890     8.8860    23.5500     2.1760    -2.9960 
  110.6250    72.6380     8.6060     7.7470     8.9310    23.6260     2.1810    -2.9820 
  110.7500    72.9090     8.4670     7.6710     8.7160    23.6880     2.1820    -2.9870 
  110.8750    71.6410     8.3450     7.5840     8.5080    23.7570     2.1800    -3.0380 
  111.0000    69.2640     8.2530     7.5070     8.5630    23.8390     2.1760    -3.0670 
  111.1250    68.0290     8.1960     7.4530     8.6290    23.8910     2.1710    -3.0460 
  111.2500    67.1920     8.1630     7.4170     8.6090    23.8910     2.1680    -3.0230 
  111.3750    66.6920     8.1460     7.3920     8.7250    23.8760     2.1670    -2.9710 
  111.5000    67.6750     8.1330     7.3640     8.8460    23.8680     2.1680    -2.8760 
  111.6250    68.9940     8.1080     7.3200     8.8410    23.9370     2.1690    -2.7760 
  111.7500    67.5050     8.0670     7.2690     8.7360    24.0490     2.1690    -2.6820 
  111.8750    66.3720     8.0140     7.2290     8.7190    24.1320     2.1670    -2.5600 
  112.0000    69.2910     7.9560     7.2210     8.9690    24.0960     2.1630    -2.4620 
  112.1250    72.1600     7.9260     7.2590     9.1110    23.9220     2.1590    -2.4380 
  112.2500    71.2440     7.9670     7.3290     9.0890    23.7920     2.1560    -2.3910 
  112.3750    70.1810     8.1080     7.4110     8.9110    23.8070     2.1580    -2.3180 
  112.5000    71.5190     8.3350     7.4840     8.7840    23.8630     2.1650    -2.2820 
  112.6250    72.6470     8.5600     7.5240     8.8750    23.8090     2.1730    -2.3280 
  112.7500    70.6840     8.6750     7.5290     9.1420    23.6850     2.1780    -2.3930 
  112.8750    67.2280     8.6410     7.5100     9.4810    23.6070     2.1790    -2.4630 
  113.0000    66.1960     8.5030     7.4830     9.5580    23.6390     2.1740    -2.5210 
  113.1250    69.5060     8.3620     7.4600     9.3860    23.6650     2.1650    -2.5210 
  113.2500    72.1390     8.2800     7.4340     9.1960    23.6690     2.1560    -2.5350 
  113.3750    71.6120     8.2430     7.3940     9.1400    23.6450     2.1480    -2.5860 
  113.5000    70.9030     8.2120     7.3370     9.0160    23.6250     2.1430    -2.6410 
  113.6250    72.3890     8.1600     7.2810     8.8920    23.5980     2.1400    -2.6500 
  113.7500    73.5510     8.1070     7.2490     8.8400    23.5640     2.1390    -2.6440 
  113.8750    73.2870     8.0940     7.2490     9.0200    23.5680     2.1410    -2.6550 
  114.0000    73.6870     8.1510     7.2750     9.4390    23.6510     2.1440    -2.6630 
  114.1250    75.0870     8.2930     7.3200     9.6770    23.7020     2.1510    -2.6740 
  114.2500    76.5720     8.4710     7.3760     9.5850    23.6680     2.1570    -2.6630 
  114.3750    76.6560     8.6350     7.4380     9.6890    23.5810     2.1610    -2.6360 
  114.5000    74.8800     8.7420     7.4930     9.9900    23.5590     2.1590    -2.6090 
  114.6250    72.8010     8.7490     7.5120     9.9870    23.6520     2.1500    -2.5570 
  114.7500    71.9270     8.6760     7.4880     9.8840    23.7650     2.1400    -2.4750 
  114.8750    71.8900     8.5470     7.4250     9.6990    23.8120     2.1310    -2.3650 
  115.0000    72.2230     8.3970     7.3520     9.4460    23.8040     2.1260    -2.2650 
  115.1250    72.9600     8.2760     7.3230     9.3420    23.9060     2.1300    -2.2160 
  115.2500    72.4950     8.2170     7.3670     9.1490    24.1340     2.1380    -2.1860 
  115.3750    70.9200     8.2310     7.4800     9.0490    24.3470     2.1490    -2.1320 
  115.5000    70.8000     8.3020     7.6250     9.3060    24.4580     2.1620    -2.0750 
  115.6250    71.5840     8.3880     7.7260     9.7550    24.4680     2.1730    -2.0940 
  115.7500    70.8200     8.4350     7.7350     9.9760    24.4630     2.1770    -2.1370 
  115.8750    70.0570     8.4070     7.6450     9.9210    24.4600     2.1750    -2.2050 
  116.0000    72.6500     8.2830     7.4770     9.5020    24.4600     2.1660    -2.2980 
  116.1250    75.8660     8.0580     7.2550     9.2120    24.4660     2.1560    -2.3540 
  116.2500    75.9380     7.8030     7.0220     9.2810    24.4840     2.1510    -2.3820 
  116.3750    74.8600     7.5830     6.8100     9.4540    24.4970     2.1530    -2.4070 
  116.5000    75.4750     7.4500     6.6480     8.9260    24.4740     2.1620    -2.4180 
  116.6250    74.8430     7.4260     6.5750     8.0240    24.4090     2.1740    -2.3590 
  116.7500    71.1820     7.4590     6.5880     8.0870    24.3900     2.1830    -2.2980 
  116.8750    70.0430     7.5050     6.6740     9.0390    24.3950     2.1880    -2.2780 
  117.0000    74.4590     7.5280     6.7900     9.6400    24.4000     2.1880    -2.2760 
  117.1250    79.4930     7.5020     6.8550     9.3790    24.4070     2.1850    -2.2520 
  117.2500    81.3980     7.4180     6.8060     8.8650    24.4040     2.1860    -2.2240 
  117.3750    82.3170     7.2610     6.6160     8.2400    24.3570     2.1920    -2.2380 
  117.5000    84.9930     7.0370     6.3100     7.2110    24.2700     2.2050    -2.2430 
  117.6250    88.5300     6.7950     5.9800     6.5800    24.2120     2.2240    -2.2080 
  117.7500    91.3260     6.6290     5.7350     6.4580    24.1430     2.2480    -2.1640 
  117.8750    92.5720     6.6170     5.6410     6.4000    24.0430     2.2720    -2.1090 
  118.0000    91.3300     6.8080     5.7300     6.3330    23.9220     2.2930    -2.0250 
  118.1250    89.3940     7.2280     6.0290     6.6980    23.7850     2.3030    -1.9590 
  118.2500    86.8600     7.7820     6.4640     7.7660    23.5710     2.3010    -1.9660 
  118.3750    82.1520     8.3750     6.9610     8.9540    23.3380     2.2900    -1.9850 
  118.5000    77.3930     8.8920     7.4290    10.0150    23.1630     2.2760    -2.0310 
  118.6250    75.0920     9.1800     7.7560    10.3750    23.1550     2.2630    -2.1750 
  118.7500    74.1340     9.2220     7.9190    10.5010    23.4080     2.2510    -2.3390 
  118.8750    72.9060     9.0660     7.9410    10.5010    23.8910     2.2390    -2.4530 
  119.0000    71.1630     8.8230     7.8780    10.4850    24.3010     2.2250    -2.5760 
  119.1250    71.6290     8.6350     7.7940    10.4060    24.4360     2.2080    -2.7910 
  119.2500    71.9760     8.5470     7.7350    10.3450    24.4510     2.1910    -3.0090 
  119.3750    70.3490     8.5020     7.6970    10.2990    24.4390     2.1770    -3.1910 
