~V
VERS. 2.00: Ver 2.00
~W
STRT.M 55.0000:
STOP.M 286.0000:
STEP.M 0.1250:
NULL. -999.2500:
UWI. F11067:
~C
DEPT.M :
GR.API :
RML.OHMM :
RI. :
RXO.OHMM :
CALI.CM :
DEN.GM/CC :
SP.MV :
~A
# ...
  223.7500    67.5800    63.3320    57.6770    48.8650    24.7760     2.2530     2.2000 
  223.8750    64.7780    64.2900    59.3180    44.5360    24.8000     2.2400     2.0920 
  224.0000    64.9530    65.9790    61.5230    41.3910    24.8640     2.2220     2.0010 
  224.1250    66.2160    67.8210    63.5800    55.4840    24.9800     2.2040     1.9460 
  224.2500    65.6120    69.1180    64.6680    70.2350    25.0720     2.1920     1.8620 
  224.3750    64.9060    69.7920    64.5420    73.6500    25.1260     2.1840     1.7860 
  224.5000    66.4480    70.0490    63.6270    63.9790    25.1490     2.1810     1.7330 
  224.6250    68.8110    69.9820    62.6890    54.8520    25.1630     2.1830     1.6580 
  224.7500    67.8990    69.5480    62.1880    54.4990    25.1900     2.1900     1.5800 
  224.8750    64.3470    68.6030    62.0690    64.9070    25.2160     2.1980     1.4940 
  225.0000    62.7470    67.2910    61.8970    82.7460    25.2510     2.2060     1.4090 
  225.1250    64.4030    66.0400    60.8930    81.9780    25.2310     2.2100     1.3030 
  225.2500    64.6800    64.6860    58.8450    66.7770    25.1800     2.2100     1.2150 
  225.3750    63.7190    62.3780    55.8940    58.5940    25.1490     2.2110     1.1200 
  225.5000    63.3260    58.6500    52.4080    59.1630    25.1310     2.2140     0.9930 
  225.6250    64.2510    54.2010    48.9430    55.9800    25.0970     2.2200     0.8730 
  225.7500    64.8900    50.2250    45.9820    46.4030    25.0490     2.2280     0.7540 
  225.8750    64.3460    47.0880    43.6970    37.4600    25.0030     2.2360     0.6200 
  226.0000    63.1170    44.7770    42.0010    33.3140    24.9490     2.2460     0.4590 
  226.1250    63.4310    43.1910    40.7680    33.8020    24.8620     2.2600     0.3020 
  226.2500    65.1110    42.0070    39.8400    34.8520    24.8440     2.2740     0.1180 
  226.3750    64.8980    41.1870    39.2920    32.5070    24.9590     2.2840    -0.0930 
  226.5000    61.7140    40.9100    39.4020    26.8290    25.1130     2.2840    -0.2950 
  226.6250    61.7000    41.8880    41.0570    26.4550    25.1790     2.2700    -0.5320 
  226.7500    66.0790    44.7710    45.0060    30.9750    25.1810     2.2470    -0.7680 
  226.8750    69.4440    50.4520    52.2610    42.2510    25.1190     2.2210    -0.9840 
  227.0000    67.4830    59.8360    63.7600    58.7320    24.9640     2.1970    -1.1960 
  227.1250    62.8370    74.3480    80.5640    85.1780    24.8250     2.1810    -1.4050 
  227.2500    59.4510    92.9530   100.5310   124.4950    24.8970     2.1700    -1.5870 
  227.3750    57.4200   113.9520   120.7470   160.9770    25.0590     2.1590    -1.7200 
  227.5000    56.9610   134.5710   137.9960   168.8420    25.0770     2.1440    -1.8400 
  227.6250    58.1530   151.3130   149.8730   147.0030    24.8810     2.1250    -1.9350 
  227.7500    59.0060   163.7070   158.0930   128.0220    24.6640     2.1100    -2.0250 
  227.8750    58.7620   172.7770   164.6320   129.7980    24.5920     2.1060    -2.1150 
  228.0000    58.0330   180.1610   170.9920   169.5400    24.6240     2.1190    -2.1920 
  228.1250    57.2170   186.4630   176.7320   200.9770    24.6430     2.1450    -2.2790 
  228.2500    56.2350   190.5940   179.5280   193.2010    24.5910     2.1700    -2.3760 
  228.3750    56.6570   190.4060   177.1020   177.6390    24.5300     2.1830    -2.4730 
  228.5000    58.6550   184.3750   168.8250   189.2000    24.5140     2.1830    -2.5700 
  228.6250    61.6990   171.7600   155.7470   203.2130    24.5580     2.1780    -2.6630 
  228.7500    64.3780   156.8300   141.5010   176.2700    24.6320     2.1790    -2.7280 
  228.8750    66.0330   143.5960   128.4860   146.1330    24.7200     2.1860    -2.7720 
  229.0000    67.3270   133.6880   118.2470   139.8480    24.8620     2.1970    -2.7930 
  229.1250    68.3810   126.3850   112.1740   137.5240    25.0270     2.2080    -2.7970 
  229.2500    67.7340   120.9450   109.9870   127.4850    25.1140     2.2160    -2.7810 
  229.3750    65.2790   118.7070   111.6080   126.4470    25.1330     2.2230    -2.7460 
  229.5000    62.7420   120.3490   116.4470   133.2120    25.1320     2.2290    -2.6960 
  229.6250    61.2720   124.9530   123.2450   150.6010    25.1320     2.2340    -2.6330 
  229.7500    59.5330   130.1680   129.3360   158.8550    25.1470     2.2380    -2.5700 
  229.8750    58.6630   133.8500   132.2890   162.9040    25.1900     2.2410    -2.5130 
  230.0000    60.0660   134.0210   130.3470   171.4640    25.2550     2.2460    -2.4710 
  230.1250    60.9670   128.8600   122.6820   167.8190    25.2830     2.2550    -2.3940 
  230.2500    60.7330   119.7150   111.8620   143.1270    25.2900     2.2630    -2.3260 
  230.3750    61.1210   108.1630    99.8680   115.2370    25.2880     2.2630    -2.2860 
  230.5000    62.4730    96.0450    88.4270   102.8560    25.2790     2.2540    -2.2270 
  230.6250    63.5390    85.3860    79.4100    97.3700    25.2560     2.2460    -2.1770 
  230.7500    64.0150    77.2430    73.4360    87.1600    25.2330     2.2610    -2.1370 
  230.8750    65.4880    72.1610    70.7430    74.9350    25.1890     2.3100    -2.0970 
  231.0000    66.4140    70.2110    71.1260    71.5160    25.1010     2.3840    -2.0560 
  231.1250    64.7320    71.4590    74.4230    88.8560    24.9690     2.4450    -2.0300 
  231.2500    62.9120    74.7350    79.3160   139.2050    24.8540     2.4620    -2.0080 
  231.3750    62.0500    79.2530    84.8170   165.5230    24.7430     2.4290    -1.9930 
  231.5000    61.8990    84.1970    90.0540   117.3110    24.6410     2.3640    -2.0140 
  231.6250    61.4960    88.6060    93.9830   109.1140    24.5710     2.2970    -2.0170 
  231.7500    62.1800    91.6420    95.7810   117.6010    24.5110     2.2530    -2.0200 
  231.8750    63.7220    92.4480    94.5510   124.8530    24.4440     2.2330    -2.0440 
  232.0000    64.6240    90.3450    89.8990   124.3430    24.3870     2.2340    -2.0820 
  232.1250    65.5740    84.9670    82.3040   113.2590    24.3300     2.2440    -2.1300 
  232.2500    67.5800    78.1600    74.5390    87.1520    24.2280     2.2530    -2.1750 
  232.3750    70.0270    71.9930    69.1030    57.8160    24.0490     2.2560    -2.2260 
  232.5000    71.6230    68.6160    67.9090    46.1460    23.9110     2.2510    -2.2590 
  232.6250    71.1750    70.5760    73.0310    50.1000    23.9210     2.2430    -2.3280 
  232.7500    68.0410    77.9560    83.9380    68.1970    24.0460     2.2350    -2.4160 
  232.8750    64.1470    90.5190    99.7470   110.4270    24.2250     2.2320    -2.4840 
  233.0000    63.2710   106.7620   117.6850   159.4050    24.4450     2.2300    -2.5370 
  233.1250    65.9170   123.1500   132.1990   172.7880    24.6310     2.2280    -2.5650 
  233.2500    66.5180   135.5020   139.8820   165.9670    24.7160     2.2230    -2.5800 
  233.3750    64.4330   141.7130   140.8280   161.7670    24.7710     2.2130    -2.5600 
  233.5000    62.5330   142.1920   137.6040   157.5430    24.8460     2.2020    -2.5220 
  233.6250    62.2150   138.9450   132.9870   156.6220    24.9230     2.1960    -2.4040 
  233.7500    62.7390   134.7730   128.2780   148.1440    24.9840     2.1980    -2.2540 
  233.8750    63.9910   130.2310   123.0040   139.1310    24.9930     2.2090    -2.1040 
  234.0000    66.1330   124.8970   116.4650   137.9190    24.9860     2.2240    -1.9490 
  234.1250    67.8890   118.0540   108.4540   136.5330    24.9800     2.2380    -1.8170 
  234.2500    69.2490   110.3000   100.3140   123.9130    24.9760     2.2460    -1.6940 
  234.3750    70.4150   102.8270    93.6040   101.9710    24.9750     2.2470    -1.6060 
  234.5000    70.8100    97.1540    89.7200    86.2680    24.9810     2.2410    -1.5580 
  234.6250    68.9890    95.2640    90.2300    79.7480    25.0060     2.2280    -1.5800 
  234.7500    65.8830    97.3520    94.6820    91.3330    25.0530     2.2140    -1.6200 
  234.8750    63.2020   103.2880   102.4550   120.3920    25.0880     2.2020    -1.6730 
