~V
VERS. 2.00: Ver 2.00
~W
STRT.M 52.0000:
STOP.M 282.0000:
STEP.M 0.1250:
NULL. -999.2500:
UWI. F11052:
~C
DEPT.M :
SP.MV :
GR.API :
RML.OHMM :
RI. :
RXO.OHMM :
CALI.CM :
DEN.GM/CC :
~A
# ...
  142.0000   -10.4450    54.1170    20.5910    19.4210    18.3920    24.8090     2.5750 
  142.1250   -10.3720    54.6860    20.2450    19.1240    17.2010    24.7520     2.5740 
  142.2500   -10.2750    53.4170    19.8270    18.7230    17.2180    24.7860     2.5760 
  142.3750   -10.2060    51.9480    19.4550    18.3380    16.7530    24.9300     2.5760 
  142.5000   -10.0930    52.4610    19.2120    18.0710    15.9310    25.1120     2.5740 
  142.6250   -10.0380    53.5420    19.1290    17.9630    16.6030    25.1240     2.5750 
  142.7500    -9.9520    52.1070    19.1220    17.9220    18.1940    25.0990     2.5810 
  142.8750    -9.8700    49.6360    19.1230    17.8810    17.5820    25.0960     2.5880 
  143.0000    -9.8100    48.8240    19.0830    17.8070    16.5890    25.1470     2.5880 
  143.1250    -9.6590    48.7600    18.9730    17.6740    16.3850    25.2550     2.5780 
  143.2500    -9.5360    47.5950    18.8150    17.4900    16.5320    25.3170     2.5640 
  143.3750    -9.4260    47.8540    18.6390    17.2840    16.9670    25.2120     2.5560 
  143.5000    -9.3410    51.1030    18.4890    17.0930    17.5600    25.1080     2.5560 
  143.6250    -9.3240    52.8790    18.4410    16.9770    16.5280    25.1420     2.5630 
  143.7500    -9.3380    52.0080    18.5310    16.9790    15.5950    25.2130     2.5670 
  143.8750    -9.3660    52.0100    18.7510    17.1220    15.2890    25.1970     2.5640 
  144.0000    -9.4590    53.4020    19.0160    17.3600    15.3480    25.1050     2.5490 
  144.1250    -9.6340    53.3090    19.1370    17.5320    16.1490    25.0990     2.5250 
  144.2500    -9.8070    52.2970    18.9770    17.4700    16.0300    25.0620     2.5030 
  144.3750    -9.9980    52.3060    18.5020    17.0920    15.2110    24.9640     2.4920 
  144.5000   -10.1800    53.3300    17.7960    16.4440    14.5580    24.8180     2.5010 
  144.6250   -10.3220    55.3030    17.0310    15.6730    14.3860    24.7870     2.5290 
  144.7500   -10.4360    58.5030    16.3680    14.9570    14.3880    24.8010     2.5610 
  144.8750   -10.5270    60.6920    15.8560    14.3660    13.9830    24.8020     2.5880 
  145.0000   -10.5500    61.6440    15.4640    13.8970    13.6440    24.7520     2.6040 
  145.1250   -10.4970    64.2350    15.1130    13.4880    13.0410    24.6710     2.6080 
  145.2500   -10.4200    66.9900    14.7250    13.0590    12.4050    24.6760     2.6020 
  145.3750   -10.2510    68.1820    14.2870    12.5810    12.1320    24.7760     2.5870 
  145.5000   -10.0870    68.1100    13.8300    12.0750    12.2700    24.9320     2.5680 
  145.6250    -9.9070    66.6780    13.4290    11.6100    11.5720    25.0520     2.5480 
  145.7500    -9.7020    64.0580    13.1400    11.2450    10.6970    25.1320     2.5300 
  145.8750    -9.5160    61.4020    12.9980    11.0190    10.5040    25.2270     2.5170 
  146.0000    -9.3170    61.3150    13.0260    10.9510    10.8130    25.3190     2.5070 
  146.1250    -9.2610    61.8910    13.2700    11.0790    11.2060    25.2510     2.4990 
  146.2500    -9.2670    60.7460    13.6990    11.3810    11.8580    25.1850     2.4960 
  146.3750    -9.3380    58.5260    14.2820    11.8460    12.2400    25.2600     2.4990 
  146.5000    -9.4890    56.4650    14.9370    12.4260    12.9370    25.3380     2.5090 
  146.6250    -9.6970    56.9480    15.4700    12.9860    13.7020    25.3130     2.5260 
  146.7500   -10.0690    59.6620    15.6690    13.3210    14.6800    25.2170     2.5480 
  146.8750   -10.6530    62.4490    15.3830    13.2280    15.6360    25.1740     2.5670 
  147.0000   -11.4310    64.5920    14.5720    12.6070    14.9240    25.1510     2.5730 
  147.1250   -12.4300    67.3960    13.2090    11.5210    13.1930    25.1040     2.5520 
  147.2500   -13.6070    71.7490    11.6490    10.3250    11.5220    24.9810     2.5080 
  147.3750   -14.8400    75.4030    10.2970     9.2570    10.3280    24.8350     2.4530 
  147.5000   -16.0670    76.5430     9.4460     8.4620     9.4140    24.6810     2.4020 
  147.6250   -17.2090    75.9190     9.1480     8.0480     8.7580    24.5390     2.3690 
  147.7500   -18.1440    76.0730     9.0790     7.9050     8.7280    24.4450     2.3530 
  147.8750   -18.7980    76.8140     9.0630     7.9010     9.2870    24.4890     2.3490 
  148.0000   -19.1060    77.8680     8.9410     7.8630    10.0450    24.6110     2.3530 
  148.1250   -18.9120    81.0370     8.5600     7.6000    10.0180    24.7160     2.3680 
  148.2500   -18.3260    86.1920     7.9790     7.1160     8.5200    24.7470     2.3940 
  148.3750   -17.4860    93.3320     7.3130     6.5070     6.9400    24.7160     2.4300 
  148.5000   -16.4860   100.7720     6.6940     5.9030     5.7730    24.6880     2.4720 
  148.6250   -15.3580   103.8640     6.2360     5.4260     5.6500    24.7290     2.5040 
  148.7500   -14.2140   101.8360     5.9270     5.0880     5.8310    24.7960     2.5160 
  148.8750   -13.0520    97.4090     5.7300     4.8680     5.7520    24.8600     2.5030 
  149.0000   -11.9680    94.7380     5.6040     4.7290     5.3100    24.9620     2.4700 
  149.1250   -11.0290    93.6140     5.5270     4.6400     4.9550    25.1160     2.4280 
  149.2500   -10.2510    91.8270     5.4910     4.5820     4.8280    25.3010     2.3930 
  149.3750    -9.6900    89.0590     5.5030     4.5630     4.8330    25.4710     2.3730 
  149.5000    -9.1750    86.2940     5.5610     4.5880     4.9020    25.5410     2.3690 
  149.6250    -8.7710    84.1620     5.6430     4.6480     5.0280    25.5150     2.3800 
  149.7500    -8.4540    83.2540     5.7030     4.7030     5.1590    25.5000     2.3950 
  149.8750    -8.1820    84.9030     5.7130     4.7230     5.2290    25.5230     2.4050 
  150.0000    -7.9910    90.5930     5.6670     4.6940     5.1800    25.5340     2.4020 
  150.1250    -7.8680    95.6680     5.5830     4.6200     5.0860    25.5210     2.3850 
  150.2500    -7.7880    96.9520     5.5050     4.5330     5.0180    25.4940     2.3660 
  150.3750    -7.8000    97.9310     5.4640     4.4600     4.9970    25.4680     2.3570 
  150.5000    -7.9610   100.3350     5.4710     4.4200     5.0030    25.4460     2.3650 
  150.6250    -8.1780   101.8570     5.5250     4.4180     5.0140    25.4290     2.3850 
  150.7500    -8.4690   102.0590     5.5990     4.4370     5.0090    25.4260     2.4050 
  150.8750    -8.8200   103.2490     5.6730     4.4610     5.0200    25.4320     2.4160 
  151.0000    -9.1560   104.0980     5.7310     4.4770     5.0330    25.4410     2.4160 
  151.1250    -9.4820   101.5690     5.7620     4.4810     5.0530    25.4820     2.4080 
  151.2500    -9.7540    99.2210     5.7700     4.4770     5.0570    25.4960     2.3980 
  151.3750    -9.9250    99.9290     5.7590     4.4670     5.0770    25.4810     2.3900 
  151.5000    -9.9830   102.8200     5.7360     4.4540     5.1710    25.4760     2.3870 
  151.6250   -10.0030   103.5830     5.7100     4.4380     5.1470    25.4870     2.3880 
  151.7500    -9.9790   101.3460     5.6890     4.4240     5.0590    25.4870     2.3890 
  151.8750    -9.9150    98.0250     5.6790     4.4180     5.0350    25.4450     2.3910 
  152.0000    -9.8780    95.4650     5.6790     4.4240     5.0620    25.4100     2.3940 
  152.1250    -9.8070    95.9670     5.6860     4.4410     5.1030    25.3950     2.4000 
  152.2500    -9.7790    99.4570     5.6900     4.4590     5.1280    25.3800     2.4060 
  152.3750    -9.7700   104.0030     5.6840     4.4690     5.1110    25.3530     2.4100 
  152.5000    -9.8350   106.5150     5.6630     4.4640     5.0750    25.3270     2.4080 
  152.6250    -9.9750   104.5900     5.6230     4.4370     5.0470    25.3190     2.4010 
  152.7500   -10.0660   102.0790     5.5640     4.3920     5.0370    25.3400     2.3930 
  152.8750   -10.1940   104.4160     5.4910     4.3330     5.0170    25.3480     2.3870 
  153.0000   -10.2970   111.1240     5.4090     4.2650     4.9460    25.2920     2.3870 
  153.1250   -10.3920   112.7650     5.3360     4.2020     4.7980    25.1760     2.3960 
