~V
VERS. 2.00: Ver 2.00
~W
STRT.M 62.0000:
STOP.M 236.0000:
STEP.M 0.1250:
NULL. -999.2500:
UWI. F11006:
~C
DEPT.M :
GR.API :
RML.OHMM :
RI. :
RXO.OHMM :
CALI.CM :
SP.MV :
DEN.GM/CC :
~A
   62.0000    56.5680     8.5660     0.1690    -0.1350    25.6210    60.1540     2.0860 
   62.1250    53.7780     8.9340     0.1660    -0.0840    25.6180    52.0670     2.1270 
   62.2500    49.7730     8.0920     0.1590    -0.0950    25.6160    45.5490     2.1910 
   62.3750    46.2700     5.9820     0.1490    -0.1370    25.6330    40.4540     2.2530 
   62.5000    44.3190     3.3880     0.1380    -0.1690    25.6500    36.5060     2.3010 
   62.6250    45.3820     1.5070     0.1280    -0.1420    25.6470    33.3320     2.3580 
   62.7500    49.6980     0.5510     0.1230    -0.0830    25.6280    30.4400     2.4450 
   62.8750    56.0820     0.1960     0.1220    -0.0140    25.6070    27.3470     2.5520 
   63.0000    61.8370     0.1360     0.1350     0.5140    25.5930    23.7340     2.6310 
   63.1250    66.2670     0.3070     0.1920     2.7360    25.7010    19.4130     2.6160 
   63.2500    74.7120     0.7240     0.3350     4.3970    25.8670    14.7300     2.5180 
   63.3750    87.3990     1.4580     0.6220     5.1300    25.6770     9.8970     2.3860 
   63.5000    97.4320     2.4820     1.1030     5.0920    24.8160     5.0010     2.2790 
   63.6250    99.5410     3.5410     1.8080     5.2970    23.5240     0.2670     2.2320 
   63.7500    98.2850     4.2980     2.6160     5.8650    22.6340    -4.1120     2.2230 
   63.8750    96.1950     4.6620     3.4240     5.9440    22.3110    -7.9140     2.2290 
   64.0000    92.8530     4.7750     4.1700     6.2380    22.2520   -10.9820     2.2340 
   64.1250    89.2720     4.8530     4.8150     6.6800    22.2160   -13.1100     2.2350 
   64.2500    88.1860     4.9590     5.3330     6.8240    22.1790   -14.5580     2.2310 
   64.3750    88.9780     5.0110     5.6480     7.0560    22.1750   -15.4440     2.2250 
   64.5000    91.7730     4.9100     5.6880     7.3300    22.2660   -15.7440     2.2200 
   64.6250    99.9650     4.6030     5.4150     7.1530    22.6120   -15.4300     2.2300 
   64.7500   112.1740     4.2030     4.9790     5.9700    23.2450   -14.7410     2.2540 
   64.8750   123.0000     3.8300     4.5090     4.6600    23.9060   -13.8790     2.2800 
   65.0000   127.3320     3.5730     4.1030     3.9590    24.4620   -12.9050     2.2930 
   65.1250   125.1990     3.4660     3.8220     3.8440    24.9390   -11.8520     2.2820 
   65.2500   121.2530     3.4280     3.6320     3.8140    25.3580   -10.8860     2.2610 
   65.3750   117.5980     3.4000     3.4990     3.8350    25.5380   -10.0350     2.2510 
   65.5000   116.7420     3.3780     3.4170     3.9250    25.3030    -9.4180     2.2560 
   65.6250   121.5960     3.4860     3.4720     4.0440    25.1830    -9.1890     2.2720 
   65.7500   125.9400     3.8930     3.8130     4.0560    25.1990    -9.2550     2.2910 
   65.8750   122.1680     4.8140     4.6820     4.6490    25.0070    -9.5750     2.3230 
   66.0000   108.2650     6.5160     6.4000     7.6610    24.6300   -10.1420     2.3840 
   66.1250    90.8490     9.4490     9.4220    19.3490    24.3280   -11.0350     2.4730 
   66.2500    78.2570    13.0960    13.1880    39.6170    24.1420   -12.2350     2.5590 
   66.3750    72.2000    16.1620    16.4690    51.4170    23.9810   -13.7230     2.6050 
   66.5000    70.2350    17.1170    17.8070    44.1920    23.7560   -15.4360     2.5950 
   66.6250    69.3930    15.2680    16.3460    29.3140    23.2670   -17.3060     2.5230 
   66.7500    69.8390    12.4350    13.6080    17.5490    22.7000   -19.2040     2.4240 
   66.8750    71.1670    10.0040    10.9260    11.2120    22.3570   -20.9970     2.3230 
   67.0000    70.7350     8.5010     9.0010     9.3220    22.3010   -22.5820     2.2390 
   67.1250    68.2460     7.8660     7.9790     9.2220    22.4310   -23.8790     2.1890 
   67.2500    67.9960     7.6530     7.4770     9.0790    22.5550   -24.9590     2.1690 
   67.3750    70.2850     7.6430     7.2800     9.0400    22.6330   -25.8900     2.1690 
   67.5000    71.2270     7.6840     7.2240     9.1190    22.6440   -26.6830     2.1790 
   67.6250    70.6170     7.6820     7.1960     9.2920    22.6290   -27.2780     2.1910 
   67.7500    73.0020     7.6340     7.1460     9.4340    22.6360   -27.7020     2.2000 
   67.8750    78.8570     7.5770     7.0860     9.2870    22.6440   -28.0210     2.2060 
   68.0000    81.8590     7.5570     7.0440     8.8670    22.6450   -28.3170     2.2090 
   68.1250    77.7420     7.6200     7.0530     8.5160    22.6600   -28.6600     2.2080 
   68.2500    73.3590     7.7510     7.1130     8.6890    22.7030   -29.0100     2.2050 
   68.3750    73.2820     7.9170     7.2100     9.0530    22.7490   -29.2770     2.2040 
   68.5000    75.0060     8.0700     7.3220     9.2410    22.7570   -29.4520     2.2050 
   68.6250    75.2070     8.1570     7.4100     9.3120    22.6910   -29.5820     2.2060 
   68.7500    76.2430     8.1710     7.4510     9.2750    22.5610   -29.7210     2.2010 
   68.8750    77.6570     8.1220     7.4370     9.0760    22.4470   -29.8510     2.1920 
   69.0000    76.5210     8.0290     7.3690     8.9250    22.4420   -29.9200     2.1790 
   69.1250    74.0040     7.9110     7.2520     8.8390    22.6120   -29.8270     2.1680 
   69.2500    74.9060     7.7850     7.1020     8.7780    22.8830   -29.5770     2.1640 
   69.3750    79.7250     7.6560     6.9230     8.6850    23.1450   -29.2160     2.1660 
   69.5000    83.7650     7.5310     6.7250     8.5320    23.2610   -28.7850     2.1720 
   69.6250    86.6940     7.4260     6.5280     8.3110    23.2020   -28.2980     2.1800 
   69.7500    90.7110     7.3530     6.3580     8.0670    23.0970   -27.7980     2.1850 
   69.8750    94.2510     7.3130     6.2270     7.8830    23.0250   -27.3560     2.1880 
   70.0000    95.5270     7.2950     6.1320     7.8450    22.9810   -26.9650     2.1860 
   70.1250    93.2140     7.2920     6.0690     8.0360    22.9440   -26.5980     2.1780 
   70.2500    86.9050     7.3440     6.0490     8.3590    22.9330   -26.2220     2.1670 
   70.3750    79.1100     7.5460     6.1260     8.6420    22.9740   -25.7970     2.1620 
   70.5000    75.9960     8.0190     6.3890     8.7540    23.1070   -25.3250     2.1830 
   70.6250    82.0270     8.9000     6.9750     9.3910    23.3310   -24.8040     2.2560 
   70.7500    89.4130    10.0510     7.8500    11.9520    23.5160   -24.2960     2.3730 
   70.8750    91.9710    11.2150     8.8820    17.5140    23.7000   -23.8550     2.5040 
   71.0000    89.4410    12.0220     9.8050    22.8730    23.8300   -23.5880     2.6000 
   71.1250    83.6850    12.0300    10.1980    25.2700    23.7710   -23.6280     2.6080 
   71.2500    77.1570    11.3590     9.9870    20.3860    23.5360   -23.9050     2.5420 
   71.3750    71.4400    10.3150     9.3100    13.8960    23.2730   -24.4030     2.4340 
   71.5000    69.1110     9.2870     8.4530    10.4990    23.1150   -25.0870     2.3270 
   71.6250    72.0140     8.5990     7.7190     9.2340    23.0080   -25.9190     2.2530 
   71.7500    75.6190     8.2310     7.2130     8.7940    22.9170   -26.7570     2.2080 
   71.8750    78.1070     8.0690     6.9210     8.3170    22.8570   -27.4940     2.1810 
   72.0000    79.2270     7.9790     6.7720     8.0710    22.8550   -28.0160     2.1630 
   72.1250    77.1590     7.8770     6.6850     8.1550    22.9400   -28.2330     2.1520 
   72.2500    74.0390     7.7680     6.6020     8.2960    23.0830   -28.2820     2.1480 
   72.3750    73.5980     7.7000     6.5220     8.4190    23.2260   -28.2310     2.1500 
   72.5000    75.2440     7.7100     6.4730     8.5300    23.3250   -28.1000     2.1550 
   72.6250    74.7030     7.8130     6.4930     8.6260    23.3600   -27.9010     2.1610 
   72.7500    73.0170     7.9540     6.5700     8.7110    23.3590   -27.6860     2.1690 
   72.8750    73.2720     8.0760     6.6690     8.7420    23.3250   -27.5340     2.1760 
   73.0000    75.2260     8.1300     6.7400     8.7850    23.2910   -27.4970     2.1830 
   73.1250    78.5040     8.0790     6.7340     8.8500    23.2860   -27.5790     2.1880 
