~V
VERS. 2.00: Ver 2.00
~W
STRT.M 63.0000:
STOP.M 273.0000:
STEP.M 0.1250:
NULL. -999.2500:
UWI. F11030:
~C
DEPT.M :
DEN.GM/CC :
GR.API :
RML.OHMM :
RI. :
RXO.OHMM :
CALI.CM :
SP.MV :
~A
# ...
  198.0000     2.3120    68.5530    56.3450    52.7390    47.4190    25.0970   -23.6110 
  198.1250     2.3110    69.7570    60.4420    56.3290    51.0140    25.1150   -23.6520 
  198.2500     2.3080    69.0280    65.3280    60.9090    56.4520    25.1280   -23.7010 
  198.3750     2.3020    68.6780    70.5190    66.0180    61.7320    25.1100   -23.7140 
  198.5000     2.2910    70.2690    75.4040    71.0100    67.7510    25.0540   -23.8440 
  198.6250     2.2760    71.6440    79.0490    74.8140    75.2430    24.9770   -24.0900 
  198.7500     2.2600    71.6430    81.0370    76.8830    82.8300    24.9960   -24.3060 
  198.8750     2.2460    69.6000    81.1870    77.0340    83.0340    25.0710   -24.5320 
  199.0000     2.2370    66.7770    79.6760    75.4890    78.5630    25.1510   -24.8020 
  199.1250     2.2340    65.4410    76.8620    72.6370    72.7440    25.2060   -24.8400 
  199.2500     2.2370    66.7620    73.6430    69.3870    70.5480    25.2370   -24.6720 
  199.3750     2.2430    69.7670    70.6650    66.3680    70.4660    25.2690   -24.4040 
  199.5000     2.2490    70.5900    68.5430    64.1470    67.3140    25.3100   -23.8840 
  199.6250     2.2520    69.7610    68.1300    63.6340    62.6750    25.3380   -23.0740 
  199.7500     2.2520    69.1450    69.4590    65.1440    63.0810    25.3020   -22.1970 
  199.8750     2.2650    68.2300    71.9700    68.5810    68.1880    25.1590   -21.1610 
  200.0000     2.3090    66.6240    73.8110    72.6010    73.1110    24.9490   -19.8790 
  200.1250     2.4010    64.9670    70.9470    72.8190    79.5530    24.7740   -18.6940 
  200.2500     2.5200    62.3500    61.8780    65.2630    87.2400    24.6520   -17.5830 
  200.3750     2.6300    58.2670    47.9240    50.2020    85.3020    24.5930   -16.3630 
  200.5000     2.7000    57.0920    32.8220    33.2360    53.6210    24.4890   -15.2420 
  200.6250     2.7060    60.0750    20.9510    20.6760    25.4510    24.2900   -14.2220 
  200.7500     2.6750    60.4770    13.1360    12.8290    10.8790    24.0120   -13.1630 
  200.8750     2.6320    55.9460     8.6610     8.3880     5.8220    23.8410   -12.2680 
  201.0000     2.5960    51.6260     6.4080     6.0410     4.3460    23.7900   -11.6820 
  201.1250     2.5690    52.0700     5.5830     5.0300     4.1950    23.7800   -11.1600 
  201.2500     2.5410    53.3560     5.3640     4.6410     4.2890    23.8290   -10.6910 
  201.3750     2.5080    54.7250     5.4450     4.6130     4.2040    23.9240   -10.4370 
  201.5000     2.4710    57.1940     5.6540     4.7680     3.9620    23.9680   -10.2450 
  201.6250     2.4400    57.9850     5.9040     5.0090     3.9210    23.8830   -10.1700 
  201.7500     2.4230    54.7750     6.1690     5.2920     4.0710    23.7510   -10.3320 
  201.8750     2.4250    49.1700     6.4550     5.6160     4.5860    23.6730   -10.6230 
  202.0000     2.4420    45.1760     6.7520     5.9660     5.4760    23.6260   -10.9510 
  202.1250     2.4680    44.6260     7.0140     6.2790     6.6170    23.5950   -11.4660 
  202.2500     2.4900    45.8160     7.1920     6.4780     6.8240    23.7210   -12.1080 
  202.3750     2.4990    47.2670     7.2540     6.5140     5.9790    23.9030   -12.7400 
  202.5000     2.4900    49.3950     7.1980     6.3890     5.1330    24.0110   -13.4190 
  202.6250     2.4680    52.4790     7.0470     6.1430     4.8130    24.0470   -13.9360 
  202.7500     2.4430    53.3470     6.8690     5.8650     4.7220    24.0700   -14.2570 
  202.8750     2.4240    50.9130     6.7060     5.6090     4.7430    24.0830   -14.5080 
  203.0000     2.4140    49.0070     6.5910     5.4040     4.6920    24.0740   -14.7030 
  203.1250     2.4140    51.8310     6.5610     5.2810     4.6040    23.9800   -14.8190 
  203.2500     2.4210    55.7100     6.6260     5.2430     4.5930    23.9260   -15.0350 
  203.3750     2.4330    58.6340     6.7990     5.2990     4.8730    24.0520   -15.4010 
  203.5000     2.4530    62.4340     7.0770     5.4540     5.2580    24.1290   -15.8870 
  203.6250     2.4830    70.4830     7.4430     5.7040     5.9850    24.1540   -16.8270 
  203.7500     2.5070    82.5020     7.8330     6.0030     6.5550    24.2080   -18.1360 
  203.8750     2.5060    94.6670     8.1970     6.3110     7.2710    24.4060   -19.5840 
  204.0000     2.4610    99.7520     8.5010     6.5930     8.4660    24.7720   -21.1690 
  204.1250     2.3740    94.8260     8.7240     6.8130     8.8250    25.1940   -22.8490 
  204.2500     2.2920    88.4690     8.8920     6.9800     7.7260    25.4690   -24.2990 
  204.3750     2.2580    86.2030     9.0160     7.1000     6.8250    25.5280   -25.5100 
  204.5000     2.2920    86.7710     9.0900     7.1730     7.2960    25.4080   -26.5110 
  204.6250     2.3650    84.2260     9.0610     7.1610     7.9010    25.2530   -27.1200 
  204.7500     2.4000    80.3780     8.9060     7.0350     7.5360    25.3400   -27.3930 
  204.8750     2.3410    78.5600     8.6170     6.7770     6.6950    26.1100   -27.5410 
  205.0000     2.1740    79.7740     8.2350     6.4060     5.6700    27.9450   -27.6290 
  205.1250     1.9300    80.4210     7.8790     6.0120     4.9540    30.6130   -27.6440 
  205.2500     1.6920    76.8070     7.7100     5.7290     4.5610    33.3060   -27.8190 
  205.3750     1.5250    71.3910     7.9110     5.6880     4.4120    34.6970   -28.1080 
  205.5000     1.4760    67.2740     8.6880     6.0290     4.6790    33.6630   -28.3540 
  205.6250     1.5870    66.0990    10.4600     7.0240     6.0180    29.6640   -28.5770 
  205.7500     1.8100    65.7420    13.3740     8.8170     9.1900    26.6010   -28.8170 
  205.8750     2.0900    65.1300    17.5830    11.6990    13.5750    25.0130   -29.0210 
  206.0000     2.3590    67.0210    22.8520    15.9150    20.0230    24.6390   -29.2520 
  206.1250     2.5490    70.1660    27.7700    21.1470    26.7650    24.6420   -29.5270 
  206.2500     2.6600    70.2450    30.0660    25.0680    32.3710    24.6430   -29.6820 
  206.3750     2.7090    67.3310    28.2800    24.9560    35.6290    24.5850   -29.7510 
  206.5000     2.7040    65.3840    22.8760    20.4770    34.4820    24.4660   -29.7850 
  206.6250     2.6250    66.2570    16.2270    14.5270    20.1770    24.4770   -29.5200 
  206.7500     2.4690    64.7920    10.8760     9.8250     9.1890    24.9930   -28.9430 
  206.8750     2.2520    60.6400     7.4620     6.7630     4.3320    26.0930   -28.0570 
  207.0000     2.0170    57.4250     5.6680     5.0040     3.2290    27.4730   -26.7380 
  207.1250     1.8340    57.6270     5.0410     4.2260     3.4520    28.6310   -25.0980 
  207.2500     1.7390    58.2310     4.9600     3.9800     3.6550    29.8700   -23.4880 
  207.3750     1.7400    59.6270     5.1710     4.0830     3.7440    30.1220   -21.9980 
  207.5000     1.8290    64.7010     5.4910     4.3720     3.8520    28.9040   -20.7300 
  207.6250     1.9820    70.8390     5.7810     4.7080     4.0700    26.6880   -19.8800 
  207.7500     2.1490    75.7740     5.9740     4.9970     4.3890    25.2650   -19.3000 
  207.8750     2.2910    80.7230     6.0600     5.2000     4.4660    24.8000   -18.9940 
  208.0000     2.3830    85.7420     6.0500     5.3000     4.5020    24.8190   -19.0070 
  208.1250     2.4140    86.9410     5.9670     5.2810     4.5220    24.7640   -19.1320 
  208.2500     2.4130    84.8480     5.8650     5.1900     4.6600    24.6830   -19.1070 
  208.3750     2.3990    82.8760     5.7850     5.0630     4.9290    24.6790   -18.9870 
  208.5000     2.3850    80.2420     5.7580     4.9370     5.1090    24.7900   -18.8210 
  208.6250     2.3760    76.8080     5.8170     4.8510     4.9900    24.9010   -18.6450 
  208.7500     2.3730    76.3080     5.9440     4.8230     4.9730    25.0060   -18.6050 
  208.8750     2.3770    77.7730     6.1250     4.8560     5.1790    25.0490   -18.6000 
  209.0000     2.3860    78.4050     6.3440     4.9430     5.4350    25.0840   -18.5410 
  209.1250     2.3930    78.5480     6.6170     5.0900     5.5770    25.0250   -18.6260 
