~V
VERS. 2.00: Ver 2.00
~W
STRT.M 59.0000:
STOP.M 230.0000:
STEP.M 0.1250:
NULL. -999.2500:
UWI. F11001:
~C
DEPT.M :
GR.API :
RML.OHMM :
RI. :
RXO.OHMM :
CALI.CM :
SP.MV :
DEN.GM/CC :
~A
# ...
  126.5000    99.2080     6.2920     4.8870     4.9190    24.8390    -1.5060     2.2880 
  126.6250    99.6190     6.3150     4.8650     5.1000    24.8570    -1.5770     2.2890 
  126.7500    97.7430     6.4110     4.9090     5.3200    24.9740    -1.7740     2.2880 
  126.8750    96.2630     6.5090     4.9680     5.5580    25.0820    -1.9970     2.2880 
  127.0000    95.8860     6.5600     5.0070     5.6160    25.1370    -2.1900     2.2920 
  127.1250    98.4190     6.5490     5.0030     5.4020    25.1540    -2.3700     2.2970 
  127.2500   103.8700     6.4880     4.9610     5.2060    25.1570    -2.5870     2.2960 
  127.3750   107.4330     6.4150     4.9140     5.1890    25.1500    -2.8100     2.2880 
  127.5000   107.2220     6.3430     4.8780     5.2360    25.1420    -3.0080     2.2760 
  127.6250   105.9050     6.2680     4.8550     5.1310    25.1570    -3.1570     2.2640 
  127.7500   106.6370     6.1940     4.8390     5.2560    25.1680    -3.2510     2.2590 
  127.8750   105.5600     6.1640     4.8440     5.4180    25.1540    -3.3420     2.2620 
  128.0000   101.8530     6.2480     4.9150     5.4140    25.0760    -3.4680     2.2740 
  128.1250    99.7940     6.5090     5.1030     5.2550    24.8910    -3.5810     2.2910 
  128.2500    99.7680     6.9640     5.4470     5.4550    24.7390    -3.6320     2.3040 
  128.3750    95.3180     7.4530     5.8540     6.0860    24.8240    -3.6580     2.3050 
  128.5000    88.2230     7.7770     6.1790     7.2590    24.9850    -3.6780     2.2870 
  128.6250    86.4040     7.7590     6.2480     8.3560    25.0860    -3.7210     2.2550 
  128.7500    95.0840     7.2950     5.9170     7.2080    25.1410    -3.7790     2.2270 
  128.8750   106.8370     6.6100     5.3680     5.8530    25.1950    -3.8480     2.2170 
  129.0000   115.7830     5.9410     4.8040     5.0840    25.1520    -3.9350     2.2310 
  129.1250   120.4320     5.4930     4.3880     4.6970    25.0370    -4.0860     2.2630 
  129.2500   122.3820     5.4340     4.2500     4.6420    24.9220    -4.3020     2.3010 
  129.3750   123.4970     5.7040     4.3630     4.8840    24.8700    -4.5350     2.3300 
  129.5000   121.3830     6.2250     4.6890     5.2060    24.7800    -4.7580     2.3440 
  129.6250   113.2770     6.8710     5.1480     5.9480    24.6390    -4.9380     2.3390 
  129.7500   101.9790     7.4860     5.6250     7.0010    24.4900    -5.0820     2.3180 
  129.8750    95.1990     7.9660     6.0210     8.0850    24.3970    -5.2000     2.2910 
  130.0000    93.3050     8.3010     6.3080     8.4880    24.3070    -5.2680     2.2640 
  130.1250    92.6910     8.5670     6.5240     8.2880    24.1980    -5.2630     2.2400 
  130.2500    92.1280     8.9250     6.7810     8.0270    24.0890    -5.1900     2.2180 
  130.3750    92.6890     9.4980     7.1810     8.8550    24.0000    -5.0770     2.2040 
  130.5000    92.6270    10.3550     7.7880    10.7110    23.9580    -4.9290     2.2070 
  130.6250    89.8960    11.5340     8.6400    11.9320    23.9040    -4.7450     2.2400 
  130.7500    86.4250    13.1260     9.8240    13.0290    23.8430    -4.5390     2.3060 
  130.8750    84.4690    15.0870    11.3190    15.1530    23.8210    -4.3600     2.3850 
  131.0000    82.9130    17.3720    13.1110    17.3670    23.8790    -4.2450     2.4600 
  131.1250    81.1570    19.8340    15.1300    19.7000    23.9840    -4.1730     2.5200 
  131.2500    80.2660    22.1320    17.1790    24.7700    24.0470    -4.1390     2.5540 
  131.3750    79.0980    23.9080    18.9160    30.1430    24.0500    -4.1580     2.5650 
  131.5000    78.5170    24.9520    20.0680    29.7460    24.0290    -4.2360     2.5510 
  131.6250    81.0430    25.3010    20.5830    25.6940    24.0700    -4.3600     2.5140 
  131.7500    84.3040    25.2230    20.6470    24.7670    24.2690    -4.4740     2.4640 
  131.8750    83.0590    25.1900    20.6810    25.1930    24.5110    -4.5420     2.4230 
  132.0000    78.2080    25.4470    20.9250    24.9450    24.6000    -4.5960     2.4070 
  132.1250    73.6690    26.0440    21.4810    23.8340    24.4400    -4.6850     2.4220 
  132.2500    71.4200    26.8390    22.2860    24.4170    24.2200    -4.7830     2.4660 
  132.3750    72.8530    27.5120    23.0570    26.5380    24.0790    -4.8210     2.5150 
  132.5000    78.0410    27.8410    23.5780    28.5670    23.9530    -4.7910     2.5510 
  132.6250    81.4540    27.7270    23.7260    28.8320    23.8400    -4.7530     2.5610 
  132.7500    77.5550    27.1950    23.4600    26.6160    23.8840    -4.7640     2.5380 
  132.8750    72.8460    26.5120    23.0000    24.2050    24.1280    -4.7640     2.4960 
  133.0000    72.9170    25.8450    22.5110    22.7750    24.4060    -4.6610     2.4480 
  133.1250    75.8150    25.2380    22.0630    23.0240    24.6500    -4.4390     2.4110 
  133.2500    76.7880    24.5870    21.5810    21.5830    24.7550    -4.1790     2.3960 
  133.3750    75.0930    23.7710    20.9490    21.3630    24.8280    -3.9560     2.3990 
  133.5000    71.7170    22.7900    20.1390    21.5050    24.9720    -3.7670     2.4140 
  133.6250    68.1000    21.7840    19.2550    19.9720    25.0970    -3.5640     2.4340 
  133.7500    66.0380    21.0470    18.5500    17.5560    25.0550    -3.3230     2.4520 
  133.8750    64.8140    20.7520    18.1930    17.0160    25.0770    -3.1040     2.4690 
  134.0000    65.6760    20.9410    18.2440    17.2970    25.1040    -2.9840     2.4860 
  134.1250    69.2920    21.5180    18.6540    18.4400    25.0040    -2.9210     2.5030 
  134.2500    71.3070    22.2710    19.2830    20.5530    24.9050    -2.8670     2.5190 
  134.3750    70.2310    22.9070    19.8640    21.5580    24.8820    -2.8460     2.5280 
  134.5000    69.1050    23.2690    20.2280    20.8470    24.8790    -2.8400     2.5270 
  134.6250    70.2390    23.3300    20.3320    20.9640    24.9300    -2.8170     2.5180 
  134.7500    72.4030    23.1880    20.2530    20.9090    24.9530    -2.8290     2.5040 
  134.8750    74.6340    23.0700    20.1900    21.1320    25.0170    -2.8380     2.4960 
  135.0000    76.2970    23.1320    20.2760    20.7480    25.1270    -2.8020     2.4960 
  135.1250    76.7430    23.4510    20.5870    20.5550    25.1030    -2.8330     2.5040 
  135.2500    78.0390    24.0160    21.1390    21.6610    25.0120    -2.9060     2.5170 
  135.3750    80.5070    24.5970    21.7520    22.7370    24.9420    -2.9460     2.5270 
  135.5000    81.0350    24.9210    22.1930    24.0430    24.9480    -3.0060     2.5320 
  135.6250    80.3600    24.7130    22.1790    24.7210    25.0120    -3.0850     2.5310 
  135.7500    82.4740    23.6970    21.3840    24.6250    25.0800    -3.1220     2.5250 
  135.8750    86.6520    22.0980    19.9890    22.1490    25.0260    -3.1650     2.5170 
  136.0000    88.7790    20.2160    18.2870    18.9980    24.8830    -3.2380     2.5110 
  136.1250    88.1050    18.3960    16.6170    16.3590    24.7630    -3.2450     2.5110 
  136.2500    87.8070    16.9790    15.2960    14.6000    24.7730    -3.1970     2.5190 
  136.3750    89.1060    16.0140    14.3810    13.4520    24.7620    -3.1480     2.5300 
  136.5000    88.8530    15.4710    13.8580    12.8590    24.6880    -3.0890     2.5400 
  136.6250    85.8170    15.2830    13.6790    12.6660    24.4500    -3.0760     2.5400 
  136.7500    82.3150    15.4520    13.8480    13.4730    24.0300    -3.1330     2.5210 
  136.8750    81.0790    15.9230    14.3070    14.1610    23.7040    -3.1790     2.4860 
  137.0000    83.1810    16.6850    15.0580    14.6880    23.5850    -3.2160     2.4420 
  137.1250    88.1420    17.6610    16.0580    15.6630    23.6040    -3.2500     2.4020 
  137.2500    92.3730    18.6130    17.1280    18.0660    23.6400    -3.2260     2.3840 
  137.3750    93.9260    19.2220    17.9290    20.4230    23.6850    -3.1680     2.3890 
  137.5000    92.4830    19.2500    18.1600    20.9560    23.6750    -3.0820     2.4070 
  137.6250    88.5170    18.6360    17.6850    19.4760    23.5990    -2.9090     2.4260 
