~V
VERS. 2.00: Ver 2.00
~W
STRT.M 60.0000:
STOP.M 273.0000:
STEP.M 0.1250:
NULL. -999.2500:
UWI. F11028:
~C
DEPT.M :
DEN.GM/CC :
GR.API :
RML.OHMM :
RI. :
RXO.OHMM :
CALI.CM :
SP.MV :
~A
# ...
  251.2500     2.3690    53.0580     8.9740     7.8770     6.5140    22.6070   -12.6590 
  251.3750     2.3650    55.4910     8.8290     7.7910     6.4730    22.5990   -12.5670 
  251.5000     2.3640    56.1620     8.6000     7.6140     6.6140    22.6000   -12.4630 
  251.6250     2.3660    54.5680     8.3470     7.3860     6.9190    22.6120   -12.3990 
  251.7500     2.3700    52.0110     8.1440     7.1750     7.2150    22.6320   -12.3500 
  251.8750     2.3740    49.8080     8.0310     7.0190     7.0710    22.6060   -12.3200 
  252.0000     2.3780    48.5580     8.0190     6.9330     6.7410    22.5640   -12.3170 
  252.1250     2.3790    47.9930     8.1140     6.9370     6.6640    22.5650   -12.3320 
  252.2500     2.3800    48.2110     8.2850     7.0190     6.8510    22.5840   -12.3500 
  252.3750     2.3810    49.4490     8.5120     7.1770     6.9420    22.5930   -12.3820 
  252.5000     2.3840    50.7270     8.7680     7.3950     6.7340    22.5810   -12.4270 
  252.6250     2.3900    50.3860     9.0170     7.6420     6.7260    22.5890   -12.4570 
  252.7500     2.3990    49.0010     9.2270     7.8650     6.7950    22.6230   -12.4910 
  252.8750     2.4080    48.8830     9.3820     8.0260     6.9390    22.6460   -12.5060 
  253.0000     2.4150    49.5350     9.4940     8.1130     7.2010    22.6420   -12.4940 
  253.1250     2.4210    48.9060     9.6070     8.1430     7.4180    22.5930   -12.4450 
  253.2500     2.4280    48.4620     9.7480     8.1750     7.4960    22.5930   -12.3720 
  253.3750     2.4380    49.9840     9.9240     8.2510     7.5770    22.5670   -12.2710 
  253.5000     2.4510    52.5180    10.1290     8.3850     7.8760    22.5510   -12.1760 
  253.6250     2.4660    52.7240    10.3410     8.5670     8.2510    22.5160   -12.0860 
  253.7500     2.4800    50.8030    10.5140     8.7450     8.2610    22.4770   -11.9960 
  253.8750     2.4890    49.6780    10.6180     8.8790     8.0950    22.4880   -11.9110 
  254.0000     2.4930    50.6320    10.6410     8.9460     7.9770    22.5030   -11.8350 
  254.1250     2.4880    51.3580    10.5720     8.9340     7.6850    22.4900   -11.7460 
  254.2500     2.4770    49.5100    10.4390     8.8790     7.4580    22.4490   -11.6820 
  254.3750     2.4650    47.1450    10.2750     8.8170     7.4390    22.4320   -11.6360 
  254.5000     2.4560    48.1240    10.1300     8.7800     7.7260    22.4430   -11.5840 
  254.6250     2.4560    53.5870    10.0580     8.7870     8.0690    22.4610   -11.5310 
  254.7500     2.4620    57.9720    10.0590     8.8160     8.4790    22.2860   -11.4810 
  254.8750     2.4740    58.7730    10.0960     8.8390     8.9360    22.0700   -11.4260 
  255.0000     2.4870    56.5920    10.1100     8.8340     9.3030    22.0730   -11.3830 
  255.1250     2.4960    54.2410    10.0490     8.7900     9.0540    22.1670   -11.3540 
  255.2500     2.5010    51.9570     9.9430     8.7250     8.4860    22.4610   -11.3220 
  255.3750     2.5020    49.2130     9.8380     8.6570     8.0470    22.7490   -11.2810 
  255.5000     2.5010    47.7630     9.7610     8.5970     7.9530    22.9780   -11.2730 
  255.6250     2.5000    49.4330     9.7140     8.5550     7.9400    23.0190   -11.2690 
  255.7500     2.5000    52.1600     9.6770     8.5260     7.8150    23.0100   -11.2760 
  255.8750     2.4990    52.0190     9.6350     8.5020     7.7130    23.0110   -11.2930 
  256.0000     2.4970    48.8460     9.5860     8.4770     7.8520    23.0180   -11.3040 
  256.1250     2.4920    49.8940     9.5370     8.4490     8.1390    23.0350   -11.3310 
  256.2500     2.4860    54.9470     9.5030     8.4220     8.1770    23.0770   -11.3770 
  256.3750     2.4800    58.3730     9.4920     8.4040     7.6170    23.0890   -11.4140 
  256.5000     2.4770    57.4340     9.5030     8.4010     7.1590    23.0690   -11.4010 
  256.6250     2.4760    56.9160     9.5230     8.4170     7.0980    22.9910   -11.3600 
  256.7500     2.4760    59.1620     9.5380     8.4470     7.1670    22.9450   -11.3040 
  256.8750     2.4770    61.2200     9.5540     8.4880     7.0030    22.9940   -11.2330 
  257.0000     2.4780    60.3950     9.5870     8.5410     6.8270    23.0940   -11.1820 
  257.1250     2.4800    56.7460     9.6680     8.6080     6.8300    23.1480   -11.1310 
  257.2500     2.4810    53.3690     9.7840     8.6860     6.9900    23.1200   -11.0630 
  257.3750     2.4840    53.8990     9.9060     8.7740     7.1290    23.1070   -11.0120 
  257.5000     2.4880    58.3360    10.0050     8.8630     7.2930    23.1050   -11.0110 
  257.6250     2.4930    61.2790    10.0530     8.9370     7.4250    23.1060   -11.0290 
  257.7500     2.4980    62.1240    10.0640     8.9890     7.5580    23.1140   -11.0660 
  257.8750     2.5010    63.4870    10.0540     9.0210     7.6640    23.1100   -11.1300 
  258.0000     2.5030    64.5230    10.0400     9.0400     7.7410    23.1070   -11.1880 
  258.1250     2.5010    63.3720    10.0220     9.0490     7.8330    23.1170   -11.2520 
  258.2500     2.4980    62.4580     9.9920     9.0430     7.9540    23.1580   -11.3190 
  258.3750     2.4930    63.3880     9.9510     9.0210     8.1620    23.1850   -11.3770 
  258.5000     2.4860    64.8450     9.9030     8.9870     8.4220    23.1810   -11.4320 
  258.6250     2.4790    64.8390     9.8530     8.9550     8.4740    23.1280   -11.5130 
  258.7500     2.4750    64.6700     9.8090     8.9430     8.3240    23.1060   -11.5720 
  258.8750     2.4740    63.5140     9.7680     8.9550     8.2660    23.0890   -11.6320 
  259.0000     2.4770    62.0470     9.7240     8.9860     8.3940    23.0080   -11.6880 
  259.1250     2.4810    62.3330     9.6780     9.0180     8.5550    22.9630   -11.7390 
  259.2500     2.4850    63.5160     9.6440     9.0330     8.5340    22.8780   -11.7860 
  259.3750     2.4870    63.9500     9.6400     9.0310     8.3730    22.6750   -11.8420 
  259.5000     2.4840    62.7870     9.6750     9.0250     8.2750    22.5440   -11.8530 
  259.6250     2.4770    61.8050     9.7560     9.0490     8.3740    22.7440   -11.8380 
  259.7500     2.4690    62.3750     9.8650     9.1230     8.6220    22.9930   -11.8290 
  259.8750     2.4620    63.1940     9.9950     9.2540     8.9240    23.0670   -11.8100 
  260.0000     2.4590    62.8790    10.1390     9.4270     9.1540    23.0920   -11.7800 
  260.1250     2.4610    60.5930    10.2800     9.6080     9.0420    23.0410   -11.7400 
  260.2500     2.4670    58.2430    10.3880     9.7530     8.8860    22.9110   -11.7030 
  260.3750     2.4750    56.8310    10.4390     9.8410     8.8170    22.8640   -11.6810 
  260.5000     2.4840    56.9240    10.4350     9.8700     8.6630    22.8750   -11.7000 
  260.6250     2.4900    58.1360    10.4100     9.8520     8.3750    23.0660   -11.7580 
  260.7500     2.4930    59.6420    10.4010     9.8240     8.1800    23.0880   -11.8440 
  260.8750     2.4910    60.5960    10.4120     9.8060     8.1330    23.0890   -11.9480 
  261.0000     2.4850    60.6150    10.4310     9.8090     8.2120    23.1000   -12.0790 
  261.1250     2.4740    60.4870    10.4470     9.8360     8.4040    23.0910   -12.2180 
  261.2500     2.4620    60.5420    10.4720     9.8830     8.6330    23.0830   -12.3600 
  261.3750     2.4520    59.7700    10.5280     9.9530     8.8190    23.0740   -12.4970 
  261.5000     2.4450    57.8160    10.6270    10.0570     8.9310    23.0270   -12.6280 
  261.6250     2.4420    56.7700    10.7700    10.2070     9.0660    23.0170   -12.7750 
  261.7500     2.4420    56.7700    10.9360    10.3930     9.1600    22.9990   -12.9210 
  261.8750     2.4440    56.7700    11.1160    10.5940     9.0230    22.9510   -13.0580 
  262.0000     2.4480    56.7700    11.2930    10.7880     8.7890    22.9240   -13.1960 
  262.1250     2.4530    56.7700    11.4410    10.9520     8.7150    22.8830   -13.3210 
  262.2500     2.4570    56.7700    11.5630    11.0950     8.8730    22.8540   -13.4310 
  262.3750     2.4600    56.7700    11.6840    11.2330     9.1830    22.8820   -13.5590 
