~V
VERS. 2.00: Ver 2.00
~W
STRT.M 57.0000:
STOP.M 278.0000:
STEP.M 0.1250:
NULL. -999.2500:
UWI. F11043:
~C
DEPT.M :
SP.MV :
GR.API :
RML.OHMM :
RI. :
RXO.OHMM :
CALI.CM :
DEN.GM/CC :
~A
# ...
  259.5000    -7.8390    60.3870    11.9290     9.4450     9.6260    24.2830     2.4940 
  259.6250    -7.8350    65.4800    11.8420     9.3420     9.5870    24.2860     2.4940 
  259.7500    -7.8330    70.4760    11.9000     9.3860     9.5600    24.2930     2.4950 
  259.8750    -7.8330    70.6220    12.0630     9.5480     9.6310    24.2850     2.4990 
  260.0000    -7.8330    67.5030    12.2650     9.7540     9.8750    24.2800     2.4990 
  260.1250    -7.8330    66.7880    12.4070     9.9050     9.8740    24.2870     2.4900 
  260.2500    -7.8360    68.0410    12.4270     9.9540     9.6060    24.2860     2.4790 
  260.3750    -7.8240    68.7290    12.3080     9.8930     9.4990    24.2820     2.4720 
  260.5000    -7.7770    69.1500    12.0780     9.7460     9.7230    24.2910     2.4690 
  260.6250    -7.7120    69.5890    11.7960     9.5510     9.5840    24.2870     2.4630 
  260.7500    -7.6710    69.1740    11.5430     9.3660     8.7100    24.2810     2.4570 
  260.8750    -7.6660    68.9460    11.3690     9.2340     8.0180    24.2870     2.4550 
  261.0000    -7.6700    69.4020    11.3070     9.1910     7.8700    24.2910     2.4580 
  261.1250    -7.6450    69.8390    11.3890     9.2750     7.9590    24.2910     2.4630 
  261.2500    -7.5790    70.2680    11.5720     9.4630     7.9840    24.2990     2.4680 
  261.3750    -7.4820    71.4650    11.8020     9.7250     7.7180    24.2950     2.4740 
  261.5000    -7.3720    71.8600    12.0050     9.9960     7.3470    24.2800     2.4800 
  261.6250    -7.2720    68.8680    12.0700    10.1670     7.2820    24.2810     2.4830 
  261.7500    -7.1990    64.9420    11.9680    10.1830     7.4820    24.2850     2.4780 
  261.8750    -7.1670    64.6060    11.7230    10.0460     7.5340    24.2820     2.4600 
  262.0000    -7.1640    68.7250    11.4090     9.8220     7.4990    24.2830     2.4310 
  262.1250    -7.1670    73.4560    11.1410     9.6130     7.7770    24.2960     2.4000 
  262.2500    -7.1670    74.6460    10.9870     9.4800     8.4770    24.2900     2.3790 
  262.3750    -7.1670    72.7860    10.9500     9.4310     9.1110    24.2840     2.3740 
  262.5000    -7.1670    69.4790    10.9780     9.4410     9.6080    24.2930     2.3850 
  262.6250    -7.1660    66.9150    10.9910     9.4670    10.5970    24.2900     2.4050 
  262.7500    -7.1680    66.8430    10.9700     9.4820    11.3080    24.2800     2.4250 
  262.8750    -7.1720    67.9130    10.9590     9.5070    11.2690    24.2820     2.4420 
  263.0000    -7.1460    68.7010    11.0300     9.5900    10.7570    24.2780     2.4570 
  263.1250    -6.9000    69.7260    11.2560     9.7860    10.6580    24.2870     2.4690 
  263.2500    -6.8850    70.7870    11.6050    10.0840    11.6150    24.2960     2.4760 
  263.3750    -6.8370    70.9390    12.0150    10.4470    14.4520    24.2840     2.4800 
  263.5000    -6.7320    69.4220    12.4080    10.8120    18.1010    24.2740     2.4870 
  263.6250    -6.7030    66.8260    12.7080    11.1020    16.5510    24.2820     2.4900 
  263.7500    -6.7600    64.1740    12.9100    11.2990    13.0840    24.2930     2.4850 
  263.8750    -6.8570    63.3130    13.0100    11.4000    12.4330    24.2850     2.4790 
  264.0000    -6.9400    65.3750    13.0110    11.4060    16.9730    24.2820     2.4760 
  264.1250    -6.9720    68.9120    12.9340    11.3340    27.6940    24.2900     2.4690 
  264.2500    -7.0060    71.8950    12.8730    11.2740    28.9450    24.2850     2.4530 
  264.3750    -7.0170    72.8450    12.9340    11.3210    19.1040    24.2820     2.4400 
  264.5000    -7.0220    71.2450    13.2310    11.5660    12.3980    24.2930     2.4460 
  264.6250    -7.0460    69.6710    13.9000    12.1220    13.0130    24.2900     2.4660 
  264.7500    -7.0680    71.2440    15.4730    12.9380    15.1810    24.2830     2.4820 
  264.8750    -7.0870    74.2580    17.2390    13.9250    17.4580    24.2900     2.4920 
  265.0000    -7.1080    74.9530    18.3380    14.9310    18.4080    24.2930     2.5060 
  265.1250    -7.1360    72.0330    19.0650    15.7420    18.9850    24.2830     2.5210 
  265.2500    -7.1580    68.5590    19.4040    16.2790    21.4220    24.2870     2.5240 
  265.3750    -7.1670    66.0440    19.4630    16.5660    29.1120    24.2690     2.5170 
  265.5000    -7.1670    65.0900    19.4150    16.6970    34.9100    24.1880     2.5120 
  265.6250    -7.1670    67.3240    19.3700    16.7510    33.1440    24.0520     2.5120 
  265.7500    -7.1660    70.6600    19.3000    16.7490    30.8120    23.9990     2.5050 
  265.8750    -7.1690    72.1140    19.1340    16.6610    27.9740    23.9920     2.4870 
  266.0000    -7.1680    71.4470    18.8440    16.4690    23.3120    23.9940     2.4630 
  266.1250    -7.1430    71.3010    18.4660    16.1890    22.0420    23.9910     2.4380 
  266.2500    -7.1170    71.8940    18.1030    15.9000    22.2950    23.9910     2.4200 
  266.3750    -7.1180    70.8030    17.8250    15.6630    22.0040    23.9930     2.4170 
  266.5000    -7.1640    68.5000    17.6630    15.5250    19.1890    23.9900     2.4360 
  266.6250    -7.2350    67.9140    17.5960    15.4970    16.3560    23.9920     2.4640 
  266.7500    -7.3050    70.0880    17.5540    15.5180    16.3450    23.9950     2.4840 
  266.8750    -7.3780    71.5330    17.5210    15.5520    16.9120    23.9910     2.4940 
  267.0000    -7.4460    68.7310    17.5190    15.6010    17.2720    23.9820     2.5010 
  267.1250    -7.4900    64.2590    17.6090    15.7110    17.7990    23.9680     2.5080 
  267.2500    -7.5030    63.4960    17.7830    15.9020    19.4010    23.9460     2.5080 
  267.3750    -7.5010    65.4580    17.9860    16.1460    22.6070    23.9090     2.5030 
  267.5000    -7.5060    65.8190    18.1410    16.3790    25.9300    23.9130     2.4930 
  267.6250    -7.4750    65.4980    18.1890    16.5210    30.4800    23.9040     2.4790 
  267.7500    -7.3820    67.8330    18.1630    16.5730    25.8050    23.8810     2.4580 
  267.8750    -7.2600    70.8870    18.0930    16.5490    20.7320    23.8600     2.4310 
  268.0000    -7.1770    71.8350    17.9950    16.4690    17.6770    23.8700     2.4000 
  268.1250    -7.1620    71.8350    17.8710    16.3400    15.6390    23.8580     2.3840 
  268.2500    -7.1660    71.8350    17.7240    16.1890    14.5690    23.8640     2.3890 
  268.3750    -7.1670    71.8350    17.5460    16.0330    14.7920    23.8670     2.4020 
  268.5000    -7.1670    71.8350    17.3230    15.8930    14.3620    23.8520     2.4080 
  268.6250    -7.1640    71.8350    17.0410    15.7890    14.8830    23.8550     2.4050 
  268.7500    -7.1720    71.8350    16.7440    15.7180    15.8830    23.8630     2.4100 
  268.8750    -7.2120    71.8350    16.5140    15.6760    15.9040    23.8520     2.4290 
  269.0000    -7.2770    71.8350    16.4150    15.6570    15.5650    23.8420     2.4500 
  269.1250    -7.3240    71.8350    16.4380    15.6540    15.6240    23.8410     2.4550 
  269.2500    -7.3180    71.8350    16.4850    15.6520    15.4470    23.8350     2.4410 
  269.3750    -7.2610    71.8350    16.5250    15.6490    15.7450    23.8260     2.4240 
  269.5000    -7.1890    71.8350    16.5400    15.6450    16.5560    23.8180     2.4150 
  269.6250    -7.1630    71.8350    16.5180    15.6420    17.7840    23.8180     2.4090 
  269.7500    -7.1650    71.8350    16.4690    15.6410    17.8730    23.8190     2.3890 
  269.8750    -7.1670    71.8350    16.4090    15.6410    17.5650    23.8190     2.3580 
  270.0000    -7.1670    71.8350    16.3630    15.6420    17.6980    23.8200     2.3300 
  270.1250    -7.1670    71.8350    16.3510    15.6440    17.2750    23.8190     2.3210 
  270.2500    -7.1670    71.8350    16.3610    15.6470    17.2550    23.7980     2.3250 
  270.3750    -7.1670    71.8350    16.3770    15.6470    17.4550    23.7460     2.3400 
  270.5000    -7.1670    71.8350    16.3840    15.6470    18.4060    23.6810     2.3640 
  270.6250    -7.1670    71.8350    16.3850    15.6470    19.4720    23.6310     2.3940 
