~V
VERS. 2.00: Ver 2.00
~W
STRT.M 50.0000:
STOP.M 278.0000:
STEP.M 0.1250:
NULL. -999.2500:
UWI. F11029:
~C
DEPT.M :
SP.MV :
DEN.GM/CC :
GR.API :
RML.OHMM :
RI. :
RXO.OHMM :
CALI.CM :
~A
# ...
  263.7500    -2.3220     2.5220    56.6380    14.1430    13.5650    16.8660    24.0380 
  263.8750    -2.1620     2.5070    58.2500    13.9850    13.4580    17.0980    24.0870 
  264.0000    -1.9770     2.5030    60.4670    13.7120    13.2180    16.0350    24.1370 
  264.1250    -1.8050     2.5090    60.5090    13.4480    12.9130    15.5620    24.1320 
  264.2500    -1.7520     2.5180    61.5500    13.3500    12.7080    15.1220    24.0780 
  264.3750    -1.7650     2.5200    65.6050    13.5210    12.7360    14.5280    23.8970 
  264.5000    -1.8130     2.5090    69.5680    13.9790    13.0760    15.5810    23.5410 
  264.6250    -1.8430     2.4920    68.8660    14.6600    13.7480    19.4720    23.2280 
  264.7500    -1.9180     2.4860    67.1680    15.3360    14.5430    23.6520    23.2290 
  264.8750    -1.9740     2.5030    67.2520    15.8160    15.2290    25.2790    23.4450 
  265.0000    -2.0420     2.5420    67.5730    15.9680    15.5840    24.4860    23.8060 
  265.1250    -2.1300     2.5890    66.7890    15.7370    15.4550    24.6010    23.9020 
  265.2500    -2.1950     2.6200    65.0560    15.3270    15.0450    25.3330    24.0000 
  265.3750    -2.2410     2.6240    63.2830    14.9270    14.5750    26.1800    24.0720 
  265.5000    -2.2840     2.6020    63.2580    14.6960    14.2440    25.6030    24.0970 
  265.6250    -2.3370     2.5690    65.0490    14.7520    14.2080    21.6780    24.0980 
  265.7500    -2.4120     2.5430    66.1750    15.0110    14.4150    21.9450    24.0980 
  265.8750    -2.6010     2.5310    65.6790    15.3670    14.7770    27.2250    24.1000 
  266.0000    -3.0470     2.5300    64.9870    15.6890    15.1710    36.1400    24.1260 
  266.1250    -3.6580     2.5350    64.0210    15.8490    15.4500    27.2400    24.1240 
  266.2500    -4.0310     2.5360    63.9570    15.8470    15.5790    23.5700    24.1640 
  266.3750    -4.2240     2.5300    66.2580    15.7260    15.5800    21.3640    24.1850 
  266.5000    -4.4060     2.5120    68.5130    15.5430    15.4980    19.0170    24.2370 
  266.6250    -4.5760     2.4800    68.8880    15.3310    15.3520    17.5490    24.2880 
  266.7500    -4.6420     2.4450    68.8920    15.0820    15.1500    16.6380    24.4270 
  266.8750    -4.5740     2.4180    67.4780    14.7570    14.8620    15.3650    24.4890 
  267.0000    -4.3190     2.4120    64.3380    14.3230    14.4470    13.9980    24.4320 
  267.1250    -3.9390     2.4360    62.7140    13.7790    13.8810    12.6300    24.3600 
  267.2500    -3.7830     2.4730    63.2650    13.2130    13.2540    11.3800    24.2450 
  267.3750    -3.8210     2.5040    63.2650    12.7240    12.6640    10.4520    24.1450 
  267.5000    -3.8310     2.5130    63.2650    12.4090    12.2150    10.7530    24.0970 
  267.6250    -3.7800     2.4930    63.2650    12.3520    12.0400    12.2730    24.1850 
  267.7500    -3.7800     2.4640    63.2650    12.4730    12.0540    14.1210    24.2280 
  267.8750    -3.7950     2.4410    63.2650    12.8560    12.3550    16.0010    24.2770 
  268.0000    -3.7870     2.4350    63.2650    13.3860    12.8800    16.8580    24.3260 
  268.1250    -3.7110     2.4470    63.2650    13.9450    13.5240    17.5220    24.3420 
  268.2500    -3.5940     2.4640    63.2650    14.4160    14.1490    17.4990    24.3260 
  268.3750    -3.4530     2.4800    63.2650    14.6820    14.5890    15.8330    24.3000 
  268.5000    -3.3500     2.4920    63.2650    14.7750    14.8110    15.0430    24.2580 
  268.6250    -3.3240     2.5030    63.2650    14.7610    14.8490    15.2610    24.1870 
  268.7500    -3.3030     2.5150    63.2650    14.7280    14.7890    15.9800    24.1260 
  268.8750    -3.2730     2.5280    63.2650    14.7650    14.7380    15.4360    24.1120 
  269.0000    -3.2050     2.5400    63.2650    14.8960    14.7740    15.1070    24.1200 
  269.1250    -3.1090     2.5460    63.2650    15.1130    14.9250    15.0270    24.0990 
  269.2500    -3.0280     2.5460    63.2650    15.3880    15.1790    15.6560    24.0680 
  269.3750    -2.9430     2.5370    63.2650    15.6800    15.4920    16.5220    24.0770 
  269.5000    -2.8320     2.5250    63.2650    15.9480    15.7930    16.7370    24.0930 
  269.6250    -2.6610     2.5150    63.2650    16.1730    16.0460    16.6390    24.1440 
  269.7500    -2.4550     2.5110    63.2650    16.3550    16.2400    16.2840    24.1630 
  269.8750    -2.2490     2.5120    63.2650    16.4980    16.3840    16.1420    24.1700 
  270.0000    -2.0900     2.5130    63.2650    16.6260    16.5130    16.4330    24.0350 
  270.1250    -2.0400     2.5110    63.2650    16.7450    16.6420    17.4740    24.0180 
  270.2500    -2.0270     2.5040    63.2650    16.8470    16.7660    19.4260    24.0480 
  270.3750    -1.9960     2.4950    63.2650    16.8960    16.8440    20.7560    24.0790 
  270.5000    -1.9450     2.4890    63.2650    16.8670    16.8330    19.9050    24.1040 
  270.6250    -1.9250     2.4890    63.2650    16.7580    16.7140    18.1330    24.1250 
  270.7500    -1.8980     2.4980    63.2650    16.5980    16.5120    17.2070    24.1230 
  270.8750    -1.8570     2.5140    63.2650    16.4580    16.2960    17.3600    24.0910 
  271.0000    -1.7940     2.5320    63.2650    16.4090    16.1500    17.3540    24.0580 
  271.1250    -1.6960     2.5490    63.2650    16.4930    16.1300    17.4370    24.0440 
  271.2500    -1.5660     2.5640    63.2650    16.7090    16.2610    17.3800    24.0210 
  271.3750    -1.4690     2.5780    63.2650    17.0200    16.5360    17.6200    24.0050 
  271.5000    -1.4520     2.5910    63.2650    17.3400    16.8570    19.2680    24.0220 
  271.6250    -1.4550     2.5970    63.2650    17.6190    17.1490    21.3670    24.0300 
  271.7500    -1.5360     2.5890    63.2650    17.8300    17.3510    22.8740    24.0490 
  271.8750    -1.6590     2.5670    63.2650    17.9590    17.4350    20.2840    24.0710 
  272.0000    -1.7650     2.5450    63.2650    18.0330    17.4580    19.4550    24.0790 
  272.1250    -1.8100     2.5340    63.2650    18.0650    17.4600    19.8690    24.0540 
  272.2500    -1.8230     2.5420    63.2650    18.0700    17.4640    20.4880    24.0030 
  272.3750    -1.8300     2.5640    63.2650    18.0630    17.4700    21.0940    23.9490 
  272.5000    -1.8810     2.5850    63.2650    18.0560    17.4740    21.3360    23.9490 
  272.6250    -1.9560     2.5930    63.2650    18.0540    17.4750    21.5850    23.9350 
  272.7500    -2.0840     2.5850    63.2650    18.0530    17.4740    21.6230    23.8010 
  272.8750    -2.2610     2.5640    63.2650    18.0530    17.4720    20.9350    23.4770 
  273.0000    -2.3670     2.5420    63.2650    18.0540    17.4720    20.5310    23.2900 
  273.1250    -2.4360     2.5270    63.2650    18.0550    17.4720    20.6930    23.3310 
  273.2500    -2.5420     2.5240    63.2650    18.0560    17.4720    20.8210    23.6950 
  273.3750    -2.7060     2.5330    63.2650    18.0560    17.4720    20.1710    23.9270 
  273.5000    -2.8220     2.5470    63.2650    18.0560    17.4720    20.6900    24.0240 
  273.6250    -3.0100     2.5570    63.2650    18.0560    17.4720    22.5140    24.0420 
  273.7500    -3.2290     2.5600    63.2650    18.0560    17.4720    23.7220    24.0860 
  273.8750    -3.3660     2.5570    63.2650    18.0560    17.4720    24.6940    24.0790 
  274.0000    -3.5120     2.5530    63.2650    18.0560    17.4720    24.1140    24.0060 
  274.1250    -3.6870     2.5500    63.2650    18.0560    17.4720    21.6150    23.9090 
  274.2500    -3.8770     2.5470    63.2650    18.0560    17.4720    20.5020    23.9470 
  274.3750    -4.0240     2.5410    63.2650    18.0560    17.4720    21.6200    24.0330 
  274.5000    -4.1290     2.5290    63.2650    18.0560    17.4720    22.5300    24.0850 
  274.6250    -4.1240     2.5150    63.2650    18.0560    17.4720    20.8700    24.0820 
  274.7500    -4.1200     2.5020    63.2650    18.0560    17.4720    19.3480    24.0450 
  274.8750  -999.2500     2.4920    63.2650    18.0560    17.4720    17.9050    24.0260 
