~V
VERS. 2.00: Ver 2.00
~W
STRT.M 55.0000:
STOP.M 283.0000:
STEP.M 0.1250:
NULL. -999.2500:
UWI. F11062:
~C
DEPT.M :
SP.MV :
GR.API :
RML.OHMM :
RI. :
RXO.OHMM :
CALI.CM :
DEN.GM/CC :
~A
# ...
  167.5000   -11.3650    69.9160    18.3690    17.6540    15.6940    22.9470     2.3450 
  167.6250   -11.4630    72.9350    17.0990    16.4630    13.4790    22.9490     2.3440 
  167.7500   -11.5680    73.4200    16.1170    15.4770    13.2470    23.0640     2.3390 
  167.8750   -11.6730    73.0270    15.4740    14.7800    13.7550    23.2530     2.3340 
  168.0000   -11.7960    70.5080    15.1700    14.4010    14.1210    23.4620     2.3290 
  168.1250   -11.9260    67.8340    15.3520    14.4560    14.2040    23.6030     2.3250 
  168.2500   -12.0570    69.2320    16.2900    15.0440    14.0010    23.7090     2.3220 
  168.3750   -12.1960    73.0780    18.4020    16.4210    13.7610    23.7130     2.3180 
  168.5000   -12.3850    75.9600    22.1300    18.9190    14.4900    23.5310     2.3090 
  168.6250   -12.5720    74.9300    27.8770    23.0600    17.8020    23.1740     2.2940 
  168.7500   -12.7560    71.8080    34.7500    28.4230    20.6160    22.8940     2.2770 
  168.8750   -12.9580    68.6750    40.8460    34.0930    24.7050    22.7920     2.2650 
  169.0000   -13.1820    66.3060    44.9280    38.5270    28.6930    22.8020     2.2630 
  169.1250   -13.3630    66.2060    44.5820    39.3080    30.0270    22.8250     2.2750 
  169.2500   -13.5190    68.6070    40.1690    36.2020    29.2450    22.8250     2.2980 
  169.3750   -13.6760    71.4630    33.4020    30.5450    26.7250    22.7970     2.3260 
  169.5000   -13.7960    73.4040    26.8370    24.7280    23.1160    22.7300     2.3520 
  169.6250   -13.9280    75.0230    22.8590    20.8850    19.9310    22.6380     2.3670 
  169.7500   -14.0840    76.6810    21.7480    19.2640    17.9210    22.5560     2.3670 
  169.8750   -14.2640    76.9680    23.4660    19.8680    17.8790    22.5030     2.3510 
  170.0000   -14.4340    75.4580    27.8150    22.6970    20.1370    22.4580     2.3270 
  170.1250   -14.6360    74.7330    34.6720    28.0410    24.5120    22.4380     2.3020 
  170.2500   -14.8660    74.7690    42.7190    35.0550    29.8500    22.4210     2.2820 
  170.3750   -15.0870    74.2170    50.6730    42.7470    34.4940    22.4190     2.2700 
  170.5000   -15.2980    71.8180    57.1360    49.7290    37.0420    22.4230     2.2650 
  170.6250   -15.5110    68.9760    60.6520    54.2370    37.8500    22.4330     2.2650 
  170.7500   -15.6810    66.9490    61.8130    56.2960    39.3390    22.4540     2.2680 
  170.8750   -15.8060    65.1490    61.6760    56.6930    41.1130    22.4770     2.2720 
  171.0000   -15.9060    64.4340    61.3570    56.4650    41.4690    22.5040     2.2740 
  171.1250   -15.9920    66.1540    61.6550    56.4230    40.4270    22.5490     2.2750 
  171.2500   -16.0600    67.8340    62.7270    56.9110    40.6480    22.6150     2.2740 
  171.3750   -16.1420    65.6950    64.6000    58.0720    43.3350    22.6760     2.2730 
  171.5000   -16.2390    61.9670    67.1640    59.9290    45.7840    22.7100     2.2720 
  171.6250   -16.3170    62.9040    70.1360    62.3740    41.4430    22.7030     2.2690 
  171.7500   -16.3930    66.3020    72.9350    64.9340    38.5050    22.6730     2.2660 
  171.8750   -16.4690    67.4320    75.0840    67.1890    40.9080    22.6190     2.2620 
  172.0000   -16.5470    66.2050    76.3280    68.8440    46.3070    22.5460     2.2590 
  172.1250   -16.6380    66.6050    76.8720    69.9380    49.7200    22.4940     2.2580 
  172.2500   -16.7020    69.2990    77.6750    71.1800    50.1620    22.4760     2.2570 
  172.3750   -16.7560    72.0640    79.6160    73.3110    49.3680    22.4710     2.2560 
  172.5000   -16.8190    72.1560    83.2890    76.9190    48.1370    22.4600     2.2530 
  172.6250   -16.8740    69.3260    88.8990    82.3580    49.6230    22.4400     2.2510 
  172.7500   -16.9460    68.2970    95.2080    88.6480    55.5290    22.4230     2.2490 
  172.8750   -17.0370    69.4580   100.8520    94.5820    61.0470    22.4180     2.2470 
  173.0000   -17.1100    70.1020   104.4910    98.8590    61.9970    22.4130     2.2460 
  173.1250   -17.1670    66.6760   105.1560   100.0590    58.6720    22.4020     2.2430 
  173.2500   -17.2550    62.8570   103.1160    98.4730    54.6650    22.3900     2.2410 
  173.3750   -17.3290    61.9020    99.1310    94.6280    52.4980    22.3700     2.2410 
  173.5000   -17.3820    62.2390    94.5420    89.3800    52.6730    22.3350     2.2450 
  173.6250   -17.4270    63.0440    88.4710    83.8250    55.0930    22.2850     2.2530 
  173.7500   -17.4720    64.9190    83.6850    79.2130    55.3260    22.2260     2.2620 
  173.8750   -17.4940    68.0120    81.2140    76.5420    52.2120    22.1720     2.2680 
  174.0000   -17.5190    69.2900    81.7740    76.5600    49.8830    22.1370     2.2670 
  174.1250   -17.5520    65.2840    86.0680    80.0790    53.1170    22.1660     2.2600 
  174.2500   -17.5520    60.5330    92.9790    86.2300    61.9790    22.2630     2.2500 
  174.3750   -17.5460    57.8760   101.3680    94.0700    72.8240    22.3660     2.2400 
  174.5000   -17.5530    57.0530   109.7120   102.2250    80.1830    22.4110     2.2320 
  174.6250   -17.5410    57.5390   115.9040   108.7230    77.6690    22.4120     2.2300 
  174.7500   -17.5220    59.5790   118.9280   112.4350    74.8580    22.4140     2.2330 
  174.8750   -17.5070    62.1100   118.4050   112.8570    76.1590    22.4220     2.2390 
  175.0000   -17.4900    62.7270   114.6890   110.1660    80.1810    22.4360     2.2480 
  175.1250   -17.4650    60.0220   108.4610   104.8210    77.5440    22.4680     2.2570 
  175.2500   -17.4550    57.9850   101.4470    98.4130    73.8230    22.5260     2.2660 
  175.3750   -17.4630    58.3820    94.9140    92.1430    68.3550    22.6000     2.2720 
  175.5000   -17.4810    59.2980    89.9570    87.1220    62.8530    22.6800     2.2760 
  175.6250   -17.4960    58.4460    87.6850    84.5300    61.4680    22.8010     2.2740 
  175.7500   -17.5410    56.9660    87.7670    84.2320    63.3510    22.9640     2.2690 
  175.8750   -17.5680    57.0570    89.7380    85.9070    69.3330    23.1320     2.2620 
  176.0000   -17.6000    58.4500    92.8410    88.9120    78.3230    23.2840     2.2540 
  176.1250   -17.6620    60.1240    96.1510    92.4160    88.2570    23.4210     2.2460 
  176.2500   -17.7460    61.6410    98.9290    95.5750    92.0830    23.5250     2.2380 
  176.3750   -17.8290    62.9030   100.9980    98.0780    90.4370    23.5800     2.2300 
  176.5000   -17.8970    63.6410   102.5890   100.0160    89.3410    23.5940     2.2250 
  176.6250   -18.0010    62.5240   104.1820   101.7600    90.5860    23.5900     2.2240 
  176.7500   -18.0850    60.0150   106.0480   103.6380    92.7220    23.5830     2.2260 
  176.8750   -18.2050    58.2770   108.0170   105.5720    95.0150    23.5700     2.2290 
  177.0000   -18.3090    59.2430   109.6040   107.1680    97.6430    23.5470     2.2300 
  177.1250   -18.3790    62.0450   110.1130   107.7740   100.4010    23.5350     2.2290 
  177.2500   -18.4150    62.6950   109.6580   107.4300   102.5280    23.5330     2.2280 
  177.3750   -18.4510    61.8250   108.8460   106.6370   102.8690    23.5360     2.2270 
  177.5000   -18.4900    61.3820   108.6440   106.2840   100.0410    23.5380     2.2270 
  177.6250   -18.5260    61.4060   110.1560   107.4830    94.2820    23.5350     2.2240 
  177.7500   -18.5590    60.8040   113.1010   110.1540    91.1000    23.5340     2.2200 
  177.8750   -18.5820    59.3400   116.4960   113.5360    95.2010    23.5350     2.2160 
  178.0000   -18.6210    57.7400   118.8200   116.2770   110.0010    23.5360     2.2150 
  178.1250   -18.6620    56.1400   118.1300   116.4670   125.7460    23.5320     2.2180 
  178.2500   -18.7020    55.8940   114.6320   113.9410   127.1680    23.5290     2.2240 
  178.3750   -18.7570    57.7820   109.7140   109.6940   110.8710    23.5250     2.2310 
  178.5000   -18.8020    60.0210   105.6150   105.7010    90.8450    23.5120     2.2380 
  178.6250   -18.8270    60.6150   104.9320   104.5350    84.8080    23.4870     2.2400 
