~V
VERS. 2.00: Ver 2.00
~W
STRT.M 57.0000:
STOP.M 283.0000:
STEP.M 0.1250:
NULL. -999.2500:
UWI. F11039:
~C
DEPT.M :
SP.MV :
GR.API :
RML.OHMM :
RI. :
RXO.OHMM :
CALI.CM :
DEN.GM/CC :
~A
# ...
  102.0000   -10.8150    62.5410     8.9200     7.7110     8.3610    20.3580     2.1850 
  102.1250   -10.7880    60.8600     9.0280     7.7630     8.4300    20.4160     2.1860 
  102.2500   -10.7520    56.1210     9.1780     7.8750     8.5530    20.4860     2.1850 
  102.3750   -10.7160    55.4650     9.3080     8.0020     8.5210    20.5240     2.1830 
  102.5000   -10.6920    58.8060     9.3810     8.0990     8.4410    20.5330     2.1810 
  102.6250   -10.6860    62.4520     9.3930     8.1430     8.4480    20.5280     2.1780 
  102.7500   -10.7050    63.5320     9.3580     8.1340     8.4760    20.5140     2.1740 
  102.8750   -10.7180    61.5190     9.2940     8.0830     8.4830    20.4820     2.1670 
  103.0000   -10.7490    59.2930     9.2190     8.0190     8.4800    20.4380     2.1600 
  103.1250   -10.7800    60.4360     9.1380     7.9570     8.5420    20.4020     2.1530 
  103.2500   -10.8110    63.8620     9.0600     7.9080     8.6060    20.3940     2.1480 
  103.3750   -10.8200    61.4370     9.0020     7.8780     8.6240    20.4300     2.1480 
  103.5000   -10.8390    55.4490     8.9740     7.8600     8.6440    20.4800     2.1520 
  103.6250   -10.8530    53.0110     8.9770     7.8540     8.6530    20.5340     2.1590 
  103.7500   -10.8490    55.9520     8.9990     7.8540     8.6590    20.6120     2.1660 
  103.8750   -10.8590    58.6100     9.0230     7.8560     8.6730    20.7390     2.1690 
  104.0000   -10.8290    59.5210     9.0300     7.8510     8.6790    20.8510     2.1700 
  104.1250   -10.7900    61.9400     9.0140     7.8380     8.6630    20.9400     2.1690 
  104.2500   -10.7530    64.3480     8.9830     7.8170     8.5970    20.9980     2.1670 
  104.3750   -10.7010    64.3090     8.9590     7.7970     8.5050    21.0200     2.1690 
  104.5000   -10.6080    63.4320     8.9580     7.7840     8.3960    21.0190     2.1730 
  104.6250   -10.5060    64.0620     8.9770     7.7840     8.2790    21.0240     2.1780 
  104.7500   -10.4140    65.5990     8.9950     7.7950     8.1940    21.0450     2.1840 
  104.8750   -10.3290    65.6850     8.9780     7.8130     8.2280    21.0800     2.1880 
  105.0000   -10.2310    64.7780     8.9190     7.8310     8.3100    21.0960     2.1890 
  105.1250   -10.0930    62.4440     8.8310     7.8460     8.3510    21.0840     2.1890 
  105.2500    -9.9150    60.4950     8.7420     7.8590     8.3540    21.0680     2.1880 
  105.3750    -9.7200    62.3550     8.6790     7.8700     8.3080    21.0630     2.1880 
  105.5000    -9.4920    65.1600     8.6450     7.8850     8.2370    21.0620     2.1900 
  105.6250    -9.2080    65.1390     8.6370     7.9070     8.1790    21.0620     2.1920 
  105.7500    -8.8730    63.1780     8.6450     7.9360     8.1870    21.0650     2.1950 
  105.8750    -8.4460    63.9570     8.6440     7.9500     8.2580    21.0800     2.2000 
  106.0000    -7.9680    65.9250     8.5800     7.9020     8.4170    21.1090     2.2070 
  106.1250    -7.4250    65.8680     8.3870     7.7320     8.5960    21.1690     2.2180 
  106.2500    -6.8180    64.0630     8.0170     7.3910     8.7260    21.2820     2.2330 
  106.3750    -6.1700    63.5330     7.4470     6.8480     8.6050    21.4390     2.2480 
  106.5000    -5.5770    66.8770     6.7810     6.2000     8.1170    21.6930     2.2640 
  106.6250    -5.0710    73.3280     6.1270     5.5410     7.2040    22.1040     2.2770 
  106.7500    -4.6660    79.5180     5.5890     4.9710     6.1370    22.6610     2.2870 
  106.8750    -4.4830    80.8470     5.3040     4.6110     5.6030    23.1470     2.2880 
  107.0000    -4.5350    77.9720     5.3280     4.5090     5.5240    23.3810     2.2830 
  107.1250    -4.8260    74.1920     5.7760     4.7460     5.7590    23.2570     2.2740 
  107.2500    -5.2900    71.1580     6.8070     5.4360     6.1910    22.7450     2.2690 
  107.3750    -5.8700    68.0420     8.7380     6.8410     7.2810    21.9390     2.2820 
  107.5000    -6.4930    63.4350    11.4630     8.9560     9.2530    21.2700     2.3150 
  107.6250    -7.1480    58.1990    14.6740    11.6510    12.0880    20.9940     2.3610 
  107.7500    -7.8000    54.6950    17.7020    14.4790    16.0400    21.0170     2.4030 
  107.8750    -8.4080    54.1440    19.3600    16.4980    19.6090    21.2800     2.4180 
  108.0000    -8.9090    55.8810    19.1200    17.0000    20.5090    21.5700     2.4010 
  108.1250    -9.3090    59.4660    17.1080    15.8240    19.0040    21.5700     2.3600 
  108.2500    -9.6580    63.2120    14.2260    13.6130    16.0090    21.2370     2.3110 
  108.3750   -10.0230    63.9080    11.6950    11.4130    11.2850    20.7800     2.2680 
  108.5000   -10.3670    61.8130    10.0210     9.7760     9.3760    20.5810     2.2350 
  108.6250   -10.6510    59.7010     9.1560     8.7440     8.8890    20.5330     2.2100 
  108.7500   -10.8860    58.3050     8.8640     8.2060     8.8420    20.5320     2.1940 
  108.8750   -11.0060    57.3090     8.9230     8.0490     8.7750    20.5330     2.1840 
  109.0000   -11.0610    57.4520     9.0890     8.0770     8.6930    20.5330     2.1780 
  109.1250   -11.0530    58.0410     9.2760     8.2000     8.6420    20.5340     2.1740 
  109.2500   -11.0040    57.5750     9.4520     8.3650     8.6350    20.5400     2.1720 
  109.3750   -10.8870    56.4530     9.6170     8.5490     8.7480    20.5570     2.1730 
  109.5000   -10.7550    57.2080     9.7740     8.7370     8.9460    20.5820     2.1790 
  109.6250   -10.6000    60.9340     9.9130     8.9170     9.1620    20.6130     2.1910 
  109.7500   -10.4140    65.8220    10.0220     9.0760     9.4090    20.6510     2.2080 
  109.8750   -10.1900    69.9140    10.0690     9.1830     9.6950    20.7030     2.2260 
  110.0000    -9.8900    72.5880    10.0220     9.2020     9.9680    20.7630     2.2380 
  110.1250    -9.4990    71.9740     9.8290     9.0860    10.0610    20.8340     2.2420 
  110.2500    -9.0370    67.4490     9.4450     8.7890    10.0460    20.9350     2.2380 
  110.3750    -8.5660    62.9940     8.8390     8.2710    10.0080    21.1240     2.2300 
  110.5000    -8.0760    62.4210     8.1260     7.6260     9.7770    21.4480     2.2200 
  110.6250    -7.6600    66.0030     7.4390     6.9640     9.0600    21.9190     2.2080 
  110.7500    -7.3780    70.7510     6.9120     6.3990     7.9600    22.5080     2.1950 
  110.8750    -7.3210    74.5770     6.6710     6.0550     7.1090    23.0010     2.1820 
  111.0000    -7.4620    75.9350     6.6710     5.9230     6.9590    23.0720     2.1750 
  111.1250    -7.7860    72.8060     6.8510     5.9700     7.2950    22.6530     2.1760 
  111.2500    -8.2350    67.2140     7.1260     6.1400     8.0810    21.9460     2.1830 
  111.3750    -8.7300    63.9890     7.4180     6.3710     9.3030    21.3870     2.1950 
  111.5000    -9.2790    66.0100     7.6940     6.6120    10.4770    21.1940     2.2040 
  111.6250    -9.7790    70.5230     7.9720     6.8580    11.2460    21.1250     2.2100 
  111.7500   -10.1960    71.6830     8.2930     7.1290    11.5280    21.0190     2.2120 
  111.8750   -10.4630    67.4630     8.6840     7.4430    11.3460    20.8700     2.2100 
  112.0000   -10.6120    61.7040     9.0880     7.7740    10.2930    20.7770     2.2060 
  112.1250   -10.6920    57.3540     9.4210     8.0700     9.5060    20.7400     2.2000 
  112.2500   -10.7290    56.2170     9.6100     8.2740     9.2340    20.7380     2.1900 
  112.3750   -10.7080    59.6430     9.6120     8.3360     9.2650    20.7570     2.1770 
  112.5000   -10.6140    63.5390     9.5160     8.3040     9.0760    20.7900     2.1640 
  112.6250   -10.4690    65.5970     9.4130     8.2420     8.7210    20.8440     2.1550 
  112.7500   -10.2550    65.4270     9.3810     8.2140     8.6520    20.8830     2.1500 
  112.8750    -9.9320    65.6130     9.4710     8.2710    11.5960    20.8170     2.1500 
  113.0000    -9.5450    65.2360     9.6380     8.3880    17.5530    20.7560     2.1520 
  113.1250    -9.0840    62.1000     9.8200     8.5210    28.2320    20.8180     2.1530 
