~V
VERS. 2.00: Ver 2.00
~W
STRT.M 57.0000:
STOP.M 276.0000:
STEP.M 0.1250:
NULL. -999.2500:
UWI. F11063:
~C
DEPT.M :
DEN.GM/CC :
GR.API :
RML.OHMM :
RI. :
RXO.OHMM :
CALI.CM :
SP.MV :
~A
# ...
   68.2500     2.1080    73.3530     8.8330     6.8540     7.2570    23.6150   -16.2140 
   68.3750     2.1190    72.1440     8.4930     6.4540     7.1140    23.6120   -16.6190 
   68.5000     2.1320    76.5310     8.5220     6.2990     7.0130    23.5990   -16.9130 
   68.6250     2.1450    82.6850     8.8120     6.3710     6.8430    23.5430   -17.0920 
   68.7500     2.1600    83.2300     9.1770     6.5380     6.7240    23.5070   -17.1970 
   68.8750     2.1710    78.6600     9.5170     6.7250     6.8610    23.4540   -17.2660 
   69.0000     2.1710    73.8120     9.7480     6.8800     7.1450    23.3800   -17.3280 
   69.1250     2.1660    73.7700     9.7820     6.9460     7.2590    23.3530   -17.4210 
   69.2500     2.1610    76.2600     9.6560     6.9340     7.2470    23.4230   -17.5510 
   69.3750     2.1550    77.4020     9.4300     6.8830     7.2220    23.6590   -17.6990 
   69.5000     2.1440    74.8700     9.2200     6.8460     7.1960    24.0010   -17.8770 
   69.6250     2.1310    72.1200     9.1930     6.8900     7.2120    24.3000   -18.0900 
   69.7500     2.1180    73.5300     9.3900     7.0280     7.1970    24.4050   -18.3290 
   69.8750     2.1080    75.0540     9.7790     7.2470     7.3270    24.4560   -18.5920 
   70.0000     2.0940    70.1940    10.2580     7.5170     7.5820    24.5200   -18.8600 
   70.1250     2.0730    60.8080    10.6490     7.7880     7.9830    24.6560   -19.0980 
   70.2500     2.0490    55.5130    10.8280     7.9950     8.1390    24.7900   -19.2840 
   70.3750     2.0310    57.7600    10.7750     8.0960     8.0890    24.8330   -19.4020 
   70.5000     2.0240    62.2890    10.5690     8.0910     8.0320    24.6990   -19.4280 
   70.6250     2.0310    63.6270    10.3270     8.0090     7.9490    24.4320   -19.3090 
   70.7500     2.0470    63.6040    10.1430     7.8960     7.9000    24.1870   -19.0530 
   70.8750     2.0740    65.2760    10.0050     7.7600     7.7550    23.9430   -18.6180 
   71.0000     2.1080    68.9780     9.8330     7.5810     7.6010    23.7130   -17.9870 
   71.1250     2.1440    72.0620     9.5090     7.3250     7.3930    23.4590   -17.1790 
   71.2500     2.1780    76.4840     9.0650     7.0120     7.0780    23.2590   -16.2910 
   71.3750     2.2030    83.2870     8.6080     6.6920     6.6570    23.2730   -15.3840 
   71.5000     2.2140    90.6500     8.2660     6.4340     6.2110    23.5090   -14.5210 
   71.6250     2.2080    94.6710     8.1730     6.3190     6.1390    23.7960   -13.8070 
   71.7500     2.1970    94.6850     8.3010     6.3490     6.2030    23.9060   -13.2480 
   71.8750     2.1860    92.1020     8.5680     6.4890     6.3690    23.8270   -12.8960 
   72.0000     2.1750    87.7140     8.8330     6.6660     6.6600    23.6220   -12.7810 
   72.1250     2.1620    81.5380     8.9020     6.7580     6.8610    23.3480   -12.8930 
   72.2500     2.1520    75.9100     8.7670     6.7220     6.9260    23.1240   -13.1440 
   72.3750     2.1500    73.0640     8.5960     6.6290     6.9020    22.9810   -13.4740 
   72.5000     2.1630    72.0140     8.7030     6.6510     6.9250    22.9840   -13.8250 
   72.6250     2.1910    69.3510     9.5040     7.0550     7.0390    23.2130   -14.1480 
   72.7500     2.2290    67.5650    10.9530     7.8950     7.6450    23.6250   -14.4260 
   72.8750     2.2790    67.4100    12.7840     9.1180     9.4450    24.0820   -14.6350 
   73.0000     2.3370    65.9260    14.4490    10.4470    13.0530    24.3950   -14.7830 
   73.1250     2.3740    62.3270    15.0100    11.2120    14.4670    24.3870   -14.9160 
   73.2500     2.3590    61.9570    14.2800    11.0600    12.2850    24.1780   -15.0580 
   73.3750     2.2940    65.6920    12.6860    10.1660     9.1870    23.9180   -15.2360 
   73.5000     2.2180    68.7480    10.9660     9.0250     7.6840    23.7660   -15.4730 
   73.6250     2.1760    67.5900     9.7650     8.1200     7.4620    23.7730   -15.7420 
   73.7500     2.1620    65.3490     9.1570     7.5760     7.4470    23.8910   -16.0100 
   73.8750     2.1600    64.7690     9.0440     7.3510     7.3810    24.0460   -16.2740 
   74.0000     2.1590    65.6240     9.2550     7.3290     7.1830    24.1650   -16.5170 
   74.1250     2.1550    66.7000     9.6110     7.3930     6.9440    24.2270   -16.6830 
   74.2500     2.1530    67.8520     9.9360     7.4600     6.9450    24.2870   -16.8100 
   74.3750     2.1510    68.8820    10.1310     7.5070     7.1770    24.3430   -16.9460 
   74.5000     2.1480    69.2220    10.1420     7.5300     7.3310    24.4010   -17.0970 
   74.6250     2.1420    70.1120     9.9400     7.5130     7.3700    24.4700   -17.2400 
   74.7500     2.1330    70.1140     9.6150     7.4490     7.3820    24.4820   -17.3290 
   74.8750     2.1260    66.4310     9.2920     7.3570     7.4150    24.4400   -17.4120 
   75.0000     2.1220    59.9000     9.1400     7.3080     7.3880    24.3610   -17.5180 
   75.1250     2.1210    55.5850     9.3620     7.4230     7.3250    24.3110   -17.6260 
   75.2500     2.1220    55.3540     9.9160     7.7150     7.3250    24.3390   -17.6700 
   75.3750     2.1320    58.2600    10.6660     8.1290     7.9000    24.3590   -17.6320 
   75.5000     2.1590    61.8770    11.3770     8.5370     9.3510    24.3120   -17.5610 
   75.6250     2.1980    64.0640    11.6940     8.7220    10.5260    24.1700   -17.4780 
   75.7500     2.2180    64.5540    11.5610     8.6190     9.0070    23.9780   -17.3990 
   75.8750     2.1970    65.5900    11.1210     8.2950     7.3890    23.7480   -17.3330 
   76.0000     2.1500    67.0980    10.6000     7.8910     6.7670    23.5310   -17.2860 
   76.1250     2.1190    66.8210    10.2080     7.5600     6.8000    23.3690   -17.2600 
   76.2500     2.1110    65.8880    10.0000     7.3590     6.9010    23.3030   -17.3230 
   76.3750     2.1180    66.3430     9.9410     7.2740     7.0330    23.3580   -17.5000 
   76.5000     2.1260    68.1810     9.9460     7.2550     7.0410    23.4960   -17.7070 
   76.6250     2.1260    68.0870     9.9520     7.2520     6.8760    23.6270   -17.9380 
   76.7500     2.1230    66.1970     9.9730     7.2560     6.8820    23.7560   -18.1830 
   76.8750     2.1250    64.1430    10.0390     7.2760     7.2050    23.9280   -18.3420 
   77.0000     2.1310    62.2830    10.1470     7.3140     7.6410    24.1210   -18.4330 
   77.1250     2.1300    62.2980    10.2440     7.3580     7.6280    24.2760   -18.5950 
   77.2500     2.1190    63.3770    10.2490     7.3960     7.6210    24.3530   -18.7360 
   77.3750     2.1060    64.8650    10.1230     7.4290     7.6670    24.3420   -18.8350 
   77.5000     2.1030    65.0050     9.9070     7.4650     7.6990    24.2830   -18.8850 
   77.6250     2.1110    64.5270     9.7200     7.5180     7.5940    24.2000   -18.8330 
   77.7500     2.1230    66.0490     9.6410     7.5900     7.5810    24.1820   -18.7690 
   77.8750     2.1310    69.7590     9.6680     7.6740     7.6760    24.2370   -18.7600 
   78.0000     2.1310    73.8330     9.7500     7.7480     7.8040    24.2720   -18.7570 
   78.1250     2.1270    76.0460     9.8060     7.7820     7.7670    24.2630   -18.6780 
   78.2500     2.1280    77.0110     9.8100     7.7750     7.6950    24.2770   -18.5740 
   78.3750     2.1330    75.7600     9.7930     7.7380     7.6230    24.2930   -18.4380 
   78.5000     2.1420    71.6200     9.7980     7.6850     7.5420    24.2630   -18.3050 
   78.6250     2.1490    68.6780     9.8540     7.6210     7.4900    24.2000   -18.2370 
   78.7500     2.1540    67.9980     9.9350     7.5550     7.5000    24.1690   -18.1960 
   78.8750     2.1570    66.3310    10.0280     7.5090     7.5630    24.2120   -18.1540 
   79.0000     2.1570    63.1830    10.1450     7.5230     7.6490    24.3180   -18.0980 
   79.1250     2.1560    62.5240    10.3240     7.6380     7.7420    24.4160   -18.0230 
   79.2500     2.1570    63.3050    10.5630     7.8130     7.8020    24.4780   -17.9480 
   79.3750     2.1690    61.7160    10.7880     7.9800     7.7360    24.5090   -17.8600 
