~V
VERS. 2.00: Ver 2.00
~W
STRT.M 55.0000:
STOP.M 274.0000:
STEP.M 0.1250:
NULL. -999.2500:
UWI. F11049:
~C
DEPT.M :
SP.MV :
GR.API :
RML.OHMM :
RI. :
RXO.OHMM :
CALI.CM :
DEN.GM/CC :
~A
# ...
  190.0000   -18.8050    59.6790   329.3810   264.2250   296.1450    24.5190     2.2540 
  190.1250   -19.0120    58.3510   334.8920   268.8370   302.3990    24.5070     2.2590 
  190.2500   -19.2590    56.3180   333.4760   268.2080   318.4590    24.5110     2.2510 
  190.3750   -19.4270    54.8190   325.5530   262.7230   331.8560    24.5150     2.2370 
  190.5000   -19.5900    56.7130   311.6050   252.7630   328.4440    24.5030     2.2250 
  190.6250   -19.7500    61.6100   293.8050   239.7780   300.3750    24.5000     2.2240 
  190.7500   -19.8310    64.5910   277.0090   227.2730   260.1400    24.5110     2.2280 
  190.8750   -19.8930    63.9000   264.7620   217.9650   219.8690    24.5250     2.2310 
  191.0000   -19.9120    62.1720   259.4130   213.8720   194.2500    24.5270     2.2260 
  191.1250   -19.8520    60.7820   262.7800   216.7690   228.0270    24.5150     2.2150 
  191.2500   -19.8380    60.4570   272.1460   224.7600   273.5230    24.5010     2.2070 
  191.3750   -19.7650    61.1590   284.6530   235.8330   316.0660    24.5020     2.2020 
  191.5000   -19.5930    60.4610   295.5840   246.7170   383.4030    24.5190     2.2000 
  191.6250   -19.5100    59.7180   295.1500   250.4520   378.0550    24.5230     2.2010 
  191.7500   -19.3640    60.9440   277.2280   241.6020   348.0840    24.5140     2.2050 
  191.8750   -19.2210    64.1200   241.8190   218.2130   323.0340    24.5030     2.2120 
  192.0000   -19.1400    67.2170   197.1420   184.3350   291.4260    24.5040     2.2230 
  192.1250   -18.9750    65.9770   155.7530   148.8770   215.0540    24.5200     2.2410 
  192.2500   -18.8250    60.8100   123.9400   119.4410   137.0740    24.5230     2.2600 
  192.3750   -18.7940    57.1650   102.2140    98.2670    92.1160    24.5150     2.2760 
  192.5000   -18.6930    59.8550    88.7530    84.7660    75.6040    24.5130     2.2840 
  192.6250   -18.5030    65.1750    81.7820    77.8040    74.2270    24.5230     2.2830 
  192.7500   -18.4300    67.1310    78.0630    74.3440    74.8770    24.5280     2.2770 
  192.8750   -18.2510    67.4530    76.1710    72.9310    72.9070    24.5230     2.2690 
  193.0000   -18.0690    69.5930    75.1400    72.4880    68.3290    24.5160     2.2630 
  193.1250   -18.0590    71.4700    74.4450    72.3720    64.4020    24.5190     2.2610 
  193.2500   -17.9860    69.2890    73.8550    72.3050    62.6810    24.5240     2.2610 
  193.3750   -17.8200    65.3880    73.2680    72.2160    65.6450    24.5220     2.2640 
  193.5000   -17.7990    63.9120    72.4190    71.8720    70.9460    24.5100     2.2670 
  193.6250   -17.8840    67.1080    70.7450    70.6440    70.8180    24.5080     2.2690 
  193.7500   -17.8950    70.1380    68.1000    68.3160    67.8360    24.5160     2.2740 
  193.8750   -18.0400    70.1770    64.5860    64.9950    66.6330    24.5240     2.2830 
  194.0000   -18.2300    68.8840    60.6340    61.1250    64.6060    24.5210     2.2940 
  194.1250   -18.2850    67.5880    57.0330    57.4660    59.9880    24.5060     2.3000 
  194.2500   -18.3910    66.6100    54.4370    54.6490    54.0240    24.5060     2.2980 
  194.3750   -18.6080    67.2990    53.1660    52.9950    50.7600    24.5180     2.2930 
  194.5000   -18.7170    69.2510    53.1640    52.5200    50.1030    24.5220     2.2870 
  194.6250   -18.7360    70.0910    54.1370    53.0400    50.2180    24.5130     2.2840 
  194.7500   -18.8690    70.2190    55.4120    53.9210    51.8260    24.4980     2.2860 
  194.8750   -18.9190    71.4120    56.7530    54.8750    57.5770    24.4920     2.2900 
  195.0000   -18.8800    71.9360    58.3350    55.9870    63.9850    24.4910     2.2900 
  195.1250   -18.9640    70.0240    61.0620    57.9840    61.3540    24.4870     2.2770 
  195.2500   -19.0260    69.6660    65.9150    61.7260    52.6810    24.4620     2.2570 
  195.3750   -18.9780    71.8860    73.9270    68.2400    48.7340    24.4170     2.2370 
  195.5000   -18.9950    71.0870    85.6680    78.2590    58.9760    24.4110     2.2200 
  195.6250   -19.0750    65.7680   100.9610    91.8880    83.0020    24.4320     2.2100 
  195.7500   -19.0240    60.3330   116.7520   106.4680   109.4760    24.4930     2.2060 
  195.8750   -19.0190    55.5670   129.5040   118.9110   147.5130    24.5840     2.2090 
  196.0000   -19.0660    52.0070   135.9310   126.1960   181.1340    24.6500     2.2190 
  196.1250   -18.9880    52.1160   133.9170   125.9300   152.4470    24.6890     2.2360 
  196.2500   -18.9430    54.2750   126.9730   120.6260   115.1530    24.6920     2.2520 
  196.3750   -19.0090    54.6390   117.9750   112.6300   111.1840    24.6730     2.2610 
  196.5000   -19.0160    52.0650   108.8550   103.8080   121.3460    24.6590     2.2610 
  196.6250   -18.9600    50.9950   100.5150    95.3420   105.9050    24.6620     2.2570 
  196.7500   -19.0330    53.3770    92.6180    87.4600    71.1590    24.6730     2.2520 
  196.8750   -19.0560    58.2940    84.7170    79.9340    44.7820    24.6740     2.2480 
  197.0000   -19.0390    62.8970    76.9190    72.7260    38.3180    24.6660     2.2440 
  197.1250   -19.1540    63.0400    70.5550    66.7420    42.7670    24.6630     2.2450 
  197.2500   -19.2700    60.9080    66.8310    62.9320    53.0170    24.6690     2.2490 
  197.3750   -19.2940    61.6000    66.5670    62.0890    57.9840    24.6770     2.2490 
  197.5000   -19.3670    67.2260    70.1000    64.6570    60.9540    24.6780     2.2430 
  197.6250   -19.5340    71.7700    77.9140    71.3390    63.5080    24.6720     2.2310 
  197.7500   -19.5790    71.0220    88.3100    80.8550    79.5040    24.6650     2.2220 
  197.8750   -19.6710    68.0660    98.7240    91.1130    98.7520    24.6660     2.2210 
  198.0000   -19.8350    65.7570   104.7810    98.2750   101.1790    24.6790     2.2280 
  198.1250   -19.8330    62.4860   100.2950    96.3910    85.6240    24.6890     2.2420 
  198.2500   -19.7820    58.8510    87.2080    85.9950    76.1700    24.6920     2.2600 
  198.3750   -19.8090    57.1380    70.6080    70.9960    65.8310    24.6970     2.2830 
  198.5000   -19.7780    58.2730    55.5140    56.2370    46.5660    24.7270     2.3090 
  198.6250   -19.6480    64.6800    45.0140    45.3270    36.2820    24.7330     2.3310 
  198.7500   -19.6190    72.4400    38.3780    38.1230    32.0820    24.7050     2.3390 
  198.8750   -19.5390    75.8610    34.7520    33.8760    34.7900    24.6700     2.3350 
  199.0000   -19.4170    73.3870    33.3190    31.7580    36.2940    24.6650     2.3260 
  199.1250   -19.4960    70.8480    33.7720    31.4240    33.0760    24.6950     2.3220 
  199.2500   -19.6140    70.5490    35.5580    32.3240    34.0940    24.7300     2.3220 
  199.3750   -19.6730    70.1980    38.5770    34.3280    38.0330    24.7270     2.3260 
  199.5000   -19.8180    68.4870    42.8610    37.4240    40.1550    24.6850     2.3350 
  199.6250   -20.0600    66.5100    48.6190    41.8140    44.2560    24.6650     2.3470 
  199.7500   -20.2230    64.7660    55.1720    46.9590    52.8370    24.6750     2.3560 
  199.8750   -20.4410    63.6300    61.4540    51.9530    68.0010    24.7150     2.3530 
  200.0000   -20.6770    63.5340    66.0620    55.6170    74.1870    24.7350     2.3410 
  200.1250   -20.7240    63.1260    67.2920    56.5960    78.7040    24.7170     2.3210 
  200.2500   -20.7340    62.0310    65.5710    55.2080    73.3500    24.6950     2.3010 
  200.3750   -20.8080    62.2500    62.1180    52.3540    56.4390    24.7170     2.2880 
  200.5000   -20.8160    64.0520    58.6200    49.3550    47.3450    24.7340     2.2880 
  200.6250   -20.7020    65.6880    56.3620    47.2910    49.8670    24.7130     2.3000 
  200.7500   -20.6620    64.5780    55.0540    46.0260    52.3600    24.6710     2.3210 
  200.8750   -20.5630    62.0820    53.8810    44.9700    55.2940    24.6630     2.3620 
  201.0000   -20.3810    60.4360    51.8770    43.3700    62.9640    24.6930     2.4300 
  201.1250   -20.3090    61.4890    48.2730    40.5820    61.5580    24.7610     2.5160 
