~V
VERS. 2.00: Ver 2.00
~W
STRT.M 51.0000:
STOP.M 277.0000:
STEP.M 0.1250:
NULL. -999.2500:
UWI. F11053:
~C
DEPT.M :
GR.API :
RML.OHMM :
RI. :
RXO.OHMM :
CALI.CM :
DEN.GM/CC :
SP.MV :
~A
# ...
  163.5000    63.0190   414.0990   345.0970   138.4560    29.4560     2.2050   -30.0700 
  163.6250    59.4320   472.5940   391.2010   173.9790    29.4620     2.1970   -30.1560 
  163.7500    57.5330   522.2800   434.9320   221.0470    29.4520     2.1870   -30.2940 
  163.8750    58.4540   541.5600   460.8450   262.9260    29.4140     2.1780   -30.4420 
  164.0000    61.0200   511.7010   448.8180   265.8150    29.3230     2.1720   -30.5790 
  164.1250    61.7270   447.6490   403.8540   254.9020    29.2240     2.1710   -30.6760 
  164.2500    60.1020   374.1380   344.3370   233.8950    29.0920     2.1770   -30.7670 
  164.3750    59.0580   310.8290   288.5410   188.4560    28.9000     2.1900   -30.8560 
  164.5000    60.6230   268.0240   248.9640   139.4870    28.6740     2.2060   -30.9290 
  164.6250    62.7510   240.9760   225.1360   107.6020    28.5080     2.2180   -30.9870 
  164.7500    63.8090   222.2010   211.6670   107.8110    28.4340     2.2230   -31.0270 
  164.8750    64.1820   204.7400   201.1690   119.7900    28.4010     2.2230   -31.0520 
  165.0000    63.9900   183.8740   186.5080   125.5350    28.3320     2.2240   -31.1220 
  165.1250    64.8440   160.6880   166.7500   119.9130    28.2100     2.2300   -31.2140 
  165.2500    67.0170   138.8580   145.2510   107.1960    28.0500     2.2420   -31.3330 
  165.3750    68.5410   121.7060   126.5090    88.6830    27.8770     2.2540   -31.4490 
  165.5000    68.5510   111.4460   114.4790    77.3560    27.7630     2.2650   -31.5780 
  165.6250    68.3280   106.7930   108.7600    76.9400    27.7120     2.2710   -31.6920 
  165.7500    68.5090   106.0810   107.6240    79.0960    27.6900     2.2740   -31.8050 
  165.8750    67.7560   107.8630   109.3150    79.7940    27.6650     2.2750   -31.9300 
  166.0000    65.5830   111.1950   112.5390    82.4290    27.6490     2.2730   -32.0240 
  166.1250    64.2590   115.5210   116.4850    77.9290    27.6430     2.2680   -32.1580 
  166.2500    63.6820   120.8870   121.1520    71.3760    27.6420     2.2610   -32.3000 
  166.3750    63.0380   127.4580   126.7850    75.3090    27.6400     2.2510   -32.4540 
  166.5000    62.5630   135.1590   133.4450    82.2540    27.6180     2.2400   -32.6030 
  166.6250    62.6760   143.1250   140.4140    90.1870    27.5550     2.2280   -32.7990 
  166.7500    62.7720   150.2210   146.5800    95.2820    27.4580     2.2180   -32.9930 
  166.8750    62.4210   155.2570   150.6470    93.9450    27.3670     2.2090   -33.1750 
  167.0000    63.5460   156.8890   151.1400    98.0130    27.2850     2.2060   -33.3140 
  167.1250    66.1350   155.4320   148.3920   108.9870    27.2220     2.2110   -33.4030 
  167.2500    67.5600   152.0780   143.6490   112.9390    27.1880     2.2240   -33.4740 
  167.3750    66.1070   148.7180   138.8920   102.0080    27.1700     2.2420   -33.5080 
  167.5000    64.0420   148.2590   137.1240    93.1140    27.1660     2.2580   -33.5150 
  167.6250    63.2210   152.8180   140.4120    94.7350    27.2100     2.2670   -33.4780 
  167.7500    62.3750   163.9200   150.1540   105.0140    27.2910     2.2650   -33.4370 
  167.8750    60.3750   181.8510   166.5470   118.8540    27.3520     2.2540   -33.4210 
  168.0000    59.1820   203.9000   187.2970   136.1300    27.3740     2.2390   -33.4270 
  168.1250    59.4180   222.5170   205.8470   151.4920    27.3750     2.2240   -33.4290 
  168.2500    60.1030   230.1440   215.2730   169.2180    27.3600     2.2130   -33.4330 
  168.3750    61.6620   223.1920   211.5730   188.8930    27.3210     2.2070   -33.4380 
  168.5000    64.8220   203.3810   195.1530   176.9770    27.2780     2.2060   -33.4410 
  168.6250    66.4170   178.9130   173.1270   141.5810    27.2560     2.2100   -33.4120 
  168.7500    65.8640   155.6590   151.1630   114.2160    27.2460     2.2170   -33.3370 
  168.8750    65.8560   136.1410   132.1940    98.2670    27.2180     2.2260   -33.2270 
  169.0000    69.0690   121.0600   117.4520    84.9050    27.1340     2.2340   -33.1210 
  169.1250    72.0950   109.1970   105.9370    78.8440    27.0080     2.2420   -33.0090 
  169.2500    72.5090    99.7200    96.7010    77.5250    26.8850     2.2540   -32.8740 
  169.3750    71.1420    92.3740    89.3520    72.5010    26.7900     2.2700   -32.7670 
  169.5000    69.0410    87.7390    84.4680    65.0820    26.7480     2.2940   -32.6530 
  169.6250    67.4070    86.1170    82.5440    59.6640    26.7360     2.3210   -32.5790 
  169.7500    66.5030    87.8660    84.1130    59.3130    26.7340     2.3430   -32.5190 
  169.8750    66.8120    93.0770    89.3130    67.8860    26.7390     2.3470   -32.4530 
  170.0000    67.8520   101.2590    97.5660    89.3140    26.7570     2.3260   -32.3680 
  170.1250    67.2280   110.0340   106.3850   106.6210    26.7820     2.2910   -32.3000 
  170.2500    64.7870   116.6010   112.9260   107.2450    26.7950     2.2570   -32.2700 
  170.3750    62.9920   118.7690   115.0280    96.1350    26.7990     2.2350   -32.2370 
  170.5000    63.8660   115.5100   111.7740    79.9480    26.7990     2.2310   -32.2040 
  170.6250    65.1320   108.8750   105.2930    71.0340    26.7980     2.2390   -32.1300 
  170.7500    66.4040   101.0150    97.7180    70.0760    26.7960     2.2500   -32.0780 
  170.8750    70.0490    93.3900    90.4340    63.6260    26.7820     2.2580   -32.0470 
  171.0000    73.9920    86.9370    84.2920    58.0600    26.7450     2.2640   -32.0020 
  171.1250    74.2520    81.8120    79.4090    54.1350    26.6970     2.2690   -31.9330 
  171.2500    72.3220    77.9970    75.7810    51.6460    26.6700     2.2760   -31.8430 
  171.3750    71.5800    75.4070    73.3820    50.8860    26.6640     2.2880   -31.7300 
  171.5000    70.6210    73.9920    72.2350    51.3830    26.6630     2.3050   -31.6360 
  171.6250    68.2120    73.3790    71.9420    52.6120    26.6630     2.3200   -31.5600 
  171.7500    67.5700    73.2590    72.0670    54.7550    26.6680     2.3290   -31.4840 
  171.8750    70.2050    73.3900    72.2460    57.1550    26.6830     2.3290   -31.4120 
  172.0000    72.6690    73.6230    72.2820    59.3810    26.7090     2.3210   -31.3790 
  172.1250    72.5560    73.9630    72.2480    62.6270    26.7250     2.3100   -31.3910 
  172.2500    72.4140    74.5810    72.3650    65.7060    26.7300     2.3020   -31.4190 
  172.3750    73.8900    75.7590    72.9440    67.4340    26.7310     2.2980   -31.4730 
  172.5000    74.3790    77.9180    74.4390    68.2900    26.7310     2.2960   -31.5540 
  172.6250    72.3990    81.1470    76.9900    70.2730    26.7310     2.2950   -31.6580 
  172.7500    70.7540    85.4420    80.6280    72.8640    26.7310     2.2940   -31.7510 
  172.8750    71.8810    90.7540    85.3050    77.1190    26.7310     2.2930   -31.8320 
  173.0000    73.2880    97.1290    90.9800    83.1430    26.7310     2.2910   -31.8940 
  173.1250    71.8900   104.3820    97.3970    89.5600    26.7310     2.2880   -31.9510 
  173.2500    69.4110   112.3340   104.4390    95.5860    26.7310     2.2830   -31.9800 
  173.3750    67.7050   120.5990   111.9440   102.3550    26.7310     2.2750   -31.9820 
  173.5000    65.7450   127.8440   119.1310   112.4240    26.7330     2.2640   -31.9520 
  173.6250    63.0250   132.1230   124.3300   125.1470    26.7420     2.2530   -31.9150 
  173.7500    61.4240   131.7180   125.4720   136.2820    26.7620     2.2460   -31.9070 
  173.8750    62.8230   126.3800   121.4180   143.2620    26.7870     2.2460   -31.9190 
  174.0000    65.3860   117.9390   113.1730   147.9710    26.8140     2.2530   -31.9420 
  174.1250    67.7850   109.8830   104.4670   143.8510    26.8440     2.2610   -31.9450 
  174.2500    68.3910   104.5040    98.0990   121.6390    26.8800     2.2590   -31.9350 
  174.3750    66.4930   102.6600    95.2940   102.0720    26.9540     2.2410   -31.9240 
  174.5000    63.0760   104.7520    96.6200   103.9140    27.0800     2.2120   -31.9030 
  174.6250    59.8850   110.1330   101.2100   125.6090    27.2010     2.1860   -31.8580 
