~V
VERS. 2.00: Ver 2.00
~W
STRT.M 47.0000:
STOP.M 272.0000:
STEP.M 0.1250:
NULL. -999.2500:
UWI. F11040:
~C
DEPT.M :
DEN.GM/CC :
GR.API :
RML.OHMM :
RI. :
RXO.OHMM :
CALI.CM :
SP.MV :
~A
# ...
   80.7500     2.2890    57.4620    11.0850     9.6370     9.3600    21.5210   -17.4680 
   80.8750     2.2500    57.4770    10.0980     8.6800     8.9230    21.4530   -17.5570 
   81.0000     2.2240    57.7500     9.7080     8.1820     8.9760    21.4410   -17.6520 
   81.1250     2.2080    58.3340     9.7240     8.0470     8.3360    21.4360   -17.6920 
   81.2500     2.1980    56.3740     9.9180     8.0990     7.8440    21.4260   -17.6740 
   81.3750     2.1950    53.4430    10.1960     8.2610     7.6120    21.4030   -17.5970 
   81.5000     2.1960    53.1310    10.4910     8.4740     7.5660    21.3670   -17.5020 
   81.6250     2.1990    55.2840    10.7260     8.6820     7.5620    21.3350   -17.4020 
   81.7500     2.1980    55.1550    10.8530     8.8350     7.5770    21.3300   -17.2680 
   81.8750     2.1940    50.9120    10.8570     8.9040     7.6110    21.3480   -17.0980 
   82.0000     2.1900    48.5230    10.7570     8.8830     7.7110    21.3840   -16.9060 
   82.1250     2.1890    50.4730    10.5990     8.7860     7.7810    21.4230   -16.7430 
   82.2500     2.1930    50.8240    10.4440     8.6630     7.8110    21.4440   -16.6230 
   82.3750     2.2000    48.6620    10.3230     8.5440     7.8430    21.4570   -16.5030 
   82.5000     2.2080    47.4050    10.2450     8.4470     7.9190    21.4710   -16.3530 
   82.6250     2.2140    50.5760    10.2150     8.3830     8.0410    21.4840   -16.2050 
   82.7500     2.2190    53.9070    10.2120     8.3440     8.1550    21.4720   -16.1130 
   82.8750     2.2230    55.3710    10.2290     8.3270     8.1790    21.4340   -16.0710 
   83.0000     2.2230    54.6900    10.2600     8.3260     8.1070    21.3710   -16.0680 
   83.1250     2.2180    52.8060    10.3030     8.3400     8.0210    21.3250   -16.0690 
   83.2500     2.2110    52.2250    10.3500     8.3590     8.1020    21.3010   -16.0480 
   83.3750     2.2060    52.6900    10.3840     8.3700     8.2550    21.2840   -16.0090 
   83.5000     2.2060    52.8710    10.3920     8.3600     8.3170    21.2600   -15.9910 
   83.6250     2.2140    54.0320    10.3500     8.3090     8.2690    21.2500   -16.0330 
   83.7500     2.2220    58.6510    10.2630     8.2220     8.1960    21.2460   -16.0750 
   83.8750     2.2270    64.9050    10.1430     8.1090     8.1290    21.2430   -16.1260 
   84.0000     2.2260    68.1550    10.0170     7.9920     7.9680    21.2370   -16.1770 
   84.1250     2.2220    64.6730     9.9240     7.9030     7.7380    21.2210   -16.2220 
   84.2500     2.2190    61.9350     9.8850     7.8550     7.5790    21.1950   -16.2420 
   84.3750     2.2200    63.2940     9.8990     7.8490     7.5530    21.1670   -16.2530 
   84.5000     2.2220    64.2910     9.9410     7.8700     7.7160    21.1470   -16.2650 
   84.6250     2.2190    59.7330     9.9630     7.8890     7.8420    21.1590   -16.2450 
   84.7500     2.2140    55.3600     9.9310     7.8790     7.8130    21.1960   -16.2290 
   84.8750     2.2110    54.3170     9.8420     7.8290     7.6440    21.2580   -16.2040 
   85.0000     2.2110    54.6680     9.7120     7.7430     7.4830    21.3400   -16.1690 
   85.1250     2.2120    54.8550     9.5760     7.6360     7.3100    21.4110   -16.1320 
   85.2500     2.2080    54.7520     9.4650     7.5330     7.2620    21.4410   -16.1220 
   85.3750     2.1990    52.8130     9.3910     7.4490     7.3910    21.4540   -16.1300 
   85.5000     2.1880    50.9660     9.3560     7.3930     7.6350    21.4760   -16.1660 
   85.6250     2.1800    53.9120     9.3610     7.3730     7.8110    21.5240   -16.2230 
   85.7500     2.1780    59.1510     9.3960     7.3840     7.9020    21.6010   -16.2890 
   85.8750     2.1820    61.5070     9.4580     7.4230     7.9740    21.6930   -16.3820 
   86.0000     2.1910    60.7830     9.5480     7.4890     8.0600    21.7870   -16.4670 
   86.1250     2.2030    59.7740     9.6740     7.5860     8.1590    21.8430   -16.5290 
   86.2500     2.2140    60.8500     9.8330     7.7090     8.2710    21.8460   -16.5750 
   86.3750     2.2220    61.9040    10.0240     7.8600     8.4320    21.8210   -16.6310 
   86.5000     2.2260    59.8420    10.2370     8.0330     8.7120    21.8190   -16.6890 
   86.6250     2.2280    57.0170    10.4380     8.2080     9.0690    21.8670   -16.7570 
   86.7500     2.2310    58.8530    10.5850     8.3520     9.6040    21.9550   -16.8150 
   86.8750     2.2360    63.7070    10.6400     8.4350    10.6090    22.0220   -16.7920 
   87.0000     2.2360    65.2200    10.5800     8.4360    11.8350    21.9760   -16.7160 
   87.1250     2.2280    62.1080    10.3940     8.3400    11.7740    21.8260   -16.6690 
   87.2500     2.2120    59.2780    10.1400     8.1840     9.7290    21.7480   -16.6380 
   87.3750     2.1960    58.4480     9.8650     7.9980     8.9070    21.7390   -16.6060 
   87.5000     2.1820    58.3960     9.6050     7.8080     8.8940    21.7360   -16.5840 
   87.6250     2.1740    57.6640     9.3860     7.6340     8.9940    21.7040   -16.5770 
   87.7500     2.1670    55.4970     9.1990     7.4810     8.9780    21.6560   -16.5700 
   87.8750     2.1590    52.7690     9.0410     7.3510     8.8230    21.6120   -16.6090 
   88.0000     2.1520    50.9410     8.9200     7.2470     8.5260    21.5700   -16.6660 
   88.1250     2.1510    51.5970     8.8680     7.1910     8.1640    21.5440   -16.6970 
   88.2500     2.1560    52.7890     8.8940     7.1880     7.9690    21.5290   -16.7130 
   88.3750     2.1650    53.8960     8.9990     7.2430     7.9730    21.5380   -16.7420 
   88.5000     2.1750    54.8680     9.1630     7.3450     7.9460    21.5640   -16.7720 
   88.6250     2.1810    57.0370     9.3470     7.4720     7.9070    21.6010   -16.7160 
   88.7500     2.1840    59.7650     9.5030     7.5890     7.9870    21.6050   -16.6230 
   88.8750     2.1860    60.9700     9.6070     7.6750     8.1200    21.5930   -16.5080 
   89.0000     2.1860    60.1650     9.6550     7.7200     8.1310    21.6040   -16.4200 
   89.1250     2.1870    58.3370     9.6600     7.7310     8.0770    21.6830   -16.3780 
   89.2500     2.1870    58.1750     9.6550     7.7320     8.0650    21.7350   -16.3760 
   89.3750     2.1860    59.2450     9.6560     7.7380     8.0810    21.7360   -16.3780 
   89.5000     2.1810    59.8440     9.6660     7.7530     8.1440    21.6960   -16.3550 
   89.6250     2.1730    58.7420     9.6750     7.7690     8.2830    21.6360   -16.3640 
   89.7500     2.1630    56.1060     9.6720     7.7730     8.4890    21.5970   -16.3870 
   89.8750     2.1510    53.7470     9.6510     7.7590     8.7050    21.5900   -16.4150 
   90.0000     2.1420    53.8070     9.6170     7.7310     8.8770    21.6090   -16.4610 
   90.1250     2.1400    56.3020     9.5830     7.7030     8.9390    21.6540   -16.5140 
   90.2500     2.1450    59.3740     9.5580     7.6840     9.0080    21.7140   -16.5360 
   90.3750     2.1600    61.9300     9.5320     7.6700     9.1270    21.7570   -16.5120 
   90.5000     2.1780    64.2700     9.4870     7.6440     9.3440    21.7750   -16.4520 
   90.6250     2.1910    65.9450     9.3880     7.5780     9.6720    21.7880   -16.4170 
   90.7500     2.1930    65.3430     9.2330     7.4670     9.9620    21.8180   -16.3920 
   90.8750     2.1830    62.5930     9.0430     7.3240     9.6500    21.8730   -16.3850 
   91.0000     2.1670    59.4510     8.8580     7.1770     9.0580    21.9480   -16.3750 
   91.1250     2.1540    59.2910     8.7280     7.0590     8.5030    22.0290   -16.3690 
   91.2500     2.1490    61.6600     8.6600     6.9840     8.2690    22.0970   -16.3580 
   91.3750     2.1520    64.5200     8.6480     6.9520     8.3220    22.1310   -16.3460 
   91.5000     2.1600    66.5520     8.6770     6.9570     8.6260    22.1280   -16.3400 
   91.6250     2.1680    65.5730     8.7360     6.9930     8.8040    22.1060   -16.3100 
   91.7500     2.1700    61.6320     8.8160     7.0500     8.8420    22.0960   -16.2590 
   91.8750     2.1670    56.7680     8.9160     7.1280     8.8460    22.0900   -16.2030 
