~V
VERS. 2.00: Ver 2.00
~W
STRT.M 51.0000:
STOP.M 240.0000:
STEP.M 0.1250:
NULL. -999.2500:
UWI. F11016:
~C
DEPT.M :
GR.API :
RML.OHMM :
RI. :
RXO.OHMM :
CALI.CM :
DEN.GM/CC :
SP.MV :
~A
# ...
   62.2500    61.7150     6.1640     6.5570     7.6740    23.2550     2.1730   -35.9490 
   62.3750    61.2210     6.2240     6.5560     7.8330    23.2740     2.1800   -36.0370 
   62.5000    60.6980     6.3130     6.5830     7.9510    23.3120     2.1820   -36.0710 
   62.6250    59.8840     6.4050     6.6210     7.9400    23.2690     2.1800   -36.0810 
   62.7500    59.0500     6.4850     6.6590     7.9560    23.1600     2.1750   -36.0630 
   62.8750    58.9110     6.5500     6.6890     8.0640    23.0980     2.1710   -36.0110 
   63.0000    59.7350     6.6030     6.7100     8.2030    23.1050     2.1670   -35.9380 
   63.1250    60.6550     6.6480     6.7170     8.2890    23.1390     2.1640   -35.8670 
   63.2500    61.0590     6.6840     6.7080     8.2960    23.1880     2.1600   -35.8240 
   63.3750    61.0160     6.7060     6.6820     8.2810    23.2230     2.1570   -35.8250 
   63.5000    60.8470     6.7180     6.6430     8.2520    23.2330     2.1540   -35.8310 
   63.6250    60.8800     6.7270     6.6040     8.2020    23.2340     2.1550   -35.8070 
   63.7500    60.9860     6.7400     6.5750     8.1520    23.2350     2.1570   -35.7620 
   63.8750    60.5530     6.7650     6.5640     8.1970    23.2370     2.1620   -35.7130 
   64.0000    59.1720     6.8050     6.5660     8.4650    23.2510     2.1660   -35.6610 
   64.1250    57.7500     6.8590     6.5740     9.1720    23.2790     2.1690   -35.6050 
   64.2500    57.9780     6.9200     6.5800    10.2250    23.3040     2.1690   -35.5250 
   64.3750    59.8200     6.9820     6.5770    10.9160    23.2830     2.1660   -35.4110 
   64.5000    61.0740     7.0400     6.5670     9.9450    23.2260     2.1630   -35.2790 
   64.6250    60.5440     7.0940     6.5570     8.8030    23.1630     2.1600   -35.1660 
   64.7500    59.4960     7.1500     6.5490     8.5950    23.1250     2.1580   -35.0800 
   64.8750    59.2310     7.2100     6.5420     8.6400    23.1090     2.1570   -35.0020 
   65.0000    59.1530     7.2680     6.5330     8.6420    23.0700     2.1570   -34.9280 
   65.1250    58.5550     7.3150     6.5150     8.6330    23.0180     2.1580   -34.8350 
   65.2500    59.1020     7.3380     6.4800     8.5520    23.0180     2.1600   -34.6960 
   65.3750    60.9720     7.3200     6.4120     8.4490    23.0890     2.1620   -34.4830 
   65.5000    61.2950     7.2550     6.3050     8.2690    23.1850     2.1660   -34.1770 
   65.6250    60.5550     7.1630     6.1640     8.0200    23.2750     2.1720   -33.7480 
   65.7500    62.8030     7.0730     6.0090     7.8220    23.3420     2.1810   -33.1840 
   65.8750    68.2560     7.0220     5.8730     7.5230    23.3680     2.1940   -32.5270 
   66.0000    71.5170     7.0150     5.7730     7.0630    23.2990     2.2080   -31.8290 
   66.1250    70.4940     7.0300     5.7070     6.7910    23.1100     2.2220   -31.1180 
   66.2500    67.8160     7.0430     5.6640     7.0970    22.9330     2.2320   -30.4080 
   66.3750    66.0780     7.0560     5.6420     7.5060    22.9070     2.2400   -29.7150 
   66.5000    66.7280     7.1250     5.6630     7.4350    22.9660     2.2490   -29.0870 
   66.6250    69.6570     7.3230     5.7670     7.0070    23.0010     2.2610   -28.5740 
   66.7500    72.0700     7.6950     5.9810     6.6560    22.9780     2.2770   -28.1880 
   66.8750    70.7170     8.2100     6.3000     6.5430    22.8570     2.2970   -27.9330 
   67.0000    67.0030     8.7250     6.6480     6.6920    22.6530     2.3130   -27.7600 
   67.1250    64.3250     9.0630     6.9150     7.1010    22.4760     2.3190   -27.6220 
   67.2500    63.8200     9.1070     7.0090     7.5040    22.4010     2.3130   -27.5090 
   67.3750    64.3260     8.8450     6.8870     7.6580    22.3950     2.2990   -27.4710 
   67.5000    64.5450     8.4390     6.6280     7.5660    22.4010     2.2830   -27.5140 
   67.6250    64.6200     8.0920     6.3550     7.4800    22.4030     2.2720   -27.6030 
   67.7500    65.2680     7.9220     6.1590     7.4910    22.4070     2.2670   -27.7400 
   67.8750    66.4530     7.9570     6.0870     7.5680    22.4420     2.2650   -27.9310 
   68.0000    66.7680     8.1150     6.1180     7.6670    22.5280     2.2620   -28.1600 
   68.1250    65.2360     8.3030     6.2100     7.6520    22.6380     2.2550   -28.4420 
   68.2500    63.4770     8.4830     6.3360     7.5260    22.7140     2.2470   -28.8290 
   68.3750    63.7260     8.6690     6.4920     7.4610    22.7450     2.2430   -29.2860 
   68.5000    65.2290     8.8900     6.6810     7.5630    22.7760     2.2460   -29.7370 
   68.6250    66.2860     9.1370     6.8890     7.7870    22.8390     2.2560   -30.1400 
   68.7500    66.2640     9.3550     7.0770     8.0200    22.9060     2.2710   -30.4710 
   68.8750    64.2390     9.4340     7.1750     8.2100    22.8680     2.2800   -30.6930 
   69.0000    61.7060     9.3040     7.1320     8.3990    22.6930     2.2790   -30.8120 
   69.1250    61.4730     8.9740     6.9390     8.5220    22.5110     2.2690   -30.8430 
   69.2500    63.0980     8.5190     6.6320     8.4590    22.4230     2.2550   -30.7740 
   69.3750    64.1410     8.0670     6.2850     8.3240    22.4420     2.2450   -30.6570 
   69.5000    65.0350     7.7230     5.9760     8.2230    22.5510     2.2420   -30.5510 
   69.6250    67.7400     7.5280     5.7540     7.9940    22.7050     2.2430   -30.5180 
   69.7500    71.2190     7.4730     5.6310     7.5540    22.8130     2.2410   -30.5960 
   69.8750    72.3760     7.5200     5.6000     7.2740    22.8190     2.2340   -30.8000 
   70.0000    69.8550     7.6090     5.6280     7.5870    22.7480     2.2220   -31.1030 
   70.1250    64.3320     7.6890     5.6830     8.2780    22.6670     2.2070   -31.4620 
   70.2500    59.3640     7.7350     5.7420     8.8150    22.6170     2.1910   -31.8570 
   70.3750    59.2460     7.7540     5.8050     8.9410    22.6230     2.1760   -32.2510 
   70.5000    61.8500     7.7930     5.8890     8.9240    22.7310     2.1610   -32.5900 
   70.6250    62.3560     7.9110     6.0190     8.9800    22.9640     2.1510   -32.8240 
   70.7500    60.1400     8.1260     6.2110     9.0700    23.1660     2.1490   -32.9350 
   70.8750    59.2360     8.3990     6.4430     9.2730    23.0970     2.1580   -32.8930 
   71.0000    61.2430     8.6310     6.6620     9.6810    22.8540     2.1720   -32.7100 
   71.1250    63.3900     8.7190     6.8000    10.2620    22.6900     2.1830   -32.3990 
   71.2500    63.0130     8.6110     6.8130    10.7350    22.6800     2.1840   -31.9490 
   71.3750    59.4470     8.3150     6.6870    10.4320    22.7570     2.1760   -31.3270 
   71.5000    54.5350     7.9270     6.4670     9.4560    22.8350     2.1660   -30.5480 
   71.6250    51.3170     7.5550     6.2170     8.6150    22.8780     2.1610   -29.6260 
   71.7500    51.5120     7.2660     5.9860     8.1830    22.8650     2.1680   -28.5150 
   71.8750    55.7600     7.0910     5.8070     7.9190    22.7600     2.1860   -27.2180 
   72.0000    62.7550     7.0060     5.6770     7.5300    22.6070     2.2110   -25.8080 
   72.1250    70.5730     6.9560     5.5710     6.8780    22.4660     2.2370   -24.3550 
   72.2500    78.0660     6.8890     5.4630     6.1200    22.3880     2.2580   -22.9110 
   72.3750    83.1790     6.7560     5.3270     5.6510    22.4190     2.2720   -21.5430 
   72.5000    84.3200     6.5400     5.1540     5.4960    22.5660     2.2820   -20.3000 
   72.6250    83.9110     6.2750     4.9630     5.3760    22.7820     2.2900   -19.2330 
   72.7500    85.0560     6.0280     4.7880     5.1400    22.9580     2.3010   -18.3860 
   72.8750    86.0470     5.8920     4.6820     4.9770    22.9930     2.3140   -17.7840 
   73.0000    85.0800     5.9140     4.6730     4.9160    22.9600     2.3280   -17.3970 
   73.1250    85.0970     6.0690     4.7540     4.9310    22.9460     2.3420   -17.1960 
   73.2500    88.2510     6.2890     4.8920     5.1450    22.9650     2.3510   -17.1600 
   73.3750    89.5550     6.4850     5.0400     5.4560    23.0440     2.3540   -17.2870 
