~V
VERS. 2.00: Ver 2.00
~W
STRT.M 55.0000:
STOP.M 236.0000:
STEP.M 0.1250:
NULL. -999.2500:
UWI. F11015:
~C
DEPT.M :
GR.API :
RML.OHMM :
RI. :
RXO.OHMM :
CALI.CM :
DEN.GM/CC :
SP.MV :
~A
# ...
  223.7500    56.5100    11.4730     9.7790     9.4120    23.0270     2.5350    -4.5700 
  223.8750    59.0070    11.7510    10.0150     9.8480    22.3820     2.5340    -4.4950 
  224.0000    59.8930    12.1160    10.3370    11.1090    22.6990     2.5300    -4.4870 
  224.1250    56.9160    12.4980    10.7070    11.9710    23.4300     2.5210    -4.4820 
  224.2500    56.7970    12.8220    11.0540    12.2790    23.8260     2.5120    -4.4840 
  224.3750    61.9150    13.0350    11.3240    12.2510    23.9040     2.5030    -4.4530 
  224.5000    67.4410    13.1050    11.4760    12.0630    23.9040     2.4970    -4.3400 
  224.6250    66.0360    12.9960    11.4620    11.8490    23.8820     2.4880    -4.1860 
  224.7500    61.2330    12.7500    11.3050    11.7510    23.8640     2.4770    -4.1080 
  224.8750    57.3270    12.4060    11.0300    11.7990    23.8840     2.4670    -4.0760 
  225.0000    55.4490    12.0150    10.6770    12.1560    23.9180     2.4580    -4.0220 
  225.1250    55.4220    11.6330    10.3010    12.1910    23.9270     2.4490    -3.9310 
  225.2500    56.9910    11.2920     9.9600    11.6920    23.9030     2.4480    -3.7810 
  225.3750    59.3890    11.0140     9.6870    10.8880    23.8450     2.4620    -3.6320 
  225.5000    62.1860    10.8150     9.4980    10.8570    23.7980     2.4860    -3.5700 
  225.6250    62.1860    10.7230     9.4060    11.9960    23.7890     2.5020    -3.5280 
  225.7500    62.1860    10.7160     9.3820    13.7320    23.7930     2.5040    -3.4820 
  225.8750    62.1860    10.7700     9.4010    15.8900    23.7880     2.4980    -3.3670 
  226.0000    62.1860    10.8460     9.4310    17.2730    23.7840     2.4960    -3.2100 
  226.1250    62.1860    10.9100     9.4430    16.7740    23.7890     2.5010    -3.1430 
  226.2500    62.1860    10.9520     9.4350    15.4210    23.8050     2.5040    -3.1370 
  226.3750    62.1860    10.9900     9.4340    13.7100    23.8160     2.5030    -3.0980 
  226.5000    62.1860    11.0520     9.4760    11.9850    23.8120     2.4990    -3.0390 
  226.6250    62.1860    11.1930     9.6100    11.6160    23.7950     2.4970    -3.0070 
  226.7500    62.1860    11.4250     9.8300    11.3110    23.7960     2.4950    -2.9530 
  226.8750    62.1860    11.7310    10.1150    11.2370    23.8060     2.4930    -2.9360 
  227.0000    62.1860    12.0600    10.4260    11.9330    23.8070     2.4900    -3.0200 
  227.1250    62.1860    12.3160    10.6970    13.7030    23.7920     2.4820    -3.0720 
  227.2500    62.1860    12.4350    10.8740    14.8860    23.7830     2.4690    -3.0930 
  227.3750    62.1860    12.3950    10.9230    15.1710    23.7790     2.4600    -3.1420 
  227.5000    62.1860    12.2170    10.8420    15.1290    23.7740     2.4610    -3.1360 
  227.6250    62.1860    11.9580    10.6500    15.0600    23.7750     2.4720    -3.1160 
  227.7500    62.1860    11.7020    10.4150    13.9970    23.7740     2.4820    -3.1450 
  227.8750    62.1860    11.4860    10.1730    13.1630    23.7520     2.4880    -3.1870 
  228.0000    62.1860    11.3160     9.9430    13.2920    23.7080     2.4930    -3.1480 
  228.1250    62.1860    11.1790     9.7420    13.3410    23.6450     2.5010    -3.0640 
  228.2500    62.1860    11.0610     9.5690    12.2890    23.6060     2.5080    -3.0320 
  228.3750    62.1860    10.9650     9.4270    10.8760    23.6290     2.5140    -2.9990 
  228.5000    62.1860    10.8980     9.3170     9.8210    23.6990     2.5230    -3.0190 
  228.6250    62.1860    10.8600     9.2400     9.4200    23.7580     2.5320    -3.0450 
  228.7500    62.1860    10.8410     9.1850     9.1500    23.7830     2.5360    -3.0830 
  228.8750    62.1860    10.8430     9.1430     9.3400    23.7950     2.5290    -3.1210 
  229.0000    62.1860    10.8620     9.1150    10.3260    23.8080     2.5160    -3.2020 
  229.1250    62.1860    10.8850     9.1000    12.6530    23.8040     2.5010    -3.2900 
  229.2500    62.1860    10.8960     9.0980    14.9410    23.7920     2.4900    -3.3210 
  229.3750    62.1860    10.8900     9.1060    14.9620    23.7970     2.4870    -3.3880 
  229.5000    62.1860    10.8810     9.1150    13.7270    23.8280     2.4940    -3.4210 
  229.6250    62.1860    10.8880     9.1170    12.8660    23.8470     2.5060    -3.5020 
  229.7500    62.1860    10.9040     9.1170    11.7690    23.8330     2.5160    -3.5160 
  229.8750    62.1860    10.9090     9.1250    10.4120    23.8200     2.5260    -3.5390 
  230.0000    62.1860    10.8920     9.1410     9.3420    23.8470     2.5350    -3.5680 
  230.1250    62.1860    10.8650     9.1590     9.1240    23.8560     2.5360    -3.5780 
  230.2500    62.1860    10.8510     9.1680     9.4330    23.8370     2.5290    -3.6250 
  230.3750    62.1860    10.8570     9.1650     9.8290    23.8330     2.5170    -3.6680 
  230.5000    62.1860    10.8730     9.1550     9.9730    23.8900     2.5030    -3.7140 
  230.6250    62.1860    10.8810     9.1500     9.9720    23.9370     2.4860    -3.7840 
  230.7500    62.1860    10.8770     9.1530    10.5750    23.9740     2.4690    -3.8300 
  230.8750    62.1860    10.8720     9.1560    10.4650    24.0250     2.4590    -3.8020 
  231.0000    62.1860    10.8760     9.1550     9.2630    24.0780     2.4590    -3.7440 
  231.1250    62.1860    10.8820     9.1510     8.1240    24.1360     2.4660    -3.7220 
  231.2500    62.1860    10.8830     9.1500     7.8440    24.1710     2.4750    -3.7380 
  231.3750    62.1860    10.8710     9.1560     8.0010    24.2000     2.4900    -3.7480 
  231.5000    62.1860    10.8680     9.1580     8.1270    24.2190     2.5060    -3.7740 
  231.6250    62.1860    10.8680     9.1580     7.8450    24.2310     2.5120    -3.7560 
  231.7500    62.1860    10.8680     9.1580     7.3000    24.2100     2.4960    -3.4990 
  231.8750    62.1860    10.8680     9.1580     6.7980    24.1730     2.4570    -3.1700 
  232.0000    62.1860    10.8680     9.1580     6.4930    24.1020     2.4080    -2.8830 
  232.1250    62.1860    10.8680     9.1580     6.4830    24.0720     2.3690    -2.5410 
  232.2500    62.1860    10.8680     9.1580     6.6550    24.0870     2.3440    -2.1680 
  232.3750    62.1860    10.8680     9.1580     6.7150    24.1230     2.3270    -1.7910 
  232.5000    62.1860    10.8680     9.1580     6.5610    24.1990     2.3130    -1.3630 
  232.6250    62.1860    10.8680     9.1580     6.2820    24.2760     2.2970    -1.0080 
  232.7500    62.1860    10.8680     9.1580     6.0780    24.4750     2.2700    -1.0330 
  232.8750    62.1860    10.8680     9.1580     6.2340    24.5270     2.2350    -1.0570 
  233.0000    62.1860    10.8680     9.1580     6.6260    24.4220     2.2090  -999.2500 
  233.1250    62.1860    10.8680     9.1580     7.6290    24.2790     2.2160  -999.2500 
  233.2500    62.1860    10.8680     9.1580     9.3520    24.2050     2.2510  -999.2500 
  233.3750    62.1860    10.8680     9.1580    11.0140    24.1060     2.2920  -999.2500 
  233.5000    62.1860    10.8680     9.1580    10.0670    23.9420     2.3160  -999.2500 
  233.6250    62.1860    10.8680     9.1580     8.9420    23.8180     2.3180  -999.2500 
  233.7500    62.1860    10.8680     9.1580     8.5660    23.7690     2.3140  -999.2500 
  233.8750    62.1860    10.8680     9.1580     8.5610    23.7700     2.3120  -999.2500 
  234.0000    62.1860    10.8680     9.1580     8.5530    23.7780     2.3110  -999.2500 
  234.1250    62.1860    10.8680     9.1580     8.5810    23.7810     2.3090  -999.2500 
  234.2500    62.1860    10.8680     9.1580     8.6570    23.7800     2.3060  -999.2500 
  234.3750    62.1860    10.8680     9.1580     8.6820    23.7760     2.3030  -999.2500 
  234.5000    62.1860    10.8680     9.1580     8.6980    23.7780     2.2990  -999.2500 
  234.6250    62.1860    10.8680     9.1580     8.6650    23.7750     2.2960  -999.2500 
  234.7500    62.1860    10.8680     9.1580     8.6390    23.7810     2.2940  -999.2500 
  234.8750    62.1860    10.8680     9.1580     8.6480    23.7810     2.2940  -999.2500 
