~V
VERS. 2.00: Ver 2.00
~W
STRT.M 50.0000:
STOP.M 283.0000:
STEP.M 0.1250:
NULL. -999.2500:
UWI. F11058:
~C
DEPT.M :
DEN.GM/CC :
GR.API :
RML.OHMM :
RI. :
RXO.OHMM :
CALI.CM :
SP.MV :
~A
# ...
  275.0000     2.5610    53.8690    12.1500    10.7630    15.4270    23.5660    -6.5690 
  275.1250     2.5630    53.8690    12.3050    10.8560    15.9760    23.5680    -6.5310 
  275.2500     2.5610    53.8690    12.3670    10.9100    16.0440    23.5800    -6.4070 
  275.3750     2.5560    53.8690    12.3510    10.9400    15.8500    23.6020    -6.2290 
  275.5000     2.5490    53.8690    12.3150    10.9660    15.4220    23.6070    -6.0440 
  275.6250     2.5430    53.8690    12.3340    11.0100    14.1910    23.5790    -5.9100 
  275.7500     2.5400    53.8690    12.4210    11.0820    13.2340    23.5510    -5.8240 
  275.8750     2.5400    53.8690    12.5460    11.1750    13.0180    23.5200    -5.7340 
  276.0000     2.5440    53.8690    12.6570    11.2690    13.4080    23.4800    -5.6410 
  276.1250     2.5490    53.8690    12.7030    11.3300    13.1720    23.4250    -5.6260 
  276.2500     2.5520    53.8690    12.6880    11.3470    13.1010    23.3740    -5.6780 
  276.3750     2.5560    53.8690    12.6330    11.3170    13.0450    23.3620    -5.7340 
  276.5000     2.5610    53.8690    12.5640    11.2520    12.9420    23.3860    -5.7940 
  276.6250     2.5660    53.8690    12.5020    11.1610    12.3260    23.4380    -5.6430 
  276.7500     2.5650    53.8690    12.4490    11.0560    11.7600    23.5110    -5.2870 
  276.8750     2.5590    53.8690    12.3980    10.9480    11.4220    23.6150    -4.8860 
  277.0000     2.5470    53.8690    12.3430    10.8480    11.5720    23.7450    -4.4210 
  277.1250     2.5350    53.8690    12.2850    10.7720    12.1370    23.9010    -3.9190 
  277.2500     2.5260    53.8690    12.2320    10.7160    12.4610    23.9750    -3.4140 
  277.3750     2.5200    53.8690    12.1810    10.6700    12.8000    23.9780    -2.8900 
  277.5000     2.5170    53.8690    12.1220    10.6170    13.2660    23.9490    -2.3940 
  277.6250     2.5160    53.8690    12.0360    10.5330    12.9300    23.9110    -2.0720 
  277.7500     2.5190    53.8690    11.9260    10.4190    12.4030    23.9090    -1.9060 
  277.8750     2.5250    53.8690    11.8110    10.2910    11.9630    23.9300    -1.7260 
  278.0000     2.5340    53.8690    11.7140    10.1730    11.7070    23.9350    -1.5700 
  278.1250     2.5450    53.8690    11.6550    10.0930    11.5160    23.9090    -1.4850 
  278.2500     2.5540    53.8690    11.6260    10.0500    11.1400    23.8930    -1.4480 
  278.3750     2.5610    53.8690    11.6150    10.0360    10.9480    23.8880    -1.4390 
  278.5000     2.5640    53.8690    11.6100    10.0330    11.0530    23.8860    -1.3570 
  278.6250     2.5620    53.8690    11.6070    10.0340    11.2900    23.8900    -1.2760 
  278.7500     2.5540    53.8690    11.6060    10.0340    11.3760    23.8910    -1.2440 
  278.8750     2.5420    53.8690    11.6060    10.0340    11.2710    23.8710    -1.3120 
  279.0000     2.5280    53.8690    11.6060    10.0340    11.0970    23.7870    -1.3870 
  279.1250     2.5180    53.8690    11.6060    10.0340    10.9410    23.7250    -1.4730 
  279.2500     2.5140    53.8690    11.6060    10.0340    10.5630    23.6980    -1.5370 
  279.3750     2.5160    53.8690    11.6060    10.0340    10.1430    23.6940    -1.5640 
  279.5000     2.5210    53.8690    11.6060    10.0340    10.2540    23.6870    -1.6370 
  279.6250     2.5250    53.8690    11.6060    10.0340    10.5750    23.6720    -1.7000 
  279.7500     2.5250    53.8690    11.6060    10.0340    10.8210    23.6610    -1.7630 
  279.8750     2.5250    53.8690    11.6060    10.0340    11.0030    23.6750    -1.7880 
  280.0000     2.5240    53.8690    11.6060    10.0340    10.8090    23.6900    -1.8020 
  280.1250     2.5210    53.8690    11.6060    10.0340    10.5680    23.6880    -1.7720 
  280.2500     2.5180    53.8690    11.6060    10.0340    10.3920    23.6700    -1.7200 
  280.3750     2.5140    53.8690    11.6060    10.0340    10.4160    23.6450    -1.6950 
  280.5000     2.5130    53.8690    11.6060    10.0340    10.4160    23.6290    -1.7050 
  280.6250     2.5150    53.8690    11.6060    10.0340    10.3290    23.6280    -1.7060 
  280.7500     2.5170    53.8690    11.6060    10.0340    10.0220    23.6390    -1.6560 
  280.8750     2.5160    53.8690    11.6060    10.0340     9.7190    23.6670    -1.6510 
  281.0000     2.5130    53.8690    11.6060    10.0340     9.6230    23.6800    -1.6560 
  281.1250     2.5100    53.8690    11.6060    10.0340     9.8150    23.6610    -1.6940 
  281.2500     2.5110    53.8690    11.6060    10.0340     9.8450    23.6070    -1.7440 
  281.3750     2.5160    53.8690    11.6060    10.0340    10.0400    23.5210    -1.7630 
  281.5000     2.5240    53.8690    11.6060    10.0340    10.3920    23.4480    -1.7590 
  281.6250     2.5290    53.8690    11.6060    10.0340    10.5160    23.3770    -1.7590 
  281.7500     2.5300    53.8690    11.6060    10.0340    10.3980    23.3280    -1.7590 
  281.8750     2.5270    53.8690    11.6060    10.0340    10.5570    23.2970  -999.2500 
  282.0000     2.5220    53.8690    11.6060    10.0340    11.1400    23.2500  -999.2500 
  282.1250     2.5170    53.8690    11.6060    10.0340    11.6290    23.1750  -999.2500 
  282.2500     2.4980    53.8690    11.6060    10.0340    11.2360    23.0860  -999.2500 
  282.3750     2.4210    53.8690    11.6060    10.0340    10.7440    22.9450  -999.2500 
  282.5000     2.2680    53.8690    11.6060    10.0340    10.3360    22.7160  -999.2500 
  282.6250     2.0870    53.8690    11.6060    10.0340     9.9660    22.2230  -999.2500 
  282.7500     1.9750    53.8690    11.6060    10.0340     9.3820    21.2500  -999.2500 
  282.8750     2.0040    53.8690    11.6060    10.0340     8.5050    19.6740  -999.2500 
  283.0000     1.9130    53.8690    11.6060    10.0340     8.0580    18.6200  -999.2500 
