~V
VERS. 2.00: Ver 2.00
~W
STRT.M 57.0000:
STOP.M 276.0000:
STEP.M 0.1250:
NULL. -999.2500:
UWI. F11063:
~C
DEPT.M :
DEN.GM/CC :
GR.API :
RML.OHMM :
RI. :
RXO.OHMM :
CALI.CM :
SP.MV :
~A
# ...
  135.7500     2.3070    85.9080     5.5970     5.1900     6.3930    24.4680   -11.3880 
  135.8750     2.3180    84.8920     5.1350     4.8060     6.1620    24.5640   -11.4230 
  136.0000     2.3320    83.7110     4.5970     4.3500     5.9310    24.6920   -11.4550 
  136.1250     2.3490    83.4390     4.1510     3.9220     5.7050    24.7490   -11.5090 
  136.2500     2.3670    84.3930     3.9460     3.6500     5.4500    24.7550   -11.5560 
  136.3750     2.3820    85.1310     4.1490     3.6770     5.3330    24.7200   -11.6170 
  136.5000     2.3970    83.2830     4.9540     4.1600     5.9120    24.6450   -11.7060 
  136.6250     2.4170    80.5780     6.7040     5.3970     8.7610    24.5890   -11.8150 
  136.7500     2.4440    77.5660     9.2630     7.4100    15.5770    24.5870   -11.9410 
  136.8750     2.4720    73.7250    12.1660    10.0290    26.1250    24.6890   -12.0890 
  137.0000     2.4920    71.1870    14.4140    12.5180    35.6360    24.8380   -12.2370 
  137.1250     2.4790    72.6540    14.6640    13.4520    28.7100    24.9080   -12.3650 
  137.2500     2.4140    73.2050    13.3690    12.8230    19.5730    24.9610   -12.4750 
  137.3750     2.3150    69.1890    11.5830    11.4590    14.0450    25.0320   -12.5710 
  137.5000     2.2290    63.7830    10.1800    10.1580    12.2820    25.0730   -12.6580 
  137.6250     2.1910    62.3780     9.5810     9.3670    11.9700    25.0730   -12.7250 
  137.7500     2.1850    64.8060     9.5540     9.0470    11.7250    25.0660   -12.7710 
  137.8750     2.1880    68.8380     9.8870     9.1210    11.9290    25.0800   -12.7980 
  138.0000     2.1870    70.1420    10.3950     9.4690    12.6960    25.0980   -12.8230 
  138.1250     2.1810    65.7860    10.9600     9.9660    13.4330    25.1300   -12.8390 
  138.2500     2.1820    61.4740    11.5210    10.4700    13.7490    25.1750   -12.8560 
  138.3750     2.1910    61.1660    12.0520    10.9150    13.7150    25.1960   -12.8730 
  138.5000     2.2040    62.8170    12.4980    11.2640    13.6110    25.1700   -12.9020 
  138.6250     2.2110    64.2760    12.7650    11.4890    13.6320    25.1880   -12.9510 
  138.7500     2.2110    65.8840    12.8510    11.6050    13.7150    25.2260   -13.0120 
  138.8750     2.2020    65.9410    12.7860    11.6130    13.6910    25.2990   -13.0770 
  139.0000     2.1830    64.2010    12.6390    11.5230    13.7180    25.4060   -13.1340 
  139.1250     2.1610    64.0270    12.4730    11.3520    13.6470    25.4510   -13.1860 
  139.2500     2.1500    66.7240    12.3210    11.1540    13.5780    25.3660   -13.2190 
  139.3750     2.1540    67.5230    12.1750    10.9680    13.3710    25.2840   -13.2390 
  139.5000     2.1680    64.0390    12.0030    10.8170    13.0800    25.2510   -13.2380 
  139.6250     2.1810    61.2850    11.7850    10.7080    12.9310    25.2460   -13.2150 
  139.7500     2.1870    61.5040    11.5540    10.6340    13.0900    25.2440   -13.1800 
  139.8750     2.1860    62.8630    11.3730    10.6090    13.3940    25.2740   -13.1310 
  140.0000     2.1840    64.8480    11.3350    10.6800    13.4480    25.3510   -13.0730 
  140.1250     2.1880    69.6940    11.6130    10.9660    13.3110    25.4310   -13.0240 
  140.2500     2.2020    74.3710    12.2680    11.5250    13.6800    25.2350   -13.0000 
  140.3750     2.2290    74.8320    13.3360    12.3950    15.1240    24.7910   -13.0070 
  140.5000     2.2700    72.6240    14.7340    13.5300    17.2450    24.4400   -13.0360 
  140.6250     2.3150    70.7360    16.0970    14.6630    19.5140    24.3650   -13.0850 
  140.7500     2.3540    69.6730    16.7670    15.2580    21.3640    24.3650   -13.1400 
  140.8750     2.3800    69.4790    16.1570    14.8030    21.4020    24.3490   -13.1950 
  141.0000     2.3940    70.9440    14.1910    13.2170    20.8500    24.3640   -13.2560 
  141.1250     2.3950    73.5210    11.5750    11.0590    17.6880    24.4090   -13.3280 
  141.2500     2.3870    77.7270     9.4960     9.2360    13.4590    24.3570   -13.4000 
  141.3750     2.3800    82.6310     8.6020     8.1850     9.5670    24.2250   -13.4530 
  141.5000     2.3890    84.2100     9.1670     8.1100     8.1040    24.1280   -13.4880 
  141.6250     2.4300    78.6870    11.3820     9.3040    10.7510    24.1350   -13.4700 
  141.7500     2.4900    70.4000    14.5370    11.5300    18.8860    24.2580   -13.4390 
  141.8750     2.5430    64.4360    17.5650    14.2290    31.4580    24.3440   -13.4360 
  142.0000     2.5640    62.4250    18.9220    16.1040    38.8480    24.2980   -13.4700 
  142.1250     2.5180    62.8550    17.3520    15.5610    29.8270    24.2770   -13.5190 
  142.2500     2.4210    64.9460    14.4240    13.5010    18.7520    24.4350   -13.5800 
  142.3750     2.3140    68.5790    11.6750    11.2250    12.4450    24.6990   -13.6590 
  142.5000     2.2350    72.2350     9.8680     9.5070    10.2180    24.9080   -13.7750 
  142.6250     2.2020    72.2920     9.1440     8.6260    10.4520    24.9850   -13.9920 
  142.7500     2.1940    70.0220     9.0330     8.3150    11.1740    25.0010   -14.2360 
  142.8750     2.1960    67.1390     9.2370     8.3680    11.7720    25.0230   -14.4480 
  143.0000     2.1970    63.2450     9.5100     8.5760    12.0500    25.0640   -14.6360 
  143.1250     2.1920    59.5770     9.6940     8.7740    11.8870    25.0640   -14.8020 
  143.2500     2.1810    59.9940     9.8160     8.9100    11.3470    25.0480   -14.9530 
  143.3750     2.1660    63.7920     9.9370     8.9970    11.0340    25.0970   -15.0860 
  143.5000     2.1520    65.1760    10.0670     9.0460    11.0310    25.1970   -15.1670 
  143.6250     2.1430    62.2520    10.1140     9.0280    11.2350    25.3110   -15.1300 
  143.7500     2.1390    59.8210     9.9830     8.9070    11.4170    25.3360   -15.0290 
  143.8750     2.1360    60.8850     9.6290     8.6500    11.2660    25.2590   -14.9330 
  144.0000     2.1280    63.7430     9.1050     8.2630    10.6610    25.1510   -14.8550 
  144.1250     2.1210    66.2920     8.5670     7.8070     9.6600    25.0740   -14.8130 
  144.2500     2.1280    70.1900     8.1700     7.4070     9.0930    25.0430   -14.7760 
  144.3750     2.1470    74.5150     8.0060     7.1530     9.1640    24.9840   -14.7530 
  144.5000     2.1710    76.2620     8.1180     7.1020     9.4890    24.9030   -14.7520 
  144.6250     2.1830    73.3140     8.5190     7.2950    10.3530    24.9050   -14.7750 
  144.7500     2.1790    68.3930     9.0580     7.6440    11.4760    24.9860   -14.8310 
  144.8750     2.1660    63.3150     9.6030     8.0640    12.1580    25.1080   -14.9200 
  145.0000     2.1540    59.3950    10.0400     8.4620    12.5010    25.2600   -15.0330 
  145.1250     2.1480    59.1970    10.2970     8.7470    12.5540    25.4370   -15.1200 
  145.2500     2.1440    60.4200    10.4420     8.9170    12.4210    25.5140   -15.1700 
  145.3750     2.1410    59.5710    10.5370     8.9890    12.1370    25.3820   -15.1740 
  145.5000     2.1370    57.5920    10.6000     8.9800    11.9670    25.1880   -15.1360 
  145.6250     2.1340    57.6550    10.5890     8.8690    11.8200    25.2020   -15.0630 
  145.7500     2.1300    59.1280    10.4760     8.6610    11.9030    25.2400   -14.9410 
  145.8750     2.1290    61.1440    10.2500     8.3640    12.0400    25.2530   -14.7270 
  146.0000     2.1350    65.3650     9.9260     8.0140    11.3650    25.2720   -14.4160 
  146.1250     2.1520    71.3000     9.5560     7.6730     9.9960    25.2990   -14.0550 
  146.2500     2.1690    75.7250     9.2220     7.4010     9.4540    25.3160   -13.7170 
  146.3750     2.1800    78.6310     8.9760     7.2410     9.4770    25.3200   -13.4260 
  146.5000     2.1830    80.2200     8.8540     7.2120     9.4530    25.3670   -13.1830 
  146.6250     2.1820    78.0440     8.8880     7.3250     9.5210    25.3700   -12.9850 
  146.7500     2.1800    75.4850     9.0140     7.5170     9.9170    25.2990   -12.8230 
  146.8750     2.1800    75.1650     9.1740     7.7320    10.3940    25.1910   -12.6940 
