~V
VERS. 2.00: Ver 2.00
~W
STRT.M 62.0000:
STOP.M 272.0000:
STEP.M 0.1250:
NULL. -999.2500:
UWI. F11076:
~C
DEPT.M :
GR.API :
RML.OHMM :
RI. :
RXO.OHMM :
CALI.CM :
DEN.GM/CC :
SP.MV :
~A
   62.0000    45.3590     0.5770     0.1670     1.5230    25.9790     2.5150    44.6090 
   62.1250    44.9060     0.0220     0.1260     1.6890    26.0030     2.6250    45.5780 
   62.2500    43.8130    -0.3160     0.0910     1.9870    26.0130     2.7260    46.6060 
   62.3750    44.4550    -0.4470     0.0690     2.1820    25.9590     2.7710    47.0100 
   62.5000    46.1720    -0.4510     0.0680     2.1640    25.7940     2.7150    45.9160 
   62.6250    47.9650    -0.3330     0.1240     2.9770    25.6930     2.5440    42.5240 
   62.7500    50.8090    -0.0460     0.2900     4.3970    25.8610     2.3410    37.3190 
   62.8750    55.9910     0.5560     0.6610     6.0370    26.0040     2.1790    30.8480 
   63.0000    62.9900     1.6450     1.3670     7.9390    25.6520     2.0990    23.4520 
   63.1250    67.0360     3.2280     2.5450     9.9090    25.0260     2.0960    15.3270 
   63.2500    65.9950     4.7720     3.8930    10.7980    24.6060     2.1160     7.0510 
   63.3750    62.0940     5.8550     5.0430    10.9510    24.4690     2.1320    -0.6790 
   63.5000    59.7320     6.4440     5.8610    10.7780    24.3880     2.1420    -7.0750 
   63.6250    61.7160     6.8910     6.4660    10.6710    24.2760     2.1490   -11.4610 
   63.7500    64.5830     7.5080     7.0390    10.9920    24.2170     2.1550   -14.4290 
   63.8750    65.5080     8.2420     7.6120    12.3320    24.2470     2.1530   -16.6020 
   64.0000    64.3740     8.8360     8.1410    15.9960    24.3850     2.1400   -18.3000 
   64.1250    63.1180     8.9260     8.4780    20.1050    24.6290     2.1220   -19.5870 
   64.2500    63.0180     8.5420     8.5370    17.3430    24.7670     2.1070   -20.5600 
   64.3750    65.2000     7.8980     8.3190    12.8860    24.8050     2.1040   -21.2690 
   64.5000    69.8780     7.2650     7.9300    10.2830    24.7900     2.1130   -21.7900 
   64.6250    75.6080     6.8640     7.5420     8.9850    24.7400     2.1310   -22.1460 
   64.7500    78.8420     6.7030     7.2860     8.6310    24.6590     2.1480   -22.3910 
   64.8750    78.6270     6.7480     7.1980     9.1140    24.6180     2.1560   -22.5620 
   65.0000    76.6250     6.9290     7.2490     9.8460    24.6990     2.1520   -22.6900 
   65.1250    74.8010     7.1560     7.3690    10.2000    24.8440     2.1390   -22.8410 
   65.2500    74.3260     7.3460     7.4720    10.6480    24.9810     2.1250   -23.0590 
   65.3750    73.6790     7.4700     7.5290    10.8220    25.0990     2.1140   -23.3710 
   65.5000    70.6640     7.5430     7.5560    10.5420    25.1700     2.1070   -23.7310 
   65.6250    67.0320     7.6130     7.6010    10.1570    25.1620     2.1030   -24.1060 
   65.7500    64.6120     7.7160     7.6950    10.4600    25.1620     2.1000   -24.4160 
   65.8750    65.3370     7.8430     7.8220    10.9580    25.1910     2.0960   -24.6330 
   66.0000    69.1210     7.9490     7.9340    11.2030    25.1590     2.0910   -24.8160 
   66.1250    72.1960     7.9780     7.9640    11.1340    25.0130     2.0910   -24.9780 
   66.2500    73.0410     7.9340     7.9040    10.8910    24.8530     2.0960   -25.1740 
   66.3750    72.8990     7.8510     7.7780    10.6590    24.6860     2.1060   -25.3970 
   66.5000    74.4440     7.7710     7.6290    10.3920    24.5870     2.1180   -25.6920 
   66.6250    75.3810     7.7180     7.5000    10.2420    24.5950     2.1250   -26.0030 
   66.7500    74.8780     7.6740     7.3960    10.2080    24.6370     2.1240   -26.3610 
   66.8750    74.2830     7.6140     7.2980     9.9880    24.6530     2.1180   -26.7230 
   67.0000    72.3800     7.5250     7.1890     9.7440    24.6080     2.1100   -27.0420 
   67.1250    67.6030     7.4250     7.0690     9.6710    24.5280     2.1050   -27.2700 
   67.2500    64.0940     7.3500     6.9600     9.6930    24.4790     2.1000   -27.4270 
   67.3750    64.4980     7.3290     6.8880     9.7550    24.4340     2.0950   -27.5150 
   67.5000    66.7950     7.3760     6.8690     9.7700    24.3710     2.0910   -27.5600 
   67.6250    68.7120     7.4860     6.9110     9.7270    24.3340     2.0890   -27.5730 
   67.7500    69.6930     7.6200     6.9870     9.8350    24.3040     2.0920   -27.5780 
   67.8750    69.2810     7.7500     7.0720    10.0670    24.2640     2.0990   -27.5690 
   68.0000    67.3300     7.8560     7.1450    10.2450    24.2660     2.1060   -27.5470 
   68.1250    65.3370     7.9230     7.1830    10.2510    24.3830     2.1110   -27.5290 
   68.2500    65.0460     7.9580     7.1850    10.1210    24.5400     2.1160   -27.4450 
   68.3750    67.7800     7.9700     7.1630     9.8410    24.6250     2.1240   -27.2930 
   68.5000    72.4160     7.9730     7.1360     9.6020    24.6450     2.1350   -26.9860 
   68.6250    75.0890     7.9820     7.1240     9.5420    24.6450     2.1470   -26.5550 
   68.7500    76.6300     8.0020     7.1260     9.6900    24.6450     2.1560   -25.9410 
   68.8750    79.4440     8.0230     7.1280     9.7870    24.6450     2.1610   -25.1570 
   69.0000    82.1210     8.0240     7.1090     9.7220    24.6450     2.1660   -24.1940 
   69.1250    82.0880     7.9710     7.0410     9.3300    24.6040     2.1720   -23.0870 
   69.2500    82.4210     7.8610     6.9200     8.9920    24.4850     2.1810   -21.8940 
   69.3750    86.4310     7.7070     6.7520     8.8250    24.3110     2.1940   -20.6410 
   69.5000    91.4880     7.5400     6.5590     8.6760    24.1710     2.2120   -19.3670 
   69.6250    92.7690     7.4010     6.3750     7.8570    24.0970     2.2360   -18.1490 
   69.7500    92.3310     7.3100     6.2240     7.2460    24.0380     2.2580   -17.0740 
   69.8750    94.7140     7.2680     6.1140     6.9090    24.0050     2.2720   -16.2480 
   70.0000   100.7670     7.2680     6.0420     7.0380    24.0230     2.2740   -15.7480 
   70.1250   103.0750     7.3050     6.0090     7.3670    24.1230     2.2620   -15.6710 
   70.2500    97.9550     7.3630     6.0100     7.5980    24.2810     2.2410   -16.0350 
   70.3750    89.4910     7.4380     6.0520     7.8960    24.3830     2.2150   -16.9120 
   70.5000    81.2260     7.5190     6.1360     8.4220    24.4710     2.1860   -18.3130 
   70.6250    73.2390     7.5960     6.2570     9.3160    24.6200     2.1600   -20.1200 
   70.7500    66.7260     7.6660     6.3890     9.7970    24.7590     2.1390   -22.0880 
   70.8750    65.0060     7.7350     6.5210     9.9530    24.8250     2.1260   -24.0330 
   71.0000    66.5850     7.8230     6.6500    10.0390    24.8400     2.1180   -25.8150 
   71.1250    66.0970     7.9650     6.7940    10.2190    24.8400     2.1120   -27.2530 
   71.2500    63.8580     8.1490     6.9650    10.3750    24.8400     2.1020   -28.1980 
   71.3750    64.4690     8.3170     7.1380    10.4010    24.8460     2.0900   -28.4860 
   71.5000    68.3180     8.3590     7.2320    10.4630    24.8610     2.0850   -28.0280 
   71.6250    71.4170     8.1120     7.0900    10.2370    24.8840     2.1010   -26.6460 
   71.7500    73.8870     7.5760     6.6830     9.7160    24.8810     2.1440   -24.5050 
   71.8750    79.4530     6.8290     6.0670     8.2440    24.8590     2.2070   -21.7450 
   72.0000    89.2270     6.0250     5.3720     6.1190    24.7580     2.2730   -18.6460 
   72.1250    99.0260     5.3830     4.7700     4.9320    24.4740     2.3190   -15.4990 
   72.2500   105.5220     5.0160     4.3600     4.4540    24.0850     2.3400   -12.5370 
   72.3750   109.9990     4.9620     4.1920     4.2410    23.7710     2.3440    -9.8700 
   72.5000   112.2200     5.1830     4.2680     4.3140    23.7120     2.3470    -7.5800 
   72.6250   109.3240     5.5840     4.5570     4.7790    23.8630     2.3550    -6.0020 
   72.7500   101.7510     5.9950     4.9200     5.5730    24.0090     2.3610    -5.1420 
   72.8750    94.1410     6.3300     5.2570     6.1290    24.1590     2.3550    -4.9760 
   73.0000    91.9070     6.5840     5.5210     5.8920    24.3250     2.3320    -5.3060 
   73.1250    93.9000     6.8260     5.7430     5.5340    24.4890     2.2950    -6.0070 
