~V
VERS. 2.00: Ver 2.00
~W
STRT.M 53.0000:
STOP.M 257.0000:
STEP.M 0.1250:
NULL. -999.2500:
UWI. F11022:
~C
DEPT.M :
GR.API :
RML.OHMM :
RI. :
RXO.OHMM :
CALI.CM :
SP.MV :
DEN.GM/CC :
~A
# ...
  221.7500    60.4080    98.1180    91.7570   107.2040    24.6630   -27.6890     2.1960 
  221.8750    59.7100   102.9310    96.5900   121.6700    24.6390   -27.7830     2.1910 
  222.0000    59.8050   104.6690    98.3760   136.3650    24.5110   -27.8620     2.1920 
  222.1250    59.6290   103.1560    97.0210   135.2210    24.3440   -27.7300     2.2060 
  222.2500    57.5550   100.7640    95.0190   116.6380    24.2900   -27.6090     2.2270 
  222.3750    54.6240    99.6510    94.5130   104.7210    24.3510   -27.6630     2.2420 
  222.5000    53.1980   101.3590    96.8240   106.0350    24.5620   -27.7650     2.2390 
  222.6250    53.2530   106.3160   102.1090   129.5390    25.0070   -27.7180     2.2130 
  222.7500    53.3850   112.1200   107.8890   129.6780    25.2950   -27.5300     2.1850 
  222.8750    54.3000   116.0770   111.3510   130.6810    25.3720   -27.2920     2.1650 
  223.0000    57.5600   115.7820   110.1040   137.8750    25.3820   -27.1850     2.1510 
  223.1250    62.7800   110.0210   103.4650   119.8440    25.4030   -27.2800     2.1460 
  223.2500    65.0020   101.9470    95.1830    93.4650    25.3640   -27.2800     2.1530 
  223.3750    62.5650    94.4440    88.1480    83.6620    25.2660   -27.1010     2.1660 
  223.5000    58.7210    89.4420    83.9770    90.1430    25.1960   -26.9530     2.1790 
  223.6250    57.5010    88.2650    83.7240    91.9350    25.1830   -26.9810     2.1910 
  223.7500    58.9180    90.2560    86.5460    93.8960    25.2100   -27.0570     2.2000 
  223.8750    60.3650    94.6430    91.6130   108.1090    25.2530   -27.0740     2.2020 
  224.0000    60.2380   100.1760    97.6880   121.2330    25.3020   -26.9160     2.1950 
  224.1250    59.0270   105.3960   103.3210   119.8800    25.3100   -26.6540     2.1890 
  224.2500    58.3810   109.5810   107.8010   116.9570    25.2680   -26.5350     2.1930 
  224.3750    56.6190   112.6070   110.9860   116.9500    25.1840   -26.4850     2.2010 
  224.5000    53.5380   114.3950   112.8240   112.0950    25.1090   -26.2880     2.1990 
  224.6250    53.0930   114.2880   112.7000   114.8490    25.1280   -26.0420     2.1730 
  224.7500    55.4620   112.0140   110.3740   129.0220    25.1830   -25.8700     2.1430 
  224.8750    56.5880   107.5100   105.7890   144.4450    25.1990   -25.7340     2.1310 
  225.0000    54.7590   101.5300    99.7200   124.9640    25.1900   -25.5980     2.1390 
  225.1250    52.8640    95.6270    93.6700    97.3290    25.1700   -25.4270     2.1550 
  225.2500    53.3860    90.9170    88.6120    83.9580    25.1240   -25.2500     2.1730 
  225.3750    56.2620    87.5160    84.5530    82.2250    25.0370   -25.1100     2.1990 
  225.5000    59.2480    85.1770    81.2450    91.4780    24.9560   -24.9760     2.2240 
  225.6250    60.0040    83.9290    78.7510    92.6070    24.9080   -24.7190     2.2340 
  225.7500    59.0920    83.4690    76.9350    89.4810    24.9200   -24.4260     2.2380 
  225.8750    57.6290    83.4650    75.6370    78.1350    24.9680   -24.2200     2.2580 
  226.0000    56.2650    83.6080    74.6290    70.3470    25.0160   -24.1640     2.3150 
  226.1250    56.2990    82.7400    72.7020    79.2960    24.9990   -24.1160     2.4160 
  226.2500    57.2040    78.1870    67.5270   106.5600    24.9630   -23.8800     2.5180 
  226.3750    58.1880    67.4600    57.4360   116.0770    24.9460   -23.5840     2.5730 
  226.5000    58.9720    51.5540    43.5560    97.6310    24.9250   -23.4680     2.5790 
  226.6250    59.3290    35.5650    29.8440    70.3730    24.8780   -23.4790     2.5600 
  226.7500    58.0350    23.3670    19.2750    40.7410    24.8040   -23.3730     2.5230 
  226.8750    55.1710    15.4160    12.3600    18.1540    24.7120   -23.2310     2.4650 
  227.0000    52.4540    10.7660     8.3970     8.1140    24.6250   -23.1630     2.4050 
  227.1250    51.5320     8.4660     6.5820     5.7730    24.5670   -23.2020     2.3650 
  227.2500    54.2090     7.3470     5.8270     5.1730    24.5130   -23.3210     2.3350 
  227.3750    60.9240     7.0520     5.7640     5.2480    24.5170   -23.4400     2.3100 
  227.5000    68.7280     7.3430     6.1460     5.8730    24.6350   -23.5530     2.2960 
  227.6250    72.4970     8.0470     6.7930     6.7180    24.8670   -23.7410     2.3060 
  227.7500    73.7370     8.8640     7.4750     7.6200    25.0730   -23.9780     2.3270 
  227.8750    76.9560     9.5850     8.0350     8.2150    25.1310   -24.1500     2.3470 
  228.0000    82.2460    10.0460     8.3640     8.6230    25.0670   -24.1940     2.3600 
  228.1250    85.3140    10.1630     8.4350     8.6390    24.9250   -24.2080     2.3700 
  228.2500    86.4330    10.1510     8.4630     8.6320    24.7930   -24.3290     2.3800 
  228.3750    87.0870    10.2460     8.6890     8.6040    24.7000   -24.5500     2.3840 
  228.5000    86.8510    10.6490     9.3180     9.0230    24.5850   -24.6520     2.3720 
  228.6250    84.4780    11.5500    10.5480    10.5100    24.4720   -24.5740     2.3440 
  228.7500    81.6290    12.6230    12.4680    13.6830    24.4640   -24.6060     2.3120 
  228.8750    79.0840    14.1550    14.4080    17.7710    24.6420   -24.7660     2.2770 
  229.0000    76.7060    15.9840    15.9180    19.6670    24.9840   -24.9450     2.2410 
  229.1250    76.6030    17.3100    17.0090    19.0800    25.2010   -25.0170     2.2180 
  229.2500    78.0710    18.0970    17.6140    18.3640    25.1410   -24.9180     2.2160 
  229.3750    79.2920    18.4870    17.8440    18.8540    24.9200   -24.7080     2.2320 
  229.5000    79.8320    18.7290    17.9170    19.8930    24.7110   -24.5910     2.2510 
  229.6250    79.8750    19.1090    18.0960    20.3300    24.6030   -24.5850     2.2620 
  229.7500    79.2560    19.7730    18.5280    20.1120    24.5470   -24.4200     2.2710 
  229.8750    77.9320    20.7770    19.2770    20.0010    24.5280   -24.1000     2.2760 
  230.0000    75.7260    22.1090    20.3490    21.2410    24.5270   -23.8040     2.2820 
  230.1250    73.2850    23.6560    21.6870    24.5200    24.5480   -23.6270     2.2900 
  230.2500    71.2040    25.1020    23.0300    28.3390    24.6170   -23.5230     2.2950 
  230.3750    69.9930    26.1780    24.1180    29.7850    24.7480   -23.4010     2.2930 
  230.5000    69.5660    26.7590    24.7780    29.6100    24.9040   -23.1380     2.2830 
  230.6250    71.6950    26.8710    24.9740    30.1840    24.9970   -22.8640     2.2730 
  230.7500    74.6620    26.7450    24.9110    29.9030    25.0310   -22.6960     2.2680 
  230.8750    74.3000    26.3930    24.6240    29.6930    25.0380   -22.5140     2.2670 
  231.0000    70.2820    25.7070    24.0340    30.9890    25.0390   -22.2410     2.2670 
  231.1250    68.4820    24.5880    23.0590    33.0700    25.0500   -21.9620     2.2660 
  231.2500    70.8100    23.3370    21.9590    32.1090    25.0700   -21.7320     2.2700 
  231.3750    74.3060    22.2940    21.0270    27.8640    25.0790   -21.5240     2.2830 
  231.5000    75.8510    21.7060    20.4740    24.9250    25.0500   -21.3130     2.3040 
  231.6250    73.9160    21.6790    20.4130    25.4730    24.9890   -21.0170     2.3300 
  231.7500    71.1630    21.9010    20.6250    30.5510    24.9020   -20.7790     2.3530 
  231.8750    69.8300    22.0390    20.8560    30.5460    24.8310   -20.6740     2.3670 
  232.0000    70.9010    21.8030    20.8400    25.9070    24.7790   -20.5990     2.3730 
  232.1250    73.5290    21.0020    20.3440    23.1420    24.7020   -20.4040     2.3860 
  232.2500    73.6280    19.8520    19.4780    23.4730    24.6110   -20.1290     2.4080 
  232.3750    69.9480    18.5730    18.4100    23.1020    24.5620   -19.9190     2.4210 
  232.5000    66.2900    17.3420    17.3170    19.5030    24.5930   -19.8970     2.4050 
  232.6250    69.1990    16.2600    16.3320    16.2160    24.7260   -19.9750     2.3590 
  232.7500    75.4850    15.3220    15.4750    14.7830    24.8650   -19.8910     2.3110 
  232.8750    79.1310    14.5550    14.7560    14.6460    24.9520   -19.8030     2.2790 
