~V
VERS. 2.00: Ver 2.00
~W
STRT.M 52.0000:
STOP.M 282.0000:
STEP.M 0.1250:
NULL. -999.2500:
UWI. F11052:
~C
DEPT.M :
SP.MV :
GR.API :
RML.OHMM :
RI. :
RXO.OHMM :
CALI.CM :
DEN.GM/CC :
~A
# ...
  153.2500   -10.5280   107.9010     5.2850     4.1580     4.7420    25.1770     2.4090 
  153.3750   -10.6220   102.8100     5.2610     4.1390     4.6930    25.2610     2.4220 
  153.5000   -10.6360   102.9400     5.2560     4.1450     4.6330    25.3420     2.4280 
  153.6250   -10.6540   103.9820     5.2580     4.1650     4.6350    25.3940     2.4250 
  153.7500   -10.7070   102.7770     5.2500     4.1820     4.7170    25.4160     2.4160 
  153.8750   -10.7360   102.0900     5.2280     4.1850     4.8030    25.4140     2.4070 
  154.0000   -10.8150   103.7450     5.1960     4.1740     4.6650    25.3740     2.4020 
  154.1250   -10.9120   106.7290     5.1630     4.1570     4.5590    25.3220     2.4020 
  154.2500   -10.9750   110.2990     5.1360     4.1450     4.5010    25.2850     2.4050 
  154.3750   -11.0840   115.7700     5.1110     4.1400     4.5440    25.2770     2.4060 
  154.5000   -11.1850   122.1380     5.0800     4.1380     4.6480    25.3030     2.4050 
  154.6250   -11.2120   123.0390     5.0270     4.1240     4.5720    25.3710     2.4040 
  154.7500   -11.1690   117.0820     4.9470     4.0880     4.4160    25.4400     2.4040 
  154.8750   -11.0710   106.7070     4.8450     4.0280     4.3390    25.4800     2.4080 
  155.0000   -10.9260    97.6850     4.7330     3.9490     4.2990    25.5110     2.4130 
  155.1250   -10.7610    95.8900     4.6340     3.8640     4.2120    25.5190     2.4150 
  155.2500   -10.5840    97.9840     4.5620     3.7920     4.1180    25.5020     2.4110 
  155.3750   -10.3320    99.1910     4.5300     3.7490     4.0800    25.4520     2.4040 
  155.5000   -10.1180    97.2370     4.5480     3.7480     4.0980    25.4170     2.3980 
  155.6250    -9.8980    95.5730     4.6340     3.8030     4.1320    25.4080     2.3960 
  155.7500    -9.7510    96.9270     4.7760     3.8980     4.2070    25.4020     2.3990 
  155.8750    -9.6970    99.4090     4.9510     4.0140     4.3100    25.3990     2.4020 
  156.0000    -9.6190    98.5200     5.1190     4.1230     4.5560    25.4160     2.4030 
  156.1250    -9.6140    93.1450     5.2060     4.1760     4.8360    25.3910     2.4000 
  156.2500    -9.6190    89.5100     5.1930     4.1450     4.8120    25.3260     2.3960 
  156.3750    -9.6470    89.7110     5.1300     4.0460     4.7450    25.3060     2.3920 
  156.5000    -9.7240    91.2580     5.1570     3.9610     4.9200    25.2880     2.3870 
  156.6250    -9.8390    93.8010     5.5980     4.0830     5.0880    25.2880     2.3830 
  156.7500    -9.9580    97.7790     6.7350     4.6090     5.3990    25.3180     2.3800 
  156.8750   -10.1410    98.8420     8.9300     5.8180     6.9490    25.3890     2.3740 
  157.0000   -10.4020    90.8390    12.6180     8.1430    11.7740    25.4850     2.3600 
  157.1250   -10.6370    76.3830    18.6410    12.6410    22.2960    25.6050     2.3310 
  157.2500   -10.9040    65.1340    26.6020    19.6940    32.5050    25.7170     2.2930 
  157.3750   -11.1800    60.0090    35.0060    28.7810    42.5040    25.7930     2.2550 
  157.5000   -11.4440    60.6460    40.9320    37.0570    53.0990    25.7850     2.2350 
  157.6250   -11.6640    64.4580    40.9190    39.2410    57.6860    25.6590     2.2450 
  157.7500   -11.8160    68.0590    36.4590    35.6500    50.9600    25.4870     2.2800 
  157.8750   -11.8860    71.1310    30.1810    29.3630    34.0810    25.3670     2.3240 
  158.0000   -11.8750    75.9490    24.3180    23.2510    18.3900    25.3970     2.3570 
  158.1250   -11.8320    82.4420    20.0520    18.8990    12.7460    25.5550     2.3640 
  158.2500   -11.7550    86.9780    17.1920    16.0430    11.4820    25.4360     2.3550 
  158.3750   -11.6550    88.7570    15.4390    14.2610    11.3490    25.2330     2.3480 
  158.5000   -11.5360    88.5130    14.2890    13.1280    11.6850    25.1390     2.3540 
  158.6250   -11.4130    87.9530    13.3810    12.3100    10.7300    25.1690     2.3730 
  158.7500   -11.3700    89.7980    12.5210    11.5400     9.6500    25.2490     2.3890 
  158.8750   -11.3450    93.2160    11.7220    10.7890     8.5470    25.3640     2.3950 
  159.0000   -11.3880    95.7440    11.0580    10.1280     7.8010    25.4590     2.3920 
  159.1250   -11.4850    97.0040    10.6090     9.6560     7.7430    25.5130     2.3900 
  159.2500   -11.5730    96.7110    10.3430     9.3490     7.8960    25.5450     2.3930 
  159.3750   -11.7580    95.2270    10.2600     9.1880     8.0060    25.5710     2.4000 
  159.5000   -11.9370    94.8680    10.3970     9.1830     8.0490    25.5770     2.4080 
  159.6250   -12.1200    95.6760    10.9250     9.4420     8.3000    25.5490     2.4150 
  159.7500   -12.3190    94.8290    11.9370    10.0560     8.8940    25.4830     2.4230 
  159.8750   -12.4950    91.1610    13.5390    11.1680    10.4470    25.3940     2.4280 
  160.0000   -12.6700    87.2790    15.7330    12.8900    13.7890    25.3030     2.4250 
  160.1250   -12.8940    84.9880    18.3400    15.2520    17.4670    25.2860     2.4090 
  160.2500   -13.0800    83.9590    20.8100    17.7560    19.4170    25.3330     2.3850 
  160.3750   -13.2020    84.0520    22.6710    19.8010    20.9990    25.3810     2.3620 
  160.5000   -13.3730    84.7610    23.6980    20.9300    24.0820    25.3750     2.3490 
  160.6250   -13.5900    86.7460    24.0530    21.1520    24.3460    25.2900     2.3520 
  160.7500   -13.8260    89.9850    24.4230    21.2220    21.7620    25.2110     2.3620 
  160.8750   -14.0900    92.8130    25.2720    21.6520    19.3340    25.1600     2.3710 
  161.0000   -14.3350    92.5040    26.7920    22.6910    20.3300    25.1160     2.3740 
  161.1250   -14.5370    87.7450    28.9170    24.4100    27.1150    24.9810     2.3680 
  161.2500   -14.7720    82.8780    31.1890    26.4370    33.3110    24.7440     2.3590 
  161.3750   -15.0590    80.6240    33.2880    28.4310    33.1410    24.5100     2.3520 
  161.5000   -15.3030    81.3090    35.0860    30.1510    31.2490    24.3480     2.3460 
  161.6250   -15.5180    82.9180    36.7270    31.6350    31.1350    24.2000     2.3410 
  161.7500   -15.6630    85.3030    38.5530    33.2630    32.9350    24.0990     2.3350 
  161.8750   -15.7620    87.9450    40.7410    35.3000    35.8000    24.0690     2.3300 
  162.0000   -15.8760    88.5790    43.2470    37.7690    37.8700    24.1020     2.3270 
  162.1250   -15.9130    85.8380    45.7870    40.4540    40.0070    24.1520     2.3270 
  162.2500   -15.9740    82.6160    47.9820    42.9640    43.2910    24.1920     2.3260 
  162.3750   -15.9850    80.6380    49.5640    45.0040    48.7730    24.2220     2.3230 
  162.5000   -15.9930    79.5780    50.3890    46.3670    52.8850    24.2390     2.3200 
  162.6250   -15.9650    79.7410    50.3910    46.8820    50.6490    24.2120     2.3200 
  162.7500   -15.8790    82.0100    49.9620    46.8360    47.8300    24.1820     2.3230 
  162.8750   -15.8530    83.8750    49.4750    46.5640    45.0130    24.1860     2.3280 
  163.0000   -15.8260    82.9780    49.2720    46.4840    45.2890    24.2290     2.3330 
  163.1250   -15.8370    80.2590    49.5380    46.9690    45.3240    24.3140     2.3370 
  163.2500   -15.8450    78.1130    49.9230    47.7540    46.0110    24.4500     2.3370 
  163.3750   -15.8250    77.6170    49.9490    48.3060    47.7030    24.6140     2.3360 
  163.5000   -15.8200    77.7390    49.2100    48.0680    51.7150    24.7850     2.3330 
  163.6250   -15.8850    77.9480    47.5550    46.6730    52.1890    24.9200     2.3280 
  163.7500   -15.9990    78.8680    45.6270    44.6900    47.1270    24.9620     2.3240 
  163.8750   -16.1220    79.8040    44.1590    42.8670    39.5130    24.9580     2.3240 
  164.0000   -16.2460    80.1040    43.8870    42.0010    35.4920    24.9410     2.3280 
  164.1250   -16.3580    80.0580    45.5020    43.0390    40.9540    24.9330     2.3360 
  164.2500   -16.4430    80.0920    49.2870    46.0410    43.9490    24.9340     2.3440 
  164.3750   -16.4950    78.3620    55.6650    50.9640    45.7290    24.9380     2.3480 
