~V
VERS. 2.00: Ver 2.00
~W
STRT.M 60.0000:
STOP.M 279.0000:
STEP.M 0.1250:
NULL. -999.2500:
UWI. F11060:
~C
DEPT.M :
GR.API :
RML.OHMM :
RI. :
RXO.OHMM :
CALI.CM :
DEN.GM/CC :
SP.MV :
~A
# ...
  183.7500    70.5240    22.6750    22.6790    15.8160    25.0180     2.3310    -1.5330 
  183.8750    75.2330    17.3550    17.5520    10.0550    24.8090     2.3670    -1.4100 
  184.0000    81.2320    15.4450    15.3030     9.1690    24.6340     2.3850    -1.3180 
  184.1250    86.0200    17.3530    16.0920    11.5690    24.5960     2.3710    -1.1410 
  184.2500    84.4160    22.7580    19.8280    17.6430    24.6390     2.3400    -1.0320 
  184.3750    77.0940    31.5500    26.9750    27.4760    24.6880     2.3120    -1.0650 
  184.5000    68.1880    42.1340    36.9130    43.8550    24.7570     2.2920    -1.1000 
  184.6250    60.2060    48.8290    44.7520    71.7160    24.8210     2.2830    -1.0720 
  184.7500    55.3540    46.9630    44.5540    88.7800    24.8110     2.2890    -1.1020 
  184.8750    56.3780    38.1590    37.0500    61.3740    24.6950     2.3120    -1.1720 
  185.0000    64.0480    28.4310    28.0790    29.7270    24.5600     2.3410    -1.1700 
  185.1250    72.9830    22.7930    22.3550    17.0530    24.5270     2.3520    -1.1630 
  185.2500    76.6900    21.4540    20.0720    13.1390    24.5570     2.3340    -1.2140 
  185.3750    74.0120    24.0930    20.9650    17.6950    24.6050     2.2950    -1.2740 
  185.5000    68.1330    30.4550    25.0390    34.1490    24.6290     2.2560    -1.3190 
  185.6250    64.1880    40.6720    32.9560    46.2230    24.6260     2.2310    -1.4040 
  185.7500    62.8080    53.0400    43.4950    45.2420    24.6260     2.2200    -1.5650 
  185.8750    61.5720    65.7200    54.8670    46.2080    24.6270     2.2170    -1.6700 
  186.0000    59.5860    76.8480    65.0070    59.6530    24.6260     2.2210    -1.7920 
  186.1250    58.2120    85.0410    72.4860    80.7720    24.6270     2.2300    -2.0610 
  186.2500    57.8630    90.6670    77.7330    90.5600    24.6200     2.2410    -2.3120 
  186.3750    59.0630    93.5850    80.6500    85.7980    24.5970     2.2500    -2.4390 
  186.5000    62.9520    93.6180    80.9200    77.2400    24.5950     2.2550    -2.5570 
  186.6250    68.4420    91.0520    78.4760    73.2060    24.6180     2.2560    -2.7680 
  186.7500    70.9350    87.5090    74.7780    73.5850    24.6290     2.2550    -2.9150 
  186.8750    68.0480    83.7140    70.6730    76.8580    24.6260     2.2520    -2.9990 
  187.0000    62.9160    79.9420    66.6290    80.7890    24.6260     2.2510    -3.1090 
  187.1250    59.8880    76.6890    63.1950    81.0290    24.6320     2.2530    -3.2010 
  187.2500    60.0330    74.6440    60.9110    73.6290    24.6330     2.2580    -3.2420 
  187.3750    64.2750    74.3890    60.2380    62.1670    24.6310     2.2630    -3.2590 
  187.5000    69.3930    76.0590    61.3490    55.4650    24.6220     2.2650    -3.2580 
  187.6250    70.9310    79.1630    64.0700    64.3430    24.6070     2.2650    -3.2590 
  187.7500    69.1310    82.0540    67.1030    80.6670    24.6170     2.2650    -3.2380 
  187.8750    68.2890    83.5610    69.3870    92.5550    24.6360     2.2650    -3.2220 
  188.0000    69.1810    83.4770    70.4350    90.9100    24.6760     2.2610    -3.2360 
  188.1250    68.2320    82.9510    70.7480    77.7060    24.8180     2.2490    -3.1820 
  188.2500    66.4700    83.7620    71.7480    65.2830    25.0450     2.2330    -3.0940 
  188.3750    64.6280    86.5790    74.2620    61.7630    25.1660     2.2220    -3.0790 
  188.5000    62.5250    90.4370    77.8840    74.7380    25.1290     2.2240    -3.1290 
  188.6250    59.5070    91.8370    79.9860    90.4790    25.0230     2.2440    -3.0840 
  188.7500    56.7990    87.7940    77.7400    92.8290    24.9800     2.2690    -3.0020 
  188.8750    56.5280    77.9040    70.1780    83.7110    24.9830     2.2870    -3.0210 
  189.0000    59.4320    64.8490    59.0620    64.6780    24.9720     2.2920    -2.9850 
  189.1250    63.3350    53.1340    48.2520    45.1010    24.8820     2.2890    -2.8880 
  189.2500    64.7800    45.3220    40.4820    34.1870    24.7500     2.2860    -2.8760 
  189.3750    64.5370    42.2310    36.5560    30.3070    24.6640     2.2800    -2.9380 
  189.5000    64.3780    44.3310    36.7580    29.3310    24.6420     2.2670    -2.9940 
  189.6250    63.8850    53.7710    43.0040    33.4420    24.6420     2.2440    -3.0320 
  189.7500    61.3270    71.4480    56.6300    47.3300    24.6410     2.2210    -3.1750 
  189.8750    56.8340    99.8100    80.1360    70.3460    24.6330     2.2060    -3.3040 
  190.0000    52.5220   141.3180   115.2620    85.9100    24.6210     2.1990    -3.3990 
  190.1250    50.5270   197.3010   161.2340    97.9420    24.6830     2.1970    -3.6040 
  190.2500    50.4660   254.8380   206.5960   130.7910    24.8990     2.1980    -3.8340 
  190.3750    50.4870   293.6160   237.3230   175.4330    25.1240     2.2010    -3.9580 
  190.5000    49.9240   295.0750   241.8090   202.6320    25.2050     2.2050    -3.9750 
  190.6250    49.7190   255.3600   215.4310   202.9230    25.2220     2.2040    -4.0750 
  190.7500    50.4760   202.4340   175.2710   174.0680    25.2230     2.2000    -4.1380 
  190.8750    52.1260   154.7190   135.1560   134.2690    25.1620     2.2020    -4.1050 
  191.0000    54.6040   120.1310   103.7020   105.0120    25.0620     2.2150    -4.1490 
  191.1250    57.9470   100.4870    84.8060    85.1650    24.9230     2.2330    -4.2320 
  191.2500    59.9830    90.3200    74.6700    67.3690    24.8100     2.2430    -4.2360 
  191.3750    60.0250    86.7340    70.7170    64.1680    24.7560     2.2460    -4.2070 
  191.5000    59.1040    87.3590    70.7690    69.7720    24.7380     2.2490    -4.2920 
  191.6250    57.4080    90.2200    73.2020    76.2370    24.6840     2.2530    -4.3730 
  191.7500    56.1940    93.0400    75.9540    80.5830    24.6760     2.2520    -4.3880 
  191.8750    56.8450    94.7350    77.9400    83.2050    24.7150     2.2470    -4.4940 
  192.0000    58.7770    95.0090    78.7460    83.1470    24.7820     2.2420    -4.6180 
  192.1250    59.5910    93.9750    78.4120    79.0460    24.7510     2.2440    -4.5960 
  192.2500    58.8310    92.2370    77.4940    73.4030    24.6450     2.2490    -4.5730 
  192.3750    59.1760    90.1310    76.2520    68.4030    24.5510     2.2550    -4.6700 
  192.5000    60.4640    88.0050    74.9070    66.1440    24.4810     2.2600    -4.7240 
  192.6250    61.5880    86.1410    73.6650    63.6730    24.2880     2.2670    -4.6330 
  192.7500    62.9210    84.3080    72.4450    59.6050    23.9960     2.2690    -4.5940 
  192.8750    64.0700    81.8610    70.8380    53.4690    23.7710     2.2600    -4.5920 
  193.0000    64.3000    78.1120    68.2890    46.2680    23.7930     2.2380    -4.5010 
  193.1250    64.5920    72.7520    64.4230    45.3200    24.0480     2.2150    -4.4270 
  193.2500    66.9360    66.9030    60.0210    46.2700    24.2980     2.2010    -4.4410 
  193.3750    71.7030    61.6920    55.9700    42.9670    24.3880     2.1980    -4.4190 
  193.5000    75.0190    57.9350    52.9940    35.4430    24.2040     2.2000    -4.3390 
  193.6250    72.2400    56.1180    51.6250    34.5590    23.9590     2.2030    -4.3230 
  193.7500    66.8410    55.5300    51.3790    37.8350    23.8580     2.2100    -4.3580 
  193.8750    63.9990    55.3920    51.6410    39.2850    23.8550     2.2220    -4.3120 
  194.0000    64.7500    54.8210    51.6180    34.7020    23.7990     2.2300    -4.3230 
  194.1250    64.9190    52.9210    50.3610    29.8840    23.7740     2.2230    -4.4670 
  194.2500    64.9220    49.8050    47.7950    28.6000    23.7650     2.2080    -4.5190 
  194.3750    66.4450    45.9910    44.3060    30.1080    23.7230     2.1970    -4.4940 
  194.5000    68.8420    42.3160    40.6870    28.2090    23.6400     2.2000    -4.5640 
  194.6250    69.9270    39.8810    38.0050    25.7630    23.6070     2.2140    -4.7660 
  194.7500    69.9350    39.1780    36.7700    23.9300    23.6030     2.2300    -4.9040 
  194.8750    70.1400    40.6470    37.3620    22.9690    23.7020     2.2400    -5.1240 
