~V
VERS. 2.00: Ver 2.00
~W
STRT.M 55.0000:
STOP.M 274.0000:
STEP.M 0.1250:
NULL. -999.2500:
UWI. F11049:
~C
DEPT.M :
SP.MV :
GR.API :
RML.OHMM :
RI. :
RXO.OHMM :
CALI.CM :
DEN.GM/CC :
~A
# ...
  100.0000   -16.8940    65.0380     9.0270     7.2720     9.0250    23.9680     2.2120 
  100.1250   -16.9820    64.4830     9.0000     7.2320     9.7910    23.9750     2.2120 
  100.2500   -17.0370    67.8980     8.9310     7.1730     9.1800    23.9900     2.2070 
  100.3750   -16.9590    70.3100     8.8550     7.1100     8.2430    23.9910     2.2000 
  100.5000   -16.8320    66.8370     8.8120     7.0630     7.7810    23.9780     2.1940 
  100.6250   -16.7610    62.7560     8.8380     7.0500     7.7000    23.9760     2.1910 
  100.7500   -16.6480    63.5390     8.9140     7.0610     7.7690    23.9840     2.1920 
  100.8750   -16.4980    64.3050     9.0000     7.0800     8.1770    23.9920     2.1960 
  101.0000   -16.4030    61.8000     9.0420     7.0880     9.1060    23.9870     2.2040 
  101.1250   -16.2910    59.5330     8.9960     7.0700    10.2860    23.9750     2.2080 
  101.2500   -16.1180    60.8610     8.9040     7.0450     9.6750    23.9790     2.2040 
  101.3750   -15.9960    62.7290     8.8450     7.0500     7.7650    23.9830     2.1900 
  101.5000   -15.9740    63.2590     8.9130     7.1250     6.9270    23.9750     2.1750 
  101.6250   -15.8440    64.1820     9.1860     7.3160     7.2240    23.9780     2.1680 
  101.7500   -15.6280    63.5730     9.5500     7.5690     7.7000    23.9910     2.1700 
  101.8750   -15.4490    60.5870     9.8150     7.7830     7.9660    24.0080     2.1770 
  102.0000   -15.1850    58.1560     9.7720     7.8270     7.9870    24.0390     2.1900 
  102.1250   -14.8170    60.0940     9.2290     7.5510     7.8400    24.0820     2.2080 
  102.2500   -14.4940    66.2160     8.3570     7.0360     6.9120    24.0770     2.2290 
  102.3750   -14.0940    75.4010     7.4000     6.4220     5.4350    24.0680     2.2540 
  102.5000   -13.6150    84.9860     6.6070     5.8650     4.6730    24.0900     2.2810 
  102.6250   -13.2830    89.0190     6.1970     5.5030     4.4620    24.0840     2.3020 
  102.7500   -13.0580    86.3070     6.1530     5.3410     4.3910    24.0680     2.3100 
  102.8750   -12.8470    80.5800     6.4220     5.3740     4.5240    24.0930     2.3040 
  103.0000   -12.7650    77.2240     6.8770     5.5570     4.7770    24.1230     2.2890 
  103.1250   -12.8800    77.3690     7.2890     5.7940     5.0660    24.1170     2.2750 
  103.2500   -13.0480    77.6870     7.4540     5.9430     5.3070    24.0840     2.2650 
  103.3750   -13.2970    78.1230     7.2900     5.9180     5.7060    24.0650     2.2610 
  103.5000   -13.6300    80.9540     6.8500     5.7170     5.7430    24.0840     2.2600 
  103.6250   -13.9860    84.1740     6.3470     5.4410     5.0410    24.0770     2.2660 
  103.7500   -14.3520    82.0740     6.0590     5.2590     4.2880    24.0520     2.2790 
  103.8750   -14.8320    76.7820     6.1390     5.2660     4.6320    24.0570     2.2880 
  104.0000   -15.4100    72.6760     6.6190     5.4980     5.9140    24.0910     2.2800 
  104.1250   -15.9150    70.4260     7.4430     5.9510     6.7770    24.0850     2.2500 
  104.2500   -16.4130    67.5860     8.3450     6.4940     7.5490    24.0680     2.2200 
  104.3750   -17.0030    65.1500     9.1020     7.0070     8.1410    24.0840     2.2000 
  104.5000   -17.6180    63.3640     9.5620     7.3870     8.5450    24.0900     2.1910 
  104.6250   -18.1180    61.3890     9.6780     7.5630     9.1900    24.0540     2.1870 
  104.7500   -18.5540    61.0330     9.6180     7.5990     9.3550    24.0490     2.1840 
  104.8750   -18.9210    63.1590     9.4940     7.5550     9.5380    24.0820     2.1840 
  105.0000   -19.1850    67.2080     9.3860     7.4830     9.6050    24.1030     2.1840 
  105.1250   -19.3430    68.4560     9.3450     7.4250     9.6730    24.0920     2.1830 
  105.2500   -19.4370    64.9670     9.3670     7.4000     9.8500    24.0730     2.1830 
  105.3750   -19.4580    59.7090     9.4470     7.4200     9.8830    24.0850     2.1830 
  105.5000   -19.4520    56.8010     9.5690     7.4840     9.8840    24.0880     2.1840 
  105.6250   -19.4770    57.5330     9.7090     7.5740     9.8080    24.0610     2.1840 
  105.7500   -19.4480    58.8900     9.8240     7.6510     9.7850    24.0590     2.1860 
  105.8750   -19.3450    60.6440     9.8850     7.6870     9.9010    24.0880     2.1890 
  106.0000   -19.2300    61.7780     9.8690     7.6680    10.0030    24.1020     2.1920 
  106.1250   -19.1090    61.8840     9.7590     7.5960     9.8740    24.0880     2.1960 
  106.2500   -18.9460    63.3180     9.5930     7.5040     9.6090    24.0710     2.2000 
  106.3750   -18.7680    65.9600     9.4150     7.4100     9.3530    24.0840     2.2040 
  106.5000   -18.6060    68.0540     9.2760     7.3310     9.1420    24.0890     2.2080 
  106.6250   -18.4520    67.1920     9.2340     7.2890     9.1540    24.0610     2.2120 
  106.7500   -18.3280    64.6730     9.2880     7.2940     9.3600    24.0580     2.2160 
  106.8750   -18.2310    62.4380     9.4180     7.3510     9.5580    24.0870     2.2170 
  107.0000   -18.1590    61.0870     9.5860     7.4520     9.7140    24.1050     2.2160 
  107.1250   -18.1430    60.5660     9.7390     7.5720     9.9610    24.0900     2.2140 
  107.2500   -18.1400    60.9820     9.8320     7.6650    10.0990    24.0700     2.2080 
  107.3750   -18.0810    61.6150     9.8340     7.6950    10.1660    24.0910     2.1990 
  107.5000   -17.9560    61.7270     9.7280     7.6510    10.2020    24.1180     2.1890 
  107.6250   -17.8140    60.6280     9.5350     7.5410    10.0950    24.1150     2.1840 
  107.7500   -17.6620    59.9380     9.3370     7.4160     9.6090    24.0910     2.1820 
  107.8750   -17.4600    60.2750     9.1920     7.3100     8.7870    24.0750     2.1840 
  108.0000   -17.2220    61.1910     9.1330     7.2400     8.3070    24.0810     2.1870 
  108.1250   -16.9710    61.7360     9.1380     7.2020     8.1600    24.1060     2.1890 
  108.2500   -16.7360    61.7650     9.1120     7.1540     8.0030    24.1090     2.1870 
  108.3750   -16.5600    61.9580     8.9760     7.0560     7.8290    24.0960     2.1850 
  108.5000   -16.4390    62.7050     8.6990     6.8890     7.8550    24.0930     2.1880 
  108.6250   -16.3440    63.7850     8.3280     6.6620     7.8450    24.1140     2.1980 
  108.7500   -16.2700    65.2920     7.9830     6.4430     7.6960    24.1200     2.2130 
  108.8750   -16.2190    69.2510     7.7630     6.2910     7.6180    24.1100     2.2270 
  109.0000   -16.1930    72.0460     7.7280     6.2460     8.0120    24.0860     2.2400 
  109.1250   -16.1990    71.2270     7.9020     6.3260     8.5450    24.0820     2.2440 
  109.2500   -16.2200    70.6440     8.1810     6.4770     9.1110    24.0950     2.2370 
  109.3750   -16.1950    71.8690     8.4650     6.6440     8.8430    24.1080     2.2260 
  109.5000   -16.0880    74.3000     8.6510     6.7670     8.3810    24.1040     2.2200 
  109.6250   -15.9870    76.5220     8.6280     6.7760     7.5920    24.0830     2.2180 
  109.7500   -15.8950    78.5000     8.4210     6.6680     7.1930    24.0760     2.2180 
  109.8750   -15.7710    78.2290     8.0780     6.4600     6.8740    24.0840     2.2230 
  110.0000   -15.6160    74.0010     7.6680     6.1840     6.4720    24.1110     2.2360 
  110.1250   -15.4370    71.6550     7.2690     5.8880     5.9340    24.1150     2.2520 
  110.2500   -15.2310    74.7140     6.9420     5.6320     5.5480    24.0990     2.2610 
  110.3750   -15.0200    78.6320     6.7160     5.4450     5.3820    24.0820     2.2610 
  110.5000   -14.8510    78.7350     6.5960     5.3360     5.2780    24.0870     2.2550 
  110.6250   -14.6820    75.4780     6.5760     5.3080     5.1980    24.1120     2.2480 
  110.7500   -14.5030    75.0030     6.6210     5.3330     5.1550    24.1140     2.2410 
  110.8750   -14.3240    77.2300     6.7120     5.3980     5.2080    24.0930     2.2360 
  111.0000   -14.1360    77.7160     6.8350     5.4880     5.2830    24.0750     2.2300 
  111.1250   -13.9630    74.2070     6.9860     5.6030     5.3870    24.0780     2.2280 
