~V
VERS. 2.00: Ver 2.00
~W
STRT.M 53.0000:
STOP.M 279.0000:
STEP.M 0.1250:
NULL. -999.2500:
UWI. F11057:
~C
DEPT.M :
GR.API :
RML.OHMM :
RI. :
RXO.OHMM :
CALI.CM :
DEN.GM/CC :
SP.MV :
~A
# ...
  154.2500   106.2080     5.5110     4.0000     5.4960    24.4340     2.3390   -10.9950 
  154.3750   108.4280     5.6980     4.1510     5.6060    24.4020     2.3510   -10.9960 
  154.5000   106.4780     5.8100     4.2810     5.6930    24.3740     2.3520   -11.0190 
  154.6250   101.7390     5.8440     4.3610     5.7790    24.3470     2.3470   -11.0760 
  154.7500   102.7290     5.8270     4.3910     5.8300    24.3200     2.3450   -11.1300 
  154.8750   109.0430     5.7690     4.3700     5.8090    24.3100     2.3490   -11.1880 
  155.0000   113.1040     5.6880     4.3110     5.7520    24.3090     2.3530   -11.2280 
  155.1250   110.4500     5.6170     4.2400     5.7050    24.3100     2.3520   -11.2420 
  155.2500   107.2670     5.5720     4.1830     5.6750    24.3100     2.3470   -11.2590 
  155.3750   107.3850     5.5520     4.1450     5.6870    24.3100     2.3460   -11.2480 
  155.5000   110.0810     5.5330     4.1100     5.6640    24.3100     2.3510   -11.2410 
  155.6250   114.4500     5.4750     4.0510     5.4630    24.3090     2.3570   -11.2260 
  155.7500   118.3100     5.3720     3.9550     5.2710    24.3060     2.3620   -11.2040 
  155.8750   119.9790     5.2410     3.8340     5.0680    24.3040     2.3660   -11.1880 
  156.0000   117.4670     5.1160     3.7090     4.9320    24.3060     2.3710   -11.1740 
  156.1250   109.7760     5.0270     3.6060     4.8390    24.3050     2.3770   -11.1750 
  156.2500   103.4900     4.9750     3.5350     4.8140    24.3060     2.3790   -11.1590 
  156.3750   102.6880     4.9550     3.4960     4.7920    24.3070     2.3770   -11.1440 
  156.5000   107.0150     4.9590     3.4880     4.7850    24.3080     2.3730   -11.1080 
  156.6250   111.5800     4.9850     3.5050     4.7950    24.3060     2.3710   -11.0490 
  156.7500   113.9770     5.0280     3.5370     4.8060    24.3050     2.3740   -11.0110 
  156.8750   115.2760     5.0860     3.5780     4.8180    24.3050     2.3820   -10.9680 
  157.0000   113.5350     5.1560     3.6240     4.8310    24.3070     2.3880   -10.9500 
  157.1250   110.9590     5.2320     3.6720     4.8620    24.3070     2.3860   -10.9370 
  157.2500   110.7560     5.3060     3.7190     4.9020    24.3080     2.3740   -10.9320 
  157.3750   112.1340     5.3690     3.7650     4.9370    24.3090     2.3570   -10.9690 
  157.5000   113.2360     5.4120     3.8040     4.9700    24.3090     2.3460   -11.0420 
  157.6250   116.0950     5.4220     3.8230     4.9890    24.3080     2.3490   -11.1740 
  157.7500   121.0620     5.4120     3.8220     4.9490    24.3060     2.3580   -11.3020 
  157.8750   122.1340     5.4020     3.8120     4.9320    24.3040     2.3640   -11.4530 
  158.0000   117.7990     5.4320     3.8190     4.9420    24.3020     2.3650   -11.6230 
  158.1250   112.8940     5.5790     3.8930     5.0330    24.3020     2.3680   -11.8150 
  158.2500   110.8170     5.8860     4.0670     5.1790    24.3040     2.3750   -12.0380 
  158.3750   109.9790     6.3890     4.3680     5.4960    24.3040     2.3790   -12.2610 
  158.5000   107.0930     7.0940     4.8130     6.3720    24.3040     2.3780   -12.4720 
  158.6250   101.3560     7.9340     5.3920     8.3350    24.3050     2.3730   -12.6510 
  158.7500    94.9090     8.6420     5.9610    10.8780    24.3040     2.3680   -12.7900 
  158.8750    91.6900     8.9170     6.3200    12.0840    24.3050     2.3590   -12.9020 
  159.0000    93.5610     8.6130     6.3140    11.4900    24.3030     2.3440   -12.9670 
  159.1250    98.8420     7.9620     5.9820     9.4050    24.3020     2.3290   -13.0010 
  159.2500   102.4250     7.5850     5.6960     7.4010    24.3020     2.3190   -13.0200 
  159.3750   101.5860     7.9400     5.7660     6.9180    24.3030     2.3140   -13.0150 
  159.5000    96.3760     9.2720     6.4290     8.6350    24.3050     2.3090   -13.0170 
  159.6250    88.1070    11.5000     7.8320    13.0920    24.2920     2.2980   -12.9970 
  159.7500    80.4960    13.5930     9.4460    18.2880    24.2670     2.2820   -13.0230 
  159.8750    78.2980    14.2630    10.3750    19.6180    24.2450     2.2690   -13.0630 
  160.0000    85.1620    12.7300     9.8230    16.1640    24.2370     2.2710   -13.1150 
  160.1250    98.2450     9.8100     7.9940     9.4190    24.2370     2.2930   -13.2180 
  160.2500   107.5620     7.4180     6.2100     6.3530    24.2350     2.3140   -13.3320 
  160.3750   108.9270     6.2060     5.0490     5.4550    24.2350     2.3230   -13.4840 
  160.5000   104.4720     6.1280     4.6200     5.4570    24.2350     2.3180   -13.6530 
  160.6250   102.6060     7.0790     4.9570     5.7970    24.2350     2.3060   -13.9040 
  160.7500   103.3060     8.7770     5.9050     6.6200    24.2350     2.2950   -14.1970 
  160.8750   101.9070    11.1500     7.4810     8.8010    24.2340     2.2850   -14.5040 
  161.0000    95.2270    13.9470     9.6400    13.4610    24.2350     2.2760   -14.8200 
  161.1250    89.5890    16.3080    11.9660    21.8510    24.2340     2.2760   -15.0700 
  161.2500    91.7090    17.0680    13.4120    19.7420    24.2370     2.2990   -15.2930 
  161.3750    96.6790    15.7190    13.2010    12.8150    24.2370     2.3440   -15.4700 
  161.5000   101.3810    13.0960    11.6440     9.1920    24.2350     2.3970   -15.6140 
  161.6250   105.6320    10.8040     9.9050     8.2730    24.2330     2.4290   -15.7270 
  161.7500   108.8570     9.5590     8.7630     7.9210    24.2330     2.4390   -15.7880 
  161.8750   109.9070     9.2850     8.3010     7.7870    24.2330     2.4380   -15.8590 
  162.0000   109.1650     9.6360     8.3470     7.9060    24.2350     2.4360   -15.9380 
  162.1250   108.1520    10.2780     8.7000     8.1300    24.2330     2.4350   -16.0650 
  162.2500   105.3190    10.9410     9.1490     8.3550    24.2330     2.4320   -16.2320 
  162.3750   103.5200    11.5590     9.6300     8.4760    24.2330     2.4290   -16.4170 
  162.5000   105.2730    12.1390    10.1220     8.8140    24.2350     2.4230   -16.6290 
  162.6250   106.3840    12.7400    10.6380     9.3850    24.2350     2.4170   -16.8180 
  162.7500   104.1810    13.4640    11.2340     9.8930    24.2340     2.4110   -17.0230 
  162.8750   100.5670    14.4230    11.9860    10.2360    24.2320     2.4050   -17.2000 
  163.0000    98.7820    15.7490    12.9870    10.2940    24.2300     2.4000   -17.3680 
  163.1250    98.9590    17.7590    14.4470    10.1790    24.2300     2.3910   -17.5530 
  163.2500    99.1220    20.6430    16.5240    11.2630    24.2320     2.3780   -17.7010 
  163.3750    98.9000    24.6220    19.4580    13.6420    24.2310     2.3610   -17.8630 
  163.5000    98.0570    29.7200    23.4120    17.4910    24.2300     2.3440   -18.0160 
  163.6250    95.3720    35.4510    28.2690    23.4260    24.2290     2.3310   -18.1690 
  163.7500    91.3630    40.3590    32.9150    29.4160    24.2290     2.3250   -18.2970 
  163.8750    88.6240    43.0890    36.1120    30.8480    24.2290     2.3280   -18.4250 
  164.0000    89.9400    43.3700    37.2560    27.8240    24.2290     2.3360   -18.5720 
  164.1250    93.7410    42.9580    37.3070    23.9280    24.2290     2.3430   -18.6810 
  164.2500    94.9190    44.7290    38.8570    24.2850    24.2310     2.3430   -18.7830 
  164.3750    91.6630    50.3440    43.8280    32.6340    24.2320     2.3320   -18.8580 
  164.5000    86.3810    60.1780    52.9500    43.7500    24.2310     2.3130   -18.9020 
  164.6250    83.2520    72.4620    64.9820    49.6630    24.2300     2.2980   -18.9390 
  164.7500    82.2790    81.3120    74.6570    50.0830    24.2290     2.2890   -18.9550 
  164.8750    82.9970    82.0380    77.3760    48.0590    24.2290     2.2880   -18.9610 
  165.0000    84.0310    75.4790    72.8610    43.5640    24.2290     2.2930   -18.9340 
  165.1250    84.4080    67.1210    65.3960    39.6920    24.2290     2.3010   -18.8840 
  165.2500    84.9550    60.8730    59.3290    37.4270    24.2290     2.3070   -18.8240 
  165.3750    87.0630    57.2900    55.5350    33.1380    24.2310     2.3130   -18.7600 
