~V
VERS. 2.00: Ver 2.00
~W
STRT.M 45.0000:
STOP.M 277.0000:
STEP.M 0.1250:
NULL. -999.2500:
UWI. F11056:
~C
DEPT.M :
GR.API :
RML.OHMM :
RI. :
RXO.OHMM :
CALI.CM :
DEN.GM/CC :
SP.MV :
~A
# ...
   56.2500    43.2280     3.2420     2.8950     2.1190    24.3720     1.9950    27.6490 
   56.3750    46.8950     3.1440     2.8690     1.9170    24.6400     2.0060    26.4160 
   56.5000    46.8830     3.2500     2.8250     1.7050    25.0710     2.0190    25.4670 
   56.6250    45.0580     3.3670     2.7540     1.5870    25.5230     2.0320    24.5700 
   56.7500    43.9880     3.2320     2.6090     1.5740    25.8200     2.0400    23.5770 
   56.8750    45.3120     2.6790     2.3180     1.5990    25.9290     2.0430    22.4160 
   57.0000    48.5610     1.8210     1.8140     1.6300    25.9390     2.0530    21.0050 
   57.1250    50.1040     1.0550     1.2290     1.6300    25.9330     2.0900    19.4160 
   57.2500    47.2820     0.5610     0.7180     1.6060    25.8850     2.1680    17.6410 
   57.3750    41.8110     0.3120     0.3700     1.5960    25.7490     2.2800    15.7030 
   57.5000    38.8690     0.2090     0.2010     1.7470    25.5450     2.3950    13.4470 
   57.6250    40.7160     0.1640     0.1450     2.3670    25.3980     2.4690    10.8290 
   57.7500    45.8060     0.1620     0.1890     3.9680    25.1890     2.4770     8.0070 
   57.8750    50.3560     0.2190     0.3540     5.7820    24.8110     2.4180     5.1890 
   58.0000    52.3020     0.4410     0.7560     6.8000    24.4330     2.3190     2.5210 
   58.1250    53.2570     0.9740     1.4760     7.3970    24.3290     2.2260     0.0620 
   58.2500    54.4240     1.9030     2.5570     8.5500    24.4310     2.1610    -2.0760 
   58.3750    56.2540     3.0700     3.8420     9.3470    24.6050     2.1310    -3.8570 
   58.5000    58.5830     4.0530     4.8980     9.5790    24.5510     2.1270    -5.1420 
   58.6250    60.9670     4.6450     5.5270     9.4080    24.4430     2.1290    -5.8900 
   58.7500    62.2910     4.9450     5.8320     9.1760    24.4140     2.1200    -6.1580 
   58.8750    62.1790     5.1670     6.0220     9.0380    24.6050     2.0940    -6.0810 
   59.0000    62.5740     5.5020     6.3210     9.1190    24.8960     2.0560    -5.7660 
   59.1250    64.1870     6.0130     6.8320     9.3220    25.1400     2.0360    -5.3370 
   59.2500    66.3500     6.6660     7.5310     9.6930    25.2150     2.0640    -4.8220 
   59.3750    68.9470     7.2890     8.2340    11.0660    25.0660     2.1500    -4.2500 
   59.5000    74.7510     7.5120     8.5260    13.9520    24.8490     2.2750    -3.5930 
   59.6250    84.3800     7.2180     8.2130    13.1660    24.9490     2.3840    -2.9110 
   59.7500    95.1340     6.5490     7.4080     8.4120    25.3960     2.4450    -2.2890 
   59.8750   102.4380     5.8170     6.4560     5.9380    25.8530     2.4520    -1.7960 
   60.0000   102.4590     5.3260     5.7290     5.3680    26.0060     2.4290    -1.3870 
   60.1250    99.7340     5.1070     5.3380     5.3640    25.9670     2.4070    -1.0560 
   60.2500    98.5300     5.1010     5.2790     5.4620    25.8280     2.3930    -0.8700 
   60.3750   100.2340     5.2260     5.4750     5.6700    25.6790     2.3850    -0.7570 
   60.5000   103.4980     5.4160     5.8150     6.1550    25.6010     2.3760    -0.7090 
   60.6250   104.3640     5.6290     6.1630     6.1840    25.5260     2.3660    -0.7390 
   60.7500   102.2370     5.8640     6.4690     6.1550    25.4380     2.3600    -0.8280 
   60.8750    99.4770     6.1060     6.7000     6.4160    25.3550     2.3590    -0.8900 
   61.0000    97.6080     6.3060     6.8260     6.9780    25.3060     2.3630    -0.9570 
   61.1250    95.4730     6.4420     6.8900     7.5070    25.2890     2.3680    -1.0740 
   61.2500    93.4200     6.5440     6.9590     7.5890    25.2860     2.3680    -1.1740 
   61.3750    93.8270     6.6940     7.1150     7.3670    25.2790     2.3630    -1.3070 
   61.5000    94.7500     7.0400     7.4730     7.2530    25.2240     2.3510    -1.5640 
   61.6250    93.1090     7.6110     8.0340     8.4400    25.0900     2.3370    -1.8930 
   61.7500    89.4580     8.3400     8.7190    11.0660    24.9100     2.3240    -2.2500 
   61.8750    85.1800     9.0350     9.3460    11.4010    24.7300     2.3100    -2.6000 
   62.0000    84.5210     9.3980     9.6050    11.3340    24.6530     2.2940    -2.9080 
   62.1250    89.4100     9.3730     9.4050    10.6460    24.6930     2.2760    -3.1620 
   62.2500    96.4210     9.0510     8.8320     9.2790    24.8950     2.2600    -3.3700 
   62.3750    98.5030     8.5860     8.0990     8.1570    25.1430     2.2510    -3.5250 
   62.5000    93.5910     8.0820     7.4300     7.6750    25.2860     2.2540    -3.5740 
   62.6250    89.4620     7.5890     6.9180     7.1380    25.3300     2.2680    -3.5670 
   62.7500    89.8590     7.1560     6.5760     6.7310    25.3230     2.2880    -3.5090 
   62.8750    93.9280     6.8570     6.3990     6.6000    25.2980     2.3090    -3.4640 
   63.0000    96.9500     6.7980     6.3980     6.3700    25.2640     2.3260    -3.5090 
   63.1250    96.9070     6.9490     6.5370     6.4810    25.2010     2.3320    -3.5430 
   63.2500    95.2230     7.2550     6.7960     6.8510    25.1140     2.3230    -3.5850 
   63.3750    93.1300     7.6330     7.1190     7.3740    25.0380     2.2960    -3.7120 
   63.5000    89.4300     7.9580     7.3870     7.7360    25.0440     2.2610    -3.8330 
   63.6250    85.6430     8.1290     7.4880     7.8250    25.1000     2.2360    -3.8270 
   63.7500    85.8480     8.0980     7.3720     7.6510    25.1750     2.2320    -3.7620 
   63.8750    91.6440     7.8990     7.0860     7.0960    25.2510     2.2530    -3.6450 
   64.0000    99.1070     7.6350     6.7500     6.6300    25.2840     2.2950    -3.4170 
   64.1250   104.8550     7.4310     6.4830     6.5840    25.2730     2.3440    -3.2530 
   64.2500   107.6530     7.3280     6.3240     6.4250    25.1720     2.3880    -3.1510 
   64.3750   106.3250     7.3060     6.2660     6.3980    24.9810     2.4190    -3.0230 
   64.5000   103.7660     7.3090     6.2730     6.3130    24.8300     2.4230    -2.9550 
   64.6250   104.6510     7.2930     6.2840     6.1960    24.7750     2.4020    -3.0140 
   64.7500   107.9560     7.2680     6.2760     5.9980    24.7610     2.3630    -3.1500 
   64.8750   108.8700     7.2670     6.2520     5.9920    24.7320     2.3180    -3.3490 
   65.0000   105.3270     7.3070     6.2340     6.4090    24.6560     2.2860    -3.6360 
   65.1250   102.6860     7.3630     6.2260     6.7190    24.5760     2.2700    -3.9080 
   65.2500   102.4010     7.4350     6.2280     6.6230    24.5230     2.2680    -4.1580 
   65.3750   101.3950     7.5730     6.2810     6.6280    24.4760     2.2740    -4.4430 
   65.5000    96.5630     7.9120     6.4940     6.8320    24.4060     2.2950    -4.7650 
   65.6250    90.9480     8.5110     6.9160     6.9960    24.3810     2.3350    -5.1020 
   65.7500    87.8810     9.3570     7.5460     7.5420    24.4710     2.3880    -5.4340 
   65.8750    86.3310    10.2840     8.2850     9.4720    24.6350     2.4330    -5.8210 
   66.0000    81.5660    10.9030     8.8670    12.7340    24.8320     2.4360    -6.2860 
   66.1250    74.6780    10.9860     9.0660    11.4270    25.0630     2.3920    -6.7630 
   66.2500    71.8790    10.5700     8.8560     9.4420    25.2210     2.3180    -7.1910 
   66.3750    75.3540     9.9150     8.3970     8.2030    25.2210     2.2430    -7.4880 
   66.5000    78.7540     9.3570     7.9260     7.8330    25.0730     2.1910    -7.5810 
   66.6250    75.1540     9.0290     7.5970     8.0900    24.9890     2.1600    -7.5760 
   66.7500    67.8850     8.8970     7.4320     8.5210    24.9640     2.1400    -7.5040 
   66.8750    63.7290     8.8610     7.3710     8.7440    24.9630     2.1280    -7.2770 
   67.0000    65.1070     8.8330     7.3460     8.4900    24.9630     2.1270    -6.8720 
   67.1250    70.2600     8.8000     7.3420     7.9360    24.9630     2.1370    -6.3160 
   67.2500    76.6630     8.8050     7.3870     7.3290    24.9630     2.1540    -5.7100 
   67.3750    80.7390     8.8770     7.4850     7.4600    24.9630     2.1710    -5.1800 
