~V
VERS. 2.00: Ver 2.00
~W
STRT.M 65.0000:
STOP.M 225.0000:
STEP.M 0.1250:
NULL. -999.2500:
UWI. F11012:
~C
DEPT.M :
SP.MV :
GR.API :
RML.OHMM :
RI. :
RXO.OHMM :
CALI.CM :
DEN.GM/CC :
~A
# ...
  177.5000   -11.4460    54.9180     7.1870     5.7200     6.0070    23.7870     2.3660 
  177.6250   -11.6610    58.9670     7.3720     5.8150     5.8370    23.6450     2.3520 
  177.7500   -11.9410    64.7630     7.5290     5.8850     5.9520    23.7090     2.3420 
  177.8750   -12.2820    72.3780     7.6800     5.9430     6.2180    24.2240     2.3270 
  178.0000   -12.6960    82.1310     7.8430     6.0000     6.5220    25.1210     2.3080 
  178.1250   -13.1590    92.2100     8.0420     6.0730     6.6350    25.6010     2.3020 
  178.2500   -13.6830    97.7200     8.3190     6.1950     6.6530    25.1870     2.3270 
  178.3750   -14.2500   100.9870     8.6820     6.3770     6.6840    24.5500     2.3650 
  178.5000   -14.8350   103.9570     9.1210     6.6150     6.9070    24.0470     2.4000 
  178.6250   -15.4320   104.9670     9.5790     6.8780     7.4140    23.4920     2.4230 
  178.7500   -16.0020   102.3850     9.9250     7.0890     8.0540    23.1590     2.4380 
  178.8750   -16.5200    99.8460    10.0620     7.1830     8.2680    23.2050     2.4450 
  179.0000   -16.9600    98.7440     9.9650     7.1330     8.4760    23.4830     2.4460 
  179.1250   -17.3630    97.4650     9.6910     6.9640     8.5190    23.7610     2.4390 
  179.2500   -17.7490    97.3740     9.3730     6.7480     8.2640    23.5430     2.4170 
  179.3750   -18.1370    99.2460     9.1530     6.5780     7.9820    23.1220     2.3820 
  179.5000   -18.5300    97.5250     9.1050     6.5120     7.9740    22.8470     2.3530 
  179.6250   -18.9040    89.5670     9.2550     6.5810     8.2410    22.8290     2.3470 
  179.7500   -19.2340    82.2090     9.6280     6.8150     8.5170    23.2170     2.3680 
  179.8750   -19.5160    83.2650    10.1680     7.1810     9.2520    23.7380     2.3920 
  180.0000   -19.7600    86.9450    10.8230     7.6520    10.0040    24.0780     2.4090 
  180.1250   -19.9440    85.7110    11.5020     8.1730    10.4850    24.1940     2.4250 
  180.2500   -20.0290    80.3970    12.0490     8.6400    10.8440    24.1790     2.4430 
  180.3750   -19.9940    76.1330    12.3580     8.9640    11.8000    24.0930     2.4530 
  180.5000   -19.8090    74.5580    12.3760     9.0920    13.4260    24.0040     2.4450 
  180.6250   -19.4950    74.0530    12.1260     9.0150    13.4220    24.0300     2.4140 
  180.7500   -19.1020    77.2510    11.6800     8.7580    11.7500    24.0910     2.3610 
  180.8750   -18.6660    84.0840    11.2050     8.4310    10.6010    24.2030     2.2890 
  181.0000   -18.1850    90.3770    10.8000     8.1150     9.9630    24.2890     2.1960 
  181.1250   -17.6540    94.3260    10.5100     7.8670     9.6020    24.3220     2.0960 
  181.2500   -17.0900    97.9800    10.3040     7.7050     8.6880    23.8560     2.0340 
  181.3750   -16.5230   101.5300    10.0620     7.5500     7.1060    22.3360     2.0280 
  181.5000   -16.0160   104.1090     9.7010     7.3310     5.5190    19.7030     2.0640 
  181.6250   -15.5690   104.6640     9.2080     7.0190     4.9680    17.2320     2.1060 
  181.7500   -15.1370   101.5120     8.6610     6.6530     5.1580    16.2960     2.1170 
  181.8750   -14.7440    95.4640     8.1900     6.3250     5.3300    17.1850     2.1010 
  182.0000   -14.4060    89.7290     7.8600     6.0870     5.7940    19.5170     2.0760 
  182.1250   -14.1380    84.1960     7.6690     5.9560     6.2670    22.2650     2.0640 
  182.2500   -13.9460    74.4480     7.5780     5.9190     6.4150    24.3960     2.0890 
  182.3750   -13.8030    64.1950     7.5200     5.9290     6.0140    25.7910     2.1450 
  182.5000   -13.6510    57.8610     7.4760     5.9660     5.5200    26.2970     2.2080 
  182.6250   -13.4930    54.5930     7.4470     6.0170     5.6770    26.1380     2.2490 
  182.7500   -13.3850    53.5120     7.4160     6.0630     6.1630    25.6790     2.2590 
  182.8750   -13.2870    53.8510     7.3350     6.0670     6.3810    25.4850     2.2610 
  183.0000   -13.1840    55.0150     7.1540     5.9950     6.3500    25.7410     2.2500 
  183.1250   -13.0990    58.5950     6.8690     5.8330     6.2650    26.7190     2.2100 
  183.2500   -13.0350    66.2370     6.5420     5.6120     5.7890    28.1370     2.1380 
  183.3750   -12.9840    72.8780     6.2820     5.4160     5.1100    28.7870     2.0700 
  183.5000   -12.9600    77.3260     6.1340     5.2910     4.9670    27.6410     2.0420 
  183.6250   -12.9730    79.9170     6.0890     5.2430     5.2300    25.1610     2.0700 
  183.7500   -12.9970    79.0150     6.1250     5.2600     5.5940    23.6670     2.1500 
  183.8750   -13.0020    76.9420     6.2330     5.3330     5.8720    23.0140     2.2290 
  184.0000   -12.9800    78.1300     6.4550     5.4870     5.9380    22.5290     2.2720 
  184.1250   -12.9150    83.0110     6.8260     5.7510     6.0330    22.3510     2.2890 
  184.2500   -12.8510    84.1880     7.3420     6.1370     6.2030    22.7660     2.3170 
  184.3750   -12.7970    82.9030     7.8610     6.5550     7.5690    22.9600     2.3510 
  184.5000   -12.7470    83.2850     8.2160     6.8860    10.1580    22.9970     2.3680 
  184.6250   -12.6790    84.1910     8.2650     7.0050    11.9160    23.1670     2.3640 
  184.7500   -12.6000    83.5030     7.9610     6.8340     9.8910    23.5930     2.3530 
  184.8750   -12.5280    84.0630     7.5450     6.5290     8.0760    23.7800     2.3390 
  185.0000   -12.4780    86.3430     7.2480     6.2590     7.5160    23.8180     2.3170 
  185.1250   -12.4990    86.4780     7.2450     6.1710     7.2330    23.8260     2.3010 
  185.2500   -12.5620    82.0180     7.6700     6.4000     7.3170    23.8640     2.3160 
  185.3750   -12.6680    78.4570     8.4370     6.9180     8.1670    23.9000     2.3480 
  185.5000   -12.8240    78.7070     9.5000     7.7060     9.8770    23.9550     2.3710 
  185.6250   -13.0260    80.7530    10.8080     8.7320    11.8460    24.0110     2.3710 
  185.7500   -13.2510    81.3810    12.2990     9.9630    13.0250    24.0780     2.3640 
  185.8750   -13.4790    81.3800    13.7990    11.2580    14.5530    24.1390     2.3620 
  186.0000   -13.7020    81.5280    15.1460    12.4830    17.2250    24.1790     2.3600 
  186.1250   -13.8710    79.2920    16.2180    13.5170    21.5090    24.2090     2.3520 
  186.2500   -13.9770    73.3430    16.9980    14.3000    23.0080    24.2190     2.3430 
  186.3750   -14.0550    68.5640    17.7060    14.9710    20.9220    24.1370     2.3400 
  186.5000   -14.1290    67.9110    18.5180    15.6660    18.6540    23.9470     2.3400 
  186.6250   -14.2270    68.6420    19.5170    16.4830    17.7190    23.7800     2.3390 
  186.7500   -14.3300    67.8620    20.6580    17.4700    21.6330    23.7480     2.3290 
  186.8750   -14.4270    67.9730    21.7880    18.5420    25.6590    23.8620     2.3150 
  187.0000   -14.5010    70.5510    22.9380    19.6730    24.2900    24.0420     2.3050 
  187.1250   -14.5660    73.9740    24.4520    21.0150    20.0660    24.1270     2.3040 
  187.2500   -14.6200    73.8950    27.1060    23.0890    20.5480    24.0080     2.3060 
  187.3750   -14.6610    72.4500    31.0210    26.1930    20.8260    23.8130     2.2980 
  187.5000   -14.6990    70.7560    35.6780    30.2540    31.6770    23.7430     2.2860 
  187.6250   -14.7210    67.7510    39.7680    34.4570    55.0460    23.8130     2.2790 
  187.7500   -14.7330    65.2890    41.1830    36.8730    74.4030    23.8660     2.2830 
  187.8750   -14.7620    65.2350    39.9340    36.8260    63.2080    23.8160     2.2920 
  188.0000   -14.8130    66.1260    37.4280    35.1920    42.0630    23.6690     2.3020 
  188.1250   -14.8570    65.2920    35.5140    33.5660    27.1940    23.4570     2.3100 
  188.2500   -14.9110    63.3590    35.7070    33.4300    24.9670    23.3410     2.3090 
  188.3750   -14.9810    63.2680    37.8240    34.9820    31.9980    23.3200     2.2980 
  188.5000   -15.0320    65.7770    41.3350    38.0290    39.8320    23.3460     2.2850 
  188.6250   -15.0550    69.4040    45.3400    41.9380    41.8720    23.3870     2.2780 
