~V
VERS. 2.00: Ver 2.00
~W
STRT.M 52.0000:
STOP.M 271.0000:
STEP.M 0.1250:
NULL. -999.2500:
UWI. F11069:
~C
DEPT.M :
GR.API :
RML.OHMM :
RI. :
RXO.OHMM :
CALI.CM :
DEN.GM/CC :
SP.MV :
~A
# ...
   74.5000    77.2290     7.3760     6.6510     9.2810    24.2450     2.2010    -5.6550 
   74.6250    83.2070     6.9840     6.2630     9.0530    24.2900     2.2250    -5.4460 
   74.7500    91.9750     6.5710     5.8480     8.1700    24.3980     2.2500    -5.2300 
   74.8750    99.9290     6.2470     5.4910     6.6990    24.4930     2.2720    -5.0640 
   75.0000   102.9380     6.1140     5.2820     5.7780    24.5330     2.2850    -4.9310 
   75.1250   101.3770     6.2840     5.3290     6.0300    24.5220     2.2860    -4.8240 
   75.2500    98.2250     6.7200     5.6230     6.4340    24.4800     2.2770    -4.7430 
   75.3750    93.1820     7.3610     6.1370     7.4690    24.4270     2.2610    -4.7100 
   75.5000    86.4980     8.0820     6.7860     8.4690    24.4240     2.2410    -4.7340 
   75.6250    79.9770     8.6860     7.4240     9.0570    24.4550     2.2220    -4.8170 
   75.7500    75.1730     9.0640     7.9200     9.6280    24.4840     2.2050    -4.8950 
   75.8750    71.8560     9.2100     8.2240    10.1630    24.4880     2.1900    -4.9320 
   76.0000    69.7980     9.1960     8.3460    10.4050    24.4580     2.1770    -4.9470 
   76.1250    70.7690     9.1050     8.3230    10.3150    24.4190     2.1670    -4.9950 
   76.2500    73.1640     9.0000     8.2530    10.2350    24.4030     2.1620    -5.0120 
   76.3750    74.6250     8.8920     8.1800    10.1370    24.4000     2.1600    -4.9480 
   76.5000    74.2490     8.7870     8.1130    10.0260    24.4000     2.1600    -4.8600 
   76.6250    75.4400     8.6990     8.0360     9.7840    24.3820     2.1610    -4.7590 
   76.7500    79.5230     8.6190     7.9240     9.6100    24.3200     2.1620    -4.6280 
   76.8750    83.8580     8.5100     7.7390     9.1860    24.2380     2.1640    -4.5050 
   77.0000    86.8110     8.3260     7.4530     8.3960    24.2160     2.1690    -4.4290 
   77.1250    88.5320     8.0080     7.0420     7.8370    24.2540     2.1830    -4.3300 
   77.2500    91.8750     7.5610     6.5490     7.9180    24.2030     2.2060    -4.2190 
   77.3750    97.8570     7.0030     6.0150     7.2210    24.0530     2.2380    -4.1210 
   77.5000   106.4070     6.4020     5.4990     5.9290    23.9540     2.2720    -4.0040 
   77.6250   112.0840     5.9440     5.1180     5.6540    24.0010     2.3020    -3.8690 
   77.7500   111.8810     5.8380     4.9630     5.8980    24.1790     2.3240    -3.8000 
   77.8750   108.5200     6.2700     5.1380     5.9820    24.4490     2.3370    -3.8200 
   78.0000   103.6870     7.3280     5.7340     6.1880    24.6570     2.3440    -3.8790 
   78.1250    96.6680     8.9740     6.8740     8.2320    24.6260     2.3570    -3.9580 
   78.2500    86.9470    10.7440     8.3730    14.3140    24.5280     2.3850    -4.1130 
   78.3750    77.4680    12.1440     9.8850    24.5660    24.4740     2.4270    -4.3340 
   78.5000    70.7650    12.7420    10.8890    39.3570    24.5490     2.4620    -4.5540 
   78.6250    66.0210    12.2810    10.8690    28.4370    24.6200     2.4600    -4.7850 
   78.7500    62.2230    11.2610    10.1780    16.3090    24.6400     2.4150    -5.0260 
   78.8750    59.7470    10.1550     9.2810    11.3330    24.6270     2.3380    -5.1980 
   79.0000    61.2660     9.3180     8.5350    10.1110    24.6400     2.2570    -5.2960 
   79.1250    65.4520     8.9340     8.1280    10.1520    24.7070     2.2030    -5.3710 
   79.2500    67.5740     8.8610     7.9770    10.5240    24.6970     2.1800    -5.3910 
   79.3750    67.1460     8.9680     7.9930    10.9890    24.6380     2.1800    -5.3580 
   79.5000    67.0750     9.1320     8.0830    10.3920    24.5900     2.1910    -5.3560 
   79.6250    68.8150     9.2490     8.1600     9.7820    24.5820     2.1990    -5.3680 
   79.7500    69.5780     9.2930     8.1800     9.6520    24.5490     2.1990    -5.3010 
   79.8750    68.9090     9.2840     8.1340    10.1670    24.4360     2.1900    -5.2260 
   80.0000    68.6280     9.2600     8.0370    10.9720    24.2700     2.1800    -5.2140 
   80.1250    69.6410     9.2450     7.9110     9.4690    24.1270     2.1740    -5.2600 
   80.2500    70.8530     9.2380     7.7880     8.7630    24.0470     2.1710    -5.2930 
   80.3750    71.8230     9.2270     7.6760     8.8850    24.1130     2.1670    -5.3130 
   80.5000    73.6020     9.1980     7.5750     9.2430    24.3920     2.1620    -5.3230 
   80.6250    76.0020     9.1310     7.4870     9.6040    24.5630     2.1580    -5.3040 
   80.7500    76.3480     9.0340     7.4210     9.5660    24.5690     2.1620    -5.2880 
   80.8750    73.7180     8.9270     7.3920     9.4320    24.4910     2.1740    -5.2510 
   81.0000    70.7830     8.8470     7.4140     9.3640    24.4460     2.1890    -5.1810 
   81.1250    72.5070     8.8390     7.4860     9.4460    24.4680     2.1970    -5.1000 
   81.2500    76.6270     8.9000     7.5790     9.3110    24.5020     2.1930    -5.0610 
   81.3750    78.1510     9.0160     7.6680     9.1770    24.5430     2.1780    -5.0520 
   81.5000    75.0830     9.1720     7.7410     9.1220    24.6130     2.1570    -5.0500 
   81.6250    70.6140     9.3600     7.8000     9.2140    24.5790     2.1320    -5.0750 
   81.7500    67.9700     9.5440     7.8600     9.3700    24.3630     2.1030    -5.0780 
   81.8750    67.3060     9.6730     7.9180     9.3560    24.1360     2.0750    -5.0720 
   82.0000    68.4610     9.6990     7.9660     9.8900    24.1170     2.0540    -5.0890 
   82.1250    71.0890     9.6040     7.9890    10.7390    24.3050     2.0590    -5.0650 
   82.2500    73.6060     9.4610     7.9870    10.9310    24.4290     2.0870    -4.9630 
   82.3750    75.8560     9.3330     7.9620     9.6370    24.3060     2.1270    -4.8650 
   82.5000    76.5780     9.2530     7.9300     8.7570    24.0990     2.1630    -4.7890 
   82.6250    73.9060     9.2200     7.9160     8.7640    23.9880     2.1800    -4.6660 
   82.7500    70.0750     9.1900     7.9240     8.8930    24.0500     2.1820    -4.5710 
   82.8750    68.4010     9.1350     7.9390     9.1710    24.1870     2.1770    -4.5450 
   83.0000    68.0850     9.0490     7.9360     9.3440    24.3130     2.1700    -4.5270 
   83.1250    66.6060     8.9510     7.8820     9.3450    24.3650     2.1630    -4.4840 
   83.2500    66.5520     8.8950     7.7990     9.5410    24.3650     2.1540    -4.4750 
   83.3750    68.6130     8.9280     7.7300     9.7590    24.3550     2.1460    -4.5160 
   83.5000    68.2240     9.0640     7.7230     9.7940    24.3660     2.1390    -4.5760 
   83.6250    63.1570     9.2430     7.8130     9.8610    24.3590     2.1350    -4.6200 
   83.7500    61.2620     9.3380     7.9560     9.9370    24.3400     2.1370    -4.6250 
   83.8750    64.9900     9.2740     8.1030     9.8690    24.3160     2.1460    -4.5690 
   84.0000    69.2720     9.0720     8.1980     9.7090    24.2760     2.1600    -4.5110 
   84.1250    69.7560     8.8550     8.1980     9.7200    24.2360     2.1740    -4.4860 
   84.2500    69.2950     8.7480     8.1300     9.7700    24.2350     2.1820    -4.4260 
   84.3750    69.6560     8.7730     8.0220     9.6700    24.2730     2.1830    -4.3210 
   84.5000    69.8470     8.8730     7.8980     9.3770    24.3140     2.1750    -4.2110 
   84.6250    69.2930     8.9610     7.7720     8.9350    24.3140     2.1660    -4.1250 
   84.7500    70.3390     8.9980     7.6510     8.3670    24.2550     2.1630    -4.0500 
   84.8750    71.7160     8.9830     7.5410     7.4500    24.1550     2.1690    -3.9750 
   85.0000    71.1530     8.9180     7.4510     6.4520    24.1140     2.1810    -3.8790 
   85.1250    69.9400     8.8130     7.3960     6.4700    24.2010     2.1910    -3.7440 
   85.2500    71.5180     8.7090     7.3800     7.1620    24.2790     2.1920    -3.6250 
   85.3750    74.8590     8.6450     7.4040     7.8630    24.2540     2.1840    -3.5230 
   85.5000    76.1030     8.6320     7.4700     8.2570    24.1900     2.1680    -3.3940 
   85.6250    72.6800     8.6390     7.5770     8.3840    24.1610     2.1520    -3.2100 
