~V
VERS. 2.00: Ver 2.00
~W
STRT.M 58.0000:
STOP.M 272.0000:
STEP.M 0.1250:
NULL. -999.2500:
UWI. F11073:
~C
DEPT.M :
GR.API :
RML.OHMM :
RI. :
RXO.OHMM :
CALI.CM :
DEN.GM/CC :
SP.MV :
~A
# ...
  215.5000    57.7020   124.8930   114.5120   127.6280    24.1340     2.2430   -19.5300 
  215.6250    56.9020   119.9790   111.3540   141.4120    24.1180     2.2360   -19.3870 
  215.7500    54.9900   113.3610   106.4650   145.8890    24.0840     2.2210   -19.2560 
  215.8750    55.2490   105.7410   100.1480   144.3760    24.0750     2.2080   -19.1620 
  216.0000    58.9210    98.7920    93.7800   129.4840    24.0740     2.2040   -19.0560 
  216.1250    60.8610    94.2980    89.1640   114.8180    24.0660     2.2120   -18.9360 
  216.2500    59.6000    90.9610    85.6260   104.6030    24.0630     2.2270   -18.7980 
  216.3750    57.9550    85.7540    80.5560   100.8220    24.0710     2.2460   -18.6410 
  216.5000    58.6060    75.7130    71.1110   107.0650    24.1040     2.2740   -18.4970 
  216.6250    61.1220    60.6210    56.9660   122.5750    24.1450     2.3140   -18.3920 
  216.7500    65.6240    45.5600    42.8970    75.9810    24.0960     2.3590   -18.3240 
  216.8750    72.6450    34.0480    32.1150    17.7700    23.9910     2.3910   -18.3150 
  217.0000    79.7380    27.3000    25.5390    12.2630    23.9120     2.3940   -18.3710 
  217.1250    82.4410    25.4310    23.0840    13.6000    23.9040     2.3670   -18.4580 
  217.2500    81.5510    26.6510    23.2760    18.3020    23.9320     2.3310   -18.6040 
  217.3750    79.2310    30.0230    25.5980    23.9140    23.9570     2.2950   -18.8270 
  217.5000    76.9020    34.4600    29.4600    27.5650    23.9500     2.2670   -19.0810 
  217.6250    74.3960    38.3920    33.6920    28.1330    23.9230     2.2520   -19.2820 
  217.7500    72.1600    40.7650    36.8520    27.9650    23.9320     2.2480   -19.4330 
  217.8750    71.0120    41.5630    38.4680    27.8070    23.9420     2.2490   -19.5340 
  218.0000    70.9910    41.4740    38.9180    27.7890    23.9260     2.2530   -19.5720 
  218.1250    73.3300    41.3070    38.8650    27.8990    23.9330     2.2540   -19.5480 
  218.2500    77.3340    41.3900    38.7860    27.9610    23.9570     2.2550   -19.4420 
  218.3750    78.6730    41.4630    38.5550    27.6190    23.9650     2.2560   -19.2390 
  218.5000    75.5290    40.8970    37.6630    26.8160    23.9510     2.2580   -18.9640 
  218.6250    70.6220    38.7380    35.2590    26.1990    23.9290     2.2640   -18.6050 
  218.7500    71.2740    35.1920    31.6120    24.4570    23.9310     2.2710   -18.1640 
  218.8750    76.0270    31.0950    27.5570    20.3350    23.9280     2.2800   -17.7050 
  219.0000    79.8350    27.6180    24.1070    15.0960    23.9130     2.2910   -17.2300 
  219.1250    80.0920    26.0100    22.2030    12.5760    23.9220     2.2930   -16.6610 
  219.2500    78.3030    26.3240    21.8410    12.8280    23.9450     2.2800   -16.0890 
  219.3750    75.5980    28.3440    22.9480    15.5750    23.9350     2.2600   -15.5530 
  219.5000    72.7170    31.5970    25.2980    20.1670    23.9010     2.2450   -15.0020 
  219.6250    71.9470    35.7000    28.6630    24.0420    23.8860     2.2520   -14.3720 
  219.7500    71.2110    40.5880    32.7330    26.0090    23.8740     2.2800   -13.6690 
  219.8750    68.4140    46.8770    37.8070    26.9420    23.8610     2.3260   -12.8690 
  220.0000    67.0620    54.9140    44.1580    30.6680    23.9000     2.3920   -11.9630 
  220.1250    69.3510    63.0050    50.6090    44.7800    24.1280     2.4730   -10.9760 
  220.2500    69.8510    66.2750    53.3400    67.6210    24.3430     2.5460    -9.9300 
  220.3750    68.3550    60.3680    48.7400    79.6120    24.4290     2.5870    -8.8620 
  220.5000    71.2430    46.5640    37.7750    55.0550    24.4170     2.5880    -7.8310 
  220.6250    81.9020    32.1050    26.3000    24.5880    24.3470     2.5490    -6.8860 
  220.7500    91.9740    20.0380    18.1450    10.6810    24.3290     2.4960    -6.0580 
  220.8750    96.3540    12.9760    13.3580     7.0250    24.3560     2.4560    -5.4120 
  221.0000    94.5980    11.0980    11.0190     7.1130    24.3750     2.4410    -4.9930 
  221.1250    89.7730    11.2160    10.5240     7.7970    24.3950     2.4450    -4.6920 
  221.2500    86.7260    12.3020    11.0710     8.9950    24.4240     2.4510    -4.4400 
  221.3750    85.5410    13.7380    12.2150    10.5640    24.4290     2.4610    -4.3030 
  221.5000    84.5060    14.8860    13.3810    11.2490    24.4140     2.4730    -4.2970 
  221.6250    84.4250    15.0780    13.8430    11.1170    24.7840     2.4730    -4.3550 
  221.7500    85.9430    14.4050    13.4840    10.7130    25.2660     2.4560    -4.3910 
  221.8750    86.4960    13.2360    12.5590     9.6480    25.0160     2.4300    -4.4100 
  222.0000    83.2980    12.0850    11.5130     8.6720    24.5130     2.4130    -4.3880 
  222.1250    81.2200    11.4960    10.8080     8.1860    24.2430     2.4190    -4.3520 
  222.2500    86.1820    11.5490    10.5650     8.4410    24.2940     2.4430    -4.3460 
  222.3750    94.1840    12.1160    10.7170     9.2470    24.3250     2.4730    -4.2940 
  222.5000    95.9580    12.9200    11.0770    10.5830    24.3660     2.5010    -4.1750 
  222.6250    90.3460    13.5560    11.3800    12.7620    24.4010     2.5210    -4.0120 
  222.7500    86.7650    13.7430    11.4310    12.3480    24.4040     2.5230    -3.8270 
  222.8750    88.6450    13.4380    11.2000     9.6480    24.3680     2.5060    -3.6240 
  223.0000    91.7560    12.8510    10.8100     9.0570    24.4500     2.4860    -3.4610 
  223.1250    92.2220    12.3750    10.5030    11.1540    24.4430     2.4810    -3.3000 
  223.2500    91.7020    12.3040    10.4700    11.3730    24.4710     2.4870    -3.0640 
  223.3750    90.0160    12.7940    10.8370     9.5940    24.4930     2.4930    -2.8230 
  223.5000    86.5420    13.8620    11.6570     9.5500    24.5130     2.5000    -2.6370 
  223.6250    82.7520    15.2960    12.8440    12.1820    24.5140     2.5230    -2.4900 
  223.7500    81.8900    16.4890    13.9530    14.8050    24.4490     2.5660    -2.3280 
  223.8750    83.2530    16.8670    14.4990    15.5650    24.3420     2.6150    -2.1530 
  224.0000    83.7210    16.0590    14.0910    13.7650    24.2760     2.6430    -1.9710 
  224.1250    83.5140    14.0640    12.6080    10.3990    24.2870     2.6390    -1.7750 
  224.2500    85.2130    11.7320    10.7110     8.1270    24.3100     2.6270    -1.5900 
  224.3750    87.8440     9.6430     8.8790     7.3840    24.5000     2.6200    -1.4100 
  224.5000    88.3170     8.0510     7.3690     6.9010    24.6640     2.6090    -1.2210 
  224.6250    84.1410     7.0110     6.3100     5.9380    24.6420     2.5790    -1.0530 
  224.7500    77.0650     6.3380     5.6050     4.9880    24.3770     2.5320    -0.8760 
  224.8750    71.7870     5.9610     5.2070     4.4670    24.2090     2.4780    -0.6810 
  225.0000    71.6070     5.8380     5.0660     4.1360    24.1510     2.4310    -0.5130 
  225.1250    75.8820     5.9460     5.1490     3.9240    24.1260     2.4030    -0.4070 
  225.2500    80.9410     6.1380     5.3370     3.7840    24.1480     2.3920    -0.3020 
  225.3750    86.1600     6.2820     5.5250     3.7930    24.2480     2.3940    -0.2010 
  225.5000    91.4480     6.2780     5.6130     3.9130    24.4080     2.4030    -0.1460 
  225.6250    92.4580     6.1070     5.5360     3.9390    24.4770     2.4130    -0.1300 
  225.7500    89.3170     5.8980     5.3710     3.6240    24.5850     2.4200    -0.1430 
  225.8750    86.4040     5.7560     5.2130     3.3080    24.7130     2.4240    -0.1660 
  226.0000    86.4830     5.7540     5.1480     3.2830    24.6670     2.4230    -0.1950 
  226.1250    87.2810     5.9350     5.2440     3.7970    24.4370     2.4170    -0.2120 
  226.2500    85.8090     6.2250     5.4550     4.3780    24.2810     2.4060    -0.2470 
  226.3750    84.5560     6.5330     5.7050     4.5620    24.2210     2.3900    -0.2910 
  226.5000    84.0600     6.7420     5.8930     4.5320    24.2270     2.3730    -0.3230 
  226.6250    82.7740     6.7450     5.9110     4.7280    24.2860     2.3630    -0.3880 
