~V
VERS. 2.00: Ver 2.00
~W
STRT.M 52.0000:
STOP.M 278.0000:
STEP.M 0.1250:
NULL. -999.2500:
UWI. F11035:
~C
DEPT.M :
DEN.GM/CC :
GR.API :
RML.OHMM :
RI. :
RXO.OHMM :
CALI.CM :
SP.MV :
~A
# ...
  232.0000     2.2880    76.7600    63.8690    56.5330    71.1440    24.7450   -14.2010 
  232.1250     2.2920    69.9020    74.6100    67.3430   101.5460    24.7390   -14.3530 
  232.2500     2.3000    63.0390    84.6000    77.8050   121.2460    24.7120   -14.5230 
  232.3750     2.3090    61.3350    92.0170    85.7840   120.4950    24.6570   -14.7210 
  232.5000     2.3160    64.5940    95.8390    90.0480   109.2970    24.5800   -14.9250 
  232.6250     2.3160    66.8780    95.8850    90.4010   109.2470    24.5060   -14.9850 
  232.7500     2.3090    66.9250    94.0530    88.8090   113.3840    24.5320   -14.9540 
  232.8750     2.2970    66.3870    91.6390    86.5390   111.9570    24.5760   -14.8820 
  233.0000     2.2840    67.8780    89.6660    84.5620   109.4100    24.6500   -14.7720 
  233.1250     2.2720    70.8880    89.1550    83.9280   102.2270    24.6880   -14.6270 
  233.2500     2.2620    72.5950    90.3170    85.0700    97.8440    24.7160   -14.4930 
  233.3750     2.2570    71.2530    92.9780    88.0570   108.3320    24.7360   -14.3340 
  233.5000     2.2600    68.1200    96.3730    92.2760   125.1370    24.7380   -14.1950 
  233.6250     2.2780    67.0020    98.9810    96.3120   131.3220    24.7200   -14.0960 
  233.7500     2.3050    67.7730    99.5170    98.6780   125.0230    24.7030   -14.0680 
  233.8750     2.3350    70.5610    97.2970    98.3470   113.8470    24.6730   -14.0450 
  234.0000     2.3590    73.9260    92.4280    94.9330   104.7860    24.6270   -13.9850 
  234.1250     2.3710    75.9420    85.7430    88.8010   105.5770    24.6030   -13.9110 
  234.2500     2.3750    75.9610    79.1250    81.9930   107.1650    24.6170   -13.7090 
  234.3750     2.3710    76.2550    73.9330    76.0850    91.8210    24.6350   -13.4460 
  234.5000     2.3570    79.2770    71.1300    72.2920    73.5210    24.6260   -13.0590 
  234.6250     2.3300    81.4180    71.6890    71.7920    63.6050    24.5430   -12.6890 
  234.7500     2.2970    80.4210    75.0930    74.2350    69.7780    24.4970   -12.2700 
  234.8750     2.2650    78.0030    80.9660    79.3850    96.0410    24.5490   -11.8590 
  235.0000     2.2440    77.2100    88.7130    86.7190   127.2990    24.6590   -11.4550 
  235.1250     2.2380    76.9070    97.6880    95.5720   133.7100    24.7520   -11.0650 
  235.2500     2.2410    74.0770   106.9000   104.8540   132.4540    24.8120   -10.8150 
  235.3750     2.2480    70.3560   115.6620   113.8950   146.7040    24.8140   -10.6490 
  235.5000     2.2530    68.2980   123.2120   121.9560   168.5680    24.7590   -10.5610 
  235.6250     2.2540    67.9070   128.1790   127.6450   184.8690    24.6770   -10.4340 
  235.7500     2.2510    66.3400   130.0500   130.2760   183.0550    24.5500   -10.2880 
  235.8750     2.2520    64.8410   128.5060   129.4200   160.9000    24.3980   -10.1090 
  236.0000     2.2660    64.6680   123.7410   125.3020   133.9220    24.2600    -9.9030 
  236.1250     2.3000    63.5780   115.8310   118.2320   119.3670    24.1610    -9.6350 
  236.2500     2.3440    61.2290   105.6410   109.0880   112.8120    24.1280    -9.3060 
  236.3750     2.3870    60.1590    93.4540    97.9100    98.6070    24.0910    -8.9160 
  236.5000     2.4230    62.7400    79.7960    84.8730    77.0470    23.9490    -8.4980 
  236.6250     2.4470    66.5170    65.7410    70.7040    51.9330    23.6230    -8.0450 
  236.7500     2.4590    68.7470    52.7150    57.0250    42.0210    23.4240    -7.6460 
  236.8750     2.4530    70.8860    41.6760    45.0790    35.5400    23.2850    -7.2510 
  237.0000     2.4270    75.0730    33.1080    35.6230    29.0750    23.2220    -6.8750 
  237.1250     2.3850    79.8750    27.3650    29.2470    24.7590    23.2520    -6.5900 
  237.2500     2.3440    79.3170    23.6880    25.1700    22.3170    23.4260    -6.3620 
  237.3750     2.3130    72.9920    21.7060    22.9330    21.0320    23.6950    -6.2230 
  237.5000     2.2930    66.0340    21.0280    22.0910    20.6500    23.9770    -6.1420 
  237.6250     2.2800    64.7110    21.2510    22.3150    21.0060    24.1210    -6.2100 
  237.7500     2.2720    67.5190    21.6910    22.9260    21.7770    24.0610    -6.2520 
  237.8750     2.2690    71.4540    21.9600    23.4320    22.5480    23.8370    -6.3370 
  238.0000     2.2720    74.5120    21.8210    23.4560    21.9770    23.5510    -6.4490 
  238.1250     2.2740    75.0200    21.2020    22.8330    20.6610    23.2410    -6.5400 
  238.2500     2.2720    73.8410    20.3990    21.9130    19.7290    23.0560    -6.6210 
  238.3750     2.2670    72.8630    19.6940    21.0160    19.8200    23.0590    -6.6610 
  238.5000     2.2620    73.9700    19.3150    20.3980    20.5710    23.2440    -6.6880 
  238.6250     2.2640    75.4880    19.4530    20.2790    22.2900    23.6400    -6.6520 
  238.7500     2.2740    75.0630    20.0070    20.6020    24.1000    24.0900    -6.6230 
  238.8750     2.2870    72.9910    20.8610    21.2940    25.1560    24.3990    -6.5760 
  239.0000     2.2990    71.1690    21.8490    22.2170    24.8670    24.4710    -6.5280 
  239.1250     2.3010    71.7210    22.7310    23.1360    23.5730    24.3780    -6.4850 
  239.2500     2.2910    72.3750    23.2890    23.7550    22.3960    24.2840    -6.4540 
  239.3750     2.2710    71.4640    23.3600    23.8350    21.5040    24.2440    -6.4370 
  239.5000     2.2470    70.3920    22.8860    23.2730    20.8760    24.2820    -6.4680 
  239.6250     2.2280    71.2010    21.9140    22.1270    21.5480    24.4240    -6.5410 
  239.7500     2.2200    73.1760    20.7760    20.7950    22.2960    24.5360    -6.6770 
  239.8750     2.2220    75.1050    19.7280    19.5550    22.1390    24.5790    -6.8320 
  240.0000     2.2300    76.5670    18.9610    18.5970    21.4250    24.5890    -7.0300 
  240.1250     2.2380    76.2150    18.6340    18.0710    20.9260    24.6150    -7.2720 
  240.2500     2.2390    72.8180    18.7000    17.9120    21.8490    24.6330    -7.5440 
  240.3750     2.2380    67.4710    19.1680    18.1250    23.2550    24.6260    -7.8270 
  240.5000     2.2500    64.4200    20.0420    18.7560    23.4130    24.5900    -8.0280 
  240.6250     2.2910    66.7130    21.3020    19.8880    23.5350    24.5390    -8.2240 
  240.7500     2.3530    71.3780    22.6540    21.2900    25.1430    24.5170    -8.3560 
  240.8750     2.4090    74.0580    23.7470    22.6300    29.5120    24.4930    -8.5060 
  241.0000     2.4300    73.1230    24.2070    23.4590    40.6160    24.4770    -8.6210 
  241.1250     2.3980    71.6150    23.6840    23.2230    49.0130    24.4260    -8.7100 
  241.2500     2.3390    71.2900    22.4830    22.1250    35.2620    24.3730    -8.7810 
  241.3750     2.2830    72.3150    21.0120    20.6130    23.2430    24.3440    -8.8280 
  241.5000     2.2490    73.7480    19.7030    19.1790    19.9250    24.3360    -8.9100 
  241.6250     2.2380    75.2090    18.9290    18.2240    21.0620    24.3770    -8.9800 
  241.7500     2.2350    75.7950    18.6480    17.7660    21.8770    24.4620    -9.1220 
  241.8750     2.2360    74.1400    18.7130    17.7120    20.8020    24.5210    -9.2690 
  242.0000     2.2500    72.5420    18.8920    17.8500    20.4080    24.5500    -9.4280 
  242.1250     2.2870    74.8800    18.9080    17.8880    20.7700    24.5440    -9.5250 
  242.2500     2.3370    77.4720    18.6480    17.6810    21.5360    24.5310    -9.5600 
  242.3750     2.3800    77.9500    18.1370    17.2340    23.3270    24.5360    -9.5480 
  242.5000     2.3980    78.9080    17.5110    16.6550    25.1290    24.5450    -9.5050 
  242.6250     2.3850    81.0030    16.9980    16.1310    22.8090    24.5510    -9.3950 
  242.7500     2.3610    80.5880    16.7560    15.8140    19.2580    24.5790    -9.2350 
  242.8750     2.3420    77.5590    16.8610    15.7810    18.6420    24.5970    -9.0100 
  243.0000     2.3340    75.2160    17.3210    16.0610    19.7040    24.5810    -8.7850 
  243.1250     2.3300    75.5170    18.1220    16.6950    21.1410    24.5610    -8.6390 
