~V
VERS. 2.00: Ver 2.00
~W
STRT.M 62.0000:
STOP.M 236.0000:
STEP.M 0.1250:
NULL. -999.2500:
UWI. F11006:
~C
DEPT.M :
GR.API :
RML.OHMM :
RI. :
RXO.OHMM :
CALI.CM :
SP.MV :
DEN.GM/CC :
~A
# ...
  163.2500    74.9270   133.5740   111.5330   107.4100    24.9850   -18.0990     2.2460 
  163.3750    75.3080   139.8980   116.9880   110.8180    24.7940   -17.8990     2.2510 
  163.5000    80.2270   147.7940   123.9340   118.0910    24.7860   -17.7620     2.2560 
  163.6250    83.8330   157.6840   132.9860   133.8450    25.0700   -17.6090     2.2560 
  163.7500    80.6640   167.9830   143.1640   163.4570    25.2970   -17.3940     2.2490 
  163.8750    75.6010   175.3420   152.0130   202.7370    25.3350   -17.1650     2.2350 
  164.0000    73.7030   175.2710   155.7340   237.6160    25.2980   -17.0770     2.2190 
  164.1250    74.0680   163.1870   149.6090   251.7780    25.1490   -17.1490     2.2090 
  164.2500    74.8320   143.0440   135.5510   220.8660    24.8150   -17.2590     2.2100 
  164.3750    77.1600   120.1460   117.3270   153.9020    24.4960   -17.3600     2.2210 
  164.5000    80.7280    99.4130    99.3180    98.3590    24.5960   -17.4420     2.2370 
  164.6250    83.2640    83.9620    84.9550    75.3690    25.0590   -17.5200     2.2490 
  164.7500    84.7400    72.6420    74.0790    63.6320    25.3400   -17.6090     2.2530 
  164.8750    86.7300    64.3260    65.9130    57.3770    25.2480   -17.7060     2.2500 
  165.0000    89.7880    58.1660    59.7110    48.2090    24.8490   -17.7110     2.2440 
  165.1250    90.7920    54.0660    55.3390    35.2150    24.1830   -17.6520     2.2430 
  165.2500    89.8760    51.7100    52.5020    29.5020    23.7480   -17.5540     2.2450 
  165.3750    89.5040    51.1360    51.2620    34.8370    23.5560   -17.3990     2.2460 
  165.5000    88.9090    52.2620    51.5900    41.5420    23.4660   -17.2180     2.2420 
  165.6250    87.4890    55.0480    53.4780    41.9710    23.3950   -17.0510     2.2340 
  165.7500    88.7710    58.9710    56.3620    43.3400    23.3560   -16.9390     2.2300 
  165.8750    93.3030    64.0240    60.0560    47.9450    23.3450   -16.9080     2.2360 
  166.0000    95.1490    70.6730    64.7610    50.3820    23.3470   -16.9930     2.2510 
  166.1250    89.0010    80.7660    71.9310    45.4430    23.3980   -17.1500     2.2680 
  166.2500    82.6520    96.0500    83.3850    48.1340    23.5720   -17.3270     2.2760 
  166.3750    79.3140   119.1460   101.7880    63.8720    23.9000   -17.5080     2.2690 
  166.5000    75.2370   152.8470   129.7710    89.9600    24.2480   -17.7240     2.2510 
  166.6250    70.0770   200.0040   169.4650   124.9560    24.4820   -18.0120     2.2300 
  166.7500    67.4690   252.4070   213.5300   179.2870    24.7150   -18.3420     2.2140 
  166.8750    67.5420   296.4460   251.0250   230.0120    25.1750   -18.6770     2.2080 
  167.0000    67.2180   317.8560   270.7480   223.4000    25.7450   -18.9860     2.2090 
  167.1250    67.0380   308.3310   265.4940   180.2920    25.9640   -19.2590     2.2140 
  167.2500    67.8940   282.4910   245.9820   137.8580    25.9750   -19.4860     2.2160 
  167.3750    68.3800   251.8610   221.3090   106.7250    25.9370   -19.6470     2.2150 
  167.5000    68.2830   222.7960   197.2200    82.8190    25.9280   -19.6910     2.2120 
  167.6250    68.7380   197.9460   176.3250    79.6760    25.8560   -19.6100     2.2130 
  167.7500    71.0380   177.9190   159.0970    87.0410    25.5520   -19.4290     2.2200 
  167.8750    76.3500   164.0840   146.6720    80.1820    25.0950   -19.1800     2.2310 
  168.0000    83.6990   157.2920   140.0590    65.4590    24.6400   -18.8840     2.2400 
  168.1250    86.0600   158.2320   140.3200    65.4630    24.4200   -18.5170     2.2380 
  168.2500    81.3630   164.1120   145.2620    99.4600    24.5310   -18.1370     2.2310 
  168.3750    75.6710   172.8460   153.0780   156.4130    24.9190   -17.8250     2.2250 
  168.5000    74.3190   182.4000   161.8560   164.0930    25.1310   -17.5830     2.2250 
  168.6250    76.5250   191.2690   169.9960   135.1710    25.1450   -17.4630     2.2300 
  168.7500    75.9800   199.5670   177.3490   125.0590    25.0150   -17.4290     2.2330 
  168.8750    72.4940   208.1100   184.6370   172.1340    24.6610   -17.4770     2.2280 
  169.0000    69.1290   217.1700   192.4180   234.6640    24.1220   -17.5570     2.2170 
  169.1250    68.9920   224.6520   199.6830   237.4960    23.7080   -17.5930     2.2090 
  169.2500    70.2170   227.2540   204.0770   218.6520    23.4920   -17.5570     2.2090 
  169.3750    69.4250   222.7860   203.7600   213.8650    23.3810   -17.4930     2.2140 
  169.5000    66.9100   211.8760   198.7330   218.6590    23.3720   -17.4550     2.2210 
  169.6250    69.1780   198.0870   191.1710   222.8870    23.3400   -17.3700     2.2230 
  169.7500    75.2200   186.4320   184.9400   211.7100    23.2200   -17.1920     2.2200 
  169.8750    77.4170   179.4660   182.4580   188.9950    23.0180   -16.8840     2.2170 
  170.0000    73.1530   177.9750   184.9570   178.2660    22.7860   -16.5510     2.2190 
  170.1250    69.5310   181.4010   192.7050   187.7020    22.6260   -16.2870     2.2300 
  170.2500    71.0450   184.6890   201.2070   208.5630    22.5860   -16.1150     2.2440 
  170.3750    73.5230   180.6080   202.8270   208.6110    22.7140   -16.0210     2.2550 
  170.5000    73.6250   161.8660   188.3480   191.6540    23.0010   -15.9680     2.2550 
  170.6250    72.1920   125.9510   151.8640   171.8630    23.5750   -15.9210     2.2400 
  170.7500    72.0010    85.8150   106.7530   149.5450    24.3050   -15.8880     2.2210 
  170.8750    76.2880    52.6030    66.6350   107.3050    24.7550   -15.8490     2.2080 
  171.0000    85.5760    31.6010    39.5010    47.8350    24.5700   -15.7690     2.2100 
  171.1250    93.6780    23.1930    26.9800    21.0510    23.9700   -15.7320     2.2280 
  171.2500    93.6670    22.4230    23.2560    12.7770    23.6270   -15.7500     2.2500 
  171.3750    85.9910    28.2110    26.9910    19.1850    23.6980   -15.7680     2.2650 
  171.5000    77.5000    41.4060    39.7310    47.5550    23.9190   -15.7500     2.2680 
  171.6250    73.6490    66.5430    67.8600   109.1240    24.0320   -15.6620     2.2580 
  171.7500    71.7000   103.2210   110.3090   175.3970    23.9880   -15.5580     2.2450 
  171.8750    69.3670   145.2730   158.4790   219.0320    23.8640   -15.5210     2.2360 
  172.0000    65.9110   179.0330   195.9640   240.7590    23.7300   -15.5770     2.2390 
  172.1250    64.0080   188.4900   205.2580   183.9740    23.6590   -15.6910     2.2570 
  172.2500    63.7300   179.6970   193.8480   119.6700    23.5650   -15.7470     2.2810 
  172.3750    63.4720   164.8600   174.7710    88.1910    23.4540   -15.7020     2.3000 
  172.5000    62.4230   154.4480   159.0670    92.6860    23.4040   -15.5450     2.3050 
  172.6250    62.1340   154.4150   153.2620    99.6260    23.5020   -15.3240     2.2920 
  172.7500    64.5110   163.6020   156.5490    98.2110    23.6470   -15.1320     2.2720 
  172.8750    67.9680   180.7080   167.6620    97.4790    23.6250   -14.9920     2.2510 
  173.0000    69.3530   201.8900   183.3760   112.4440    23.4310   -14.8720     2.2360 
  173.1250    67.4070   217.6400   196.4940   176.3390    23.2660   -14.7210     2.2280 
  173.2500    64.5910   219.7720   199.8830   238.5360    23.1980   -14.5800     2.2240 
  173.3750    63.3290   206.8950   190.9290   218.0140    23.1910   -14.4440     2.2210 
  173.5000    64.8370   185.6230   173.1280   179.9030    23.2720   -14.3400     2.2160 
  173.6250    67.2060   168.2390   155.9380   135.2610    23.4330   -14.3000     2.2170 
  173.7500    67.5090   163.0100   149.0230    95.1600    23.6400   -14.2600     2.2410 
  173.8750    64.6460   173.8880   158.4700    85.8740    23.7780   -14.2100     2.3020 
  174.0000    59.4070   202.4630   186.8170   143.6470    23.7630   -14.1220     2.4020 
  174.1250    54.4130   243.7030   229.4500   328.7860    23.7290   -13.9460     2.5230 
  174.2500    53.1470   274.0620   264.1430   616.4420    23.7750   -13.6420     2.6330 
  174.3750    55.5260   272.1810   270.0740   845.7120    23.9390   -13.2840     2.7090 
