~V
VERS. 2.00: Ver 2.00
~W
STRT.M 58.0000:
STOP.M 272.0000:
STEP.M 0.1250:
NULL. -999.2500:
UWI. F11073:
~C
DEPT.M :
GR.API :
RML.OHMM :
RI. :
RXO.OHMM :
CALI.CM :
DEN.GM/CC :
SP.MV :
~A
# ...
  193.0000    63.9700    89.3100    81.4930    78.8620    24.4230     2.2460   -18.4450 
  193.1250    66.6410    79.5890    73.1740    73.9270    24.4050     2.2540   -18.4150 
  193.2500    68.1860    72.7650    67.2020    66.5050    24.4220     2.2640   -18.3330 
  193.3750    68.5790    69.3900    64.1300    59.8160    24.7450     2.2730   -18.1420 
  193.5000    69.0250    69.6110    64.1800    54.2240    25.2280     2.2790   -17.9100 
  193.6250    69.7490    73.3200    67.4680    52.0320    25.5790     2.2780   -17.7980 
  193.7500    69.2040    78.3120    72.2330    57.3560    24.3190     2.2710   -17.8380 
  193.8750    67.2060    82.1030    76.3220    74.1290    23.5470     2.2610   -17.9060 
  194.0000    66.7820    82.1040    77.2290    89.4770    23.4130     2.2510   -17.8700 
  194.1250    68.6630    76.4790    72.8380    87.3010    23.4750     2.2530   -17.8290 
  194.2500    71.1030    67.9250    65.2850    65.3450    23.5670     2.2650   -17.8800 
  194.3750    71.8380    59.3170    57.1510    45.3750    23.6550     2.2850   -17.9770 
  194.5000    70.2200    52.8690    50.5580    35.5030    23.7170     2.3020   -18.0730 
  194.6250    70.0720    50.3140    47.1060    31.4610    23.7970     2.3100   -18.0660 
  194.7500    74.3170    51.5380    46.7420    33.0420    23.9820     2.3120   -17.9980 
  194.8750    80.1190    56.7750    49.7050    37.4670    24.2570     2.3080   -18.0350 
  195.0000    82.7810    66.1690    56.2880    43.5780    24.4740     2.2920   -18.2100 
  195.1250    79.3090    79.7900    66.9880    51.8110    24.5610     2.2620   -18.2900 
  195.2500    73.2140    94.7630    79.6590    69.2500    24.5880     2.2320   -18.2810 
  195.3750    67.3050   107.0200    90.9920    84.2190    24.5690     2.2120   -18.3280 
  195.5000    63.2330   112.0650    96.9510    89.4150    24.5450     2.2030   -18.4810 
  195.6250    61.9810   107.3580    94.5600    89.0680    24.5380     2.2030   -18.7330 
  195.7500    62.4460    98.5990    87.7730    80.4330    24.5410     2.2110   -18.9760 
  195.8750    62.5930    90.9580    80.7700    66.5930    24.5420     2.2250   -19.1190 
  196.0000    61.0680    87.7880    76.7170    58.8420    24.5450     2.2380   -19.2280 
  196.1250    58.9410    91.1600    77.8700    62.4290    24.5670     2.2430   -19.4780 
  196.2500    59.7090    99.6410    83.3860    75.0830    24.5940     2.2400   -19.7450 
  196.3750    61.9190   111.9700    92.2820    90.9890    24.5910     2.2290   -19.9190 
  196.5000    61.7190   126.3200   103.0290   103.7900    24.5660     2.2160   -19.9990 
  196.6250    60.2790   140.2070   113.6040   113.2160    24.5730     2.2090   -20.0240 
  196.7500    61.5250   151.7500   122.4960   119.1080    24.5840     2.2050   -20.1070 
  196.8750    63.5970   160.1370   129.0820   124.4640    24.5630     2.2040   -20.2540 
  197.0000    63.4240   165.1990   133.1930   129.2110    24.5480     2.2010   -20.3190 
  197.1250    62.3330   166.8070   134.6240   134.6500    24.5620     2.1990   -20.2700 
  197.2500    62.3110   166.5380   134.4640   137.0250    24.5820     2.1970   -20.2920 
  197.3750    62.2780   165.9800   133.9410   133.2900    24.5650     2.1930   -20.3830 
  197.5000    61.2930   166.8300   134.4080   129.2230    24.5510     2.1890   -20.4670 
  197.6250    60.7280   170.9050   137.3550   128.5140    24.5680     2.1900   -20.4450 
  197.7500    61.2330   178.0750   142.8380   134.2970    24.5970     2.1950   -20.3430 
  197.8750    61.7920   187.3720   150.2910   146.4630    24.5970     2.2000   -20.2690 
  198.0000    63.2360   196.3510   158.0670   153.9190    24.5690     2.1990   -20.2870 
  198.1250    64.2910   199.7520   162.3740   149.0010    24.5690     2.1940   -20.2350 
  198.2500    63.7270   193.2630   159.5750   146.5020    24.5850     2.1900   -20.0370 
  198.3750    63.3200   174.2690   146.8870   145.9430    24.5850     2.1920   -19.8400 
  198.5000    63.5850   145.0770   124.9320   143.6810    24.5710     2.1960   -19.7030 
  198.6250    62.5910   113.7860    99.2410   117.1110    24.5940     2.2010   -19.6710 
  198.7500    61.5040    88.6080    77.3780    80.5030    24.5550     2.2200   -19.6520 
  198.8750    62.5500    72.5080    62.4790    52.3710    24.3410     2.2600   -19.5140 
  199.0000    65.4290    65.9190    55.1490    38.8120    24.1790     2.3080   -19.3080 
  199.1250    66.4080    69.5590    56.1130    41.2700    24.2010     2.3300   -19.2830 
  199.2500    65.3610    80.5410    63.4590    59.2830    24.3590     2.3160   -19.3830 
  199.3750    63.8960    96.4690    75.7900    88.6380    24.7020     2.2830   -19.4320 
  199.5000    63.2730   112.8910    89.9780   113.4230    25.6040     2.2490   -19.3900 
  199.6250    64.5470   121.9640    99.8680   114.6180    26.3180     2.2290   -19.2810 
  199.7500    66.5360   121.1000   102.0870   101.7210    25.9550     2.2200   -19.2110 
  199.8750    67.8380   112.8920    97.4510    86.3470    25.3370     2.2210   -19.1960 
  200.0000    69.7390   102.2690    89.4510    78.0540    25.5290     2.2280   -19.0930 
  200.1250    71.3170    92.7950    81.3350    79.4140    25.7200     2.2360   -18.8040 
  200.2500    71.6300    84.9980    74.2990    80.2840    24.7760     2.2430   -18.4380 
  200.3750    71.5390    78.5560    68.3340    69.2630    24.2250     2.2490   -18.0500 
  200.5000    72.9800    73.0300    63.1810    53.1940    24.1280     2.2570   -17.5880 
  200.6250    75.2440    68.0180    58.5380    51.3550    24.2180     2.2630   -16.9870 
  200.7500    75.0220    63.2130    54.1000    52.5750    24.3240     2.2640   -16.2400 
  200.8750    73.2040    58.7990    50.0250    50.1340    24.4900     2.2600   -15.4380 
  201.0000    74.6110    55.2250    46.7050    45.3170    24.6530     2.2580   -14.7520 
  201.1250    78.5600    53.4430    44.8460    39.7690    24.7770     2.2600   -14.1090 
  201.2500    78.4790    53.9660    44.7540    38.9700    24.3810     2.2640   -13.4470 
  201.3750    73.2450    57.3210    46.8230    41.8380    24.0450     2.2700   -12.8450 
  201.5000    69.2720    63.6750    51.2760    46.1260    23.9230     2.2720   -12.3980 
  201.6250    70.7160    72.9020    58.2440    53.7950    23.9370     2.2660   -12.1980 
  201.7500    72.6310    83.2080    66.4410    63.3790    23.9880     2.2520   -12.1430 
  201.8750    71.7160    92.8680    74.4970    72.3290    24.0360     2.2360   -12.0840 
  202.0000    69.2300   100.3400    81.0160    75.6260    24.0780     2.2260   -12.0160 
  202.1250    69.2600   104.4390    84.7750    74.5840    24.1570     2.2230   -12.0530 
  202.2500    70.5030   105.9860    86.2570    74.4740    24.2800     2.2250   -12.1270 
  202.3750    70.7270   105.6330    85.9620    72.3720    24.4310     2.2280   -12.1510 
  202.5000    69.9770   103.9890    84.4910    66.0660    24.3510     2.2290   -12.0790 
  202.6250    70.0760   101.5950    82.4820    57.8870    24.2910     2.2250   -11.9470 
  202.7500    70.1380    99.3300    80.7610    53.0510    24.2790     2.2210   -11.8460 
  202.8750    69.6040    97.8040    79.8540    50.1790    24.3290     2.2200   -11.7990 
  203.0000    69.2570    97.2510    79.9540    48.9970    24.4550     2.2220   -11.6850 
  203.1250    70.5550    97.5800    80.9690    52.6350    24.4780     2.2220   -11.4400 
  203.2500    72.5500    98.1880    82.3050    59.9900    24.4750     2.2190   -11.2380 
  203.3750    72.7110    98.6000    83.5410    68.0040    24.4370     2.2130   -11.1130 
  203.5000    69.7380    98.4690    84.3690    71.5610    24.4380     2.2120   -11.0280 
  203.6250    65.0950    97.4390    84.4700    72.8190    24.4690     2.2200   -10.8710 
  203.7500    62.7490    94.9050    83.2980    77.4140    24.5170     2.2300   -10.5930 
  203.8750    65.3530    89.4160    79.5100    82.1430    24.5490     2.2370   -10.3100 
  204.0000    71.2020    79.6630    71.7240    76.5560    24.5740     2.2420   -10.1390 
  204.1250    75.6030    65.8630    59.8430    66.0980    24.5640     2.2510    -9.9720 
