~V
VERS. 2.00: Ver 2.00
~W
STRT.M 55.0000:
STOP.M 283.0000:
STEP.M 0.1250:
NULL. -999.2500:
UWI. F11062:
~C
DEPT.M :
SP.MV :
GR.API :
RML.OHMM :
RI. :
RXO.OHMM :
CALI.CM :
DEN.GM/CC :
~A
# ...
  257.5000    -6.6360    44.9010     8.4690     7.0710    10.3100    23.2680     2.3830 
  257.6250    -6.5350    46.3500     8.7090     7.2130     8.8300    23.4050     2.4120 
  257.7500    -6.4550    46.6990     9.1190     7.4940     8.9860    23.4940     2.4330 
  257.8750    -6.4160    45.1650     9.6180     7.8680    10.5600    23.5550     2.4360 
  258.0000    -6.3770    44.0140    10.0610     8.2330    13.3640    23.5830     2.4230 
  258.1250    -6.3630    44.8270    10.2400     8.4250    17.5790    23.5380     2.4040 
  258.2500    -6.3360    45.7820    10.1180     8.3840    19.5030    23.4250     2.3890 
  258.3750    -6.3280    44.8200     9.7490     8.1250    16.8450    23.2810     2.3840 
  258.5000    -6.3130    41.8980     9.2730     7.7410    12.3130    23.1560     2.3870 
  258.6250    -6.3280    41.5590     8.8580     7.3680     9.6930    23.0880     2.3930 
  258.7500    -6.3030    45.5620     8.5680     7.0870     8.2980    23.0430     2.4010 
  258.8750    -6.2600    49.3180     8.3750     6.9110     7.5760    22.9410     2.4090 
  259.0000    -6.1950    47.0180     8.2260     6.8080     7.2230    22.8110     2.4170 
  259.1250    -6.1350    42.4030     7.9950     6.7250     7.0890    22.7290     2.4230 
  259.2500    -6.0350    41.9260     7.7470     6.6170     6.9530    22.7370     2.4230 
  259.3750    -5.8940    43.0230     7.4780     6.4740     6.8340    22.8150     2.4160 
  259.5000    -5.7040    43.0670     7.2240     6.3060     6.8270    22.9100     2.4020 
  259.6250    -5.5000    45.1350     7.0170     6.1410     6.9710    23.0310     2.3860 
  259.7500    -5.3030    50.4490     6.8870     6.0030     7.1860    23.1970     2.3730 
  259.8750    -5.1100    54.7430     6.7560     5.9060     7.4250    23.3290     2.3630 
  260.0000    -4.9440    54.5510     6.7170     5.8500     7.5670    23.3890     2.3580 
  260.1250    -4.7610    52.2360     6.7330     5.8360     7.4070    23.4120     2.3540 
  260.2500    -4.6100    52.1150     6.7650     5.8470     7.1450    23.4230     2.3490 
  260.3750    -4.4740    54.3710     6.8060     5.8720     6.9030    23.4270     2.3420 
  260.5000    -4.3920    55.4070     6.8490     5.9010     6.6860    23.4260     2.3340 
  260.6250    -4.3030    52.6780     6.8880     5.9290     6.4270    23.4250     2.3330 
  260.7500    -4.2320    50.3080     6.9160     5.9510     6.1500    23.4200     2.3450 
  260.8750    -4.1570    51.1870     6.9290     5.9640     5.9310    23.4060     2.3710 
  261.0000    -4.1030    53.5020     6.9230     5.9670     5.7910    23.3780     2.4040 
  261.1250    -4.0460    54.5210     6.9010     5.9560     5.6830    23.3310     2.4300 
  261.2500    -4.0280    53.6930     6.8730     5.9340     5.5180    23.2800     2.4400 
  261.3750    -4.0060    51.1290     6.8460     5.9040     5.3510    23.2810     2.4340 
  261.5000    -3.9900    47.1450     6.8260     5.8700     5.2690    23.3440     2.4190 
  261.6250    -3.9840    44.8950     6.8160     5.8340     5.2570    23.3490     2.4010 
  261.7500    -3.9400    46.7130     6.8030     5.7920     5.2270    23.2190     2.3870 
  261.8750    -3.9110    50.1970     6.7740     5.7370     5.2590    22.9910     2.3740 
  262.0000    -3.8540    50.9910     6.7240     5.6670     5.3820    22.6450     2.3620 
  262.1250    -3.8300    48.7400     6.6550     5.5840     5.4380    22.3220     2.3500 
  262.2500    -3.7850    47.4830     6.5880     5.5040     5.5200    21.8010     2.3380 
  262.3750    -3.7770    47.4240     6.5420     5.4440     5.6250    21.0930     2.3270 
  262.5000    -3.7350    46.8130     6.5320     5.4180     5.7260    20.5550     2.3210 
  262.6250    -3.6790    44.9650     6.5710     5.4410     5.8100    20.4340     2.3200 
  262.7500    -3.6540    42.6900     6.6520     5.5060     5.9370    20.7840     2.3230 
  262.8750    -3.6520    40.8740     6.7740     5.6100     5.9030    21.4990     2.3270 
  263.0000    -3.6650    40.2260     6.9300     5.7470     5.7780    22.4010     2.3300 
  263.1250    -3.6580    42.4210     7.1120     5.9070     5.5990    22.9540     2.3300 
  263.2500    -3.6520    46.3000     7.2940     6.0710     5.5040    23.1780     2.3320 
  263.3750    -3.6270    49.6480     7.4520     6.2190     5.5100    23.2280     2.3350 
  263.5000    -3.6560    51.3070     7.5510     6.3280     5.4380    23.2400     2.3400 
  263.6250    -3.6710    50.1730     7.5510     6.3610     5.4740    23.2550     2.3440 
  263.7500    -3.6950    47.2130     7.4640     6.3140     5.5910    23.2720     2.3450 
  263.8750    -3.6910    44.1400     7.3100     6.1890     5.6430    23.2870     2.3440 
  264.0000    -3.7090    42.5810     7.1200     6.0070     5.4530    23.2960     2.3420 
  264.1250    -3.7280    43.9460     6.9320     5.8070     5.3730    23.2990     2.3410 
  264.2500    -3.7320    45.2710     6.7750     5.6340     5.4060    23.2980     2.3420 
  264.3750    -3.7590    45.2620     6.6700     5.5140     5.4900    23.2990     2.3450 
  264.5000    -3.7550    45.6480     6.6310     5.4570     5.5720    23.3120     2.3460 
  264.6250    -3.8080    46.9530     6.6670     5.4680     5.6640    23.3450     2.3460 
  264.7500    -3.8240    46.3160     6.7440     5.5250     5.8570    23.4160     2.3440 
  264.8750    -3.8440    42.7400     6.8400     5.6160     6.2270    23.5510     2.3400 
  265.0000    -3.8560    39.8000     6.9400     5.7300     6.6180    23.7310     2.3350 
  265.1250    -3.8680    40.6660     7.0290     5.8490     6.7900    23.8730     2.3300 
  265.2500    -3.9250    43.6710     7.0930     5.9460     6.6620    23.9320     2.3270 
  265.3750    -3.9410    46.6030     7.1130     6.0010     6.4150    23.9600     2.3290 
  265.5000    -3.9510    47.7840     7.0770     5.9970     5.8880    23.9750     2.3370 
  265.6250    -3.9270    47.4460     6.9780     5.9280     5.4570    23.9800     2.3510 
  265.7500    -3.9280    47.5810     6.8530     5.8250     5.2490    23.9770     2.3670 
  265.8750    -3.9660    48.4110     6.7360     5.7190     5.2420    23.9760     2.3800 
  266.0000    -3.9910    49.0850     6.6580     5.6380     5.3940    23.9780     2.3870 
  266.1250    -4.0210    48.3420     6.6490     5.6100     5.6960    23.9790     2.3860 
  266.2500    -4.0140    47.9800     6.6960     5.6300     6.0900    23.9760     2.3810 
  266.3750    -4.0300    48.2890     6.7850     5.6890     6.4080    23.9760     2.3760 
  266.5000    -4.0680    48.8200     6.8930     5.7710     6.6260    23.9810     2.3740 
  266.6250    -4.0900    49.0650     6.9990     5.8570     6.5120    23.9800     2.3770 
  266.7500    -4.1490    48.8820     7.0910     5.9340     6.3440    23.9760     2.3820 
  266.8750    -4.1660    48.5590     7.1630     5.9970     6.3280    23.9760     2.3870 
  267.0000    -4.1870    47.8750     7.2180     6.0480     6.5840    23.9790     2.3910 
  267.1250    -4.2250    47.2550     7.2610     6.0920     7.2200    23.9780     2.3910 
  267.2500    -4.2410    48.0310     7.2980     6.1340     7.7840    23.9740     2.3900 
  267.3750    -4.2430    49.5590     7.3260     6.1720     7.9000    23.9750     2.3890 
  267.5000    -4.2520    50.9620     7.3390     6.1990     7.6280    23.9800     2.3890 
  267.6250    -4.3070    51.2060     7.3260     6.2070     7.4270    23.9790     2.3900 
  267.7500    -4.3480    51.1670     7.2910     6.1970     7.2020    23.9770     2.3910 
  267.8750    -4.4070    51.9310     7.2510     6.1780     6.8910    23.9830     2.3930 
  268.0000    -4.4630    53.2980     7.2270     6.1680     6.7920    23.9950     2.3970 
  268.1250    -4.4940    54.2770     7.2490     6.1920     6.9980    24.0100     2.4020 
  268.2500    -4.5410    55.4640     7.3210     6.2550     7.2650    24.0270     2.4100 
  268.3750    -4.6100    57.3740     7.4330     6.3530     7.3520    24.0380     2.4180 
  268.5000    -4.6920    59.4680     7.5610     6.4690     7.2190    24.0410     2.4270 
  268.6250    -4.7460    59.5460     7.6650     6.5740     6.9900    24.0380     2.4360 
