~V
VERS. 2.00: Ver 2.00
~W
STRT.M 55.0000:
STOP.M 275.0000:
STEP.M 0.1250:
NULL. -999.2500:
UWI. F11036:
~C
DEPT.M :
GR.API :
RML.OHMM :
RI. :
RXO.OHMM :
CALI.CM :
DEN.GM/CC :
SP.MV :
~A
# ...
  201.2500    85.7630    11.2560     8.5200     7.6290    25.3180     2.4050   -17.2550 
  201.3750    88.4210    12.5080     9.4200     8.1240    24.9860     2.4910   -17.4420 
  201.5000    89.2840    14.7770    10.9900     9.8240    24.9250     2.5930   -17.3770 
  201.6250    86.5240    18.3000    13.6300    14.4340    24.9410     2.6990   -17.1000 
  201.7500    86.2980    22.1580    17.0350    21.9970    24.8880     2.7740   -16.7340 
  201.8750    90.9300    24.8950    20.1510    27.3630    24.8050     2.7800   -16.3490 
  202.0000    97.0550    24.9960    21.0620    29.8620    24.7140     2.6940   -15.9460 
  202.1250    99.9490    21.5890    18.2380    31.6260    24.6660     2.5220   -15.6320 
  202.2500    99.9450    16.5780    13.8910    28.2040    24.7200     2.3280   -15.2760 
  202.3750    96.9420    11.7350     9.9130    17.4040    25.1980     2.1640   -14.8070 
  202.5000    90.6680     8.1860     7.0920     7.6280    26.6290     2.0560   -14.2580 
  202.6250    81.5770     6.3470     5.5530     4.9120    28.8250     1.9940   -13.5670 
  202.7500    72.2560     5.5790     4.8070     4.2650    30.0320     1.9390   -12.7770 
  202.8750    67.0310     5.4800     4.6240     4.2300    30.4840     1.8690   -11.9200 
  203.0000    68.1090     5.7210     4.8020     4.1230    31.4600     1.7810   -11.0810 
  203.1250    74.3870     6.0480     5.1510     4.0710    33.1390     1.6960   -10.2490 
  203.2500    80.0140     6.3000     5.4790     4.0070    33.1910     1.6420    -9.5580 
  203.3750    82.3850     6.4570     5.7290     3.9750    32.0240     1.6410    -9.0770 
  203.5000    83.3630     6.5530     5.9140     4.0460    31.4600     1.7020    -8.7830 
  203.6250    82.4870     6.6540     6.0740     4.3090    32.4510     1.8180    -8.6820 
  203.7500    76.9290     6.8050     6.2500     4.6330    33.6360     1.9540    -8.6140 
  203.8750    70.4300     7.0170     6.4470     4.7530    33.9010     2.0880    -8.5830 
  204.0000    71.6290     7.2740     6.6440     4.5840    32.6390     2.2070    -8.5180 
  204.1250    83.5160     7.5150     6.7720     4.8140    30.1460     2.2990    -8.3880 
  204.2500    93.7390     7.6710     6.7830     5.5290    27.7140     2.3630    -8.1760 
  204.3750    97.0100     7.6940     6.6560     6.3080    25.9850     2.3980    -7.8530 
  204.5000    95.8130     7.5900     6.4130     6.6160    25.0870     2.4120    -7.4760 
  204.6250    93.4130     7.4240     6.1250     6.4110    24.8220     2.4120    -7.0580 
  204.7500    91.5190     7.3260     5.8950     6.2470    24.7950     2.4110    -6.5960 
  204.8750    91.0470     7.3920     5.7930     6.2180    24.8090     2.4080    -6.0570 
  205.0000    92.9130     7.6820     5.8670     6.4970    24.8080     2.4020    -5.5430 
  205.1250    94.7750     8.2540     6.1680     7.0950    24.7760     2.3920    -5.1430 
  205.2500    94.8100     9.0650     6.6590     7.9680    24.7370     2.3850    -4.8330 
  205.3750    94.1220    10.1120     7.3400     9.1540    24.7290     2.3820    -4.6000 
  205.5000    92.8180    11.3730     8.2070     9.6070    24.7410     2.3850    -4.3390 
  205.6250    90.2620    12.7520     9.2460    10.9790    24.7490     2.3890    -4.0670 
  205.7500    86.5450    14.0330    10.3120    12.6980    24.7540     2.3870    -3.8420 
  205.8750    83.9470    15.0600    11.2600    15.6190    24.7630     2.3740    -3.7200 
  206.0000    83.0050    15.8420    12.0250    18.6250    24.7720     2.3510    -3.6860 
  206.1250    81.5820    16.7410    12.7570    17.3550    24.7820     2.3220    -3.7290 
  206.2500    79.4620    18.3940    13.8580    14.7040    24.7950     2.2950    -3.8440 
  206.3750    79.3980    21.4710    15.8350    15.3940    24.8170     2.2730    -4.0210 
  206.5000    82.2350    26.4820    19.2510    20.8920    24.8600     2.2590    -4.2830 
  206.6250    82.7200    33.6750    24.8240    38.5860    24.9420     2.2570    -4.5030 
  206.7500    79.5000    41.6220    31.8610    57.2510    24.9890     2.2640    -4.7240 
  206.8750    74.7990    48.5970    38.8870    61.6790    25.0040     2.2780    -4.9100 
  207.0000    70.8350    53.1190    43.9810    56.3280    24.9920     2.2900    -5.0470 
  207.1250    68.4280    54.6800    46.0180    47.8290    24.9450     2.2880    -5.1530 
  207.2500    68.4760    55.2090    46.8030    42.9350    24.8800     2.2770    -5.2080 
  207.3750    70.6820    56.3240    47.9420    45.9370    24.8600     2.2710    -5.2630 
  207.5000    70.9700    58.9760    50.3930    54.0880    24.8720     2.2870    -5.3210 
  207.6250    67.9420    63.4570    54.5790    62.1640    24.9180     2.3260    -5.3820 
  207.7500    65.1590    68.7360    59.7230    61.0070    24.9110     2.3630    -5.4400 
  207.8750    64.5130    73.7370    64.8680    59.3750    24.8600     2.3790    -5.5780 
  208.0000    63.4110    77.3630    68.9140    76.5640    24.7810     2.3690    -5.7740 
  208.1250    59.5280    78.5440    70.7400    87.1750    24.7300     2.3520    -5.9960 
  208.2500    56.9660    77.7290    70.6770    69.9200    24.6770     2.3490    -6.1920 
  208.3750    57.9530    75.5760    69.2690    51.2280    24.6270     2.3590    -6.3380 
  208.5000    61.0190    72.8680    67.2130    50.7810    24.5880     2.3660    -6.4780 
  208.6250    63.8830    70.2390    65.1180    62.7540    24.5880     2.3500    -6.6470 
  208.7500    66.6980    67.9140    63.2530    66.8310    24.6000     2.3170    -6.8720 
  208.8750    68.4630    65.9300    61.6480    59.7060    24.6480     2.2840    -7.0890 
  209.0000    69.0030    64.4120    60.3800    54.7160    24.7350     2.2640    -7.3320 
  209.1250    71.6160    63.9070    59.9070    52.2260    24.8140     2.2590    -7.5950 
  209.2500    76.2740    64.8120    60.6710    51.1340    24.8840     2.2570    -7.9450 
  209.3750    78.6710    67.4710    63.0800    53.3000    24.9520     2.2500    -8.3480 
  209.5000    76.6800    71.9150    67.2330    57.0190    24.9940     2.2370    -8.7670 
  209.6250    73.3100    77.9310    72.9870    62.7760    25.0240     2.2200    -9.2370 
  209.7500    71.2510    84.4810    79.3520    69.3560    25.0600     2.2060    -9.6390 
  209.8750    68.0240    90.7180    85.4840    78.2090    25.0860     2.1980   -10.0010 
  210.0000    63.1220    95.9280    90.6100    87.2350    25.0680     2.1960   -10.2610 
  210.1250    59.4680    99.5730    94.0920    87.1020    25.0530     2.1990   -10.4520 
  210.2500    59.4700   102.2020    96.4480    84.2940    25.0680     2.2010   -10.6190 
  210.3750    61.7910   104.5170    98.3840    84.7050    25.0830     2.2020   -10.7640 
  210.5000    62.9120   107.2910   100.7260    84.9180    25.0880     2.2010   -10.8870 
  210.6250    62.3910   111.2750   104.3150    99.7270    25.1730     2.2060   -10.9680 
  210.7500    63.4120   116.3620   109.0800   131.5020    25.3040     2.2160   -11.0300 
  210.8750    65.7920   122.2030   114.6990   156.3640    25.3960     2.2280   -11.0970 
  211.0000    66.6630   128.2610   120.6960   127.7580    25.4120     2.2340   -11.2570 
  211.1250    65.3570   133.8240   126.4810   100.8130    25.2740     2.2230   -11.3510 
  211.2500    64.9460   138.4230   131.5640    91.6260    24.9840     2.2000   -11.3610 
  211.3750    65.5990   141.6590   135.5620    85.2860    24.5690     2.1750   -11.3130 
  211.5000    65.5820   143.1100   138.0850    64.5790    24.0640     2.1570   -11.2440 
  211.6250    64.1820   141.9950   138.2130    77.4730    23.6490     2.1570   -11.1390 
  211.7500    62.5260   138.7930   136.0050   113.2480    23.5430     2.1680   -11.0720 
  211.8750    61.9360   134.4520   132.2030   131.0150    23.6410     2.1780   -11.0020 
  212.0000    65.1130   130.5950   128.4920   120.6240    23.8220     2.1800   -10.8290 
  212.1250    70.5170   129.7170   127.5590   104.9440    24.0000     2.1660   -10.7050 
  212.2500    71.3940   132.7690   130.9610    97.3040    24.1400     2.1400   -10.6520 
  212.3750    67.6050   142.1470   139.7460   100.0720    24.1050     2.1110   -10.6270 
