~V
VERS. 2.00: Ver 2.00
~W
STRT.M 45.0000:
STOP.M 277.0000:
STEP.M 0.1250:
NULL. -999.2500:
UWI. F11056:
~C
DEPT.M :
GR.API :
RML.OHMM :
RI. :
RXO.OHMM :
CALI.CM :
DEN.GM/CC :
SP.MV :
~A
# ...
  236.2500    64.1590    71.0320    67.1850    66.3080    25.2990     2.2110    -5.0380 
  236.3750    65.7670    63.1350    60.3910    67.1830    25.6150     2.2250    -5.1440 
  236.5000    68.5670    56.3600    52.9910    58.7840    25.8050     2.2570    -5.2060 
  236.6250    70.2980    51.4150    46.7900    46.9900    25.8530     2.2930    -5.2830 
  236.7500    71.2060    47.9420    42.5810    35.9960    25.8480     2.3210    -5.3740 
  236.8750    71.8040    45.8810    40.5600    32.2070    25.8510     2.3320    -5.4520 
  237.0000    71.7030    45.7160    40.6520    37.5300    25.8890     2.3250    -5.4960 
  237.1250    70.7790    46.5530    41.7670    42.3740    25.8540     2.3090    -5.5340 
  237.2500    70.8140    47.3750    43.0530    42.6210    25.7800     2.2930    -5.5620 
  237.3750    71.5750    47.3380    43.6570    42.3350    25.7060     2.2800    -5.5850 
  237.5000    72.6440    45.7540    42.7290    40.3490    25.6640     2.2720    -5.6360 
  237.6250    75.0910    43.1180    40.5520    37.9960    25.6440     2.2730    -5.7210 
  237.7500    77.6400    40.1200    37.7390    34.5650    25.6290     2.2810    -5.8190 
  237.8750    79.3760    37.4730    35.0260    31.0440    25.6080     2.2920    -5.8990 
  238.0000    80.5050    35.8840    33.1790    27.1620    25.6120     2.2970    -5.9100 
  238.1250    80.5900    35.4830    32.4540    26.4890    25.6330     2.2910    -5.8660 
  238.2500    78.8110    36.3610    32.9930    29.2340    25.6490     2.2770    -5.8220 
  238.3750    75.7120    38.5030    34.7840    34.4670    25.6570     2.2660    -5.8090 
  238.5000    74.6780    41.8640    37.7660    39.0420    25.6620     2.2770    -5.8190 
  238.6250    74.7140    45.7700    41.2850    39.4690    25.6450     2.3170    -5.8000 
  238.7500    73.9760    49.5800    44.7360    37.6910    25.6340     2.3840    -5.7660 
  238.8750    73.0980    52.6880    47.5480    38.7480    25.6090     2.4600    -5.7840 
  239.0000    70.9800    54.5970    49.3030    40.5660    25.4400     2.5170    -5.9160 
  239.1250    67.8850    55.5680    50.3090    44.5390    25.0430     2.5400    -6.0900 
  239.2500    66.1200    55.8490    50.7750    46.0940    24.5530     2.5260    -6.2720 
  239.3750    67.8340    55.6860    50.8170    41.0330    24.3690     2.4830    -6.4670 
  239.5000    70.8170    55.3110    50.5640    44.0330    24.6670     2.4270    -6.6650 
  239.6250    70.4300    55.0340    50.3300    49.2230    25.0650     2.3730    -6.9140 
  239.7500    67.7410    55.0880    50.3690    47.0630    25.3780     2.3280    -7.1860 
  239.8750    66.1580    55.6300    50.8860    40.8670    25.5650     2.2940    -7.4400 
  240.0000    67.4200    56.7230    52.0120    42.2430    25.6380     2.2720    -7.6380 
  240.1250    70.1190    57.9980    53.4090    49.0830    25.6520     2.2590    -7.8060 
  240.2500    71.6100    59.0190    54.6450    53.5720    25.6660     2.2490    -7.9420 
  240.3750    70.7910    59.3980    55.2810    54.1670    25.6660     2.2440    -8.0500 
  240.5000    68.9590    59.0410    55.0500    51.3030    25.6710     2.2460    -8.1940 
  240.6250    67.5650    58.6600    54.5700    46.9480    25.6140     2.2480    -8.3400 
  240.7500    65.2040    59.1040    54.7380    40.4760    25.3270     2.2440    -8.5050 
  240.8750    61.9060    61.1950    56.4480    31.2460    24.7130     2.2280    -8.6550 
  241.0000    61.6560    65.9740    60.8120    24.0570    23.7860     2.1970    -8.7560 
  241.1250    63.5470    73.2720    67.8220    22.0780    23.0420     2.1660    -8.8450 
  241.2500    63.5790    82.5280    77.0990    25.9280    22.7620     2.1530    -8.9660 
  241.3750    61.6800    92.0910    87.1670    31.8440    23.1480     2.1710    -9.0960 
  241.5000    61.1040    98.5440    94.7470    41.6500    23.8930     2.2200    -9.1610 
  241.6250    61.1200    99.9160    97.5180    56.5450    24.3760     2.2740    -9.1500 
  241.7500    60.1660    96.1430    95.0220    70.3410    24.5220     2.3070    -9.0620 
  241.8750    59.0820    89.0200    88.8400    61.9060    24.6600     2.3050    -8.9990 
  242.0000    59.6720    80.9500    81.4730    51.3680    24.8700     2.2730    -9.0110 
  242.1250    62.4690    73.4480    74.6090    47.7760    24.9980     2.2420    -9.0350 
  242.2500    64.5620    66.6650    68.2680    47.8450    25.0130     2.2310    -9.0280 
  242.3750    64.3300    60.5540    62.2840    47.0360    24.9350     2.2490    -8.9990 
  242.5000    63.3650    55.5460    57.0890    45.9930    24.8060     2.2950    -9.0170 
  242.6250    64.8830    52.0120    53.2430    45.7690    24.7420     2.3460    -9.1050 
  242.7500    67.9890    50.4190    51.4030    45.1440    24.7810     2.3730    -9.2380 
  242.8750    69.3880    51.1430    52.1980    44.8700    24.7360     2.3480    -9.3250 
  243.0000    67.5420    54.8230    56.4500    48.3810    24.6090     2.2610    -9.3330 
  243.1250    66.4700    60.8330    63.2080    49.6390    24.5590     2.1560    -9.3070 
  243.2500    67.8340    68.3920    71.3840    40.8940    24.4590     2.0780    -9.2770 
  243.3750    70.1240    76.1570    79.5500    29.0190    23.7260     2.0550    -9.2470 
  243.5000    71.7280    82.1620    85.8420    27.8710    22.4400     2.0830    -9.2200 
  243.6250    73.3490    85.4970    89.5450    33.3630    21.5680     2.1150    -9.2040 
  243.7500    73.8280    85.8110    90.4430    50.8780    21.8030     2.1240    -9.1710 
  243.8750    70.2510    83.0830    88.4410    89.9130    23.1670     2.1090    -9.0900 
  244.0000    65.6980    77.1860    82.9210   117.7770    24.6940     2.0910    -9.0040 
  244.1250    65.4540    69.5690    75.0630    94.5440    25.7260     2.0910    -8.9810 
  244.2500    69.0050    61.6320    66.3470    66.8630    26.0660     2.1100    -8.9850 
  244.3750    71.2820    54.7020    58.3380    55.1890    26.0820     2.1410    -8.9810 
  244.5000    70.4840    49.9150    52.4680    50.3740    26.0610     2.1740    -8.8810 
  244.6250    69.4050    47.1250    48.8070    47.7780    26.0350     2.2030    -8.7060 
  244.7500    69.5450    46.1990    47.2700    45.9600    25.9930     2.2240    -8.5400 
  244.8750    71.1020    47.0280    47.7190    44.7680    25.9150     2.2340    -8.4370 
  245.0000    73.2870    50.0000    50.5110    47.0030    25.8430     2.2300    -8.3770 
  245.1250    75.3390    55.1690    55.5750    50.9570    25.7830     2.2190    -8.2650 
  245.2500    76.4580    62.9940    63.2510    50.7640    25.7240     2.2100    -8.1210 
  245.3750    78.3750    73.7170    73.5720    54.5360    25.6610     2.2160    -8.0080 
  245.5000    80.4090    86.7520    85.6880    76.0280    25.6030     2.2510    -7.9760 
  245.6250    80.6900    99.0860    96.7370   105.8450    25.5130     2.3060    -7.9600 
  245.7500    78.9940   107.7030   103.8870   125.7960    25.3960     2.3670    -7.9020 
  245.8750    77.5540   110.9880   105.6230   114.2110    25.3280     2.4110    -7.7910 
  246.0000    78.1940   109.8440   103.0220    96.3110    25.3850     2.4190    -7.6300 
  246.1250    78.3340   108.6650   100.6790    96.9220    25.5270     2.4080    -7.4700 
  246.2500    76.8510   110.4240   101.6220    89.6320    25.7800     2.4050    -7.3150 
  246.3750    73.9120   115.8380   106.9470    71.5470    26.0310     2.4250    -7.1320 
  246.5000    71.3900   120.0960   114.5210    80.2240    25.9990     2.4620    -6.9040 
  246.6250    70.0010   114.7400   116.9840   119.9160    25.7840     2.4910    -6.6670 
  246.7500    69.6570    96.1240   106.8890   208.6320    25.6250     2.5000    -6.4110 
  246.8750    68.7970    69.2110    83.3770   225.1090    25.6320     2.4950    -6.1470 
  247.0000    63.3910    45.1760    56.1870   105.0280    25.6120     2.4880    -5.9130 
  247.1250    54.1730    29.1190    35.3910    37.1430    25.4240     2.4810    -5.7180 
  247.2500    45.7970    19.5970    22.3880    14.7960    25.1770     2.4710    -5.5460 
  247.3750    44.4650    13.9990    15.2000     8.5250    25.0320     2.4540    -5.3740 
