~V
VERS. 2.00: Ver 2.00
~W
STRT.M 51.0000:
STOP.M 240.0000:
STEP.M 0.1250:
NULL. -999.2500:
UWI. F11016:
~C
DEPT.M :
GR.API :
RML.OHMM :
RI. :
RXO.OHMM :
CALI.CM :
DEN.GM/CC :
SP.MV :
~A
# ...
  129.7500    44.8230    26.5780    24.6560    23.5820    23.9380     2.5590    -9.5130 
  129.8750    46.0270    26.6120    24.7840    24.1220    23.9050     2.5610    -9.6430 
  130.0000    47.3140    26.2800    24.5680    24.0320    23.8000     2.5570    -9.8040 
  130.1250    47.8460    25.7470    24.1250    23.1430    23.7050     2.5460    -9.9860 
  130.2500    47.2960    25.2080    23.6170    22.0660    23.6740     2.5310   -10.1870 
  130.3750    46.6490    24.8750    23.2310    21.6170    23.6490     2.5130   -10.4030 
  130.5000    46.6910    24.8210    23.0610    21.9250    23.5290     2.4950   -10.6280 
  130.6250    46.7410    24.9540    23.0730    22.1370    23.3860     2.4790   -10.8460 
  130.7500    46.0410    25.0940    23.1480    22.4590    23.3020     2.4670   -11.0460 
  130.8750    45.9720    25.0140    23.1110    22.6470    23.2380     2.4620   -11.2280 
  131.0000    47.8700    24.6290    22.8730    22.4710    23.1530     2.4670   -11.3780 
  131.1250    50.3840    24.0400    22.4910    22.1670    23.0930     2.4810   -11.4750 
  131.2500    51.0660    23.4560    22.1230    21.7760    23.1060     2.5020   -11.5340 
  131.3750    50.2500    23.1860    22.0280    21.1910    23.2010     2.5250   -11.5800 
  131.5000    49.7150    23.4370    22.3970    20.6550    23.3730     2.5470   -11.6060 
  131.6250    49.4630    24.2330    23.2760    21.4040    23.5770     2.5620   -11.6160 
  131.7500    48.2390    25.3790    24.5260    24.1610    23.7520     2.5670   -11.6150 
  131.8750    46.5810    26.3330    25.6730    27.2800    23.8170     2.5600   -11.6100 
  132.0000    45.4840    26.4010    26.0380    29.2710    23.7990     2.5450   -11.6490 
  132.1250    44.9660    25.0490    25.0280    29.5230    23.7510     2.5210   -11.7630 
  132.2500    45.4630    22.1670    22.4390    28.2960    23.7000     2.4900   -11.9040 
  132.3750    48.8280    18.2190    18.6850    25.7610    23.6720     2.4550   -12.0450 
  132.5000    56.5720    14.1750    14.7680    20.8730    23.6360     2.4200   -12.2070 
  132.6250    66.8480    10.8440    11.5080    14.5500    23.5340     2.3880   -12.3620 
  132.7500    74.4290     8.5510     9.2040     9.4160    23.3590     2.3620   -12.4790 
  132.8750    75.4660     7.3600     7.9170     7.0220    23.0730     2.3440   -12.5730 
  133.0000    74.0530     7.0340     7.4600     6.4280    22.7190     2.3330   -12.6370 
  133.1250    75.6730     7.2940     7.6030     6.4540    22.4810     2.3270   -12.6530 
  133.2500    78.6820     7.9280     8.1670     6.8500    22.4830     2.3280   -12.6270 
  133.3750    76.5060     8.6720     8.9080     7.5590    22.6700     2.3360   -12.5610 
  133.5000    69.4320     9.2270     9.5160     8.7530    22.8190     2.3500   -12.4610 
  133.6250    63.5920     9.3730     9.7340    10.1340    22.7550     2.3640   -12.3300 
  133.7500    63.6850     9.0410     9.4530    10.8970    22.5560     2.3730   -12.1570 
  133.8750    69.3830     8.3420     8.7490     9.9380    22.4150     2.3710   -11.9200 
  134.0000    75.0790     7.5870     7.9260     8.1890    22.3710     2.3630   -11.6090 
  134.1250    76.2270     7.1160     7.3110     7.1950    22.3740     2.3560   -11.2070 
  134.2500    74.1830     7.1860     7.1320     7.0410    22.4290     2.3580   -10.7100 
  134.3750    73.1260     8.0550     7.6110     7.4590    22.6050     2.3760   -10.1430 
  134.5000    71.8380     9.7710     8.8210     8.6040    22.8860     2.4080    -9.5520 
  134.6250    66.7040    12.2110    10.7320    11.1130    23.1860     2.4470    -8.9900 
  134.7500    59.5190    15.1350    13.2340    15.7600    23.4610     2.4860    -8.4760 
  134.8750    55.5960    18.1000    16.0480    22.1180    23.6710     2.5180    -8.0210 
  135.0000    54.3130    20.6400    18.7320    25.4020    23.8080     2.5360    -7.6470 
  135.1250    51.6230    22.5040    20.9050    24.8710    23.8850     2.5410    -7.3690 
  135.2500    47.8000    23.7130    22.4200    24.4960    23.9140     2.5380    -7.1840 
  135.3750    46.3480    24.4640    23.3420    25.8050    23.8970     2.5340    -7.0830 
  135.5000    47.1720    25.0020    23.9060    27.8040    23.8810     2.5310    -7.0290 
  135.6250    47.5730    25.4480    24.2880    29.1660    23.8760     2.5320    -6.9890 
  135.7500    47.0940    25.8130    24.5450    28.7430    23.8860     2.5340    -6.9580 
  135.8750    46.9100    26.1240    24.7350    27.2780    23.9020     2.5360    -6.9500 
  136.0000    46.6280    26.4520    24.9490    26.0900    23.9300     2.5380    -6.9630 
  136.1250    45.1980    26.8150    25.2330    26.1930    23.9600     2.5400    -6.9880 
  136.2500    42.7850    27.1460    25.5490    27.5710    23.9740     2.5380    -7.0300 
  136.3750    41.6030    27.3020    25.7830    29.3500    23.9810     2.5310    -7.0920 
  136.5000    43.6830    27.1920    25.8350    30.3160    23.9960     2.5180    -7.1740 
  136.6250    48.3440    26.8290    25.6790    29.3500    24.0290     2.5020    -7.2800 
  136.7500    52.6730    26.3010    25.3590    27.1450    24.0590     2.4890    -7.4080 
  136.8750    54.5030    25.7710    24.9930    26.8080    24.0380     2.4830    -7.5300 
  137.0000    54.4780    25.3800    24.7070    27.7100    23.9710     2.4880    -7.6390 
  137.1250    54.2670    25.1850    24.5660    27.6790    23.9300     2.5000    -7.7470 
  137.2500    53.7540    25.1620    24.5570    26.2350    23.9770     2.5140    -7.8520 
  137.3750    51.4240    25.2280    24.6150    25.1840    24.0730     2.5240    -7.9290 
  137.5000    47.1090    25.2820    24.6530    26.1690    24.1460     2.5250    -7.9700 
  137.6250    42.9430    25.2750    24.6260    28.6780    24.1880     2.5190    -7.9910 
  137.7500    42.0860    25.2270    24.5510    31.0240    24.2300     2.5070    -8.0200 
  137.8750    44.9020    25.2260    24.5050    31.1110    24.2810     2.4960    -8.0650 
  138.0000    48.2900    25.3530    24.5670    28.8320    24.3250     2.4880    -8.1130 
  138.1250    49.9050    25.6130    24.7590    26.9340    24.3690     2.4860    -8.1550 
  138.2500    49.3750    25.9270    25.0300    27.2200    24.4130     2.4880    -8.1880 
  138.3750    46.8700    26.1270    25.2420    28.6160    24.4280     2.4950    -8.2390 
  138.5000    43.3520    26.1010    25.2810    29.7240    24.4180     2.5030    -8.3210 
  138.6250    41.3150    25.8850    25.1460    29.1100    24.4150     2.5120    -8.4040 
  138.7500    42.7790    25.6630    24.9740    27.3230    24.4450     2.5220    -8.4690 
  138.8750    46.9700    25.7360    25.0170    26.1740    24.4810     2.5320    -8.5420 
  139.0000    50.4990    26.2450    25.4190    26.1940    24.4820     2.5410    -8.6230 
  139.1250    50.7430    27.0730    26.1170    27.3120    24.4620     2.5460    -8.6970 
  139.2500    48.7790    27.9070    26.8650    29.5320    24.4480     2.5470    -8.7630 
  139.3750    47.5270    28.2510    27.2360    31.9830    24.4340     2.5410    -8.8250 
  139.5000    47.8850    27.8060    26.9250    33.6520    24.3980     2.5310    -8.8810 
  139.6250    49.2050    26.5910    25.8960    33.3760    24.3400     2.5220    -8.9150 
  139.7500    50.4940    24.8580    24.3440    29.5390    24.2890     2.5170    -8.9210 
  139.8750    50.7930    23.0120    22.6120    24.9130    24.2880     2.5160    -8.9010 
  140.0000    49.7030    21.3870    21.0120    22.4410    24.3210     2.5190    -8.8460 
  140.1250    48.3730    20.1190    19.6920    21.5970    24.3340     2.5240    -8.7530 
  140.2500    47.8030    19.2120    18.6760    20.8640    24.3290     2.5280    -8.6460 
  140.3750    47.0850    18.6420    17.9710    19.6020    24.3190     2.5320    -8.5320 
  140.5000    46.2580    18.3440    17.5350    18.1970    24.2910     2.5350    -8.4040 
  140.6250    45.7930    18.2490    17.3190    17.2990    24.2450     2.5390    -8.2680 
  140.7500    45.4360    18.2980    17.2770    17.0410    24.2120     2.5440    -8.1270 
  140.8750    44.6200    18.4070    17.3400    17.2710    24.2020     2.5500    -7.9830 
