~V
VERS. 2.00: Ver 2.00
~W
STRT.M 51.0000:
STOP.M 282.0000:
STEP.M 0.1250:
NULL. -999.2500:
UWI. F11065:
~C
DEPT.M :
GR.API :
RML.OHMM :
RI. :
RXO.OHMM :
CALI.CM :
DEN.GM/CC :
SP.MV :
~A
# ...
  276.0000    59.5080    21.2060    18.9830    21.8670    24.1200     2.5880    -3.2290 
  276.1250    59.5080    21.3940    19.1560    21.6510    24.1360     2.5940    -3.3350 
  276.2500    59.5080    21.5240    19.2650    22.5490    24.1440     2.6050    -3.4230 
  276.3750    59.5080    21.6110    19.3330    23.3450    24.1440     2.6120    -3.4830 
  276.5000    59.5080    21.6870    19.4040    24.2970    24.1440     2.6110    -3.5250 
  276.6250    59.5080    21.7530    19.4710    26.1530    24.1440     2.6020    -3.5200 
  276.7500    59.5080    21.7990    19.5150    27.5840    24.1440     2.5910    -3.4780 
  276.8750    59.5080    21.8150    19.5250    26.3490    24.1440     2.5810    -3.4410 
  277.0000    59.5080    21.8140    19.5180    24.6410    24.1400     2.5750    -3.4260 
  277.1250    59.5080    21.8130    19.5140    22.5130    24.1240     2.5700    -3.3780 
  277.2500    59.5080    21.8200    19.5230    21.3590    24.0930     2.5690    -3.3370 
  277.3750    59.5080    21.8350    19.5390    20.3770    24.0760     2.5760    -3.2610 
  277.5000    59.5080    21.8460    19.5510    19.9180    24.0710     2.5910    -3.2260 
  277.6250    59.5080    21.8520    19.5550    19.8440    24.0740     2.6060    -3.2500 
  277.7500    59.5080    21.8520    19.5540    21.3270    24.0800     2.6150    -3.3120 
  277.8750    59.5080    21.8500    19.5520    24.8370    24.0970     2.6110    -3.3870 
  278.0000    59.5080    21.8500    19.5520    28.1640    24.1230     2.6020    -3.4750 
  278.1250    59.5080    21.8500    19.5520    28.3870    24.1390     2.5930    -3.6140 
  278.2500    59.5080    21.8500    19.5520    30.4300    24.1310     2.5880    -3.7620 
  278.3750    59.5080    21.8500    19.5520    30.1350    24.0610     2.5840    -3.9330 
  278.5000    59.5080    21.8500    19.5520    28.6950    23.9380     2.5780    -4.0890 
  278.6250    59.5080    21.8500    19.5520    23.4880    23.8440     2.5690    -4.2300 
  278.7500    59.5080    21.8500    19.5520    21.0680    23.8170     2.5580    -4.3540 
  278.8750    59.5080    21.8500    19.5520    20.5430    23.8310     2.5490    -4.4080 
  279.0000    59.5080    21.8500    19.5520    21.0480    23.8330     2.5440    -4.4370 
  279.1250    59.5080    21.8500    19.5520    21.6070    23.8090     2.5450    -4.4620 
  279.2500    59.5080    21.8500    19.5520    21.1460    23.7690     2.5520    -4.4890 
  279.3750    59.5080    21.8500    19.5520    20.2900    23.7180     2.5620    -4.5230 
  279.5000    59.5080    21.8500    19.5520    20.0760    23.6930     2.5690    -4.5050 
  279.6250    59.5080    21.8500    19.5520    21.3500    23.6940     2.5730    -4.4400 
  279.7500    59.5080    21.8500    19.5520    22.4240    23.6670     2.5740    -4.3480 
  279.8750    59.5080    21.8500    19.5520    22.0580    23.6330     2.5710    -4.2780 
  280.0000    59.5080    21.8500    19.5520    21.8200    23.6150     2.5640    -4.2090 
  280.1250    59.5080    21.8500    19.5520    21.6810    23.5810     2.5520    -4.1400 
  280.2500    59.5080    21.8500    19.5520    19.6220    23.5100     2.5380    -4.0820 
  280.3750    59.5080    21.8500    19.5520    18.2050    23.4250     2.5280    -4.0470 
  280.5000    59.5080    21.8500    19.5520    18.3340    23.3690     2.5230    -4.0360 
  280.6250    59.5080    21.8500    19.5520    16.9770    23.3370     2.5220    -4.0620 
  280.7500    59.5080    21.8500    19.5520    14.1780    23.3020     2.5110    -4.0700 
  280.8750    59.5080    21.8500    19.5520    11.9610    23.2390     2.4600    -4.1040 
  281.0000    59.5080    21.8500    19.5520    11.4260    23.0990     2.3540    -4.1380 
  281.1250    59.5080    21.8500    19.5520    12.0040    22.9280     2.1900    -4.1440 
  281.2500    59.5080    21.8500    19.5520    12.7940    22.7710     1.9890    -4.1440 
  281.3750    59.5080    21.8500    19.5520    12.5690    22.6050     1.8110    -4.1440 
  281.5000    59.5080    21.8500    19.5520    12.5630    22.3140     1.5570  -999.2500 
  281.6250    59.5080    21.8500    19.5520    11.4910    21.2750     0.8840  -999.2500 
  281.7500    59.5080    21.8500    19.5520     9.2350    19.3860    -0.5550  -999.2500 
  281.8750    59.5080    21.8500    19.5520     7.4260    17.3910    -3.7100  -999.2500 
  282.0000    59.5080    21.8500    19.5520     6.7910    16.3860    -8.4590  -999.2500 
