~V
VERS. 2.00: Ver 2.00
~W
STRT.M 62.0000:
STOP.M 273.0000:
STEP.M 0.1250:
NULL. -999.2500:
UWI. F11050:
~C
DEPT.M :
SP.MV :
GR.API :
RML.OHMM :
RI. :
RXO.OHMM :
CALI.CM :
DEN.GM/CC :
~A
# ...
   84.5000   -20.9110    67.6900    11.5530     8.8300    10.6560    24.0710     2.1890 
   84.6250   -20.8020    65.1580    10.8770     8.1980    10.4160    23.9560     2.2010 
   84.7500   -20.7660    62.8180    10.6680     7.8440    10.3490    23.9150     2.2100 
   84.8750   -20.6890    61.8900    10.8020     7.7380    10.3030    23.9160     2.2130 
   85.0000   -20.6460    63.8390    11.0700     7.7860    10.4350    23.9240     2.2090 
   85.1250   -20.5730    67.6420    11.2640     7.8740    10.8410    23.9000     2.2030 
   85.2500   -20.5220    69.1370    11.3170     7.9280    11.0070    23.8580     2.2020 
   85.3750   -20.4480    67.8750    11.2750     7.9470    10.7190    23.8390     2.2080 
   85.5000   -20.4170    65.1620    11.2240     7.9560    10.3050    23.8390     2.2150 
   85.6250   -20.3860    63.4000    11.2550     7.9910    10.4020    23.8410     2.2140 
   85.7500   -20.3060    63.0290    11.3640     8.0570    10.5820    23.8550     2.2100 
   85.8750   -20.2350    64.3600    11.5030     8.1440    10.7960    23.9000     2.2060 
   86.0000   -20.1280    65.4150    11.6060     8.2300    10.9740    23.9690     2.2060 
   86.1250   -20.0460    66.3100    11.6120     8.2760    10.8920    24.0060     2.2100 
   86.2500   -19.9220    67.7500    11.5430     8.2750    10.6190    24.0120     2.2150 
   86.3750   -19.8290    67.3850    11.4540     8.2490    10.2410    24.0120     2.2180 
   86.5000   -19.6490    64.2660    11.4110     8.2360     9.8200    24.0200     2.2170 
   86.6250   -19.5030    61.6230    11.4500     8.2780     9.8480    24.0330     2.2190 
   86.7500   -19.3420    62.3480    11.5300     8.3600    10.1770    24.0150     2.2280 
   86.8750   -19.1630    64.9880    11.5820     8.4330    10.4230    23.9810     2.2420 
   87.0000   -18.9870    66.1740    11.5230     8.4340    10.3390    23.9440     2.2560 
   87.1250   -18.7730    66.3060    11.2810     8.3000    10.0210    23.9400     2.2630 
   87.2500   -18.5860    68.0860    10.9150     8.0600     9.8740    23.9430     2.2600 
   87.3750   -18.3760    70.7330    10.4960     7.7540     9.9690    23.9670     2.2500 
   87.5000   -18.2390    71.0530    10.0900     7.4210    10.0370    23.9680     2.2410 
   87.6250   -18.0480    69.6200     9.7560     7.1030     9.8460    23.9540     2.2440 
   87.7500   -17.9050    71.8090     9.5060     6.8320     9.4030    23.9590     2.2590 
   87.8750   -17.7810    77.2660     9.3580     6.6360     8.7410    23.9820     2.2800 
   88.0000   -17.7180    80.2260     9.3350     6.5360     8.4180    24.0010     2.2970 
   88.1250   -17.7130    77.1780     9.4600     6.5570     8.6800    24.0140     2.2990 
   88.2500   -17.7870    73.2360     9.6660     6.6610     9.0260    24.0380     2.2920 
   88.3750   -17.9020    70.9360     9.8990     6.8190     9.1940    24.0760     2.2900 
   88.5000   -18.0570    71.2190    10.1100     6.9990     9.3730    24.1290     2.2940 
   88.6250   -18.3200    72.0780    10.2680     7.1720     9.5240    24.1370     2.2830 
   88.7500   -18.5560    70.9810    10.3860     7.3160     9.6800    24.1120     2.2540 
   88.8750   -18.8420    67.9830    10.4870     7.4270     9.8030    24.0800     2.2230 
   89.0000   -19.0800    66.4780    10.5800     7.5090    10.0280    24.0790     2.2090 
   89.1250   -19.3320    67.7160    10.6540     7.5620    11.0780    24.1010     2.2100 
   89.2500   -19.5180    68.1640    10.6950     7.5920    13.0360    24.1070     2.2130 
   89.3750   -19.7310    67.1880    10.6870     7.5910    14.0690    24.0540     2.2160 
   89.5000   -19.8830    66.5120    10.6280     7.5490    11.9210    23.9950     2.2140 
   89.6250   -20.0120    64.5090    10.5400     7.4780    10.5830    23.9420     2.2090 
   89.7500   -20.1350    60.9010    10.4690     7.4200    10.1090    23.9300     2.2030 
   89.8750   -20.2250    59.1810    10.4420     7.4070    10.0640    23.9410     2.1980 
   90.0000   -20.3070    60.8150    10.4630     7.4450    10.0720    23.9710     2.1950 
   90.1250   -20.3370    62.5590    10.5130     7.5160    10.3070    23.9730     2.1920 
   90.2500   -20.3550    62.3020    10.5430     7.5770    10.6250    23.9590     2.1900 
   90.3750   -20.3130    62.2800    10.5190     7.6040    10.5840    23.9610     2.1890 
   90.5000   -20.3100    64.0100    10.4430     7.6000    10.1900    23.9860     2.1890 
   90.6250   -20.2240    65.5760    10.3660     7.5870     9.9120    23.9960     2.1860 
   90.7500   -20.1750    64.1510    10.3550     7.5910     9.9520    24.0030     2.1790 
   90.8750   -20.0980    60.9040    10.4280     7.6250    10.1700    24.0140     2.1710 
   91.0000   -20.0330    59.0920    10.5530     7.6870    10.3070    24.0050     2.1640 
   91.1250   -19.9610    60.4230    10.6560     7.7540    10.3060    23.9540     2.1620 
   91.2500   -19.9040    63.1740    10.6850     7.7870    10.1140    23.8770     2.1690 
   91.3750   -19.8460    65.3140    10.6380     7.7700     9.8370    23.8410     2.1890 
   91.5000   -19.7680    65.4000    10.5480     7.7060     9.5160    23.8230     2.2140 
   91.6250   -19.7720    63.1400    10.4620     7.6240     9.1450    23.7640     2.2340 
   91.7500   -19.7450    60.7910    10.4020     7.5610     8.9750    23.6800     2.2380 
   91.8750   -19.7960    60.5360    10.3610     7.5290     9.3090    23.5860     2.2210 
   92.0000   -19.8510    62.5290    10.3230     7.5240     9.8460    23.4840     2.1920 
   92.1250   -19.9720    65.2730    10.2910     7.5430    10.0540    23.4110     2.1700 
   92.2500   -20.0780    66.9750    10.3020     7.5860     9.9900    23.4060     2.1630 
   92.3750   -20.2300    66.9520    10.3880     7.6610     9.9610    23.4470     2.1680 
   92.5000   -20.3670    66.0620    10.5480     7.7670     9.9970    23.5100     2.1790 
   92.6250   -20.4770    63.5180    10.7390     7.8900     9.9650    23.6110     2.1920 
   92.7500   -20.6250    61.0100    10.8870     7.9950    10.0100    23.7630     2.2000 
   92.8750   -20.7080    60.7520    10.9540     8.0510    10.1050    23.9130     2.2010 
   93.0000   -20.8160    62.6990    10.9290     8.0420    10.2840    24.0000     2.1930 
   93.1250   -20.8610    66.7420    10.8320     7.9630    10.3390    24.0150     2.1820 
   93.2500   -20.9090    71.1940    10.7180     7.8570    10.3390    24.0060     2.1730 
   93.3750   -20.8980    73.9740    10.6240     7.7640    10.3670    23.9980     2.1670 
   93.5000   -20.9170    72.0090    10.5730     7.7190    10.3360    23.9870     2.1650 
   93.6250   -20.8870    66.3020    10.5760     7.7320    10.3360    23.9620     2.1700 
   93.7500   -20.8420    64.3600    10.6040     7.7730    10.3490    23.9360     2.1770 
   93.8750   -20.7830    67.5290    10.6400     7.8140    10.3700    23.9440     2.1830 
   94.0000   -20.7000    71.8670    10.6770     7.8400    10.3670    23.9730     2.1900 
   94.1250   -20.5970    73.0190    10.7100     7.8340    10.3810    23.9930     2.1970 
   94.2500   -20.5010    70.9940    10.7340     7.8040    10.4060    23.9860     2.2040 
   94.3750   -20.3950    68.0440    10.7410     7.7600    10.4380    23.9490     2.2100 
   94.5000   -20.2460    64.9450    10.7250     7.7130    10.4440    23.9290     2.2160 
   94.6250   -20.1800    65.1970    10.7020     7.6850    10.3930    23.9500     2.2210 
   94.7500   -20.0520    68.3860    10.7320     7.7100    10.3710    23.9860     2.2280 
   94.8750   -19.9570    70.2030    10.8900     7.8310    10.4270    24.0040     2.2420 
   95.0000   -19.8340    68.7430    11.2240     8.0810    10.4710    24.0310     2.2660 
   95.1250   -19.7480    64.4030    11.7090     8.4550    10.4130    24.0930     2.3020 
   95.2500   -19.6350    61.3420    12.1750     8.8420    10.1470    24.1370     2.3490 
   95.3750   -19.5670    61.5900    12.4490     9.1210     9.6220    24.1240     2.3930 
   95.5000   -19.4960    65.2220    12.4020     9.1890     8.9360    24.0350     2.4070 
   95.6250   -19.3730    70.0120    12.0150     8.9980     8.4040    23.9740     2.3550 
