~V
VERS. 2.00: Ver 2.00
~W
STRT.M 50.0000:
STOP.M 281.0000:
STEP.M 0.1250:
NULL. -999.2500:
UWI. F11064:
~C
DEPT.M :
SP.MV :
GR.API :
RML.OHMM :
RI. :
RXO.OHMM :
CALI.CM :
DEN.GM/CC :
~A
# ...
  185.0000   -15.5790    59.9100   135.5300   125.4530    47.2510    23.1650     2.2320 
  185.1250   -15.5830    59.4090   127.0990   117.4860    55.7020    23.1610     2.2310 
  185.2500   -15.5810    58.7360   123.8780   114.3120    58.6500    23.1390     2.2280 
  185.3750   -15.5740    60.1780   124.5690   114.9710    53.0480    23.1250     2.2230 
  185.5000   -15.5520    62.9320   126.4480   117.0850    47.3630    23.1230     2.2190 
  185.6250   -15.4980    63.9030   124.7190   116.3280    46.8280    23.1270     2.2230 
  185.7500   -15.4040    62.9920   116.9230   110.1760    44.1450    23.1260     2.2360 
  185.8750   -15.2690    61.6180   103.7310    98.8480    39.4860    23.1320     2.2550 
  186.0000   -15.1160    62.2890    88.3790    85.0050    34.6690    23.1650     2.2770 
  186.1250   -14.9350    64.1100    75.1630    72.5870    29.1840    23.2940     2.2970 
  186.2500   -14.7360    66.8260    66.0220    63.7930    24.1990    23.5240     2.3120 
  186.3750   -14.5380    71.1150    61.3550    59.1950    22.7130    23.8630     2.3200 
  186.5000   -14.3630    75.1400    60.7490    58.4540    26.2210    24.2640     2.3210 
  186.6250   -14.1980    77.1280    63.6390    61.0310    37.0430    24.6640     2.3170 
  186.7500   -14.0630    77.7710    67.8870    64.9590    46.2900    24.9510     2.3120 
  186.8750   -13.9640    78.5030    71.5200    68.4450    52.5030    25.1220     2.3080 
  187.0000   -13.8970    78.4250    72.6460    69.7260    55.5200    25.2080     2.3040 
  187.1250   -13.8620    77.9250    69.9410    67.4240    56.0440    25.2480     2.3020 
  187.2500   -13.8650    77.6260    64.9310    62.7800    53.9240    25.2420     2.3030 
  187.3750   -13.9040    76.4300    59.2700    57.2600    50.8450    25.1540     2.3050 
  187.5000   -13.9740    74.7870    54.5210    52.3550    47.6430    25.0610     2.3060 
  187.6250   -14.0450    72.3930    52.1760    49.4860    49.8020    24.9960     2.3030 
  187.7500   -14.1070    69.3980    52.5440    48.9560    47.9480    24.8300     2.2970 
  187.8750   -14.1730    66.6620    56.1100    51.1970    46.2890    24.5270     2.2860 
  188.0000   -14.2210    64.7860    63.3320    56.7330    53.4920    24.2420     2.2650 
  188.1250   -14.2470    63.7390    74.7400    67.2180    88.5710    24.2690     2.2400 
  188.2500   -14.2540    63.7240    88.3320    82.1430   130.6130    24.5550     2.2210 
  188.3750   -14.2290    65.1740   101.2180    94.2580   152.9600    24.8620     2.2160 
  188.5000   -14.1520    66.2380   109.4510   102.4900   144.8430    24.9910     2.2230 
  188.6250   -14.0580    65.2470   108.8110   102.8230   117.7420    24.9830     2.2390 
  188.7500   -13.9550    63.0260   101.9900    97.2110    96.0840    24.9590     2.2530 
  188.8750   -13.8250    59.5460    92.7520    88.8520    79.2200    24.9360     2.2620 
  189.0000   -13.6860    55.7200    84.0160    80.5660    69.8630    24.8270     2.2690 
  189.1250   -13.5430    56.5420    77.1960    73.9250    67.7850    24.6030     2.2740 
  189.2500   -13.3880    61.3020    72.0620    68.8880    68.1820    24.3560     2.2760 
  189.3750   -13.2560    64.8630    68.5440    65.4060    67.8830    24.1810     2.2750 
  189.5000   -13.1700    65.6380    66.8090    63.5750    64.8060    24.0760     2.2740 
  189.6250   -13.0920    66.6860    67.6920    64.1060    60.3290    24.0080     2.2770 
  189.7500   -13.0200    69.9100    71.1100    66.9690    60.3560    23.9480     2.2810 
  189.8750   -12.9660    73.8010    76.7080    71.9070    70.7450    23.9260     2.2820 
  190.0000   -12.9180    75.4610    83.3320    77.9360    93.8960    23.9310     2.2760 
  190.1250   -12.8650    72.1290    88.6180    82.9070   123.0850    23.9320     2.2650 
  190.2500   -12.8280    67.6720    90.6400    84.8660   130.7150    23.9360     2.2570 
  190.3750   -12.7820    66.7880    88.9560    83.1500   110.7590    23.9780     2.2540 
  190.5000   -12.7260    68.2930    85.1340    78.9690    89.2890    24.1440     2.2540 
  190.6250   -12.7010    66.7050    82.5280    75.3010    83.9950    24.4090     2.2540 
  190.7500   -12.6670    64.8330    83.6720    74.7730    83.1760    24.6750     2.2520 
  190.8750   -12.6240    64.6840    90.1150    79.0290    83.9360    24.8290     2.2440 
  191.0000   -12.6020    64.5570   102.9800    89.3230    94.4820    24.9100     2.2320 
  191.1250   -12.5980    61.8830   124.2310   107.7080   125.2640    24.9920     2.2220 
  191.2500   -12.5880    58.8330   152.4890   132.8280   168.3630    25.0210     2.2160 
  191.3750   -12.5880    56.5830   186.1640   162.9390   186.0200    25.0180     2.2120 
  191.5000   -12.5690    56.1020   221.9380   194.6930   199.7030    24.9910     2.2080 
  191.6250   -12.4980    57.0800   252.8200   222.1150   220.6960    24.9840     2.2030 
  191.7500   -12.4360    56.9690   268.8030   238.3110   227.1270    24.9890     2.2000 
  191.8750   -12.3880    55.0460   255.3640   233.0030   214.8280    24.9880     2.1990 
  192.0000   -12.3280    52.8980   205.1660   197.6790   201.4360    24.9790     2.2020 
  192.1250   -12.2680    52.2190   138.0610   140.5560   168.8070    24.9840     2.2050 
  192.2500   -12.2200    53.5980    85.3090    89.7420   105.8690    25.0160     2.2050 
  192.3750   -12.1770    59.2090    53.0020    55.8730    48.5690    25.0710     2.2110 
  192.5000   -12.1730    68.4200    36.7740    37.7470    21.4720    25.0260     2.2270 
  192.6250   -12.2240    75.3810    32.4840    31.8820    17.6110    24.7360     2.2450 
  192.7500   -12.2730    75.1820    34.8970    32.7540    23.3970    24.2790     2.2500 
  192.8750   -12.3300    69.9250    42.5330    38.9610    35.2370    24.0030     2.2400 
  193.0000   -12.4210    66.3790    54.2880    49.8910    47.6440    23.9100     2.2300 
  193.1250   -12.5130    67.4430    68.1060    64.1460    52.2610    23.8720     2.2310 
  193.2500   -12.5850    68.2910    79.5880    76.8620    53.8140    23.8700     2.2380 
  193.3750   -12.6470    66.6270    85.4200    83.9240    52.9360    23.8940     2.2450 
  193.5000   -12.6930    64.0040    85.3210    84.4890    50.1900    23.9020     2.2520 
  193.6250   -12.7280    63.8400    81.7170    80.8330    46.6740    23.8740     2.2550 
  193.7500   -12.7560    66.5460    77.8320    76.4820    46.1630    23.8700     2.2560 
  193.8750   -12.7750    69.7820    74.7120    72.6310    48.9820    23.8920     2.2590 
  194.0000   -12.7640    69.5160    72.7200    69.7220    51.7500    23.8830     2.2640 
  194.1250   -12.7300    66.4500    72.0250    68.0290    51.1500    23.8150     2.2720 
  194.2500   -12.6800    67.0210    72.1340    67.2590    50.0350    23.7900     2.2790 
  194.3750   -12.6170    70.5010    72.5080    67.0750    49.1870    23.9160     2.2840 
  194.5000   -12.5720    70.4280    72.3330    66.8640    45.6780    24.0970     2.2870 
  194.6250   -12.5170    66.4190    70.3370    65.5570    40.2930    24.1340     2.2840 
  194.7500   -12.4610    65.8160    66.3470    62.7110    36.1460    24.0300     2.2800 
  194.8750   -12.4060    69.4810    60.9600    58.5730    32.4120    23.9080     2.2770 
  195.0000   -12.3690    72.2010    55.4470    54.0600    27.8870    23.7800     2.2770 
  195.1250   -12.3630    71.3400    51.4380    50.5380    23.8770    23.6540     2.2800 
  195.2500   -12.3830    71.0120    49.3840    48.5920    23.3100    23.5930     2.2800 
  195.3750   -12.4110    71.8360    49.0760    48.1990    24.5710    23.5430     2.2800 
  195.5000   -12.4460    71.2800    49.8010    48.8560    27.3690    23.4230     2.2830 
  195.6250   -12.5060    67.4930    50.5270    49.7050    34.4100    23.2950     2.2910 
  195.7500   -12.5760    64.0450    50.4890    49.9080    39.8710    23.3490     2.2990 
  195.8750   -12.6590    63.5360    49.5640    49.1900    39.2790    23.7240     2.3040 
  196.0000   -12.7480    66.2830    48.2010    47.8530    38.8880    24.2930     2.3020 
  196.1250   -12.8250    68.9790    47.4020    46.7690    42.4370    24.7230     2.2950 
