~V
VERS. 2.00: Ver 2.00
~W
STRT.M 53.0000:
STOP.M 257.0000:
STEP.M 0.1250:
NULL. -999.2500:
UWI. F11022:
~C
DEPT.M :
GR.API :
RML.OHMM :
RI. :
RXO.OHMM :
CALI.CM :
SP.MV :
DEN.GM/CC :
~A
# ...
  244.2500    57.3450    11.9290    10.9390    14.3050    24.9500   -16.8460     2.4020 
  244.3750    55.8920    12.1790    11.0500    14.6370    24.9360   -16.9520     2.3890 
  244.5000    56.0780    12.4880    11.2090    14.9000    24.8960   -16.9430     2.3950 
  244.6250    56.7330    12.6010    11.2600    14.6690    24.8500   -16.9170     2.4170 
  244.7500    55.9380    12.3430    11.0810    14.2550    24.8520   -16.9280     2.4340 
  244.8750    54.8960    11.6970    10.6420    14.2150    24.9160   -16.8840     2.4350 
  245.0000    54.6690    10.8180    10.0230    14.4900    24.9660   -16.9130     2.4230 
  245.1250    54.5280     9.9890     9.3830    13.7780    24.9420   -17.0300     2.4070 
  245.2500    54.8370     9.4050     8.8670    12.2340    24.9050   -17.0590     2.3910 
  245.3750    56.0200     9.1100     8.5320    10.2920    24.9050   -17.0010     2.3730 
  245.5000    56.8400     9.0600     8.3810     8.8860    24.9330   -17.0040     2.3600 
  245.6250    56.2160     9.1560     8.3770     9.1200    24.9370   -17.0910     2.3670 
  245.7500    55.8760     9.2470     8.4110    10.6010    24.9280   -17.1540     2.3850 
  245.8750    57.4430     9.2700     8.4250    12.0120    24.9330   -17.1430     2.3990 
  246.0000    59.6310     9.2250     8.3920    11.9370    24.9450   -17.1020     2.4040 
  246.1250    58.9810     9.1480     8.3190    10.9170    24.9520   -17.0530     2.4090 
  246.2500    57.2280     9.0750     8.2340    10.2440    24.9520   -17.0840     2.4180 
  246.3750    57.2280     9.0190     8.1520     9.6080    24.9520   -17.1330     2.4210 
  246.5000    57.2280     8.9790     8.0890     8.9280    24.9520   -17.0710     2.4140 
  246.6250    57.2280     8.9700     8.0730     8.3830    24.9690   -16.9860     2.4020 
  246.7500    57.2280     9.0190     8.1160     8.4420    25.0340   -16.9430     2.3810 
  246.8750    57.2280     9.1550     8.2290     8.6690    25.1350   -17.0330     2.3490 
  247.0000    57.2280     9.3840     8.4060     9.0040    25.1930   -17.0960     2.3160 
  247.1250    57.2280     9.6820     8.6220     9.2400    25.0910   -17.0610     2.3170 
  247.2500    57.2280     9.9840     8.8330     9.4790    24.9880   -17.0990     2.3540 
  247.3750    57.2280    10.2340     8.9960     9.2520    24.9000   -17.2060     2.4090 
  247.5000    57.2280    10.3730     9.0750     9.4570    24.8510   -17.3890     2.4540 
  247.6250    57.2280    10.3290     9.0280    10.6950    24.8640   -17.5610     2.4690 
  247.7500    57.2280    10.1240     8.8730    12.6300    24.9010   -17.6670     2.4580 
  247.8750    57.2280     9.7920     8.6290    13.3930    24.9250   -17.7080     2.4230 
  248.0000    57.2280     9.3940     8.3290    12.5030    24.9420   -17.7490     2.3760 
  248.1250    57.2280     9.0050     8.0120     9.7510    24.9510   -17.8330     2.3340 
  248.2500    57.2280     8.6700     7.7220     7.8490    24.9500   -17.8370     2.2990 
  248.3750    57.2280     8.4170     7.4890     7.0930    24.9570   -17.7550     2.2750 
  248.5000    57.2280     8.2640     7.3390     6.7090    24.9730   -17.6940     2.2770 
  248.6250    57.2280     8.2330     7.2960     6.3500    25.0400   -17.7400     2.3110 
  248.7500    57.2280     8.2850     7.3300     5.9900    25.0560   -17.7580     2.3510 
  248.8750    57.2280     8.3880     7.4100     5.8140    25.0170   -17.7580     2.3760 
  249.0000    57.2280     8.5120     7.5010     5.8480    24.9460   -17.7980     2.3800 
  249.1250    57.2280     8.6100     7.5660     5.9650    24.9110   -17.8080     2.3580 
  249.2500    57.2280     8.6790     7.5910     6.0330    24.9720   -17.8220     2.3090 
  249.3750    57.2280     8.7350     7.5820     6.0490    25.1580   -17.8820     2.2440 
  249.5000    57.2280     8.7960     7.5620     5.9500    25.3410   -17.9080     2.1910 
  249.6250    57.2280     8.8720     7.5620     5.7390    25.2880   -17.8800     2.1760 
  249.7500    57.2280     8.9430     7.5890     5.4550    25.1690   -17.8160     2.1910 
  249.8750    57.2280     8.9820     7.6280     5.3220    25.0100   -17.7340     2.2240 
  250.0000    57.2280     8.9720     7.6550     5.3840    24.8790   -17.7000     2.2670 
  250.1250    57.2280     8.9230     7.6510     5.6270    24.7830   -17.6740     2.2940 
  250.2500    57.2280     8.8770     7.6290     6.4920    24.8010   -17.6390     2.2710 
  250.3750    57.2280     8.8500     7.6030     7.8120    24.8540   -17.5900     2.2070 
  250.5000    57.2280     8.8470     7.5850     8.0940    24.9850   -17.4990     2.1540 
  250.6250    57.2280     8.8650     7.5800     6.8810    25.2790   -17.4000     2.1450 
  250.7500    57.2280     8.8870     7.5880     5.8210    26.1590   -17.3520     2.1410 
  250.8750    57.2280     8.9070     7.6090     5.4130    27.1140   -17.3140     2.1290 
  251.0000    57.2280     8.9130     7.6350     5.2380    26.9790   -17.2180     2.1290 
  251.1250    57.2280     8.8910     7.6520     5.4280    26.0930   -17.2000     2.1500 
  251.2500    57.2280     8.8560     7.6560     5.8960    25.6300   -17.2550     2.1380 
  251.3750    57.2280     8.8200     7.6530     6.2800    25.5020   -17.2590     2.0840 
  251.5000    57.2280     8.7940     7.6500     6.3170    25.3740   -17.2420     2.0450 
  251.6250    57.2280     8.7800     7.6550     6.4390    25.2150   -17.2710     2.0740 
  251.7500    57.2280     8.7700     7.6640     6.6600    25.1220   -17.3400     2.1410 
  251.8750    57.2280     8.7580     7.6730     6.7990    25.0950   -17.4680     2.2120 
  252.0000    57.2280     8.7440     7.6780     6.9350    25.1410   -17.5960     2.2700 
  252.1250    57.2280     8.7360     7.6810     7.4980    25.0410   -17.6410     2.3070 
  252.2500    57.2280     8.7360     7.6810     8.4210    24.8140   -17.6330     2.3390 
  252.3750    57.2280     8.7360     7.6810     9.1580    24.5160   -17.6160     2.3700 
  252.5000    57.2280     8.7360     7.6810     7.7320    24.3590   -17.6090     2.3880 
  252.6250    57.2280     8.7360     7.6810     6.7500    24.4260   -17.5580     2.3890 
  252.7500    57.2280     8.7360     7.6810     6.5430    24.8140   -17.5540     2.3650 
  252.8750    57.2280     8.7360     7.6810     7.2200    25.2430   -17.4190     2.3180 
  253.0000    57.2280     8.7360     7.6810     8.4180    25.2960   -17.3230     2.2740 
  253.1250    57.2280     8.7360     7.6810     8.3740    24.8300   -17.2580     2.2580 
  253.2500    57.2280     8.7360     7.6810     7.5210    24.3450   -17.1510     2.2690 
  253.3750    57.2280     8.7360     7.6810     6.7600    23.9640   -17.1200     2.2840 
  253.5000    57.2280     8.7360     7.6810     6.3440    23.5810   -17.1540     2.2830 
  253.6250    57.2280     8.7360     7.6810     6.2750    23.2350   -17.0960     2.2640 
  253.7500    57.2280     8.7360     7.6810     6.4270    23.0380   -17.0470     2.2260 
  253.8750    57.2280     8.7360     7.6810     6.6630    22.9190   -16.9980     2.1690 
  254.0000    57.2280     8.7360     7.6810     6.7160    22.4950   -16.9980     2.1150 
  254.1250    57.2280     8.7360     7.6810     6.4130    21.7260   -16.9980     2.0780 
  254.2500    57.2280     8.7360     7.6810     6.1090    20.9360  -999.2500     2.0600 
  254.3750    57.2280     8.7360     7.6810     5.9930    20.5460  -999.2500     2.0540 
  254.5000    57.2280     8.7360     7.6810     5.9800    20.4520  -999.2500     2.0520 
  254.6250    57.2280     8.7360     7.6810     5.9800    20.4520  -999.2500     2.0550 
  254.7500    57.2280     8.7360     7.6810     5.9810    20.4520  -999.2500     2.0600 
  254.8750    57.2280     8.7360     7.6810     5.9790    20.4520  -999.2500     2.0630 
  255.0000    57.2280     8.7360     7.6810     5.9780    20.4520  -999.2500  -999.2500 
  255.1250    57.2280     8.7360     7.6810     5.9790    20.4520  -999.2500  -999.2500 
  255.2500    57.2280     8.7360     7.6810     5.9800    20.4520  -999.2500  -999.2500 
  255.3750    57.2280     8.7360     7.6810     5.9800    20.4520  -999.2500  -999.2500 
