~V
VERS. 2.00: Ver 2.00
~W
STRT.M 65.0000:
STOP.M 225.0000:
STEP.M 0.1250:
NULL. -999.2500:
UWI. F11012:
~C
DEPT.M :
SP.MV :
GR.API :
RML.OHMM :
RI. :
RXO.OHMM :
CALI.CM :
DEN.GM/CC :
~A
# ...
  121.2500   -11.7430    70.2570     8.6460     7.7030    13.2600    23.3050     2.4030 
  121.3750   -11.6480    71.2730     7.0270     6.3290     6.5640    23.4220     2.3530 
  121.5000   -11.5700    71.3730     6.2920     5.5670     4.8270    23.4880     2.2990 
  121.6250   -11.4780    72.1200     6.2580     5.3520     5.3290    23.4310     2.2570 
  121.7500   -11.3990    71.4330     6.6540     5.5720     6.1290    23.3230     2.2360 
  121.8750   -11.3230    68.8930     7.0420     5.9100     6.6580    23.3090     2.2300 
  122.0000   -11.2340    67.1800     7.1360     6.1100     6.7390    23.3660     2.2400 
  122.1250   -11.1200    71.2840     6.8330     6.0140     6.3450    23.4660     2.2610 
  122.2500   -11.0030    81.3110     6.2560     5.6340     5.5120    23.6090     2.2900 
  122.3750   -10.8960    89.1070     5.6940     5.1890     4.9400    23.7580     2.3170 
  122.5000   -10.8200    90.0050     5.2670     4.7990     4.8020    23.8440     2.3330 
  122.6250   -10.8050    87.6160     4.9910     4.5120     4.9130    23.8440     2.3390 
  122.7500   -10.8590    93.3050     4.8520     4.3420     4.9170    23.8610     2.3440 
  122.8750   -10.9780   102.4380     4.8120     4.2540     4.6690    23.9060     2.3490 
  123.0000   -11.1460   105.0770     4.8870     4.2510     4.5350    24.0070     2.3530 
  123.1250   -11.3760    99.2350     5.1050     4.3530     4.6010    24.1460     2.3520 
  123.2500   -11.6660    91.6070     5.4830     4.5880     4.9880    24.2590     2.3470 
  123.3750   -11.9720    87.9430     5.9200     4.8960     5.4360    24.2130     2.3420 
  123.5000   -12.2590    85.5550     6.2860     5.1850     6.0800    24.0240     2.3330 
  123.6250   -12.5070    81.0190     6.4500     5.3480     6.7070    23.9120     2.3140 
  123.7500   -12.6970    76.3460     6.3200     5.2940     7.2950    24.0880     2.2850 
  123.8750   -12.8170    77.5920     6.0400     5.1120     6.4990    24.3690     2.2680 
  124.0000   -12.8860    84.2200     5.7850     4.9210     5.4810    24.3810     2.2670 
  124.1250   -12.9060    88.7830     5.7010     4.8340     4.9960    24.1440     2.2610 
  124.2500   -12.8570    87.2910     5.8920     4.9380     5.1350    23.8170     2.2370 
  124.3750   -12.7670    84.1430     6.2870     5.2030     5.7100    23.6070     2.2190 
  124.5000   -12.6640    79.9210     6.7890     5.5710     6.6690    23.5610     2.2180 
  124.6250   -12.5610    76.3590     7.2600     5.9530     7.3550    23.5800     2.2240 
  124.7500   -12.4350    77.9600     7.5190     6.2140     7.4050    23.5780     2.2250 
  124.8750   -12.3150    80.8120     7.5210     6.2940     7.2700    23.5610     2.2220 
  125.0000   -12.1950    79.9870     7.2870     6.1890     7.1900    23.5760     2.2260 
  125.1250   -12.0630    78.6150     6.9080     5.9490     6.9880    23.5760     2.2420 
  125.2500   -11.9480    82.5870     6.5160     5.6610     6.3160    23.5280     2.2720 
  125.3750   -11.8480    86.4670     6.2140     5.4130     5.7350    23.3930     2.2990 
  125.5000   -11.7520    86.3830     6.0300     5.2410     5.4400    23.2230     2.3130 
  125.6250   -11.6630    83.7270     5.9460     5.1520     5.4120    22.9920     2.3150 
  125.7500   -11.6010    82.3050     5.9240     5.1280     5.3490    22.8610     2.3140 
  125.8750   -11.5540    84.5800     5.9060     5.1220     5.2680    22.8940     2.3150 
  126.0000   -11.5300    91.2720     5.8810     5.1110     5.0860    22.9340     2.3150 
  126.1250   -11.5430    97.7610     5.8630     5.0960     4.9600    22.9820     2.3110 
  126.2500   -11.5700    95.2490     5.8760     5.0980     5.0370    23.1080     2.2970 
  126.3750   -11.5930    88.0470     5.9130     5.1210     5.1970    23.2290     2.2790 
  126.5000   -11.6080    82.5910     5.9560     5.1600     5.2700    23.2060     2.2610 
  126.6250   -11.6130    80.2910     5.9940     5.2030     5.5030    23.0960     2.2390 
  126.7500   -11.6180    78.9240     6.0490     5.2550     6.0120    23.0720     2.2200 
  126.8750   -11.6290    80.7620     6.1940     5.3630     6.1570    23.1370     2.2130 
  127.0000   -11.6410    83.5060     6.5390     5.6040     5.7270    23.2570     2.2230 
  127.1250   -11.6640    83.8490     7.2100     6.0750     5.1560    23.3810     2.2400 
  127.2500   -11.7060    82.2680     8.4230     6.9550     5.3400    23.5620     2.2390 
  127.3750   -11.7450    81.9330    10.1970     8.3030     6.3480    23.7930     2.2230 
  127.5000   -11.7740    81.3260    12.5260    10.1870     8.3330    24.0290     2.2060 
  127.6250   -11.7950    76.5470    15.2480    12.5720    11.1600    24.1410     2.1980 
  127.7500   -11.7680    67.9770    17.9060    15.1880    16.3330    24.1290     2.1980 
  127.8750   -11.6980    62.2250    19.8690    17.3990    22.3090    24.1610     2.1960 
  128.0000   -11.5830    61.9700    20.6030    18.5760    25.5930    24.1390     2.1950 
  128.1250   -11.4010    64.8110    19.8580    18.3310    25.3230    23.9340     2.1980 
  128.2500   -11.1390    67.0870    17.7120    16.6310    23.9240    23.4570     2.2040 
  128.3750   -10.8530    70.1420    15.0310    14.3130    22.6580    23.0960     2.2060 
  128.5000   -10.5660    73.8310    12.4000    11.9460    20.2430    22.9920     2.2010 
  128.6250   -10.2920    76.8950    10.2030     9.8990    14.6740    22.9810     2.2020 
  128.7500   -10.0870    80.3350     8.7000     8.4220     9.6390    22.6780     2.2230 
  128.8750    -9.9550    85.1240     7.7830     7.4530     7.0700    22.4560     2.2560 
  129.0000    -9.9010    87.7120     7.4090     6.9750     6.6450    22.3920     2.2840 
  129.1250    -9.9290    87.8600     7.5860     6.9930     6.9840    22.4730     2.2960 
  129.2500   -10.0410    86.6820     8.4430     7.6320     7.5320    22.7440     2.2880 
  129.3750   -10.2050    82.1050     9.8140     8.7910     8.4720    23.1080     2.2710 
  129.5000   -10.4100    74.0720    11.4740    10.3470    10.7350    23.5050     2.2510 
  129.6250   -10.6330    65.6450    13.0540    12.0160    15.6860    23.9190     2.2350 
  129.7500   -10.8370    61.4430    13.9990    13.2600    21.1640    24.1970     2.2320 
  129.8750   -11.0070    61.0590    14.1280    13.7290    22.1730    24.2300     2.2510 
  130.0000   -11.1540    65.8260    13.5230    13.3810    18.2520    24.0050     2.2920 
  130.1250   -11.2890    73.8400    12.4760    12.4610    14.2160    23.5630     2.3370 
  130.2500   -11.4130    76.4650    11.2970    11.2880    15.5600    23.2180     2.3540 
  130.3750   -11.5280    74.4200    10.2100    10.1460    14.1890    23.1000     2.3400 
  130.5000   -11.6380    72.9740     9.3430     9.1890    11.5600    23.2710     2.3210 
  130.6250   -11.7490    73.9780     8.8190     8.5430     8.7290    23.6610     2.3210 
  130.7500   -11.8670    74.2550     8.8750     8.4010     7.6990    23.8440     2.3460 
  130.8750   -11.9790    72.2350     9.6000     8.8120     8.4320    23.8680     2.3820 
  131.0000   -12.0770    68.8100    11.0830     9.8730    11.5040    23.8300     2.4250 
  131.1250   -12.1660    63.8710    13.2490    11.6080    17.1170    23.7910     2.4710 
  131.2500   -12.2450    59.1600    15.7890    13.9120    20.2370    23.7240     2.5150 
  131.3750   -12.3140    56.9530    18.0840    16.2350    20.6610    23.6360     2.5480 
  131.5000   -12.3700    56.8150    19.6410    18.0220    21.2590    23.5330     2.5660 
  131.6250   -12.4130    56.8830    20.1910    18.8540    21.8880    23.4100     2.5700 
  131.7500   -12.4380    54.9760    19.6960    18.5570    20.9430    23.3840     2.5640 
  131.8750   -12.4630    53.7730    18.6950    17.6660    20.2760    23.4050     2.5530 
  132.0000   -12.4930    54.9440    17.5460    16.5590    19.7040    23.4330     2.5380 
  132.1250   -12.5070    57.2590    16.5260    15.5170    17.9620    23.5120     2.5210 
  132.2500   -12.5170    57.7980    15.8980    14.7850    16.0800    23.6290     2.5130 
  132.3750   -12.5180    57.6800    15.6780    14.4050    15.4190    23.6600     2.5190 
