~V
VERS. 2.00: Ver 2.00
~W
STRT.M 53.0000:
STOP.M 279.0000:
STEP.M 0.1250:
NULL. -999.2500:
UWI. F11068:
~C
DEPT.M :
GR.API :
RML.OHMM :
RI. :
RXO.OHMM :
CALI.CM :
SP.MV :
DEN.GM/CC :
~A
# ...
  143.0000    70.1120    11.8900    10.1350     9.6410    24.0810   -15.7370     2.1960 
  143.1250    70.7370    11.9600    10.2880     9.9620    24.0750   -16.0050     2.1950 
  143.2500    71.1330    11.9510    10.3370    10.0610    24.0730   -16.1120     2.1880 
  143.3750    69.6320    11.9020    10.3020    10.1230    24.0550   -16.0170     2.1760 
  143.5000    66.9190    11.8660    10.2120    10.3220    24.0220   -15.7720     2.1610 
  143.6250    66.2470    11.9730    10.1530    10.4110    23.9690   -15.3340     2.1480 
  143.7500    68.8460    12.3710    10.2570    10.3830    23.8880   -14.6730     2.1510 
  143.8750    72.2740    13.2300    10.6820    10.3360    23.7780   -13.9300     2.1860 
  144.0000    72.9020    14.6810    11.5790    10.4530    23.6860   -13.1530     2.2620 
  144.1250    70.2770    16.8090    13.1820    12.1050    23.6810   -12.3760     2.3770 
  144.2500    68.3910    19.2080    15.3710    15.3090    23.6750   -11.5990     2.4970 
  144.3750    68.3800    21.2930    17.7820    18.8160    23.6760   -10.8720     2.5920 
  144.5000    67.0660    22.3430    19.6320    22.1450    23.6990   -10.1980     2.6390 
  144.6250    62.8750    21.5980    19.7190    24.0660    23.7170    -9.6770     2.6240 
  144.7500    61.0540    19.5250    18.1700    22.0990    23.7380    -9.4070     2.5760 
  144.8750    63.7630    16.8390    15.7220    18.3490    23.7870    -9.3740     2.5170 
  145.0000    69.7840    14.3150    13.2510    12.7340    23.8900    -9.4830     2.4700 
  145.1250    76.7770    12.5840    11.4240    10.1730    23.9890    -9.7100     2.4490 
  145.2500    81.6010    11.6120    10.2680     8.8670    24.0750   -10.0130     2.4440 
  145.3750    82.1250    11.2230     9.6830     7.8300    24.0910   -10.3440     2.4400 
  145.5000    77.2350    11.1500     9.5020     7.9300    24.0620   -10.6900     2.4260 
  145.6250    72.5010    11.1070     9.4930     8.2530    24.0420   -10.9570     2.4010 
  145.7500    73.3800    10.9340     9.3950     9.0850    24.0300   -11.0890     2.3790 
  145.8750    78.5130    10.6890     9.1670     9.2570    24.0100   -11.0750     2.3720 
  146.0000    83.5050    10.5790     8.9550     8.9130    23.9930   -10.9760     2.3830 
  146.1250    84.3010    10.9680     9.0740     8.6150    23.9740   -10.8230     2.4040 
  146.2500    80.2610    11.9740     9.7240     9.2310    23.9430   -10.7010     2.4180 
  146.3750    73.2940    13.5630    11.0280    11.5280    23.9300   -10.5960     2.4160 
  146.5000    66.3410    15.4530    12.9280    15.1540    24.0180   -10.4990     2.3920 
  146.6250    63.3370    17.0100    14.9800    20.3950    24.2200   -10.4570     2.3510 
  146.7500    63.7120    17.7110    16.3470    24.0840    24.3570   -10.3910     2.3030 
  146.8750    65.5790    17.4030    16.5200    20.8600    24.3680   -10.3940     2.2600 
  147.0000    66.3610    16.3620    15.6490    15.0250    24.3050   -10.4490     2.2250 
  147.1250    64.6600    15.1520    14.3770    13.1650    24.2240   -10.5570     2.1990 
  147.2500    64.5960    14.2450    13.3250    12.5190    24.2210   -10.5950     2.1770 
  147.3750    67.4220    13.7360    12.6490    12.1820    24.2880   -10.5820     2.1570 
  147.5000    70.1530    13.5210    12.2940    12.0580    24.3270   -10.4660     2.1390 
  147.6250    69.7620    13.4540    12.1160    12.2080    24.3290   -10.3190     2.1340 
  147.7500    67.5070    13.4600    11.9830    12.1800    24.2880   -10.2150     2.1490 
  147.8750    65.6530    13.6450    11.9500    11.9920    24.2420   -10.1250     2.1920 
  148.0000    66.1560    14.2060    12.1840    11.4250    24.2030   -10.0740     2.2630 
  148.1250    68.6620    15.4480    13.0000    12.0460    24.1970    -9.9630     2.3560 
  148.2500    69.7110    17.2970    14.4630    15.9570    24.2200    -9.8140     2.4500 
  148.3750    66.1520    19.5080    16.5000    21.9930    24.2860    -9.6480     2.5280 
  148.5000    58.5510    21.6180    18.7540    26.8570    24.3410    -9.5180     2.5800 
  148.6250    53.8320    22.9540    20.4590    28.1320    24.3160    -9.3910     2.5990 
  148.7500    55.6990    23.3840    21.1780    26.0370    24.2510    -9.2640     2.5980 
  148.8750    59.7760    23.1370    21.0220    21.8070    24.1140    -9.1280     2.5890 
  149.0000    60.8530    22.7000    20.5040    18.4770    23.9120    -8.9490     2.5830 
  149.1250    60.7990    22.6500    20.2350    19.2120    23.8140    -8.7730     2.5880 
  149.2500    63.2300    23.1780    20.4590    21.8420    23.8330    -8.6100     2.5990 
  149.3750    64.1420    24.2480    21.1930    24.0680    23.8720    -8.4600     2.6080 
  149.5000    59.4460    25.6890    22.3410    23.3210    23.7480    -8.3500     2.6120 
  149.6250    55.3340    27.2500    23.7380    23.3830    23.4830    -8.3040     2.6120 
  149.7500    57.9510    28.6410    25.1120    25.9010    23.3420    -8.2700     2.6140 
  149.8750    63.4070    29.6460    26.2690    28.5140    23.6810    -8.2220     2.6230 
  150.0000    64.2360    30.0820    27.0380    29.4560    24.0810    -8.1170     2.6390 
  150.1250    60.9600    29.7310    27.1680    27.7820    24.1720    -8.0520     2.6540 
  150.2500    60.8940    28.7740    26.6970    26.1590    24.1240    -8.0190     2.6600 
  150.3750    63.5790    27.4450    25.7480    25.6230    24.1180    -8.0260     2.6540 
  150.5000    64.3840    26.0600    24.5760    24.5880    24.1890    -8.0000     2.6410 
  150.6250    61.1410    24.9580    23.5260    23.1540    24.3780    -7.9340     2.6300 
  150.7500    58.5120    24.1950    22.7940    21.5770    24.5120    -7.8560     2.6300 
  150.8750    58.6040    23.6550    22.3740    21.1590    24.5280    -7.7040     2.6420 
  151.0000    59.7130    23.1100    22.0840    22.1790    24.4410    -7.5230     2.6570 
  151.1250    59.3640    22.2730    21.5710    24.1420    24.3070    -7.2690     2.6630 
  151.2500    58.6170    21.0990    20.6420    24.7460    24.1660    -7.0030     2.6560 
  151.3750    59.8910    19.7020    19.3280    21.9240    24.0840    -6.7510     2.6380 
  151.5000    62.2470    18.3210    17.8700    18.1500    24.0930    -6.5140     2.6190 
  151.6250    62.9570    17.2940    16.6560    15.5250    24.2050    -6.3130     2.6070 
  151.7500    61.0980    16.7620    15.8950    14.6300    24.2730    -6.1600     2.6020 
  151.8750    57.5510    16.7630    15.6550    14.8410    24.2820    -6.1440     2.6000 
  152.0000    54.6550    17.2220    15.8990    15.2360    24.3220    -6.2510     2.5990 
  152.1250    55.6250    17.9850    16.5310    15.7560    24.4590    -6.4370     2.6120 
  152.2500    59.3550    18.7590    17.2640    17.6770    24.5930    -6.6650     2.6230 
  152.3750    61.3570    19.3470    17.8990    19.8200    24.6340    -6.8980     2.6280 
  152.5000    59.7280    19.6420    18.3000    21.4800    24.5740    -7.0610     2.6240 
  152.6250    58.1080    19.6020    18.3930    21.7670    24.5150    -7.1620     2.6120 
  152.7500    59.7630    19.3840    18.2890    21.2050    24.4640    -7.2320     2.6010 
  152.8750    63.5970    19.1150    18.0880    21.1490    24.4670    -7.2510     2.5950 
  153.0000    67.6270    18.9180    17.8920    20.7910    24.4990    -7.2130     2.5930 
  153.1250    71.5670    18.9180    17.8260    19.4200    24.5150    -7.1820     2.5940 
  153.2500    74.0960    19.1190    17.9480    20.6110    24.6020    -7.1850     2.5970 
  153.3750    74.3070    19.4760    18.2600    22.2510    24.7350    -7.2470     2.6040 
  153.5000    73.7600    19.8630    18.6810    23.1000    24.8540    -7.4680     2.6150 
  153.6250    73.0980    20.0420    19.0020    22.7170    24.9120    -7.7210     2.6270 
  153.7500    70.8760    19.8540    18.9950    23.5200    24.6930    -8.0140     2.6320 
  153.8750    68.7490    19.2490    18.5280    23.5080    24.2240    -8.2840     2.6270 
  154.0000    69.2190    18.3390    17.6550    21.3580    23.9930    -8.5780     2.6170 
  154.1250    72.9330    17.3940    16.6410    17.9030    24.1150    -8.8540     2.6100 
