~V
VERS. 2.00: Ver 2.00
~W
STRT.M 55.0000:
STOP.M 249.0000:
STEP.M 0.1250:
NULL. -999.2500:
UWI. F11017:
~C
DEPT.M :
GR.API :
RML.OHMM :
RI. :
RXO.OHMM :
CALI.CM :
DEN.GM/CC :
SP.MV :
~A
# ...
  100.0000    53.7590     8.2420     7.0860     7.9210    23.7840     2.1680   -15.0380 
  100.1250    55.9090     8.1530     7.0070     7.8880    23.7520     2.1710   -15.2060 
  100.2500    57.2730     8.0630     6.9120     8.1700    23.7050     2.1770   -15.2900 
  100.3750    56.5200     7.9680     6.8100     8.2130    23.6530     2.1820   -15.3180 
  100.5000    55.3780     7.8640     6.7070     8.0110    23.5960     2.1870   -15.3060 
  100.6250    56.1870     7.7700     6.6200     7.8680    23.5600     2.1900   -15.2590 
  100.7500    56.0960     7.7200     6.5760     7.8280    23.5510     2.1910   -15.2120 
  100.8750    53.6250     7.7460     6.5950     7.8300    23.5700     2.1880   -15.1820 
  101.0000    52.5150     7.8530     6.6790     7.7450    23.6010     2.1840   -15.1620 
  101.1250    55.3340     8.0230     6.8090     7.7400    23.6500     2.1800   -15.1330 
  101.2500    56.5050     8.1910     6.9340     7.9700    23.7080     2.1800   -15.0920 
  101.3750    54.9430     8.3060     7.0150     8.2330    23.7440     2.1860   -15.0300 
  101.5000    54.1670     8.3340     7.0250     8.2520    23.7600     2.1980   -14.9580 
  101.6250    54.9450     8.2490     6.9490     7.9260    23.8010     2.2090   -14.8980 
  101.7500    54.4120     8.0930     6.8200     7.7770    23.9230     2.2130   -14.8440 
  101.8750    54.7520     7.9060     6.6700     7.5970    24.0930     2.2090   -14.7880 
  102.0000    57.8330     7.7390     6.5340     7.2210    24.2030     2.2030   -14.7350 
  102.1250    60.0650     7.6430     6.4540     6.8520    24.1930     2.2010   -14.7010 
  102.2500    59.6470     7.6240     6.4320     6.6380    24.1380     2.2070   -14.6790 
  102.3750    57.3130     7.6590     6.4580     6.5970    24.1010     2.2150   -14.6610 
  102.5000    54.4460     7.7000     6.4980     6.7430    24.0830     2.2210   -14.6530 
  102.6250    52.8220     7.6780     6.4990     7.0700    24.0700     2.2210   -14.6430 
  102.7500    52.9210     7.5760     6.4300     7.5690    24.0500     2.2180   -14.6290 
  102.8750    54.3380     7.4140     6.2950     7.6890    24.0310     2.2140   -14.6190 
  103.0000    56.0220     7.2510     6.1320     7.3540    24.0140     2.2130   -14.6340 
  103.1250    58.1260     7.1800     6.0150     6.7580    23.9680     2.2160   -14.6840 
  103.2500    60.0190     7.2460     5.9970     6.3640    23.8790     2.2210   -14.7850 
  103.3750    60.2450     7.4590     6.0990     6.4770    23.7740     2.2240   -14.9390 
  103.5000    59.3650     7.7780     6.3070     7.0350    23.7070     2.2250   -15.1420 
  103.6250    57.6190     8.1140     6.5830     7.7430    23.6830     2.2190   -15.3960 
  103.7500    54.1680     8.3760     6.8510     8.1010    23.6760     2.2100   -15.6680 
  103.8750    50.1770     8.5230     7.0600     8.1330    23.6830     2.1990   -15.9390 
  104.0000    48.3780     8.5660     7.1860     8.1040    23.6880     2.1880   -16.1820 
  104.1250    49.8930     8.5420     7.2230     8.1910    23.6800     2.1800   -16.3630 
  104.2500    51.8410     8.5090     7.2130     8.3660    23.6680     2.1740   -16.4960 
  104.3750    52.4060     8.4890     7.1880     8.5510    23.6490     2.1710   -16.6000 
  104.5000    52.5950     8.4940     7.1700     8.6250    23.6060     2.1710   -16.6750 
  104.6250    53.9730     8.5290     7.1740     8.5250    23.5620     2.1710   -16.7010 
  104.7500    54.6510     8.5900     7.2020     8.3920    23.5250     2.1720   -16.6810 
  104.8750    53.3270     8.6630     7.2500     8.2290    23.4850     2.1730   -16.6120 
  105.0000    51.7700     8.7300     7.3130     8.1300    23.4560     2.1740   -16.5170 
  105.1250    52.5030     8.7700     7.3830     8.1300    23.4840     2.1750   -16.4340 
  105.2500    54.1600     8.7820     7.4520     8.1760    23.5330     2.1760   -16.3540 
  105.3750    55.3690     8.7770     7.5170     8.4110    23.5620     2.1780   -16.2580 
  105.5000    56.6260     8.7600     7.5780     8.8290    23.5900     2.1830   -16.1320 
  105.6250    57.3610     8.7360     7.6370     9.1050    23.6310     2.1890   -15.9640 
  105.7500    56.4430     8.7140     7.6990     8.8770    23.6420     2.1970   -15.7630 
  105.8750    55.1910     8.7080     7.7670     8.3530    23.5410     2.2040   -15.5210 
  106.0000    55.0540     8.7280     7.8370     8.0420    23.3840     2.2090   -15.2250 
  106.1250    55.3780     8.7560     7.8850     8.0360    23.4910     2.2080   -14.8410 
  106.2500    54.7480     8.7340     7.8720     8.1150    23.7140     2.2030   -14.3760 
  106.3750    53.4540     8.6010     7.7510     8.1860    23.8480     2.1980   -13.8460 
  106.5000    53.8580     8.3230     7.4960     8.0820    23.8790     2.1940   -13.2690 
  106.6250    56.3520     7.9000     7.0980     7.7870    23.8870     2.1940   -12.6380 
  106.7500    58.9330     7.4190     6.6300     7.2860    23.9370     2.1990   -11.9900 
  106.8750    61.1760     6.9330     6.1440     6.5890    24.0310     2.2050   -11.3620 
  107.0000    62.5560     6.4850     5.6850     5.8610    24.1150     2.2100   -10.7710 
  107.1250    62.5050     6.1650     5.3310     5.6860    24.1550     2.2130   -10.2430 
  107.2500    61.7260     6.1200     5.1770     5.9730    24.1870     2.2170    -9.7870 
  107.3750    63.2830     6.6060     5.3880     6.0820    24.2240     2.2280    -9.4130 
  107.5000    67.3180     7.9450     6.1890     6.0110    24.2620     2.2550    -9.1250 
  107.6250    68.5920    10.6340     8.0090     7.9440    24.2680     2.3070    -8.9560 
  107.7500    64.9290    14.4130    10.8110    12.7150    24.2250     2.3750    -8.8820 
  107.8750    59.7840    18.6210    14.2580    20.8000    24.1100     2.4450    -8.8750 
  108.0000    57.2510    22.0930    17.5460    34.3250    23.9830     2.4920    -8.9000 
  108.1250    58.3340    22.9600    19.1540    43.6690    23.9430     2.4890    -8.9300 
  108.2500    59.7490    20.8280    18.2970    35.2000    24.0220     2.4480    -8.9360 
  108.3750    60.4910    16.5890    15.3620    21.8200    24.1590     2.3950    -8.8820 
  108.5000    62.2440    12.1280    11.8660    13.9180    24.2420     2.3500    -8.7650 
  108.6250    66.9510     9.0270     9.1750    10.1410    24.2120     2.3240    -8.6100 
  108.7500    74.2470     7.2200     7.4020     7.3310    24.1750     2.3090    -8.4380 
  108.8750    80.9930     6.3540     6.3670     5.7390    24.1720     2.2950    -8.2620 
  109.0000    84.5640     6.0640     5.8570     5.1630    24.0670     2.2820    -8.1020 
  109.1250    84.9850     6.0860     5.7210     5.0100    23.7550     2.2700    -7.9670 
  109.2500    83.9410     6.1860     5.7490     4.8150    23.4340     2.2620    -7.8630 
  109.3750    81.5910     6.2840     5.8460     4.6290    23.3990     2.2560    -7.8080 
  109.5000    77.6050     6.3510     5.9500     4.6620    23.6530     2.2490    -7.7980 
  109.6250    74.2830     6.3880     6.0270     4.9300    23.9590     2.2420    -7.8070 
  109.7500    73.7310     6.4070     6.0770     5.2020    24.2380     2.2380    -7.8190 
  109.8750    74.8460     6.4010     6.0970     5.4520    24.4360     2.2400    -7.8360 
  110.0000    75.9630     6.3570     6.0780     5.5840    24.5290     2.2510    -7.8640 
  110.1250    78.1640     6.2540     5.9950     5.8130    24.5210     2.2670    -7.9130 
  110.2500    80.8190     6.1000     5.8490     6.2290    24.4570     2.2780    -7.9790 
  110.3750    83.9900     5.9090     5.6500     6.5680    24.3470     2.2790    -8.0650 
  110.5000    86.3000     5.7120     5.4290     5.9260    24.1820     2.2700    -8.1900 
  110.6250    85.4530     5.5590     5.2430     5.0190    23.9770     2.2560    -8.3900 
  110.7500    81.0880     5.4910     5.1360     4.5640    23.7780     2.2430    -8.6560 
  110.8750    78.6970     5.5370     5.1360     4.5060    23.6330     2.2370    -8.9760 
  111.0000    83.8130     5.7070     5.2530     4.7060    23.5410     2.2350    -9.3370 
  111.1250    90.2860     5.9990     5.4880     4.9310    23.4800     2.2360    -9.7370 
