~V
VERS. 2.00: Ver 2.00
~W
STRT.M 55.0000:
STOP.M 275.0000:
STEP.M 0.1250:
NULL. -999.2500:
UWI. F11036:
~C
DEPT.M :
GR.API :
RML.OHMM :
RI. :
RXO.OHMM :
CALI.CM :
DEN.GM/CC :
SP.MV :
~A
# ...
  145.0000   104.6590     5.7570     4.6560     4.7440    23.8340     2.3290   -13.8910 
  145.1250   103.1900     5.9170     4.7840     4.8870    24.1090     2.3270   -13.6080 
  145.2500   100.3840     6.0290     4.8930     4.9930    24.3010     2.3230   -13.4120 
  145.3750    98.5040     6.0490     4.9290     4.9600    24.4800     2.3220   -13.2470 
  145.5000    97.6130     5.9850     4.8880     4.8870    24.6250     2.3250   -13.1000 
  145.6250    98.3970     5.8770     4.7840     4.6980    24.7170     2.3350   -12.9740 
  145.7500   102.0060     5.7810     4.6670     4.5380    24.7680     2.3440   -12.8660 
  145.8750   107.3540     5.7220     4.5650     4.4870    24.7680     2.3510   -12.7760 
  146.0000   111.0200     5.7030     4.4930     4.4900    24.7580     2.3530   -12.6980 
  146.1250   108.6760     5.7090     4.4470     4.5320    24.7560     2.3520   -12.6080 
  146.2500   103.9140     5.7120     4.4090     4.5240    24.7600     2.3500   -12.5270 
  146.3750   102.0820     5.7020     4.3690     4.4990    24.7620     2.3470   -12.4590 
  146.5000   103.7230     5.6840     4.3280     4.4820    24.7610     2.3420   -12.4160 
  146.6250   104.2530     5.6760     4.3000     4.4930    24.7670     2.3370   -12.3780 
  146.7500   103.9320     5.7000     4.3000     4.4710    24.7740     2.3330   -12.3610 
  146.8750   104.4040     5.7640     4.3360     4.5080    24.7710     2.3350   -12.3760 
  147.0000   104.7120     5.8620     4.4060     4.5630    24.7660     2.3410   -12.3720 
  147.1250   100.8510     5.9720     4.4930     4.6630    24.7690     2.3490   -12.3470 
  147.2500    95.7090     6.0620     4.5690     4.7700    24.7730     2.3570   -12.3180 
  147.3750    94.0680     6.1100     4.6170     4.9040    24.7720     2.3670   -12.2980 
  147.5000    97.1480     6.1060     4.6280     4.8720    24.7760     2.3760   -12.2690 
  147.6250   105.4390     6.0570     4.6010     4.7230    24.7890     2.3820   -12.2260 
  147.7500   113.1400     5.9880     4.5540     4.7430    24.7880     2.3810   -12.1490 
  147.8750   115.2770     5.9150     4.4960     4.8530    24.7670     2.3740   -12.0460 
  148.0000   109.7720     5.8450     4.4310     4.7790    24.7260     2.3670   -11.9630 
  148.1250   101.6510     5.7880     4.3690     4.5500    24.6990     2.3670   -11.9340 
  148.2500    99.5080     5.7470     4.3210     4.4730    24.6870     2.3740   -11.9080 
  148.3750   102.5730     5.7270     4.2930     4.4940    24.7310     2.3850   -11.8560 
  148.5000   105.4700     5.7300     4.2920     4.5220    24.7830     2.3930   -11.7940 
  148.6250   104.0800     5.7540     4.3190     4.5200    24.7930     2.3920   -11.7180 
  148.7500   103.9480     5.7920     4.3640     4.5120    24.8010     2.3850   -11.6530 
  148.8750   106.0510     5.8430     4.4220     4.5200    24.8130     2.3770   -11.6150 
  149.0000   107.6410     5.9090     4.4910     4.5690    24.8230     2.3710   -11.5890 
  149.1250   106.4140     5.9910     4.5740     4.7070    24.8260     2.3700   -11.5500 
  149.2500   102.9460     6.0790     4.6610     4.8160    24.8170     2.3690   -11.5230 
  149.3750    98.5050     6.1650     4.7490     4.8870    24.7980     2.3660   -11.5320 
  149.5000    96.0530     6.2360     4.8280     4.9240    24.7770     2.3590   -11.5640 
  149.6250    97.9000     6.2700     4.8810     4.9090    24.7750     2.3500   -11.6600 
  149.7500   101.0650     6.2570     4.9000     4.9160    24.7810     2.3430   -11.8300 
  149.8750   102.1610     6.2000     4.8860     4.9570    24.7900     2.3410   -12.0220 
  150.0000   103.6300     6.1150     4.8540     4.9080    24.8060     2.3450   -12.2090 
  150.1250   107.8570     6.0460     4.8350     4.8200    24.8080     2.3500   -12.4030 
  150.2500   112.7190     6.0340     4.8610     4.7930    24.8010     2.3540   -12.6060 
  150.3750   116.4770     6.1070     4.9480     4.9050    24.7850     2.3530   -12.8450 
  150.5000   118.6400     6.2750     5.1000     5.0840    24.7790     2.3470   -13.1590 
  150.6250   116.0240     6.5360     5.3150     5.2690    24.7630     2.3400   -13.4660 
  150.7500   108.9890     6.8410     5.5550     5.4690    24.7640     2.3330   -13.6990 
  150.8750   102.1970     7.1450     5.7800     5.6260    24.7780     2.3270   -13.8780 
  151.0000   101.6800     7.4040     5.9500     5.7590    24.8060     2.3240   -14.0540 
  151.1250   104.0980     7.5550     6.0140     5.8960    24.8170     2.3230   -14.2130 
  151.2500   103.3890     7.5800     5.9720     5.9330    24.8230     2.3260   -14.3380 
  151.3750   101.6630     7.4700     5.8240     5.8180    24.8250     2.3320   -14.4050 
  151.5000   101.5170     7.2600     5.5940     5.7860    24.8260     2.3390   -14.3940 
  151.6250   100.6390     7.0890     5.3780     5.8000    24.7480     2.3410   -14.3710 
  151.7500    96.3030     7.1740     5.3220     5.6790    24.4580     2.3330   -14.4110 
  151.8750    89.3520     7.7670     5.5740     5.5460    23.9530     2.3150   -14.5370 
  152.0000    83.0050     9.1250     6.2930     5.8120    23.5740     2.2910   -14.7460 
  152.1250    79.5440    11.6370     7.8120     8.8240    23.7180     2.2680   -15.0580 
  152.2500    78.1350    15.1600    10.2270    17.7830    24.1610     2.2510   -15.4570 
  152.3750    77.0200    19.4150    13.5660    25.5840    24.6050     2.2430   -15.9270 
  152.5000    75.1470    23.8810    17.5390    28.9840    24.8320     2.2440   -16.4610 
  152.6250    74.7820    27.9470    21.4670    29.3010    24.8120     2.2490   -17.0300 
  152.7500    76.6950    31.5980    24.9380    30.2610    24.6730     2.2490   -17.5700 
  152.8750    79.5140    35.2530    28.2140    33.4340    24.5620     2.2420   -18.0820 
  153.0000    80.3310    39.3800    31.8420    40.4320    24.5420     2.2310   -18.5770 
  153.1250    77.0060    44.0190    36.1030    54.1370    24.6070     2.2300   -19.0280 
  153.2500    73.8540    48.3470    40.3090    62.8250    24.6800     2.2420   -19.4170 
  153.3750    73.3580    51.5540    43.6160    62.4000    24.8630     2.2640   -19.7470 
  153.5000    74.4930    53.3140    45.5390    55.1180    24.9950     2.2860   -20.0230 
  153.6250    76.2000    54.0500    46.2800    48.2630    24.9570     2.2950   -20.2700 
  153.7500    76.0010    55.0720    47.0720    46.7840    24.8240     2.2890   -20.5250 
  153.8750    74.0400    57.3410    48.9010    51.3770    24.7320     2.2750   -20.7710 
  154.0000    73.0080    61.4160    52.3860    59.7030    24.7050     2.2590   -20.9670 
  154.1250    75.5120    67.7110    57.9700    65.1790    24.7220     2.2470   -21.1030 
  154.2500    77.3830    75.6520    65.1560    68.2210    24.7540     2.2380   -21.2150 
  154.3750    73.5950    84.8920    73.6260    79.1370    24.7690     2.2310   -21.3130 
  154.5000    66.8320    95.0960    83.0210    88.3180    24.7230     2.2230   -21.4140 
  154.6250    63.3210   106.0840    93.1070    91.3640    24.5790     2.2140   -21.4720 
  154.7500    62.8110   117.4370   103.5230    98.4760    24.3770     2.2050   -21.4520 
  154.8750    64.4380   128.5730   113.8940   116.9870    24.2120     2.1980   -21.3920 
  155.0000    65.8520   138.1130   123.4440   137.0450    24.1280     2.1970   -21.2990 
  155.1250    66.0170   142.3140   129.6450   134.5230    24.1110     2.2030   -21.1340 
  155.2500    66.0490   138.8480   129.7280   114.0000    24.1230     2.2140   -20.9040 
  155.3750    68.3600   127.3560   121.9000   105.7240    24.1690     2.2280   -20.6330 
  155.5000    71.3350   110.7240   107.8050   126.4110    24.2360     2.2390   -20.2930 
  155.6250    72.2270    94.2400    92.3280   111.6230    24.2860     2.2420   -19.9650 
  155.7500    73.3290    81.7370    80.0170    76.8090    24.3280     2.2390   -19.7240 
  155.8750    74.7430    74.0010    72.3000    54.4520    24.4730     2.2330   -19.4880 
  156.0000    74.1180    69.8750    68.5710    55.1270    24.7740     2.2310   -19.2270 
  156.1250    71.8650    66.7130    66.3470    75.2840    25.1070     2.2400   -18.9810 
