~V
VERS. 2.00: Ver 2.00
~W
STRT.M 55.0000:
STOP.M 281.0000:
STEP.M 0.1250:
NULL. -999.2500:
UWI. F11051:
~C
DEPT.M :
SP.MV :
GR.API :
RML.OHMM :
RI. :
RXO.OHMM :
CALI.CM :
DEN.GM/CC :
~A
# ...
  223.7500   -18.1810    64.0550    92.0610    87.6480    84.0340    24.4670     2.2210 
  223.8750   -18.2320    63.4380    98.0280    92.2270    99.0330    24.4640     2.2320 
  224.0000   -18.3190    64.6640   107.3720   100.2120   115.4370    24.5260     2.2430 
  224.1250   -18.4190    66.0580   117.9530   109.7610   123.8270    24.6860     2.2500 
  224.2500   -18.4820    65.4780   127.1970   118.3680   130.6950    24.8250     2.2510 
  224.3750   -18.5680    63.1730   133.8560   124.7320   131.4520    24.8340     2.2450 
  224.5000   -18.5960    61.0320   137.6340   128.5490   135.7800    24.7780     2.2370 
  224.6250   -18.5570    60.2400   137.5120   129.0750   126.8450    24.8770     2.2330 
  224.7500   -18.5120    58.7710   132.9390   125.7390   127.2830    24.9340     2.2340 
  224.8750   -18.4070    56.8490   123.8530   118.0820   124.6400    24.9520     2.2380 
  225.0000   -18.2750    57.0950   112.0870   107.3560   113.6680    24.9380     2.2420 
  225.1250   -18.1140    61.0700   100.8490    96.2840    85.6220    24.9080     2.2380 
  225.2500   -17.9160    65.0130    92.3600    87.2490    67.2040    24.8650     2.2280 
  225.3750   -17.6770    67.5060    87.2070    81.1430    61.3390    24.8260     2.2150 
  225.5000   -17.4600    68.5800    84.8760    77.7770    69.0200    24.7820     2.2040 
  225.6250   -17.2210    67.4160    84.2610    76.3060    81.9160    24.7910     2.1970 
  225.7500   -16.9240    64.1280    83.8090    75.2610    78.4950    24.8710     2.1940 
  225.8750   -16.6270    61.8580    82.9000    74.0220    73.9060    24.9240     2.1940 
  226.0000   -16.2840    63.9080    81.4910    72.4390    76.2580    24.9180     2.1960 
  226.1250   -15.8950    67.4060    80.0410    70.7650    77.9550    24.8100     2.1980 
  226.2500   -15.5220    67.6910    79.0990    69.4500    73.3990    24.5330     2.1970 
  226.3750   -15.1310    64.5230    78.8080    68.6810    68.2670    23.9600     2.1910 
  226.5000   -14.7180    62.7450    79.0910    68.3950    67.1700    23.2540     2.1810 
  226.6250   -14.3110    64.6590    80.1130    68.6750    67.3650    23.3140     2.1800 
  226.7500   -13.9410    64.5610    82.1080    69.6760    68.7610    23.9510     2.1930 
  226.8750   -13.5700    62.3230    85.2740    71.5480    74.4030    24.4850     2.2150 
  227.0000   -13.2670    62.8730    89.5030    74.2000    81.0990    24.7650     2.2320 
  227.1250   -13.0180    65.9820    94.3010    77.2500    90.5890    24.9210     2.2340 
  227.2500   -12.7830    64.6880    98.6220    79.9260   102.5520    24.8810     2.2260 
  227.3750   -12.6180    60.0030   101.5610    81.5590   103.9010    24.7140     2.2150 
  227.5000   -12.4820    58.5070   102.5230    81.7180    97.1030    24.6140     2.2080 
  227.6250   -12.3690    60.8900   101.2740    80.2630    91.4960    24.6760     2.2060 
  227.7500   -12.2760    61.4580    98.9010    78.0300    84.7810    24.7350     2.2040 
  227.8750   -12.1840    60.8720    96.3160    75.7050    79.2610    24.7520     2.1980 
  228.0000   -12.0700    62.2610    94.2900    73.8210    76.5580    24.7850     2.1890 
  228.1250   -11.9680    64.0350    93.3160    72.7480    71.2030    24.7570     2.1780 
  228.2500   -11.8570    64.2070    93.1390    72.3910    70.4190    24.7740     2.1690 
  228.3750   -11.7140    63.9740    93.5440    72.6920    74.8280    24.7560     2.1630 
  228.5000   -11.5840    63.8110    94.3870    73.5660    75.5520    24.8100     2.1600 
  228.6250   -11.4640    62.3030    95.7020    74.9210    71.8050    24.7690     2.1620 
  228.7500   -11.3440    60.1400    97.0340    76.2320    70.7180    24.6830     2.1660 
  228.8750   -11.2470    58.9980    97.0180    76.4970    72.3540    24.6120     2.1680 
  229.0000   -11.1710    59.4420    93.3000    74.0400    77.4940    24.6210     2.1670 
  229.1250   -11.0970    61.1120    83.2240    66.7380    77.4010    24.7050     2.1700 
  229.2500   -11.0320    62.9140    69.7100    56.4860    71.0350    24.7240     2.1830 
  229.3750   -10.9900    61.7800    56.9400    46.3290    58.9300    24.6880     2.2180 
  229.5000   -10.9230    58.8710    48.3530    38.9000    42.6500    24.6400     2.2810 
  229.6250   -10.8960    59.3020    46.8050    36.3040    30.9960    24.5740     2.3680 
  229.7500   -10.8570    61.3630    51.9340    38.5440    30.9390    24.5080     2.4550 
  229.8750   -10.8230    60.3880    63.7700    46.1150    59.5160    24.4410     2.5300 
  230.0000   -10.8090    56.9060    81.3500    58.9360   147.9210    24.3800     2.5900 
  230.1250   -10.7570    56.8160    99.0120    73.8940   192.4540    24.3990     2.6400 
  230.2500   -10.7280    59.3390   103.9910    81.1930   126.9950    24.3860     2.6850 
  230.3750   -10.6860    62.0770    88.4810    72.8120   104.6280    24.3990     2.7110 
  230.5000   -10.6350    64.1400    60.7860    52.6680    93.9030    24.4280     2.6990 
  230.6250   -10.5710    64.9180    37.0720    33.5810    76.4270    24.4670     2.6390 
  230.7500   -10.4710    64.7590    21.8440    20.8700    43.1980    24.5160     2.5540 
  230.8750   -10.3300    67.5750    13.4360    13.5200    18.6930    24.6330     2.4680 
  231.0000   -10.1670    73.9070     9.4750     9.6160     8.5200    24.9530     2.4000 
  231.1250   -10.0060    77.0650     8.3030     7.9020     7.1900    25.6470     2.3660 
  231.2500    -9.8270    75.1150     8.2570     7.2030     7.3000    26.2530     2.3630 
  231.3750    -9.6650    73.8560     8.7060     7.1240     7.6280    26.4600     2.3690 
  231.5000    -9.5040    76.8940     9.2220     7.3650     8.1000    26.4270     2.3680 
  231.6250    -9.3490    79.4010     9.4530     7.6490     8.5760    26.6440     2.3590 
  231.7500    -9.2460    78.3700     9.3810     7.8120     8.6920    27.1020     2.3530 
  231.8750    -9.1890    78.0270     9.1650     7.8540     8.6410    27.5040     2.3600 
  232.0000    -9.1530    81.6860     8.9910     7.8360     8.6940    27.6320     2.3760 
  232.1250    -9.1520    88.7420     8.9910     7.8160     8.9510    27.5810     2.3880 
  232.2500    -9.1870    95.6650     9.1260     7.8310     9.1710    27.5090     2.3880 
  232.3750    -9.2180    99.4960     9.2930     7.8870     9.3300    27.4980     2.3810 
  232.5000    -9.2950   100.8420     9.3650     7.9690     9.5550    27.5190     2.3760 
  232.6250    -9.3450   103.5860     9.2530     8.0470     9.8820    27.5930     2.3760 
  232.7500    -9.3790   107.2890     9.0490     8.0960    10.1340    27.7060     2.3790 
  232.8750    -9.4270   107.0880     8.8860     8.1060    10.1790    27.8530     2.3790 
  233.0000    -9.4440   101.0790     8.8830     8.0750    10.0760    27.9980     2.3740 
  233.1250    -9.4680    94.3540     9.0550     8.0030     9.8490    28.1070     2.3650 
  233.2500    -9.4730    89.5620     9.2060     7.9030     9.6300    28.1530     2.3590 
  233.3750    -9.4550    86.9620     9.1610     7.7840     9.2490    28.1340     2.3600 
  233.5000    -9.4280    86.9580     8.8860     7.6590     8.9840    28.0340     2.3660 
  233.6250    -9.4320    89.4390     8.5600     7.5600     9.0320    27.8180     2.3660 
  233.7500    -9.4350    91.4180     8.4480     7.5220     9.0860    27.5960     2.3580 
  233.8750    -9.4530    93.3580     8.6690     7.5840     9.0280    27.3820     2.3440 
  234.0000    -9.4850    96.0670     9.1950     7.7740     9.0550    27.1650     2.3350 
  234.1250    -9.5230    97.0260     9.9250     8.1140     9.2330    26.9010     2.3450 
  234.2500    -9.5750    93.5020    10.7070     8.5380     9.5230    26.6180     2.3710 
  234.3750    -9.6410    86.7410    11.4350     8.9590    10.0600    26.3370     2.3990 
  234.5000    -9.7080    81.7370    11.9730     9.2560    10.8120    26.0770     2.4110 
  234.6250    -9.7650    82.0750    12.0920     9.2580    10.9900    26.0410     2.4000 
  234.7500    -9.8430    85.1970    11.8130     8.9700    10.9530    26.1260     2.3790 
  234.8750    -9.8980    88.6170    11.3720     8.5210    10.1590    26.2080     2.3560 
