~V
VERS. 2.00: Ver 2.00
~W
STRT.M 59.0000:
STOP.M 225.0000:
STEP.M 0.1250:
NULL. -999.2500:
UWI. F11010:
~C
DEPT.M :
GR.API :
RML.OHMM :
RI. :
RXO.OHMM :
CALI.CM :
SP.MV :
DEN.GM/CC :
~A
# ...
   70.2500    99.4110     6.5900     5.6500     6.9910    24.6680     3.9490     2.3010 
   70.3750   105.8600     6.5270     5.5050     7.7230    24.6120     3.6340     2.3100 
   70.5000   107.0480     6.8410     5.6500     8.6780    24.5860     3.0680     2.3310 
   70.6250   100.1940     7.7120     6.2300     9.5650    24.5600     2.0550     2.3590 
   70.7500    92.0330     8.9580     7.1590    11.1710    24.4760     0.6050     2.3710 
   70.8750    85.6910    10.2480     8.2510    13.7860    24.3200    -1.2610     2.3530 
   71.0000    78.0610    11.1320     9.1480    14.9830    24.1560    -3.4500     2.3020 
   71.1250    71.6130    11.1640     9.3750    11.5360    24.1060    -5.7360     2.2380 
   71.2500    68.5000    10.5890     9.0370     9.5860    24.1380    -7.8190     2.1880 
   71.3750    66.6980     9.8000     8.4370     8.6180    24.1580    -9.5600     2.1620 
   71.5000    66.3170     9.1580     7.8770     8.2840    24.1410   -10.8690     2.1550 
   71.6250    68.8270     8.8600     7.5530     8.0690    24.1250   -11.5530     2.1600 
   71.7500    72.4390     8.7730     7.4180     7.8480    24.1030   -11.7150     2.1700 
   71.8750    75.1850     8.7580     7.3770     7.5130    24.0540   -11.4550     2.1800 
   72.0000    75.5850     8.7240     7.3490     7.1430    23.9820   -10.9210     2.1890 
   72.1250    76.1760     8.6540     7.3090     6.9480    23.9310   -10.3730     2.1900 
   72.2500    77.5670     8.6000     7.2820     6.8290    23.9440   -10.0530     2.1820 
   72.3750    79.5070     8.6040     7.2960     7.0080    23.9790   -10.0660     2.1680 
   72.5000    80.8430     8.6790     7.3690     7.6670    24.0470   -10.4050     2.1520 
   72.6250    79.2120     8.8050     7.4890     8.1630    24.1420   -10.9780     2.1410 
   72.7500    76.4970     8.9040     7.5910     8.5190    24.2690   -11.5520     2.1390 
   72.8750    74.5050     8.8910     7.6040     8.9100    24.3530   -11.9190     2.1510 
   73.0000    74.4770     8.6960     7.4600     9.4340    24.4000   -11.9140     2.1770 
   73.1250    76.9290     8.2770     7.1100     8.7780    24.5090   -11.3960     2.2140 
   73.2500    81.3410     7.7480     6.6550     7.5360    24.7020   -10.5690     2.2480 
   73.3750    90.0490     7.2390     6.2090     6.4390    24.8790    -9.5990     2.2650 
   73.5000    99.5770     6.8730     5.8770     5.9120    24.9690    -8.6880     2.2600 
   73.6250   101.6230     6.7700     5.7600     5.8220    24.9000    -8.1000     2.2320 
   73.7500    96.3170     6.8880     5.8460     6.2710    24.7400    -7.8520     2.1990 
   73.8750    90.1550     7.1690     6.1070     7.3310    24.5930    -7.9510     2.1710 
   74.0000    87.9410     7.5260     6.4810     7.8610    24.4830    -8.4530     2.1530 
   74.1250    85.7050     7.8580     6.8810     7.5420    24.4370    -9.3440     2.1450 
   74.2500    81.4580     8.0920     7.2090     7.7560    24.4320   -10.3170     2.1430 
   74.3750    78.4840     8.1890     7.3990     8.2410    24.4400   -11.0890     2.1500 
   74.5000    78.6710     8.1390     7.4240     8.4900    24.4260   -11.3460     2.1710 
   74.6250    83.8070     7.9450     7.2750     8.1060    24.3800   -10.7780     2.2080 
   74.7500    92.1620     7.6740     7.0160     7.1570    24.3540    -9.6090     2.2490 
   74.8750   100.5780     7.3700     6.6940     6.1720    24.3580    -8.0920     2.2840 
   75.0000   105.6500     7.0630     6.3540     5.8890    24.3670    -6.4480     2.3070 
   75.1250   105.8780     6.7620     6.0180     5.9110    24.4060    -4.7400     2.3170 
   75.2500   105.7350     6.4830     5.7010     5.7560    24.5070    -3.0710     2.3230 
   75.3750   107.4870     6.2790     5.4500     5.5590    24.6290    -1.6570     2.3310 
   75.5000   110.1800     6.2370     5.3320     5.4230    24.7050    -0.7460     2.3400 
   75.6250   110.4490     6.4880     5.4410     5.3870    24.7540    -0.6370     2.3430 
   75.7500   106.1580     7.0070     5.7560     5.9980    24.7850    -1.2820     2.3280 
   75.8750    99.7440     7.7060     6.2320     7.7300    24.7370    -2.5780     2.2940 
   76.0000    92.4290     8.4270     6.7670    11.3380    24.6050    -4.3060     2.2450 
   76.1250    82.6050     8.9490     7.2130    10.1890    24.4970    -6.3890     2.1930 
   76.2500    73.3070     9.2030     7.5020     9.7200    24.4620    -8.6710     2.1520 
   76.3750    67.2070     9.2150     7.6380     9.5780    24.4730   -10.9390     2.1260 
   76.5000    64.7770     9.0770     7.6590     9.6300    24.5030   -13.0110     2.1130 
   76.6250    65.1660     8.8930     7.6160     9.3250    24.4890   -14.7240     2.1110 
   76.7500    65.7860     8.7330     7.5590     9.2320    24.3980   -16.0090     2.1150 
   76.8750    64.8900     8.6170     7.5040     9.4380    24.2840   -16.8330     2.1230 
   77.0000    62.4510     8.5570     7.4700     9.4380    24.2110   -17.3350     2.1330 
   77.1250    62.2670     8.5810     7.4820     9.4940    24.1690   -17.6100     2.1460 
   77.2500    65.0450     8.6760     7.5320     9.5590    24.1230   -17.7040     2.1590 
   77.3750    68.9240     8.8110     7.5950     9.7140    24.0990   -17.7040     2.1710 
   77.5000    71.4320     8.9290     7.6350     9.9030    24.0990   -17.6410     2.1810 
   77.6250    70.4250     8.9510     7.6000     9.9590    24.0900   -17.4180     2.1920 
   77.7500    68.4100     8.8530     7.4810    10.0360    24.1030   -16.9620     2.2070 
   77.8750    69.1980     8.6490     7.2940     9.7820    24.1340   -16.2520     2.2260 
   78.0000    72.9870     8.3890     7.0750     9.1610    24.1750   -15.3100     2.2490 
   78.1250    75.8410     8.1600     6.8730     8.5330    24.1910   -14.1880     2.2700 
   78.2500    76.6710     8.0410     6.7430     8.3280    24.1950   -13.0670     2.2840 
   78.3750    77.9470     8.0990     6.7360     8.4780    24.2230   -12.0040     2.2860 
   78.5000    80.1320     8.3790     6.8940     9.0910    24.3060   -11.0520     2.2730 
   78.6250    79.4560     8.9290     7.2830     9.7420    24.4470   -10.3200     2.2420 
   78.7500    74.6000     9.6560     7.8570    10.9240    24.5420    -9.8730     2.2030 
   78.8750    69.0280    10.4400     8.5340    14.9030    24.6190    -9.7540     2.1670 
   79.0000    67.2060    11.1100     9.1680    24.8730    24.6430    -9.9160     2.1430 
   79.1250    69.4290    11.4340     9.5320    27.5150    24.6200   -10.3350     2.1370 
   79.2500    70.7680    11.3760     9.5560    21.1720    24.6370   -10.9670     2.1420 
   79.3750    69.9330    10.9940     9.2770    14.2090    24.6390   -11.7950     2.1480 
   79.5000    70.3980    10.4240     8.8230    11.0120    24.5900   -12.8150     2.1490 
   79.6250    72.0350     9.8420     8.3560    10.2130    24.5970   -13.9920     2.1420 
   79.7500    69.7800     9.3680     7.9840    10.3830    24.7070   -15.1990     2.1350 
   79.8750    64.4350     9.0440     7.7360    10.5950    24.8060   -16.3320     2.1310 
   80.0000    60.6080     8.8650     7.6060    10.4680    24.7520   -17.3800     2.1340 
   80.1250    61.8460     8.8160     7.5840    10.1350    24.6790   -18.2900     2.1440 
   80.2500    64.1070     8.8320     7.6220     9.9870    24.6500   -18.9640     2.1580 
   80.3750    66.3040     8.8740     7.6970    10.0610    24.6480   -19.3790     2.1710 
   80.5000    68.9650     8.9180     7.7900    10.4430    24.6480   -19.5220     2.1810 
   80.6250    71.3760     8.9650     7.8870    10.4260    24.6500   -19.3900     2.1890 
   80.7500    73.9810     9.0280     7.9860    10.2110    24.6630   -19.0620     2.1940 
   80.8750    75.7950     9.1050     8.0820    10.1390    24.7010   -18.5720     2.1970 
   81.0000    77.4140     9.1540     8.1520    10.2030    24.7490   -17.9030     2.1990 
   81.1250    78.7600     9.0790     8.1130    10.2950    24.7740   -17.0000     2.2030 
   81.2500    80.2270     8.8370     7.9140    10.0990    24.7990   -15.8320     2.2130 
   81.3750    81.1690     8.4330     7.5490     9.6950    24.8550   -14.2930     2.2320 
