~V
VERS. 2.00: Ver 2.00
~W
STRT.M 55.0000:
STOP.M 275.0000:
STEP.M 0.1250:
NULL. -999.2500:
UWI. F11036:
~C
DEPT.M :
GR.API :
RML.OHMM :
RI. :
RXO.OHMM :
CALI.CM :
DEN.GM/CC :
SP.MV :
~A
# ...
  100.0000    73.4630     9.2210     7.8660     9.5270    23.7060     2.1950   -25.0590 
  100.1250    72.5010     9.1280     7.8110     9.3120    23.8740     2.2080   -24.8290 
  100.2500    72.0930     8.9660     7.6890     9.0480    24.1450     2.2130   -24.6390 
  100.3750    71.8610     8.7610     7.5210     8.8410    24.2710     2.2090   -24.5250 
  100.5000    71.8410     8.5450     7.3370     8.7320    24.2480     2.1970   -24.5070 
  100.6250    71.4680     8.3610     7.1730     8.5680    24.1840     2.1790   -24.5900 
  100.7500    69.7290     8.2380     7.0550     8.3920    24.1310     2.1640   -24.7190 
  100.8750    69.1230     8.1870     6.9960     8.0910    24.0960     2.1530   -24.8110 
  101.0000    72.4870     8.2040     6.9910     7.8010    24.1180     2.1500   -24.8050 
  101.1250    77.2110     8.2630     7.0230     7.5700    24.1500     2.1570   -24.6860 
  101.2500    78.6700     8.3190     7.0560     7.5600    24.1400     2.1690   -24.4510 
  101.3750    77.1510     8.3410     7.0670     7.5190    24.1490     2.1850   -24.1040 
  101.5000    76.0850     8.3130     7.0410     7.3560    24.2310     2.2010   -23.6790 
  101.6250    78.3440     8.2320     6.9730     7.1200    24.1730     2.2100   -23.2490 
  101.7500    80.3050     8.1320     6.8890     7.0720    23.8290     2.2120   -22.8620 
  101.8750    79.1530     8.0460     6.8150     7.0660    23.6140     2.2100   -22.5460 
  102.0000    77.8480     8.0120     6.7780     6.8680    23.6130     2.2090   -22.3320 
  102.1250    78.4900     8.0770     6.8160     6.5680    23.6360     2.2100   -22.2570 
  102.2500    77.2510     8.2350     6.9300     6.8400    23.6010     2.2110   -22.3160 
  102.3750    74.8820     8.4670     7.1100     7.1900    23.5320     2.2070   -22.4880 
  102.5000    75.3360     8.7350     7.3340     7.6230    23.4920     2.1990   -22.7610 
  102.6250    78.5130     8.9970     7.5690     7.7520    23.4890     2.1900   -23.1110 
  102.7500    78.3080     9.2260     7.7800     7.7120    23.4640     2.1850   -23.5080 
  102.8750    75.3350     9.4150     7.9490     7.7890    23.4270     2.1850   -23.9370 
  103.0000    72.1830     9.5640     8.0710     8.0770    23.4050     2.1880   -24.3270 
  103.1250    69.2600     9.6560     8.1280     8.6130    23.4110     2.1870   -24.6420 
  103.2500    66.2180     9.6660     8.1070     9.4360    23.4520     2.1830   -24.8730 
  103.3750    64.3650     9.5560     7.9820     9.9010    23.5390     2.1790   -24.9750 
  103.5000    65.5380     9.2990     7.7370     9.3810    23.6750     2.1810   -24.9120 
  103.6250    69.8920     8.8830     7.3760     8.9880    23.8130     2.1930   -24.6800 
  103.7500    74.0510     8.4160     6.9840     8.8000    23.9140     2.2070   -24.3310 
  103.8750    75.7560     8.0430     6.6580     8.3930    24.0120     2.2160   -23.9330 
  104.0000    75.1420     7.9640     6.5240     7.9750    24.0860     2.2240   -23.5820 
  104.1250    74.9720     8.5050     6.8000     7.9850    24.1070     2.2500   -23.2970 
  104.2500    75.7610     9.7210     7.5650     8.4660    24.1280     2.3100   -23.0700 
  104.3750    73.2410    11.5140     8.8630     9.2240    24.1790     2.4010   -22.9650 
  104.5000    66.5700    13.4910    10.5540    10.4990    24.2930     2.4920   -23.0310 
  104.6250    62.0010    14.8050    12.0320    12.7060    24.2850     2.5340   -23.2550 
  104.7500    62.4670    14.9180    12.5260    14.1720    24.4590     2.5090   -23.5690 
  104.8750    66.4980    13.8070    11.8050    11.8950    24.5230     2.4330   -23.9230 
  105.0000    70.7070    11.9800    10.3460     9.8450    24.4060     2.3390   -24.2560 
  105.1250    72.5380    10.2490     8.9080     9.1820    24.2230     2.2680   -24.5430 
  105.2500    71.4280     9.1090     7.8910     9.2970    24.1040     2.2290   -24.8140 
  105.3750    69.0830     8.6200     7.3500     9.5010    23.9390     2.2120   -25.0680 
  105.5000    68.3430     8.6210     7.2080     9.7010    23.7670     2.2050   -25.2650 
  105.6250    68.7020     8.8830     7.3370     9.8940    23.7230     2.1990   -25.3730 
  105.7500    68.1130     9.1520     7.5270     9.9150    23.8290     2.1920   -25.4110 
  105.8750    67.0040     9.3320     7.6840     9.7220    23.9890     2.1890   -25.3820 
  106.0000    67.4680     9.4070     7.7760     9.3250    24.0870     2.1880   -25.3540 
  106.1250    70.0270     9.3860     7.8050     9.1220    24.1150     2.1870   -25.3740 
  106.2500    70.2970     9.3190     7.7950     9.0780    24.1040     2.1800   -25.3830 
  106.3750    67.5920     9.2470     7.7630     8.9900    24.0290     2.1650   -25.3420 
  106.5000    66.8170     9.2140     7.7420     8.8150    23.8230     2.1520   -25.2330 
  106.6250    71.6840     9.2770     7.7750     8.5950    23.6530     2.1570   -25.0420 
  106.7500    74.7540     9.4300     7.8660     8.5050    23.5930     2.1840   -24.8160 
  106.8750    72.0530     9.6270     7.9930     8.6120    23.6260     2.2260   -24.5900 
  107.0000    66.6490     9.7860     8.1050     8.9170    23.7030     2.2630   -24.3460 
  107.1250    64.9560     9.7710     8.0980     9.0630    23.7580     2.2740   -24.0870 
  107.2500    67.6520     9.5510     7.9340     9.0520    23.7430     2.2620   -23.8610 
  107.3750    72.7460     9.1700     7.6410     8.9530    23.7250     2.2400   -23.6890 
  107.5000    76.5660     8.7440     7.3010     8.8590    23.7150     2.2200   -23.6150 
  107.6250    76.5060     8.4620     7.0540     8.4340    23.6890     2.2080   -23.7000 
  107.7500    74.4660     8.4250     6.9900     7.7590    23.7560     2.2050   -23.8780 
  107.8750    73.4030     8.6590     7.1470     7.7420    24.0660     2.2110   -24.0780 
  108.0000    73.7990     9.1060     7.4970     8.2560    24.4020     2.2280   -24.2660 
  108.1250    74.1110     9.6310     7.9590     8.8050    24.5670     2.2470   -24.4010 
  108.2500    72.6190    10.0410     8.3740     9.0780    24.5260     2.2510   -24.4470 
  108.3750    71.3810    10.1940     8.5980     8.9860    24.3550     2.2310   -24.3270 
  108.5000    71.3240    10.0110     8.5290     8.6730    24.1340     2.1940   -23.9350 
  108.6250    72.0500     9.4640     8.1160     8.3180    23.8890     2.1640   -23.0920 
  108.7500    73.2060     8.7160     7.5030     7.7380    23.7370     2.1620   -21.9190 
  108.8750    77.0250     7.9040     6.8090     6.7980    23.6650     2.1900   -20.6120 
  109.0000    85.1960     7.1690     6.1510     5.7350    23.6340     2.2370   -19.2860 
  109.1250    97.0540     6.6740     5.6670     5.1160    23.5560     2.2860   -17.9540 
  109.2500   106.5900     6.4480     5.3900     4.9470    23.4510     2.3280   -16.6480 
  109.3750   108.6000     6.4680     5.3190     4.9780    23.3920     2.3600   -15.4810 
  109.5000   103.0800     6.6450     5.4060     5.2830    23.4430     2.3800   -14.5780 
  109.6250    97.3050     6.8370     5.5600     5.8770    23.4850     2.3850   -14.1170 
  109.7500    97.7550     6.9400     5.6750     6.2860    23.4410     2.3750   -13.9970 
  109.8750   102.5560     6.9510     5.7220     5.9640    23.3750     2.3550   -14.0610 
  110.0000   106.2900     6.9390     5.7390     5.6320    23.3770     2.3320   -14.1880 
  110.1250   103.4940     7.0020     5.8020     5.7430    23.3620     2.3150   -14.3530 
  110.2500    97.9360     7.1410     5.9280     6.2630    23.2800     2.3060   -14.5190 
  110.3750    93.3350     7.2900     6.0780     6.6780    23.2150     2.3080   -14.6220 
  110.5000    92.5560     7.3540     6.1800     6.6430    23.2340     2.3210   -14.5990 
  110.6250    96.3360     7.2360     6.1360     6.5740    23.2740     2.3410   -14.4040 
  110.7500   103.1660     6.9810     5.9520     6.2640    23.2400     2.3600   -14.0960 
  110.8750   109.6150     6.6700     5.6850     6.0260    23.1770     2.3700   -13.7020 
  111.0000   111.7870     6.3880     5.4130     6.0000    23.2360     2.3650   -13.2520 
  111.1250   108.3810     6.1950     5.1970     6.0000    23.4940     2.3470   -12.7830 
