~V
VERS. 2.00: Ver 2.00
~W
STRT.M 55.0000:
STOP.M 276.0000:
STEP.M 0.1250:
NULL. -999.2500:
UWI. F11046:
~C
DEPT.M :
GR.API :
RML.OHMM :
RI. :
RXO.OHMM :
CALI.CM :
DEN.GM/CC :
SP.MV :
~A
# ...
  212.5000    67.8270    53.0240    48.7870    38.4540    23.8740     2.2790   -17.2130 
  212.6250    65.7820    58.2860    54.1380    46.1330    23.6930     2.2690   -17.4320 
  212.7500    64.8540    63.9410    60.3000    56.7240    23.5190     2.2610   -17.7070 
  212.8750    66.2960    68.9590    66.1860    71.3200    23.3780     2.2570   -18.0000 
  213.0000    68.1830    72.3210    70.5580    79.2880    23.3200     2.2540   -18.1950 
  213.1250    69.0860    73.1210    72.1830    78.3850    23.4540     2.2500   -18.3880 
  213.2500    69.2890    72.0760    71.6260    72.8980    23.6920     2.2430   -18.5950 
  213.3750    67.6990    70.0350    69.7230    94.8060    24.0370     2.2360   -18.7060 
  213.5000    64.8290    67.9220    67.4400   182.2170    24.4950     2.2290   -18.7750 
  213.6250    62.5040    66.7140    65.7480   180.9200    24.8270     2.2290   -18.8900 
  213.7500    62.3650    66.9470    65.3010   111.0260    24.9380     2.2330   -19.0040 
  213.8750    64.8780    68.9760    66.7090    84.2200    24.9330     2.2380   -19.1370 
  214.0000    67.5430    73.4330    70.5650    96.8630    24.9050     2.2400   -19.3000 
  214.1250    67.0660    83.4270    78.2320   144.7680    24.9680     2.2370   -19.4130 
  214.2500    65.2370   101.8710    90.1380   165.7490    25.0240     2.2300   -19.5870 
  214.3750    63.4780   125.2270   106.7380   135.7550    25.0630     2.2210   -19.9440 
  214.5000    62.7460   147.5940   127.2550   110.6830    25.0770     2.2120   -20.3250 
  214.6250    62.9740   165.9180   148.0030   136.2130    25.0610     2.2020   -20.6890 
  214.7500    63.5930   175.5650   162.2230   209.6810    25.0590     2.1960   -21.0940 
  214.8750    64.0580   172.8140   164.2910   336.5040    25.0950     2.1960   -21.4770 
  215.0000    63.5980   158.7010   153.3220   281.3900    25.1080     2.2020   -21.8450 
  215.1250    62.0160   139.3980   134.5070   159.4470    25.0310     2.2160   -22.2620 
  215.2500    61.5110   123.1550   117.1460   116.9130    24.8940     2.2320   -22.7550 
  215.3750    63.6790   113.6750   105.7030    96.8240    24.7350     2.2440   -23.1650 
  215.5000    68.2360   111.9560   101.8520    97.2630    24.7340     2.2460   -23.4690 
  215.6250    69.9820   118.5300   106.6680   106.2160    24.8510     2.2380   -23.8410 
  215.7500    66.9360   130.6600   117.8100   125.9550    24.9450     2.2260   -24.1980 
  215.8750    60.4560   146.0670   133.5250   132.0290    24.9690     2.2150   -24.4410 
  216.0000    56.1460   161.4160   150.7420   121.3290    25.0480     2.2110   -24.6950 
  216.1250    59.0070   171.7700   163.9740   124.1550    25.1670     2.2180   -24.9210 
  216.2500    62.9490   175.3380   169.8950   151.1780    25.1960     2.2350   -24.8850 
  216.3750    64.0470   172.8640   168.5280   191.0590    25.1730     2.2590   -24.8250 
  216.5000    63.1060   167.3150   162.9070   199.6280    25.1520     2.2810   -24.9030 
  216.6250    63.8950   162.8720   157.6110   157.5760    25.1970     2.2880   -24.8480 
  216.7500    66.0670   162.1040   155.9490   124.8790    25.2530     2.2770   -24.7660 
  216.8750    68.4950   165.5210   159.0240   120.7050    25.2980     2.2540   -24.7520 
  217.0000    69.5880   171.8220   166.0430   132.5740    25.2790     2.2290   -24.6280 
  217.1250    67.5560   177.5350   173.7200   137.9710    25.2280     2.2160   -24.4910 
  217.2500    65.8630   178.9550   177.3430   141.0590    25.1910     2.2180   -24.4700 
  217.3750    65.7110   174.3940   174.1940   141.3890    25.1490     2.2290   -24.3250 
  217.5000    64.8290   164.7510   164.6660   132.0660    25.0860     2.2420   -24.0850 
  217.6250    62.3350   153.2400   152.0860   116.0740    25.0170     2.2520   -24.0520 
  217.7500    60.5230   143.8920   141.2460   106.9790    24.9380     2.2550   -24.0060 
  217.8750    60.8820   138.8100   134.5650   109.4990    24.8680     2.2530   -23.8460 
  218.0000    63.7970   138.8670   132.9990   115.5860    24.8440     2.2470   -23.7740 
  218.1250    67.0280   144.7970   137.5950   120.3540    24.8910     2.2370   -23.7720 
  218.2500    66.7930   154.7220   146.9470   145.7670    25.0290     2.2280   -23.7310 
  218.3750    62.9080   166.7250   159.3860   204.1530    25.2760     2.2200   -23.7220 
  218.5000    58.7660   178.0750   171.9970   238.9580    25.5790     2.2140   -23.7370 
  218.6250    57.6410   184.9670   180.4840   168.3550    25.7710     2.2090   -23.5650 
  218.7500    57.4540   186.1690   183.1090   148.9260    25.8270     2.2030   -23.3220 
  218.8750    58.4200   181.7890   179.8550   170.1050    25.8510     2.1970   -23.2310 
  219.0000    60.1210   173.0920   172.1510   171.9220    25.8060     2.1940   -23.1450 
  219.1250    60.5980   161.4250   161.5580   152.4690    25.6730     2.1980   -22.9130 
  219.2500    61.8480   148.6290   149.6810   135.3910    25.5330     2.2100   -22.7730 
  219.3750    63.5160   135.6990   137.2130   128.2570    25.3770     2.2250   -22.6650 
  219.5000    64.4650   123.6240   125.1480   118.9580    25.1730     2.2410   -22.5230 
  219.6250    63.7560   113.7230   114.9670   100.8900    25.0630     2.2490   -22.4660 
  219.7500    64.0230   106.3050   107.1640    90.2810    25.0310     2.2490   -22.4010 
  219.8750    66.6890   101.4720   101.9310    85.7330    25.0340     2.2430   -22.2710 
  220.0000    70.3970    99.0280    99.1470    83.9110    25.0300     2.2340   -22.1560 
  220.1250    74.0140    98.8510    98.7530    84.3400    25.0340     2.2260   -22.0510 
  220.2500    74.3610   100.1140    99.8750    87.3940    25.0480     2.2200   -21.9120 
  220.3750    71.0010   102.4280   102.0410    92.4840    25.0640     2.2170   -21.8600 
  220.5000    68.3320   105.5050   104.8960   100.4070    25.0610     2.2140   -21.7600 
  220.6250    68.1980   109.2110   108.2680   114.4440    25.0410     2.2140   -21.6150 
  220.7500    67.5810   113.2640   111.9050   134.5080    25.0290     2.2160   -21.6250 
  220.8750    65.9380   117.4660   115.6210   147.1110    25.0250     2.2220   -21.6090 
  221.0000    65.4190   121.5850   119.1720   146.5720    25.0280     2.2300   -21.4730 
  221.1250    65.2590   125.2780   122.1400   133.2100    25.0270     2.2370   -21.4670 
  221.2500    63.0140   128.3670   124.3300   124.9920    25.0280     2.2410   -21.4640 
  221.3750    61.2060   130.7380   125.6560   119.1310    25.0240     2.2400   -21.3280 
  221.5000    61.2400   132.4040   126.2210   117.2310    25.0080     2.2330   -21.3200 
  221.6250    61.3690   133.4340   126.2680   118.7590    24.9870     2.2220   -21.4270 
  221.7500    60.9550   134.1570   126.2380   122.3960    24.9890     2.2130   -21.4150 
  221.8750    61.1260   134.7350   126.3500   124.7860    24.9990     2.2070   -21.4390 
  222.0000    61.7560   135.2020   126.6460   124.5000    24.9930     2.2060   -21.6130 
  222.1250    61.9310   135.3530   126.9360   122.2140    24.9560     2.2130   -21.6710 
  222.2500    63.4240   134.9670   126.8610   121.4990    24.9270     2.2260   -21.6800 
  222.3750    66.8940   133.8610   126.1170   119.9120    24.8600     2.2450   -21.8410 
  222.5000    69.0110   131.9930   124.6060   114.8800    24.7800     2.2650   -21.9370 
  222.6250    67.5420   129.3200   122.3440   109.8910    24.7120     2.2740   -21.9840 
  222.7500    66.0240   126.0640   119.5000   110.1330    24.6880     2.2710   -22.1050 
  222.8750    65.9820   122.4100   116.0730   114.3920    24.7140     2.2570   -22.0690 
  223.0000    65.3470   118.7850   112.3410   117.6280    24.7790     2.2420   -21.9610 
  223.1250    62.5240   116.1580   109.2290   114.2240    24.7740     2.2330   -21.9640 
  223.2500    61.3540   115.3280   107.6510   104.9080    24.7230     2.2320   -21.9280 
  223.3750    63.0290   116.9380   108.3510    94.9770    24.6470     2.2340   -21.8630 
  223.5000    65.3900   121.2150   111.7890    95.8500    24.4950     2.2350   -21.7780 
  223.6250    66.3840   127.8960   118.0730   110.5640    24.3940     2.2340   -21.5410 
