~V
VERS. 2.00: Ver 2.00
~W
STRT.M 50.0000:
STOP.M 281.0000:
STEP.M 0.1250:
NULL. -999.2500:
UWI. F11064:
~C
DEPT.M :
SP.MV :
GR.API :
RML.OHMM :
RI. :
RXO.OHMM :
CALI.CM :
DEN.GM/CC :
~A
# ...
  196.2500   -12.8840    69.0040    48.0140    46.7820    48.7070    24.8750     2.2840 
  196.3750   -12.9520    68.0880    50.7340    48.5360    53.3040    24.8520     2.2700 
  196.5000   -13.0200    68.3620    56.2190    52.6570    50.7100    24.7750     2.2560 
  196.6250   -13.0790    70.2660    65.6810    60.4090    54.0210    24.8000     2.2410 
  196.7500   -13.1380    70.0340    78.8760    71.8190    72.7850    24.9150     2.2280 
  196.8750   -13.1930    65.7760    95.4060    86.6970   101.8120    25.0260     2.2180 
  197.0000   -13.2500    59.9590   113.6400   103.6090   132.8200    25.0500     2.2150 
  197.1250   -13.3180    57.1690   129.3260   118.7150   143.1100    24.9980     2.2170 
  197.2500   -13.3890    58.4320   138.2700   128.0270   127.0540    24.8100     2.2200 
  197.3750   -13.4510    61.1830   138.7520   129.6700    88.7620    24.4270     2.2240 
  197.5000   -13.5220    62.6420   132.5360   124.7660    57.0470    23.9870     2.2260 
  197.6250   -13.6130    63.1890   123.4120   116.4210    39.9660    23.5700     2.2270 
  197.7500   -13.7100    64.0570   115.2820   108.5020    33.1120    23.2700     2.2260 
  197.8750   -13.8120    63.6000   109.6580   102.6690    31.7220    23.0790     2.2250 
  198.0000   -13.9290    61.3450   107.0040    99.5420    32.7790    22.9480     2.2260 
  198.1250   -14.0560    61.0980   107.6880    99.5220    30.9640    22.8470     2.2280 
  198.2500   -14.1810    63.5350   110.8400   101.8010    27.8820    22.8180     2.2280 
  198.3750   -14.3050    66.2880   116.0830   106.0750    25.0080    22.8330     2.2240 
  198.5000   -14.4330    66.9000   123.3210   112.2930    24.1580    22.8470     2.2220 
  198.6250   -14.5420    65.3750   133.4210   121.2300    25.9360    22.8240     2.2230 
  198.7500   -14.6360    63.1830   146.8600   133.1560    30.0930    22.8210     2.2240 
  198.8750   -14.7210    62.3400   164.5810   148.7430    36.8030    22.8780     2.2190 
  199.0000   -14.7840    62.6220   187.3530   168.6110    48.1180    23.0680     2.2080 
  199.1250   -14.8430    60.9410   215.7670   193.3670    75.1080    23.4140     2.2010 
  199.2500   -14.8960    58.2430   246.5820   220.4640   121.1150    23.8240     2.2030 
  199.3750   -14.9120    57.3860   275.1610   246.3460   169.1960    24.2100     2.2110 
  199.5000   -14.8740    58.2990   294.8790   265.8830   213.9670    24.5870     2.2190 
  199.6250   -14.7860    56.6760   296.3560   271.3200   250.8900    24.9140     2.2280 
  199.7500   -14.6370    51.7340   281.6640   262.9080   276.7590    25.0550     2.2420 
  199.8750   -14.4110    47.2650   256.3360   243.9110   276.3990    24.9600     2.2580 
  200.0000   -14.1200    47.9220   226.6940   219.3400   242.4670    24.6630     2.2660 
  200.1250   -13.7460    53.4730   197.5910   193.6420   194.0610    24.2960     2.2560 
  200.2500   -13.2980    57.0900   172.0730   170.2500   151.8500    24.0610     2.2380 
  200.3750   -12.8190    57.7860   151.8010   151.0030   130.4450    23.9570     2.2230 
  200.5000   -12.3600    59.5510   137.3800   136.7160   123.9170    23.9310     2.2160 
  200.6250   -11.9450    62.4500   129.3760   128.2090   119.3620    23.9370     2.2170 
  200.7500   -11.5660    62.6950   125.7450   123.9820   119.2630    23.9390     2.2200 
  200.8750   -11.2320    61.0010   125.0900   122.9050   129.9110    23.9480     2.2210 
  201.0000   -10.9660    60.4680   126.0000   123.5990   139.9000    23.9730     2.2180 
  201.1250   -10.8130    61.3400   127.4690   124.9250   136.1300    24.0480     2.2140 
  201.2500   -10.7610    60.3730   129.1520   126.3850   126.8830    24.0930     2.2120 
  201.3750   -10.8000    57.6920   131.4620   128.3100   120.9860    24.1110     2.2150 
  201.5000   -10.8780    55.2000   135.1990   131.4480   119.7850    24.1040     2.2180 
  201.6250   -10.9620    54.7030   141.4950   136.9570   124.0410    24.0850     2.2170 
  201.7500   -11.0540    56.2860   149.7080   144.3560   145.6880    24.1120     2.2080 
  201.8750   -11.1470    58.7580   158.0990   152.0900   180.8630    24.2330     2.1970 
  202.0000   -11.2180    59.5490   164.0740   157.7490   199.5100    24.4550     2.1910 
  202.1250   -11.2490    57.9300   164.6970   158.4880   179.5080    24.7470     2.1960 
  202.2500   -11.2440    58.0420   160.7570   154.8090   174.1770    24.9370     2.2050 
  202.3750   -11.1790    60.4530   154.0440   148.2010   172.2160    24.9770     2.2130 
  202.5000   -11.0690    62.2180   146.7170   140.6630   149.7040    24.9020     2.2170 
  202.6250   -10.9260    60.4360   140.5210   133.9860   117.3400    24.8380     2.2200 
  202.7500   -10.7620    57.9510   135.8770   128.7340   105.6850    24.8240     2.2250 
  202.8750   -10.5850    57.0520   133.0740   125.2390   105.1520    24.8480     2.2320 
  203.0000   -10.4250    56.6610   132.7350   124.0870   102.7570    24.8720     2.2340 
  203.1250   -10.3040    55.6180   136.4200   126.6880    94.1840    24.8800     2.2320 
  203.2500   -10.1920    55.4920   144.3350   133.1560    93.1990    24.8670     2.2330 
  203.3750   -10.0850    56.6670   156.5310   143.4630   113.9740    24.8470     2.2360 
  203.5000   -10.0020    57.0850   171.9490   156.6180   167.3200    24.8870     2.2330 
  203.6250    -9.9570    53.8100   187.5570   169.9970   221.2100    25.0380     2.2190 
  203.7500    -9.9240    49.5980   199.4340   180.2490   236.8070    25.2750     2.2070 
  203.8750    -9.8870    47.4610   205.5200   185.5600   224.0970    25.4360     2.2020 
  204.0000    -9.8350    48.9420   206.3600   186.1900   201.6170    25.4900     2.2030 
  204.1250    -9.7500    52.8520   204.3430   184.0270   197.5050    25.4940     2.2030 
  204.2500    -9.6320    55.2360   201.9670   181.5660   201.9120    25.5030     2.2020 
  204.3750    -9.4910    54.8680   198.5570   178.7810   215.4440    25.5110     2.2040 
  204.5000    -9.3500    52.8380   191.3050   173.7860   228.0830    25.4960     2.2100 
  204.6250    -9.2200    51.9900   176.3820   163.3260   230.1880    25.4240     2.2160 
  204.7500    -9.0890    52.3600   156.0890   148.1050   199.8580    25.3510     2.2230 
  204.8750    -8.9320    52.3450   134.5780   130.7300   149.9140    25.2970     2.2360 
  205.0000    -8.7430    50.7580   115.9050   114.5810   109.9830    25.2160     2.2560 
  205.1250    -8.5320    49.3340   103.4690   103.0180   100.8250    25.1080     2.2840 
  205.2500    -8.3000    49.9130    97.1160    96.6060    97.3910    24.9170     2.3180 
  205.3750    -8.0530    51.8230    96.1110    95.1620    89.4120    24.7150     2.3550 
  205.5000    -7.8190    53.8640    97.4530    96.3910    77.0690    24.6690     2.3910 
  205.6250    -7.6020    55.9270    93.0440    92.9360    69.2240    24.7820     2.4300 
  205.7500    -7.4310    56.0380    77.4440    78.7110    73.4790    24.8190     2.4710 
  205.8750    -7.3050    53.5220    54.2170    56.1480   101.3720    24.7300     2.4950 
  206.0000    -7.2070    51.1810    32.6160    34.3050    83.2500    24.5830     2.4700 
  206.1250    -7.1390    51.1420    19.1720    20.3470    32.1860    24.5990     2.4110 
  206.2500    -7.0960    52.1430    11.7660    12.5520    11.6730    24.8260     2.3830 
  206.3750    -7.0700    55.2310     8.0880     8.6190     5.7870    25.0110     2.3980 
  206.5000    -7.0330    62.1250     6.4310     6.7680     4.8970    24.9800     2.4330 
  206.6250    -7.0170    72.8080     5.9740     6.1510     5.6870    24.7840     2.4550 
  206.7500    -6.9980    78.6440     6.1200     6.1810     5.9960    24.5890     2.4610 
  206.8750    -6.9660    77.9410     6.7200     6.6940     5.7400    24.3860     2.4590 
  207.0000    -6.9450    74.9600     7.7030     7.5960     5.3780    24.2610     2.4510 
  207.1250    -6.9400    73.9390     9.0400     8.8600     6.5850    24.2110     2.4400 
  207.2500    -6.9690    74.2810    10.5320    10.3160     9.8250    24.1600     2.4340 
  207.3750    -7.0240    74.0130    11.9670    11.7690    13.3870    24.0780     2.4350 
