~V
VERS. 2.00: Ver 2.00
~W
STRT.M 59.0000:
STOP.M 217.0000:
STEP.M 0.1250:
NULL. -999.2500:
UWI. F11019:
~C
DEPT.M :
DEN.GM/CC :
GR.API :
RML.OHMM :
RI. :
RXO.OHMM :
CALI.CM :
SP.MV :
~A
# ...
  149.0000     2.3080    93.1560     4.7960     4.2560     4.5470    23.7610   -15.6490 
  149.1250     2.3120    92.6330     4.7790     4.2790     4.6270    23.8480   -15.3910 
  149.2500     2.3130    94.0330     4.7150     4.2640     4.6270    23.9840   -15.2650 
  149.3750     2.3100    96.8040     4.6210     4.2120     4.5380    24.1560   -15.3260 
  149.5000     2.3030    99.0830     4.5300     4.1430     4.3720    24.2780   -15.5520 
  149.6250     2.2950    98.6170     4.4920     4.0960     4.1880    24.3610   -15.9770 
  149.7500     2.2880    96.2920     4.5310     4.1020     4.1210    24.3790   -16.5160 
  149.8750     2.2840    93.6780     4.6540     4.1720     4.2460    24.2770   -17.1050 
  150.0000     2.2810    91.4060     4.8420     4.3040     4.5330    24.1950   -17.6570 
  150.1250     2.2820    89.3650     5.0610     4.4840     4.9700    24.1000   -18.1340 
  150.2500     2.2850    88.1140     5.2620     4.6770     5.4340    24.1400   -18.5360 
  150.3750     2.2900    88.8570     5.4250     4.8630     5.8160    24.2170   -18.8980 
  150.5000     2.2950    91.6560     5.5540     5.0290     6.0360    24.3160   -19.2440 
  150.6250     2.2980    94.1130     5.6580     5.1640     5.9200    24.3690   -19.4460 
  150.7500     2.2990    94.6980     5.7410     5.2650     5.6790    24.2920   -19.4860 
  150.8750     2.2980    93.7660     5.7800     5.3180     5.5550    24.1560   -19.3930 
  151.0000     2.2940    92.1030     5.7400     5.3010     5.5170    24.0590   -19.2630 
  151.1250     2.2870    91.0600     5.5710     5.1740     5.4120    24.2410   -19.1730 
  151.2500     2.2760    91.4210     5.2960     4.9530     5.1930    24.5320   -19.0740 
  151.3750     2.2660    92.5440     4.9550     4.6710     4.9120    24.8280   -18.9200 
  151.5000     2.2600    93.6600     4.6230     4.3910     4.5960    25.0460   -18.7080 
  151.6250     2.2640    94.7470     4.4050     4.2000     4.3270    24.7750   -18.5190 
  151.7500     2.2740    95.3300     4.3510     4.1350     4.1750    24.3350   -18.3870 
  151.8750     2.2890    94.0840     4.4750     4.2070     4.2860    24.1200   -18.3060 
  152.0000     2.3010    91.3890     4.7660     4.3990     4.6380    24.1510   -18.1830 
  152.1250     2.3070    89.4420     5.1530     4.6810     5.0500    24.2210   -17.9590 
  152.2500     2.3070    88.6690     5.5170     4.9870     5.3090    24.2620   -17.7250 
  152.3750     2.3050    88.7870     5.7620     5.2770     5.3660    24.2280   -17.4960 
  152.5000     2.3000    89.6150     5.9220     5.5150     5.3380    24.1710   -17.3100 
  152.6250     2.2920    90.2290     5.9540     5.6510     5.2970    24.1850   -17.1750 
  152.7500     2.2800    89.3320     5.8640     5.6700     5.3540    24.2280   -17.0300 
  152.8750     2.2670    87.3500     5.6530     5.5550     5.5580    24.3650   -16.8390 
  153.0000     2.2570    85.9350     5.3410     5.3110     5.7180    24.4730   -16.6570 
  153.1250     2.2560    86.4770     4.9720     4.9670     5.5000    24.4580   -16.5600 
  153.2500     2.2620    88.1100     4.6210     4.6050     4.8820    24.4330   -16.5510 
  153.3750     2.2730    89.1480     4.3380     4.2870     4.2680    24.7670   -16.5690 
  153.5000     2.2840    88.6130     4.1380     4.0500     3.8270    25.2450   -16.5420 
  153.6250     2.2920    87.3210     4.0120     3.9100     3.6560    25.2670   -16.4910 
  153.7500     2.2970    86.2880     3.9140     3.8270     3.6240    25.1100   -16.4710 
  153.8750     2.3010    85.4230     3.8220     3.7680     3.6400    24.7410   -16.5250 
  154.0000     2.3060    84.6980     3.7460     3.7140     3.6490    24.4680   -16.6330 
  154.1250     2.3120    85.4170     3.7310     3.6780     3.6140    24.9660   -16.7070 
  154.2500     2.3170    87.7150     3.8150     3.6960     3.5820    25.5460   -16.7370 
  154.3750     2.3190    90.3240     4.0340     3.8130     3.6580    25.8410   -16.7950 
  154.5000     2.3190    90.9470     4.4150     4.0680     3.9410    25.8000   -16.8840 
  154.6250     2.3190    87.3260     5.0350     4.5340     4.5470    25.4750   -16.9460 
  154.7500     2.3170    81.6680     5.9170     5.2250     5.3350    24.7970   -16.9600 
  154.8750     2.3150    76.8980     7.1080     6.1820     6.4600    24.0200   -16.8870 
  155.0000     2.3110    74.1440     8.6250     7.4320     8.0420    23.4960   -16.7680 
  155.1250     2.3020    71.9960    10.4450     8.9990    10.6660    23.1300   -16.6920 
  155.2500     2.2850    69.7810    12.3600    10.7270    14.1110    22.7670   -16.6670 
  155.3750     2.2630    68.7680    14.1780    12.4560    17.6130    22.3490   -16.6930 
  155.5000     2.2410    69.5910    15.7430    14.0180    20.0780    22.0230   -16.7680 
  155.6250     2.2250    70.8020    16.9960    15.2830    18.6330    21.8510   -16.8990 
  155.7500     2.2180    70.2960    18.1440    16.3800    16.6270    21.7370   -17.0580 
  155.8750     2.2180    68.1020    19.3500    17.4670    17.1090    21.7530   -17.2850 
  156.0000     2.2230    65.5440    20.6210    18.6340    20.1200    22.0120   -17.5370 
  156.1250     2.2290    64.2780    21.6690    19.7520    23.9910    22.5560   -17.7750 
  156.2500     2.2350    64.4090    22.1990    20.5550    26.2980    23.2010   -17.9920 
  156.3750     2.2410    65.3220    22.1610    20.8990    26.8050    23.7350   -18.1220 
  156.5000     2.2450    66.2430    21.9020    20.9350    25.5220    24.0780   -18.1970 
  156.6250     2.2490    66.3040    22.2020    21.2120    22.3420    24.2450   -18.2530 
  156.7500     2.2520    64.9900    23.3930    22.1300    21.0190    24.2740   -18.2940 
  156.8750     2.2520    62.3740    25.1570    23.5840    23.7900    24.2540   -18.2170 
  157.0000     2.2470    59.4750    26.5600    24.9130    29.9630    24.2830   -18.0200 
  157.1250     2.2380    58.2780    26.0130    24.7760    35.7820    24.4180   -17.7040 
  157.2500     2.2270    59.6830    23.0830    22.5700    35.8260    24.5280   -17.2480 
  157.3750     2.2180    64.0820    18.3160    18.5380    28.8530    24.6170   -16.7090 
  157.5000     2.2120    70.5560    13.2050    13.8660    18.4690    24.7170   -16.1280 
  157.6250     2.2110    75.4100     9.5620    10.1640    10.3270    24.8630   -15.5740 
  157.7500     2.2120    76.3120     7.7250     7.9300     6.6490    24.9640   -15.1640 
  157.8750     2.2160    74.1360     7.4980     7.1120     6.6770    24.8880   -14.9730 
  158.0000     2.2250    71.1920     8.5110     7.4860     9.4510    24.5260   -14.9800 
  158.1250     2.2410    69.0760    10.3490     8.8300    13.9050    24.1240   -15.1760 
  158.2500     2.2580    67.9710    12.2160    10.4870    17.4950    24.0010   -15.4720 
  158.3750     2.2710    67.6280    13.4950    11.9010    18.2200    24.1730   -15.8270 
  158.5000     2.2800    67.9340    13.7850    12.5930    16.5690    24.3970   -16.2200 
  158.6250     2.2820    69.9030    13.0640    12.3180    13.6950    24.5110   -16.5680 
  158.7500     2.2820    73.4220    12.0630    11.5920    11.2730    24.5230   -16.7970 
  158.8750     2.2830    76.6460    11.2260    10.8200     9.8210    24.5450   -16.8930 
  159.0000     2.2830    77.7140    10.6270    10.1650     9.4970    24.5730   -16.8790 
  159.1250     2.2820    77.2290    10.0410     9.5310     9.7400    24.5900   -16.7480 
  159.2500     2.2780    77.3380     9.2400     8.7650     9.7910    24.5750   -16.5800 
  159.3750     2.2690    78.3140     8.2010     7.8350     9.2700    24.5170   -16.4080 
  159.5000     2.2550    79.6230     7.0450     6.8380     7.9010    24.4650   -16.2260 
  159.6250     2.2390    80.4690     6.0680     5.9770     6.1770    24.4980   -16.0610 
  159.7500     2.2250    80.6170     5.4360     5.3700     5.1390    24.6020   -15.9090 
  159.8750     2.2160    80.1820     5.1980     5.0440     4.8470    24.6960   -15.7650 
  160.0000     2.2130    79.8050     5.1840     4.9590     4.8910    24.8660   -15.6280 
  160.1250     2.2200    80.2840     5.3050     5.0450     4.9590    24.9830   -15.4820 
