~V
VERS. 2.00: Ver 2.00
~W
STRT.M 50.0000:
STOP.M 281.0000:
STEP.M 0.1250:
NULL. -999.2500:
UWI. F11064:
~C
DEPT.M :
SP.MV :
GR.API :
RML.OHMM :
RI. :
RXO.OHMM :
CALI.CM :
DEN.GM/CC :
~A
# ...
  128.7500    -7.5170    64.8960     9.8790     8.3170     6.4110    22.2580     2.1320 
  128.8750    -7.5290    63.2530     9.8250     8.2310     6.3670    22.3510     2.1140 
  129.0000    -7.5560    63.4510     9.7780     8.1550     6.4910    22.4200     2.1050 
  129.1250    -7.5930    65.4480     9.7630     8.1060     6.5920    22.4820     2.1050 
  129.2500    -7.6310    65.2490     9.7720     8.0780     6.5740    22.5780     2.1120 
  129.3750    -7.6460    61.5750     9.7850     8.0630     6.5710    22.6910     2.1260 
  129.5000    -7.6330    59.5730     9.7890     8.0620     6.6140    22.8190     2.1390 
  129.6250    -7.5670    62.1440     9.8020     8.0950     6.6950    22.8770     2.1450 
  129.7500    -7.4390    63.3580     9.8670     8.1810     6.8720    22.8720     2.1470 
  129.8750    -7.2570    61.1280    10.0180     8.3350     7.1820    22.8520     2.1480 
  130.0000    -7.0380    60.2380    10.2620     8.5570     7.5260    22.8720     2.1500 
  130.1250    -6.7980    64.2400    10.5710     8.8330     7.9010    22.9110     2.1510 
  130.2500    -6.5550    69.2830    10.8710     9.1150     8.3890    22.8290     2.1520 
  130.3750    -6.3210    71.5400    11.1080     9.3620     8.9360    22.6210     2.1560 
  130.5000    -6.1020    68.7640    11.2400     9.5330     9.3170    22.4090     2.1620 
  130.6250    -5.9260    63.1580    11.2230     9.5750     9.1670    22.2180     2.1690 
  130.7500    -5.8020    60.2600    11.0830     9.4960     8.4300    22.0420     2.1710 
  130.8750    -5.7320    60.7500    10.8460     9.3120     7.4830    21.8220     2.1670 
  131.0000    -5.7270    59.7690    10.5450     9.0530     6.8880    21.6630     2.1610 
  131.1250    -5.7680    58.4830    10.2180     8.7540     6.8000    21.5940     2.1580 
  131.2500    -5.8270    61.4950     9.9070     8.4570     6.8720    21.5630     2.1600 
  131.3750    -5.8770    65.8270     9.6280     8.1820     6.9170    21.5670     2.1680 
  131.5000    -5.9080    65.5870     9.3890     7.9360     6.8830    21.6040     2.1810 
  131.6250    -5.9000    60.6540     9.2140     7.7450     6.8460    21.6410     2.1960 
  131.7500    -5.8520    57.2110     9.1170     7.6290     6.7250    21.7370     2.2080 
  131.8750    -5.7350    56.9800     9.1330     7.6160     6.5480    21.9280     2.2150 
  132.0000    -5.5390    59.3360     9.2910     7.7320     6.4180    22.1220     2.2180 
  132.1250    -5.3170    61.7190     9.6240     8.0080     6.3760    22.2480     2.2160 
  132.2500    -5.1080    61.3520    10.0550     8.3880     6.4790    22.3710     2.2110 
  132.3750    -4.9210    58.8660    10.4920     8.8040     6.6690    22.5300     2.2020 
  132.5000    -4.7680    57.5850    10.8360     9.1670     6.7880    22.6060     2.1920 
  132.6250    -4.6670    59.0030    10.9870     9.3750     6.7370    22.5520     2.1860 
  132.7500    -4.6170    60.0140    10.9760     9.4300     6.6080    22.4410     2.1880 
  132.8750    -4.6360    59.6170    10.8640     9.3740     6.5350    22.4040     2.1990 
  133.0000    -4.7170    59.6080    10.7210     9.2720     6.4840    22.4160     2.2100 
  133.1250    -4.8520    61.4760    10.5950     9.1700     6.4070    22.4130     2.2140 
  133.2500    -5.0330    63.1060    10.4890     9.0640     6.3440    22.3770     2.2160 
  133.3750    -5.2500    63.6000    10.3800     8.9340     6.3290    22.3220     2.2210 
  133.5000    -5.4890    63.9330    10.2500     8.7750     6.3200    22.2540     2.2240 
  133.6250    -5.7570    64.7670    10.0950     8.6060     6.2510    22.2460     2.2220 
  133.7500    -6.0440    64.6880     9.9470     8.4670     6.1860    22.2340     2.2160 
  133.8750    -6.3390    65.4640     9.8310     8.3760     6.1620    22.2140     2.2100 
  134.0000    -6.6340    68.1100     9.7540     8.3310     6.1770    22.2080     2.2060 
  134.1250    -6.9360    68.5930     9.6990     8.3050     6.1760    22.2260     2.2020 
  134.2500    -7.2340    65.9420     9.6350     8.2800     6.1870    22.2260     2.2000 
  134.3750    -7.5420    64.7750     9.5640     8.2610     6.2790    22.2050     2.2010 
  134.5000    -7.8530    67.4460     9.5160     8.2730     6.4520    22.1810     2.2060 
  134.6250    -8.1820    69.6470     9.5390     8.3460     6.6060    22.2200     2.2170 
  134.7500    -8.5260    69.2040     9.6010     8.4580     6.7700    22.4150     2.2290 
  134.8750    -8.8930    67.6840     9.5930     8.5300     7.0040    22.8240     2.2430 
  135.0000    -9.2660    65.9190     9.3690     8.4450     7.3450    23.3340     2.2590 
  135.1250    -9.6130    64.1770     8.7910     8.0750     7.7410    23.8450     2.2740 
  135.2500    -9.9360    65.8150     7.9850     7.4920     7.9740    24.3440     2.2880 
  135.3750   -10.2130    71.7310     7.1200     6.8170     8.0300    24.8830     2.2980 
  135.5000   -10.4720    79.0770     6.3670     6.1910     6.8200    25.4570     2.3020 
  135.6250   -10.6850    81.2460     5.8790     5.7460     6.6570    25.8370     2.2970 
  135.7500   -10.8590    76.4900     5.6230     5.4780     6.5310    25.9750     2.2880 
  135.8750   -10.9770    70.3770     5.5330     5.3460     6.4560    26.0470     2.2810 
  136.0000   -11.0560    70.9130     5.5210     5.2820     6.2320    26.1220     2.2730 
  136.1250   -11.0950    78.2540     5.4730     5.2020     6.1720    26.2430     2.2620 
  136.2500   -11.1090    81.5660     5.3180     5.0420     6.0810    26.5290     2.2440 
  136.3750   -11.1010    78.5230     5.0470     4.7880     5.9370    26.9630     2.2190 
  136.5000   -11.0780    75.9370     4.7050     4.4670     5.7320    27.2540     2.1870 
  136.6250   -11.0390    78.8430     4.3880     4.1440     5.4850    27.1810     2.1560 
  136.7500   -10.9580    82.8580     4.1890     3.9030     5.3320    26.8570     2.1240 
  136.8750   -10.8260    83.6920     4.1660     3.8040     5.1750    26.4110     2.0920 
  137.0000   -10.6480    79.8960     4.3490     3.8870     4.9950    25.7970     2.0740 
  137.1250   -10.4060    74.1400     4.7640     4.1990     5.1240    24.6220     2.0880 
  137.2500   -10.1100    70.0890     5.3510     4.6930     5.4440    23.2490     2.1260 
  137.3750    -9.7720    67.2930     6.0760     5.3340     5.5990    22.2440     2.1680 
  137.5000    -9.3700    64.0780     6.8920     6.0680     5.5780    21.8110     2.1940 
  137.6250    -8.9070    61.5170     7.7280     6.8250     5.8000    21.7910     2.1980 
  137.7500    -8.4410    59.8060     8.4880     7.5250     6.4650    21.8670     2.1880 
  137.8750    -7.9930    58.1260     9.0960     8.1100     7.1790    21.9170     2.1750 
  138.0000    -7.5490    58.1000     9.5130     8.5380     7.1800    21.9240     2.1680 
  138.1250    -7.1540    60.4800     9.7360     8.7860     6.8410    21.9080     2.1640 
  138.2500    -6.8300    62.5510     9.8820     8.9300     6.6520    21.9180     2.1570 
  138.3750    -6.5750    62.0710    10.0440     9.0340     6.5880    21.9970     2.1480 
  138.5000    -6.3810    59.6110    10.2710     9.1520     6.5570    22.1000     2.1390 
  138.6250    -6.2440    57.2510    10.5450     9.2980     6.4880    22.1100     2.1360 
  138.7500    -6.1720    56.7540    10.7850     9.4340     6.3860    22.0860     2.1420 
  138.8750    -6.1730    58.8500    10.9370     9.5280     6.2520    22.0610     2.1550 
  139.0000    -6.2500    60.3660    10.9970     9.5740     6.1640    22.0480     2.1710 
  139.1250    -6.3990    59.7050    10.9890     9.5860     6.1210    22.0110     2.1880 
  139.2500    -6.5750    60.9140    10.9540     9.5850     6.1640    21.9150     2.2030 
  139.3750    -6.7520    63.4450    10.9020     9.5770     6.2540    21.7980     2.2200 
  139.5000    -6.9190    64.0470    10.8320     9.5630     6.3370    21.7710     2.2330 
  139.6250    -7.0800    62.3690    10.7720     9.5460     6.4530    21.9150     2.2350 
  139.7500    -7.2140    62.9470    10.7620     9.5400     6.7470    22.2240     2.2250 
  139.8750    -7.3200    65.5240    10.8150     9.5660     7.2070    22.7050     2.2120 
