~V
VERS. 2.00: Ver 2.00
~W
STRT.M 47.0000:
STOP.M 270.0000:
STEP.M 0.1250:
NULL. -999.2500:
UWI. F11075:
~C
DEPT.M :
GR.API :
RML.OHMM :
RI. :
RXO.OHMM :
CALI.CM :
DEN.GM/CC :
SP.MV :
~A
# ...
  204.5000    67.5800   110.8530   100.9480    64.9970    25.1370     2.2480   -15.3220 
  204.6250    68.0790   107.8050    99.3380    69.9910    25.2200     2.2680   -15.2310 
  204.7500    68.7770   102.4670    95.5150    75.2220    25.3860     2.2820   -15.1210 
  204.8750    68.5070    94.2300    88.6460    78.2640    25.5850     2.2860   -15.0090 
  205.0000    67.0920    84.4350    79.9410    70.0680    25.6760     2.2860   -14.9090 
  205.1250    67.2700    74.2920    70.6140    60.7630    25.7110     2.2890   -14.8080 
  205.2500    69.1640    64.7950    61.7050    59.1490    25.7180     2.2950   -14.6890 
  205.3750    69.6630    56.7940    53.9750    56.5810    25.7020     2.3020   -14.5960 
  205.5000    69.2130    50.4070    47.6140    45.6590    25.6730     2.3110   -14.5100 
  205.6250    70.6970    45.8690    42.9250    37.5780    25.6460     2.3210   -14.4520 
  205.7500    73.4930    43.3990    40.1050    36.6940    25.6310     2.3280   -14.4340 
  205.8750    75.5070    43.5090    39.6180    32.9210    25.6290     2.3280   -14.4480 
  206.0000    76.4360    45.6810    41.1490    37.0830    25.6290     2.3170   -14.5070 
  206.1250    74.5570    49.3230    44.3540    48.1490    25.6320     2.2990   -14.5990 
  206.2500    68.9230    53.3710    48.3410    60.8170    25.6340     2.2830   -14.7270 
  206.3750    63.0570    56.2630    51.4340    65.6140    25.6330     2.2770   -14.8350 
  206.5000    61.8900    57.3980    52.6230    67.0240    25.6310     2.2810   -14.9510 
  206.6250    64.6940    57.1760    52.0780    60.7880    25.6300     2.2870   -15.0440 
  206.7500    67.0960    56.7700    50.9670    49.1870    25.6290     2.2900   -15.1230 
  206.8750    66.7170    57.7490    51.0340    46.3620    25.6310     2.2870   -15.2070 
  207.0000    64.4490    60.4150    52.8580    56.1170    25.6390     2.2800   -15.2770 
  207.1250    63.0940    64.1320    56.0540    70.0680    25.6430     2.2730   -15.3300 
  207.2500    63.4560    67.5360    59.4630    79.3790    25.6430     2.2700   -15.3580 
  207.3750    64.8890    68.7370    61.1420    80.1380    25.6440     2.2710   -15.3870 
  207.5000    66.4550    67.4990    60.4400    71.9000    25.6460     2.2760   -15.4100 
  207.6250    68.3060    64.5430    57.9160    60.6150    25.6470     2.2840   -15.4480 
  207.7500    70.4440    61.1550    54.8250    54.3090    25.6390     2.2920   -15.4830 
  207.8750    69.7100    58.6620    52.4540    53.7990    25.6180     2.2970   -15.5130 
  208.0000    67.6150    57.3640    51.1910    52.3950    25.5890     2.2950   -15.5270 
  208.1250    67.7020    56.9920    50.9010    55.0700    25.5770     2.2870   -15.5480 
  208.2500    69.9020    56.9170    51.0360    60.0190    25.5770     2.2760   -15.5640 
  208.3750    70.7300    56.2280    50.6490    61.7290    25.5660     2.2660   -15.5900 
  208.5000    69.5050    54.5060    49.1890    59.8230    25.5340     2.2620   -15.6160 
  208.6250    69.0580    51.8530    46.6310    56.1590    25.4980     2.2650   -15.6360 
  208.7500    69.7310    48.8810    43.4930    48.0420    25.4710     2.2740   -15.6530 
  208.8750    69.8590    46.7740    40.9210    39.0140    25.4300     2.2830   -15.6490 
  209.0000    68.7870    46.4520    39.8710    37.3510    25.3640     2.2870   -15.6420 
  209.1250    67.7790    48.6260    41.0160    37.9280    25.2970     2.2840   -15.6400 
  209.2500    67.8320    53.7700    44.8340    42.4160    25.2850     2.2740   -15.6610 
  209.3750    67.0110    62.4290    51.9580    55.1000    25.3720     2.2620   -15.6640 
  209.5000    65.1560    73.2690    61.2530    76.3210    25.5120     2.2500   -15.6610 
  209.6250    64.8510    84.5780    71.1490    95.4270    25.6120     2.2420   -15.6570 
  209.7500    66.1790    94.1580    79.5870   104.2950    25.6470     2.2360   -15.6680 
  209.8750    65.0340    99.5460    84.3610   104.0910    25.6470     2.2320   -15.7070 
  210.0000    61.6160   101.1550    85.8920   101.5660    25.6410     2.2310   -15.7710 
  210.1250    59.5090   100.1810    85.3060    97.7810    25.6340     2.2340   -15.8300 
  210.2500    60.2990    98.1660    83.9250    92.0470    25.6290     2.2410   -15.8670 
  210.3750    62.6980    96.3980    82.7290    87.5660    25.6190     2.2500   -15.9110 
  210.5000    64.6490    95.3090    82.0150    85.7840    25.6010     2.2570   -15.9660 
  210.6250    64.9740    94.7840    81.7150    87.6180    25.5860     2.2570   -16.0210 
  210.7500    63.7460    94.4320    81.5840    89.3270    25.5850     2.2530   -16.0580 
  210.8750    62.7850    93.6170    81.2070    92.7730    25.5890     2.2480   -16.0940 
  211.0000    62.5250    91.9450    80.2690    95.3710    25.5850     2.2480   -16.1020 
  211.1250    62.0850    89.2590    78.6060    89.0110    25.5790     2.2530   -16.1090 
  211.2500    62.3550    85.5990    76.1790    72.6830    25.5750     2.2590   -16.1390 
  211.3750    64.2700    80.9610    72.8180    71.2640    25.5730     2.2630   -16.1720 
  211.5000    65.6920    75.6550    68.5970    70.7080    25.5750     2.2670   -16.1980 
  211.6250    64.9990    69.9720    63.6280    70.5010    25.5840     2.2760   -16.2010 
  211.7500    63.4270    64.4330    58.3680    69.0890    25.5890     2.2890   -16.1980 
  211.8750    63.4600    60.0370    53.7820    61.4400    25.5880     2.3010   -16.2110 
  212.0000    64.6330    57.5020    50.7050    51.9580    25.5840     2.3060   -16.2530 
  212.1250    64.7760    57.5000    49.8410    45.5010    25.5750     2.3010   -16.2840 
  212.2500    63.3100    60.5610    51.7270    46.8980    25.5470     2.2890   -16.3080 
  212.3750    62.2990    67.6870    57.2950    58.9580    25.4670     2.2760   -16.3230 
  212.5000    63.0320    78.4470    66.1110    75.4770    25.3590     2.2640   -16.3490 
  212.6250    64.6770    92.5900    77.8540    89.2370    25.2560     2.2510   -16.4020 
  212.7500    65.2090   109.4120    91.8480   101.5530    25.2120     2.2340   -16.4700 
  212.8750    62.0060   127.7520   107.1840   117.3820    25.3130     2.2160   -16.5160 
  213.0000    57.6740   145.5000   122.3130   139.0650    25.5240     2.2060   -16.5440 
  213.1250    56.0890   160.5110   135.7100   155.2560    25.6950     2.2110   -16.5710 
  213.2500    57.7000   170.1560   145.4760   164.4980    25.7300     2.2320   -16.5880 
  213.3750    58.6930   170.0650   148.1790   175.6760    25.5940     2.2610   -16.5990 
  213.5000    58.2520   160.3230   143.0690   174.2030    25.4020     2.2820   -16.5880 
  213.6250    57.6150   142.6250   130.5120   158.7470    25.2900     2.2860   -16.5720 
  213.7500    57.2120   120.9170   112.9460   140.2270    25.3270     2.2770   -16.5660 
  213.8750    58.0290   100.2430    94.3360   119.1050    25.4470     2.2610   -16.5410 
  214.0000    60.8940    83.4900    78.3170    91.7990    25.5380     2.2460   -16.5010 
  214.1250    63.4620    71.3280    66.3630    67.4590    25.5660     2.2330   -16.4770 
  214.2500    63.0460    63.4090    58.6140    54.8580    25.5570     2.2230   -16.4790 
  214.3750    61.7430    59.5710    54.9570    51.8630    25.5120     2.2200   -16.5070 
  214.5000    61.8550    58.4980    53.9830    56.7250    25.4110     2.2270   -16.5450 
  214.6250    63.3060    59.5220    55.0270    64.4380    25.2400     2.2420   -16.5670 
  214.7500    66.3500    61.8580    57.3590    65.7650    25.0920     2.2570   -16.5750 
  214.8750    70.7510    64.5610    60.0780    67.4660    25.0350     2.2640   -16.6080 
  215.0000    73.2290    66.7330    62.2820    73.0580    25.0240     2.2650   -16.6850 
  215.1250    71.9000    68.0460    63.6170    79.3930    25.0280     2.2630   -16.7560 
  215.2500    69.8750    68.6830    64.2350    80.2330    25.0480     2.2640   -16.8020 
  215.3750    70.7270    69.4100    64.8040    73.3950    25.0650     2.2660   -16.8560 
  215.5000    70.8460    71.1150    66.1470    69.5060    25.0920     2.2650   -16.9270 
  215.6250    68.3960    74.2620    68.7260    74.0550    25.1650     2.2580   -17.0320 
