~V
VERS. 2.00: Ver 2.00
~W
STRT.M 40.0000:
STOP.M 275.0000:
STEP.M 0.1250:
NULL. -999.2500:
UWI. F11027:
~C
DEPT.M :
DEN.GM/CC :
GR.API :
RML.OHMM :
RI. :
RXO.OHMM :
CALI.CM :
SP.MV :
~A
# ...
  107.5000     2.1720    66.9250     9.7740     8.0300     7.1000    24.7160   -17.7120 
  107.6250     2.1860    72.7670    10.0630     8.3220     7.9240    24.3730   -17.4100 
  107.7500     2.1820    75.2410    10.2180     8.4980     8.2730    24.2150   -17.1690 
  107.8750     2.1690    74.1860    10.1310     8.4410     8.5970    24.2090   -16.7950 
  108.0000     2.1620    72.0250     9.6860     8.0680     9.3870    24.2680   -16.1680 
  108.1250     2.1810    72.0960     8.8000     7.3350    11.0270    24.2280   -15.3610 
  108.2500     2.2260    76.6130     7.7200     6.4260    10.8940    24.0860   -14.4740 
  108.3750     2.2830    85.0580     6.7100     5.5270     8.1650    23.9400   -13.5190 
  108.5000     2.3350    93.4880     5.9790     4.8030     5.9410    23.8110   -12.5120 
  108.6250     2.3600    97.4540     5.6910     4.4030     5.3510    23.7390   -11.5420 
  108.7500     2.3540    98.8630     5.8360     4.3350     5.4200    23.7420   -10.7020 
  108.8750     2.3250    98.6370     6.4310     4.6320     5.5610    23.7280   -10.1560 
  109.0000     2.2860    94.8470     7.4310     5.3250     5.5700    23.5650    -9.9730 
  109.1250     2.2590    85.1170     8.7030     6.4470     5.8770    23.3840   -10.1240 
  109.2500     2.2560    75.1720     9.8920     7.7450     6.7610    23.2860   -10.4100 
  109.3750     2.2770    71.0900    10.6670     8.8590     7.9440    23.2950   -10.7090 
  109.5000     2.3150    72.0420    10.7890     9.3800     8.8110    23.3800   -10.9250 
  109.6250     2.3570    76.0270    10.1650     8.9960     9.4210    23.4710   -10.9660 
  109.7500     2.3910    80.6570     9.1920     8.0960     9.2790    23.5260   -10.8830 
  109.8750     2.4120    83.8790     8.2010     7.0750     8.9230    23.5640   -10.6290 
  110.0000     2.4180    86.2480     7.4330     6.2070     9.5510    23.5880   -10.1680 
  110.1250     2.4050    91.4060     7.0390     5.6520    12.1700    23.5850    -9.6070 
  110.2500     2.3800    99.5000     6.9390     5.3800    12.2620    23.5460    -9.1370 
  110.3750     2.3510   104.7130     7.0630     5.3610     9.1520    23.4640    -8.8130 
  110.5000     2.3250   103.7910     7.3230     5.5350     6.6170    23.3530    -8.6000 
  110.6250     2.3080    98.8400     7.5980     5.8190     5.9300    23.2390    -8.4580 
  110.7500     2.2970    93.8200     7.7560     6.0730     6.0770    23.1700    -8.3710 
  110.8750     2.2910    92.7040     7.7130     6.1850     6.0030    23.1630    -8.2930 
  111.0000     2.2880    95.8730     7.4550     6.0940     5.8310    23.2230    -8.2700 
  111.1250     2.2880    99.5470     7.0520     5.8200     5.7540    23.2660    -8.2980 
  111.2500     2.2930    99.8090     6.6570     5.5020     5.6660    23.2660    -8.1510 
  111.3750     2.3030   100.5080     6.3610     5.2280     5.3190    23.2540    -7.8950 
  111.5000     2.3160   104.2040     6.2050     5.0420     4.9350    23.2590    -7.6840 
  111.6250     2.3280   106.6900     6.1990     4.9610     4.8430    23.2730    -7.5470 
  111.7500     2.3350   106.4320     6.2880     4.9470     5.0580    23.2890    -7.5470 
  111.8750     2.3340   104.4980     6.4360     4.9710     5.5570    23.2970    -7.6480 
  112.0000     2.3270   101.2280     6.6250     5.0130     5.8770    23.3180    -7.7880 
  112.1250     2.3200    98.1210     6.8710     5.0800     6.0500    23.3750    -7.9570 
  112.2500     2.3140    99.1400     7.2110     5.2080     5.6660    23.4430    -8.2060 
  112.3750     2.3040   102.1750     7.6910     5.4400     5.4750    23.4780    -8.5920 
  112.5000     2.2880    99.8800     8.3370     5.8010     6.0800    23.4750    -9.1130 
  112.6250     2.2610    91.6630     9.1260     6.3130     6.8260    23.4610    -9.6890 
  112.7500     2.2310    84.0510     9.9020     6.8950     7.6670    23.4840   -10.2450 
  112.8750     2.2050    78.3200    10.5140     7.4240     8.1530    23.5190   -10.7500 
  113.0000     2.1920    74.5700    10.8860     7.7810     8.2830    23.5000   -11.1880 
  113.1250     2.2080    73.7820    11.1440     7.9390     8.3970    23.4230   -11.5550 
  113.2500     2.2570    75.5250    11.6830     8.1350     8.6580    23.4020   -11.7400 
  113.3750     2.3400    77.6540    12.9070     8.6670     8.7190    23.4480   -11.6320 
  113.5000     2.4450    76.7810    15.1030     9.8590     9.3100    23.4840   -11.3280 
  113.6250     2.5450    72.5520    18.2920    12.0980    14.1000    23.4690   -10.9440 
  113.7500     2.6100    68.1910    21.4840    15.0170    18.8280    23.4130   -10.5770 
  113.8750     2.6210    67.0610    23.4260    17.6410    21.0140    23.3450   -10.3480 
  114.0000     2.5740    68.3550    23.1270    18.5600    19.3400    23.2970   -10.2600 
  114.1250     2.4840    69.1200    20.4340    16.9700    14.8460    23.2950   -10.4050 
  114.2500     2.3830    68.9700    17.0490    14.4390    11.3710    23.3720   -10.9070 
  114.3750     2.2930    68.3910    14.1840    12.1210     9.5300    23.5280   -11.6610 
  114.5000     2.2290    67.5230    12.3910    10.5060     8.8510    23.7040   -12.5240 
  114.6250     2.1980    67.2960    11.7330     9.7170     8.5300    23.7910   -13.4050 
  114.7500     2.1900    69.4750    11.6660     9.4730     8.5340    23.7490   -14.1660 
  114.8750     2.1970    74.2290    11.8490     9.5890     8.5970    23.6220   -14.8450 
  115.0000     2.2060    79.2980    12.0120     9.8490     8.7300    23.5360   -15.4720 
  115.1250     2.2050    80.9770    11.9710    10.0190     8.9000    23.5910   -15.9550 
  115.2500     2.1940    78.6880    11.7670    10.0380     9.0720    23.7230   -16.2840 
  115.3750     2.1800    73.9890    11.5100     9.9720     9.1420    23.8860   -16.5220 
  115.5000     2.1720    70.7020    11.3080     9.9110     9.5730    24.0380   -16.7050 
  115.6250     2.1750    71.6900    11.2410     9.9200     9.5730    24.1980   -16.8720 
  115.7500     2.1830    73.5510    11.2680     9.9920     9.5730    24.3190   -17.0200 
  115.8750     2.1870    74.5660    11.3330    10.0770     9.4630    24.3050   -17.1360 
  116.0000     2.1840    74.5230    11.3850    10.1170     9.4270    24.2090   -17.1750 
  116.1250     2.1770    73.0850    11.4070    10.0780     9.3910    24.1570   -17.0880 
  116.2500     2.1720    71.5170    11.4320     9.9930     9.2830    24.1360   -16.9860 
  116.3750     2.1730    68.8660    11.4820     9.8830     9.2830    24.1050   -16.8470 
  116.5000     2.1760    67.0950    11.5590     9.7480     9.4270    24.0400   -16.6630 
  116.6250     2.1780    71.1800    11.6280     9.5600     9.5000    24.0060   -16.5300 
  116.7500     2.1820    78.3300    11.6530     9.3110     9.7960    24.0050   -16.3910 
  116.8750     2.1870    81.6170    11.6170     9.0170    10.1020    23.9530   -16.2020 
  117.0000     2.1950    76.8910    11.5280     8.7340    10.3360    23.8350   -16.0640 
  117.1250     2.2020    69.7530    11.4320     8.5380    11.5980    23.7070   -16.0020 
  117.2500     2.2040    65.7680    11.4350     8.4760    13.7340    23.7090   -15.9480 
  117.3750     2.2080    65.8410    11.6890     8.6190    14.3790    23.8550   -15.9130 
  117.5000     2.2260    68.6360    12.3890     9.0630    19.1000    24.1450   -15.7290 
  117.6250     2.2780    71.8170    13.8980    10.0490    20.8410    24.3310   -15.2500 
  117.7500     2.3630    72.7280    16.3280    11.7630    25.9760    24.3160   -14.6090 
  117.8750     2.4680    69.9670    19.7590    14.4820    27.7190    24.2480   -13.8530 
  118.0000     2.5720    66.5960    23.9900    18.3500    32.6860    24.2390   -13.1230 
  118.1250     2.6440    66.0660    28.1150    23.0160    34.1330    24.2500   -12.5630 
  118.2500     2.6720    66.3700    30.7050    26.9130    36.9570    24.3050   -12.1120 
  118.3750     2.6520    64.7250    30.7190    28.3750    34.1330    24.4100   -11.7860 
  118.5000     2.5880    62.4550    28.0890    26.6910    32.1880    24.5490   -11.7000 
  118.6250     2.4920    64.2290    23.8010    22.6330    28.3530    24.6810   -12.0280 
