~V
VERS. 2.00: Ver 2.00
~W
STRT.M 60.0000:
STOP.M 274.0000:
STEP.M 0.1250:
NULL. -999.2500:
UWI. F11079:
~C
DEPT.M :
GR.API :
RML.OHMM :
RI. :
RXO.OHMM :
CALI.CM :
DEN.GM/CC :
SP.MV :
~A
# ...
  217.5000    69.3610    50.3330    44.3200    28.9540    24.1370     2.2390    -9.5890 
  217.6250    67.1810    56.9440    51.2180    45.5810    24.1330     2.2140    -9.8130 
  217.7500    65.3070    60.5370    55.3300    86.0040    24.1360     2.1890   -10.0640 
  217.8750    65.8600    61.3410    56.5590    98.1790    24.1280     2.1570   -10.3190 
  218.0000    69.1970    60.6340    55.8960    74.3460    24.0300     2.1230   -10.5500 
  218.1250    71.8920    60.1240    54.8420    58.1920    23.6600     2.1130   -10.7430 
  218.2500    71.1180    60.6770    54.5340    36.7640    23.2380     2.1380   -10.9260 
  218.3750    68.0920    62.1060    55.0710    32.9820    22.9650     2.1890   -11.1010 
  218.5000    65.9930    63.6410    55.9550    34.6830    22.8640     2.2380   -11.2540 
  218.6250    66.4930    64.0830    56.2400    40.7860    22.8970     2.2620   -11.3490 
  218.7500    67.9370    62.9760    55.3840    42.9520    23.0360     2.2700   -11.4260 
  218.8750    68.3460    60.4890    53.3980    40.8650    23.2740     2.2750   -11.5530 
  219.0000    65.9420    57.3180    50.7820    37.6350    23.6080     2.2800   -11.7450 
  219.1250    63.9180    54.3360    48.2440    36.3020    24.0660     2.2870   -11.9950 
  219.2500    63.8210    51.9620    46.1720    36.3730    24.3740     2.2950   -12.2620 
  219.3750    65.7830    50.2060    44.6040    37.1370    24.4200     2.3050   -12.5320 
  219.5000    68.1960    48.8260    43.3780    37.7630    24.3200     2.3050   -12.7850 
  219.6250    68.4890    47.4240    42.2000    37.6490    24.2460     2.2790   -12.9770 
  219.7500    67.6680    45.8080    40.8820    36.8090    24.2300     2.2340   -13.1120 
  219.8750    67.6200    44.1050    39.5130    35.4580    24.2530     2.1820   -13.2010 
  220.0000    70.4710    42.6250    38.3330    33.7890    24.2580     2.1380   -13.3000 
  220.1250    72.5450    41.8770    37.7380    33.5820    24.1750     2.1160   -13.4100 
  220.2500    70.9910    42.0250    37.8560    34.4050    23.9990     2.1190   -13.5200 
  220.3750    69.6070    43.0430    38.6830    35.3570    23.8420     2.1430   -13.6260 
  220.5000    71.5400    44.6360    40.0180    35.8970    23.7600     2.1760   -13.7410 
  220.6250    74.6530    46.2210    41.4280    36.2580    23.7250     2.2040   -13.8820 
  220.7500    73.0330    47.1910    42.3880    36.4290    23.6760     2.2280   -14.0140 
  220.8750    67.1730    47.2460    42.5880    35.7400    23.6670     2.2470   -14.1000 
  221.0000    62.2610    46.4300    41.9920    34.4620    23.6990     2.2600   -14.1040 
  221.1250    63.1070    45.0000    40.7340    33.6390    23.7290     2.2630   -14.0450 
  221.2500    67.5150    43.4520    39.2430    33.4810    23.7650     2.2630   -13.9770 
  221.3750    70.8800    42.1220    37.8340    32.9150    23.7960     2.2660   -13.8990 
  221.5000    72.5540    41.2950    36.8000    32.0520    23.8260     2.2710   -13.8370 
  221.6250    72.0600    41.3260    36.4900    31.6890    23.8640     2.2670   -13.8440 
  221.7500    69.6480    42.2180    36.9360    32.0210    23.9010     2.2510   -13.9060 
  221.8750    66.5860    43.9360    38.1450    32.7350    23.9070     2.2300   -13.9950 
  222.0000    64.4140    46.2320    39.9670    33.8280    23.9150     2.2160   -14.0840 
  222.1250    63.2360    48.5800    42.0550    34.9070    23.9430     2.2170   -14.1350 
  222.2500    62.4590    50.3650    43.8540    35.4630    23.9250     2.2340   -14.1550 
  222.3750    61.8540    51.1600    44.9190    35.1850    23.8560     2.2600   -14.1620 
  222.5000    61.8280    50.7840    44.9660    34.3130    23.7910     2.2860   -14.1350 
  222.6250    62.3190    49.2560    43.8830    32.7210    23.7730     2.3010   -14.0420 
  222.7500    63.0490    47.1230    42.1460    31.5730    23.8080     2.3030   -13.9320 
  222.8750    63.9150    44.6790    40.0340    30.5770    23.8910     2.2890   -13.8390 
  223.0000    65.5350    42.2040    37.8020    29.9990    23.9270     2.2590   -13.8010 
  223.1250    67.1370    40.1300    35.8300    29.7990    23.8610     2.2160   -13.8160 
  223.2500    68.1350    38.6940    34.3780    29.7420    23.7540     2.1740   -13.8420 
  223.3750    68.4900    38.0000    33.5760    29.3330    23.7690     2.1480   -13.8600 
  223.5000    68.0820    38.0230    33.4390    28.4460    23.9240     2.1450   -13.8530 
  223.6250    67.5090    38.6480    33.9070    26.0480    24.0240     2.1600   -13.7920 
  223.7500    67.7140    39.4120    34.5780    23.6570    23.9260     2.1800   -13.6800 
  223.8750    68.3790    39.9370    35.1210    21.5220    23.6460     2.2040   -13.5490 
  224.0000    67.8320    39.9350    35.2840    20.7550    23.3890     2.2310   -13.4280 
  224.1250    66.0050    39.1880    34.8500    21.7840    23.2830     2.2490   -13.3340 
  224.2500    65.1920    37.9420    33.9610    22.7280    23.2900     2.2510   -13.2520 
  224.3750    65.3140    36.4730    32.8040    22.6870    23.2880     2.2460   -13.1880 
  224.5000    65.1820    35.0360    31.5860    21.9610    23.2120     2.2460   -13.1490 
  224.6250    65.6700    33.8600    30.5000    20.6800    23.0080     2.2540   -13.1560 
  224.7500    65.7280    33.0610    29.6630    20.4060    22.9240     2.2630   -13.1660 
  224.8750    65.3130    32.7860    29.2000    19.5540    23.0970     2.2760   -13.1340 
  225.0000    65.7300    33.1550    29.2190    18.7360    23.4230     2.2940   -13.0420 
  225.1250    65.7910    34.1990    29.8190    19.0400    23.6280     2.3060   -12.9250 
  225.2500    65.2270    35.4300    30.6830    20.2190    23.7140     2.3060   -12.8170 
  225.3750    66.2760    36.3060    31.3960    21.3260    23.7560     2.2990   -12.7320 
  225.5000    70.2950    36.3810    31.5360    21.7290    23.7680     2.2930   -12.7020 
  225.6250    70.5530    35.5480    30.8940    20.9550    23.7320     2.2940   -12.7670 
  225.7500    65.1040    34.5560    29.9930    19.2170    23.6560     2.2980   -12.9140 
  225.8750    61.6700    34.1700    29.4230    17.5170    23.5880     2.3030   -13.1020 
  226.0000    63.4960    34.9760    29.6810    17.1170    23.6260     2.3050   -13.3020 
  226.1250    64.8200    37.3130    31.1650    18.5770    23.8710     2.2970   -13.4950 
  226.2500    62.1630    40.4760    33.4780    21.3990    24.1230     2.2790   -13.6850 
  226.3750    58.2960    43.5830    36.0210    24.2740    24.2680     2.2620   -13.8750 
  226.5000    56.2790    45.6290    37.9650    25.5900    24.3020     2.2540   -14.0370 
  226.6250    55.6550    45.7090    38.4110    26.3580    24.2760     2.2560   -14.1430 
  226.7500    56.1740    44.4190    37.6420    26.4410    24.2340     2.2600   -14.2400 
  226.8750    58.5680    42.5690    36.2480    24.5540    24.1710     2.2630   -14.3780 
  227.0000    62.3720    40.9060    34.8490    22.4710    24.1260     2.2610   -14.5580 
  227.1250    63.2910    39.9950    33.9540    21.9060    24.1420     2.2530   -14.7600 
  227.2500    59.5630    39.8060    33.6280    22.1320    24.2050     2.2370   -14.9560 
  227.3750    55.6590    40.1230    33.7680    21.8970    24.2460     2.2180   -15.1380 
  227.5000    55.2340    40.4960    34.0710    20.9250    24.2100     2.2030   -15.3050 
  227.6250    56.9010    40.1920    33.9770    20.4390    24.1230     2.2010   -15.4200 
  227.7500    57.7320    38.8990    33.1520    19.9840    23.9720     2.2060   -15.4710 
  227.8750    56.1460    36.7370    31.6020    18.8270    23.7300     2.2140   -15.4760 
  228.0000    53.0070    34.2160    29.6600    16.7540    23.5090     2.2240   -15.4780 
  228.1250    51.5910    32.0180    27.8230    15.1950    23.4550     2.2320   -15.5030 
  228.2500    54.0650    30.3630    26.3350    15.7610    23.5480     2.2340   -15.5710 
  228.3750    57.6580    29.0950    25.1430    18.1670    23.5940     2.2400   -15.6800 
  228.5000    57.6930    27.8800    24.0430    21.7610    23.5280     2.2640   -15.8220 
  228.6250    54.8040    26.3600    22.7740    22.6290    23.5010     2.3090   -16.0430 
