~V
VERS. 2.00: Ver 2.00
~W
STRT.M 53.0000:
STOP.M 279.0000:
STEP.M 0.1250:
NULL. -999.2500:
UWI. F11068:
~C
DEPT.M :
GR.API :
RML.OHMM :
RI. :
RXO.OHMM :
CALI.CM :
SP.MV :
DEN.GM/CC :
~A
# ...
  233.0000    78.1340    79.4090    78.5260    56.1460    24.8890   -18.1850     2.1910 
  233.1250    82.3050    78.3020    76.8040    57.7120    24.6580   -17.9570     2.2150 
  233.2500    81.1360    78.4930    76.2700    69.1250    24.5910   -17.6290     2.2370 
  233.3750    78.2960    80.4640    77.5280    79.2810    24.6370   -17.2640     2.2470 
  233.5000    78.4480    84.3110    80.7740    80.1150    24.6740   -16.8960     2.2370 
  233.6250    79.1150    89.6660    85.7400    80.8140    24.6320   -16.5320     2.2070 
  233.7500    75.6110    94.9930    90.8110    85.8700    24.6190   -16.1540     2.1800 
  233.8750    69.0220    98.7870    94.3410   102.7320    24.7590   -15.7840     2.1720 
  234.0000    63.5700    99.8270    94.9730   101.8620    24.9590   -15.3750     2.1890 
  234.1250    63.7670    97.3500    91.8810    89.8710    25.0710   -14.9630     2.2240 
  234.2500    67.3630    92.8940    86.6740    79.6950    24.8900   -14.5840     2.2630 
  234.3750    69.9750    88.0650    80.9680    76.3520    24.5980   -14.2190     2.2990 
  234.5000    69.1750    84.5250    76.4210    70.8090    24.3640   -13.9030     2.3320 
  234.6250    67.2830    84.3330    75.1010    67.3000    24.3410   -13.6540     2.3680 
  234.7500    66.8180    88.2590    77.9070    66.6730    24.4350   -13.4320     2.4140 
  234.8750    66.2160    97.2790    85.9800    65.3650    24.5870   -13.1920     2.4780 
  235.0000    64.6920   112.4670   100.6070    74.3380    24.7360   -12.9680     2.5560 
  235.1250    62.8810   135.5440   124.5770   118.5640    24.8440   -12.7590     2.6380 
  235.2500    60.6950   160.4380   155.7050   214.4320    24.8580   -12.5460     2.7010 
  235.3750    58.3340   173.5220   184.9690   282.9230    24.7980   -12.3200     2.7240 
  235.5000    55.6880   160.2380   189.3860   267.2870    24.7110   -12.0450     2.6980 
  235.6250    53.3060   118.1360   144.5410   274.7840    24.6240   -11.7730     2.6220 
  235.7500    52.3990    71.9760    86.2480   217.9190    24.5500   -11.4740     2.5280 
  235.8750    53.1120    37.8840    43.7540    85.8280    24.4390   -11.0880     2.4430 
  236.0000    53.6540    18.7680    20.7820    22.1500    24.2810   -10.5610     2.3850 
  236.1250    52.3690    10.4790    11.3930     8.6300    24.1890    -9.9500     2.3630 
  236.2500    50.2870     6.7780     7.2700     5.4520    24.1910    -9.3670     2.3610 
  236.3750    48.4110     5.5670     5.5950     5.0600    24.2820    -8.8760     2.3650 
  236.5000    47.4040     5.5380     5.1280     5.4790    24.4810    -8.4850     2.3590 
  236.6250    46.3830     6.0170     5.4390     6.0960    24.5990    -8.1810     2.3310 
  236.7500    44.4980     6.5850     6.0470     6.6270    24.4340    -7.9840     2.2840 
  236.8750    41.9080     6.9950     6.6350     6.5830    24.2940    -7.9600     2.2310 
  237.0000    39.9450     7.1460     6.9900     6.2450    24.3720    -8.1110     2.1910 
  237.1250    41.1870     7.0690     7.0520     6.1430    24.7100    -8.4480     2.1890 
  237.2500    44.2210     6.9370     6.9850     6.1910    25.1190    -8.8340     2.2190 
  237.3750    45.8600     6.8470     6.8950     6.2580    25.2880    -9.2010     2.2700 
  237.5000    44.2720     6.8360     6.8350     6.2780    25.2260    -9.5690     2.3250 
  237.6250    43.2960     6.9090     6.8140     6.5650    25.2260    -9.8840     2.3720 
  237.7500    45.8770     7.0310     6.8050     7.0900    25.2530   -10.1660     2.4110 
  237.8750    48.4440     7.1810     6.7980     7.6230    25.2910   -10.3980     2.4480 
  238.0000    46.9680     7.3500     6.7940     7.8760    25.2610   -10.6360     2.4900 
  238.1250    42.7510     7.5340     6.8090     7.7640    25.1690   -10.8130     2.5490 
  238.2500    41.0930     7.7310     6.8550     7.6780    25.0850   -10.9710     2.6110 
  238.3750    42.5610     7.9350     6.9360     7.6390    25.0310   -11.1020     2.6520 
  238.5000    44.4920     8.1250     7.0340     7.7410    25.0050   -11.2150     2.6420 
  238.6250    43.1800     8.2500     7.1070     8.1490    24.9280   -11.3330     2.5550 
  238.7500    41.2560     8.2710     7.1130     8.7550    24.8510   -11.4400     2.4300 
  238.8750    42.8840     8.1660     7.0190     8.6290    24.8540   -11.4780     2.3140 
  239.0000    46.5170     7.9470     6.8220     7.5880    25.0070   -11.4390     2.2450 
  239.1250    47.5740     7.6580     6.5510     6.8020    25.1250   -11.3860     2.2370 
  239.2500    46.9150     7.3820     6.2770     6.3930    25.1460   -11.2650     2.2500 
  239.3750    46.7640     7.1690     6.0460     5.9350    25.0770   -11.1170     2.2560 
  239.5000    47.1570     7.0390     5.8820     5.7990    25.0430   -10.9620     2.2470 
  239.6250    45.3120     6.9900     5.8000     6.0050    25.0400   -10.8030     2.2330 
  239.7500    43.0260     6.9690     5.7620     6.2940    24.9840   -10.6380     2.2320 
  239.8750    42.8340     6.9460     5.7370     6.4240    24.7210   -10.5230     2.2470 
  240.0000    45.1520     6.9030     5.7060     6.5430    24.2800   -10.4730     2.2750 
  240.1250    48.2950     6.8510     5.6640     6.6360    24.1750   -10.4250     2.3070 
  240.2500    49.2100     6.8200     5.6360     6.4990    24.3680   -10.4630     2.3360 
  240.3750    47.9930     6.8390     5.6510     6.4710    24.4560   -10.5380     2.3570 
  240.5000    47.4430     6.9220     5.7300     6.5050    24.3160   -10.6300     2.3660 
  240.6250    50.8480     7.0710     5.8830     6.4900    24.2830   -10.7640     2.3610 
  240.7500    55.4710     7.2450     6.0680     6.6020    24.5760   -10.8890     2.3500 
  240.8750    57.3970     7.4030     6.2340     6.7950    24.9310   -10.9870     2.3430 
  241.0000    55.8220     7.5010     6.3330     6.7810    25.0630   -11.0260     2.3470 
  241.1250    52.7550     7.5040     6.3220     6.6210    24.8990   -11.0300     2.3650 
  241.2500    50.4370     7.4370     6.2340     6.2230    24.6190   -10.9460     2.3880 
  241.3750    49.9880     7.3180     6.1010     6.0040    24.2690   -10.8210     2.4070 
  241.5000    50.5950     7.1560     5.9420     5.9930    24.0060   -10.6710     2.4120 
  241.6250    50.3380     6.9310     5.7420     6.1090    23.9980   -10.4170     2.4030 
  241.7500    51.2210     6.6550     5.4950     6.0570    24.1460   -10.1460     2.3870 
  241.8750    55.2280     6.3860     5.2270     5.9350    24.3570    -9.9240     2.3760 
  242.0000    61.5710     6.2270     5.0150     5.8580    24.5770    -9.8580     2.3760 
  242.1250    69.4410     6.3380     4.9850     5.7510    24.7560   -10.0270     2.3900 
  242.2500    77.8780     6.7450     5.1870     6.1230    24.9270   -10.4010     2.4100 
  242.3750    84.5800     7.4100     5.6340     7.6590    24.9960   -10.8980     2.4280 
  242.5000    86.8620     8.1980     6.2730    10.0460    24.9760   -11.3890     2.4410 
  242.6250    83.6770     8.8620     6.9460    10.8980    24.9480   -11.7180     2.4470 
  242.7500    79.3750     9.2190     7.4340    10.4450    24.9700   -11.9470     2.4490 
  242.8750    78.4010     9.2180     7.6170     9.5770    25.0020   -12.0930     2.4510 
  243.0000    83.1450     8.9500     7.5110     8.9810    25.0170   -12.1450     2.4540 
  243.1250    88.8190     8.5900     7.2320     8.8430    25.0290   -12.0500     2.4600 
  243.2500    92.2830     8.2950     6.9480     8.6590    25.0260   -11.7810     2.4660 
  243.3750    96.5830     8.0990     6.7160     8.4240    25.0040   -11.3890     2.4700 
  243.5000   101.8010     7.9720     6.5420     8.2480    24.9850   -10.9470     2.4680 
  243.6250   105.5040     7.8660     6.4050     8.1030    24.9710   -10.6740     2.4610 
  243.7500   108.5530     7.7470     6.2750     7.9800    24.9530   -10.5110     2.4510 
  243.8750   111.9230     7.6080     6.1410     7.8000    24.9410   -10.4160     2.4400 
  244.0000   112.9140     7.4630     6.0070     7.6720    24.9500   -10.3120     2.4290 
  244.1250   111.8460     7.3570     5.9050     7.5070    24.9830   -10.1940     2.4250 
