~V
VERS. 2.00: Ver 2.00
~W
STRT.M 59.0000:
STOP.M 217.0000:
STEP.M 0.1250:
NULL. -999.2500:
UWI. F11019:
~C
DEPT.M :
DEN.GM/CC :
GR.API :
RML.OHMM :
RI. :
RXO.OHMM :
CALI.CM :
SP.MV :
~A
# ...
   81.5000     1.9230    66.1090     9.2020     7.8280     6.7140    15.8670   -29.5560 
   81.6250     1.9200    66.4420     9.1190     7.7890     6.6160    15.7050   -28.9960 
   81.7500     1.9180    66.1320     9.0040     7.7190     6.5070    15.7380   -28.3990 
   81.8750     1.9150    65.8950     8.8940     7.6320     6.3960    15.9300   -27.8210 
   82.0000     1.9120    66.5680     8.8160     7.5520     6.3050    16.1200   -27.2550 
   82.1250     1.9100    67.1240     8.7780     7.5010     6.2740    16.2660   -26.7240 
   82.2500     1.9080    66.3890     8.7570     7.4860     6.3190    16.3800   -26.2630 
   82.3750     1.9070    64.5990     8.7320     7.5030     6.4380    16.4920   -25.8620 
   82.5000     1.9060    62.3180     8.6920     7.5410     6.6020    16.6440   -25.4910 
   82.6250     1.9050    60.3040     8.6420     7.5830     6.7570    16.8690   -25.1660 
   82.7500     1.9040    58.8410     8.6020     7.6170     6.8520    17.1750   -24.8510 
   82.8750     1.9030    57.7090     8.5810     7.6370     6.9130    17.5040   -24.5300 
   83.0000     1.9020    57.3240     8.5720     7.6390     6.9920    17.7990   -24.2400 
   83.1250     1.9020    59.0410     8.5330     7.6030     7.0950    17.9830   -24.0130 
   83.2500     1.9030    62.1570     8.4170     7.5050     7.1760    17.9440   -23.8470 
   83.3750     1.9060    65.0980     8.1980     7.3200     7.1830    17.8030   -23.7400 
   83.5000     1.9100    67.1440     7.8820     7.0370     7.0580    17.5920   -23.6360 
   83.6250     1.9180    69.5800     7.5110     6.6660     6.7430    17.3270   -23.5250 
   83.7500     1.9300    73.6200     7.1430     6.2730     6.3350    17.2380   -23.4200 
   83.8750     1.9460    79.3790     6.8060     5.9100     5.9390    17.3530   -23.2780 
   84.0000     1.9660    85.7040     6.5110     5.6180     5.6620    17.5530   -23.0750 
   84.1250     1.9870    90.2030     6.2890     5.4390     5.5560    17.7840   -22.8290 
   84.2500     2.0050    92.2810     6.1650     5.3670     5.5220    18.0990   -22.5870 
   84.3750     2.0160    92.4860     6.1660     5.3960     5.5110    18.5810   -22.3850 
   84.5000     2.0210    91.4590     6.2800     5.5070     5.5480    19.2960   -22.2080 
   84.6250     2.0210    88.7970     6.4340     5.6510     5.6820    20.2020   -21.9920 
   84.7500     2.0210    84.7690     6.5090     5.7460     5.8790    21.0690   -21.7720 
   84.8750     2.0270    81.2000     6.4250     5.7280     6.0140    21.6770   -21.5890 
   85.0000     2.0400    80.8350     6.1560     5.5630     5.8900    21.8990   -21.4390 
   85.1250     2.0610    84.9730     5.7510     5.2630     5.3840    22.1120   -21.3430 
   85.2500     2.0840    90.1810     5.3650     4.9420     4.8670    22.6030   -21.2960 
   85.3750     2.1030    94.0950     5.1180     4.6980     4.5940    23.2100   -21.2760 
   85.5000     2.1100    96.0600     5.0820     4.6050     4.6590    23.6050   -21.3660 
   85.6250     2.0970    95.4660     5.3010     4.7220     5.0110    23.5940   -21.6930 
   85.7500     2.0660    92.6700     5.6950     5.0000     5.5380    23.1330   -22.1870 
   85.8750     2.0230    88.6240     6.1980     5.3940     6.0710    22.0570   -22.8600 
   86.0000     1.9790    84.8070     6.7420     5.8490     6.4500    20.3470   -23.7040 
   86.1250     1.9480    81.7770     7.2530     6.3090     6.7690    18.3170   -24.6090 
   86.2500     1.9310    78.7170     7.6780     6.7250     6.9640    16.8570   -25.4800 
   86.3750     1.9260    75.6090     7.9790     7.0620     7.0380    16.1640   -26.2650 
   86.5000     1.9290    73.5060     8.1340     7.2910     7.0240    15.9210   -26.8960 
   86.6250     1.9350    73.7530     8.1280     7.3730     6.9600    15.8520   -27.2600 
   86.7500     1.9390    75.4260     8.0250     7.3390     6.8090    15.8170   -27.3730 
   86.8750     1.9420    77.1830     7.8880     7.2270     6.5980    15.8110   -27.2150 
   87.0000     1.9420    78.1800     7.7740     7.0900     6.4010    15.8630   -26.8290 
   87.1250     1.9430    77.6800     7.7030     6.9660     6.2780    16.0120   -26.3210 
   87.2500     1.9440    75.8130     7.6240     6.8430     6.2130    16.2730   -25.7550 
   87.3750     1.9480    73.9360     7.4730     6.6800     6.2240    16.6590   -25.1800 
   87.5000     1.9520    74.1170     7.2100     6.4350     6.2450    17.1370   -24.5960 
   87.6250     1.9540    77.5800     6.8560     6.1010     6.0530    17.7600   -24.0270 
   87.7500     1.9520    82.6430     6.5430     5.7660     5.6290    18.4760   -23.5400 
   87.8750     1.9450    87.5510     6.4060     5.5350     5.1250    19.0230   -23.1950 
   88.0000     1.9360    90.4360     6.5460     5.5020     4.7710    19.1110   -23.0090 
   88.1250     1.9300    89.3980     7.0250     5.7600     4.8140    18.5620   -22.9910 
   88.2500     1.9300    85.9140     7.6980     6.2370     5.0720    17.9510   -23.0880 
   88.3750     1.9380    82.1680     8.4180     6.8410     5.4020    17.6270   -23.3100 
   88.5000     1.9520    79.5480     9.0400     7.4520     5.6680    17.5790   -23.6930 
   88.6250     1.9720    78.3210     9.4490     7.9380     5.7740    17.8540   -24.2710 
   88.7500     1.9940    77.9190     9.6970     8.2800     5.8410    18.0590   -24.9410 
   88.8750     2.0160    78.2430     9.8520     8.5100     6.0630    18.0990   -25.5700 
   89.0000     2.0360    79.0520     9.9570     8.6790     6.6040    18.0270   -26.0790 
   89.1250     2.0500    79.8730     9.9870     8.7980     7.5910    17.7830   -26.4590 
   89.2500     2.0600    80.1290     9.9110     8.8510     8.6560    17.3960   -26.7170 
   89.3750     2.0680    79.8420     9.7270     8.8120     9.2670    17.0170   -26.7970 
   89.5000     2.0770    79.0480     9.4850     8.6810     8.9100    16.7660   -26.7140 
   89.6250     2.0890    77.9710     9.2940     8.5050     7.7440    16.6390   -26.4640 
   89.7500     2.1050    77.0520     9.2270     8.3720     7.0790    16.5620   -26.1250 
   89.8750     2.1220    76.2040     9.2930     8.3350     6.8200    16.5410   -25.7960 
   90.0000     2.1390    74.6620     9.4450     8.4090     6.7760    16.5260   -25.4690 
   90.1250     2.1550    71.9910     9.6060     8.5620     6.7820    16.4710   -25.1550 
   90.2500     2.1690    69.4570     9.7130     8.7050     6.7920    16.4170   -24.8800 
   90.3750     2.1790    68.6790     9.7380     8.7740     6.7720    16.4140   -24.6330 
   90.5000     2.1840    70.0450     9.6750     8.7350     6.6850    16.4400   -24.3950 
   90.6250     2.1830    71.9480     9.5150     8.5880     6.5240    16.4760   -24.2110 
   90.7500     2.1790    72.3490     9.2970     8.3930     6.3600    16.4920   -24.0440 
   90.8750     2.1730    71.1850     9.0520     8.1950     6.2490    16.4740   -23.8870 
   91.0000     2.1690    69.4000     8.8190     8.0270     6.1650    16.4700   -23.8030 
   91.1250     2.1670    67.5020     8.6370     7.9120     6.0660    16.5110   -23.7480 
   91.2500     2.1680    66.2260     8.5090     7.8360     6.0160    16.5810   -23.7120 
   91.3750     2.1690    67.1850     8.4240     7.7830     6.0840    16.6260   -23.7670 
   91.5000     2.1680    70.7880     8.3610     7.7340     6.2430    16.6130   -23.9010 
   91.6250     2.1670    74.2820     8.3120     7.6760     6.3900    16.5060   -24.0980 
   91.7500     2.1640    74.8620     8.2840     7.6250     6.4650    16.3690   -24.3830 
   91.8750     2.1600    72.8460     8.3140     7.6150     6.4880    16.3010   -24.7420 
   92.0000     2.1540    70.2920     8.4380     7.6890     6.5000    16.3390   -25.1400 
   92.1250     2.1430    68.5270     8.6730     7.8810     6.5460    16.3880   -25.6580 
   92.2500     2.1240    67.0260     8.9390     8.1350     6.6650    16.3570   -26.2820 
   92.3750     2.0990    65.1820     9.1470     8.3720     6.8490    16.1810   -26.9470 
   92.5000     2.0730    63.3850     9.2180     8.5050     6.9880    15.8810   -27.5940 
   92.6250     2.0520    62.7350     9.0960     8.4440     6.9210    15.6170   -28.1530 
