~V
VERS. 2.00: Ver 2.00
~W
STRT.M 53.0000:
STOP.M 279.0000:
STEP.M 0.1250:
NULL. -999.2500:
UWI. F11068:
~C
DEPT.M :
GR.API :
RML.OHMM :
RI. :
RXO.OHMM :
CALI.CM :
SP.MV :
DEN.GM/CC :
~A
# ...
   64.2500    66.9950     8.6370     7.0240     7.4090    22.3730   -22.4870     2.1950 
   64.3750    67.1100     8.6550     7.0500     7.4870    22.3550   -22.7000     2.2140 
   64.5000    69.1860     8.6150     7.0470     7.5380    22.3180   -22.8710     2.2280 
   64.6250    70.9240     8.5220     7.0120     7.4740    22.2600   -23.0770     2.2310 
   64.7500    72.1120     8.4120     6.9610     7.2880    22.2130   -23.3010     2.2250 
   64.8750    72.0310     8.3190     6.9130     7.0200    22.1540   -23.5480     2.2150 
   65.0000    69.5260     8.2700     6.8870     6.9320    22.0590   -23.7180     2.2020 
   65.1250    65.4450     8.3040     6.9140     6.8870    21.9440   -23.8070     2.1880 
   65.2500    66.0910     8.4090     6.9990     6.7310    21.8890   -23.8090     2.1730 
   65.3750    71.7120     8.5480     7.1330     6.5180    21.9190   -23.6890     2.1580 
   65.5000    77.2420     8.6380     7.2610     6.4740    22.0730   -23.3760     2.1490 
   65.6250    77.5620     8.5180     7.2540     6.5500    22.3380   -22.6780     2.1550 
   65.7500    76.2590     8.1250     7.0280     6.7310    22.6880   -21.6930     2.1820 
   65.8750    78.8410     7.4700     6.5660     6.8670    23.0580   -20.3200     2.2290 
   66.0000    86.3590     6.6610     5.9390     6.5960    23.4550   -18.6380     2.2880 
   66.1250    94.1140     5.8880     5.2920     5.5550    23.8930   -16.6910     2.3380 
   66.2500    97.2500     5.2980     4.7560     4.9750    24.2890   -14.7770     2.3680 
   66.3750    97.2740     4.9510     4.3830     4.8970    24.5430   -12.9500     2.3740 
   66.5000    97.6580     4.8490     4.1860     4.9460    24.6000   -11.2950     2.3670 
   66.6250    98.7190     4.9950     4.1950     4.7590    24.4050    -9.8870     2.3630 
   66.7500    99.2280     5.3090     4.3690     4.6610    24.0990    -8.7240     2.3740 
   66.8750    99.3220     5.7420     4.6860     4.7570    23.8090    -7.8450     2.3940 
   67.0000    99.5360     6.2190     5.1020     5.4020    23.5560    -7.2590     2.4130 
   67.1250    97.5420     6.5940     5.5140     6.5780    23.4270    -6.9760     2.4150 
   67.2500    93.6430     6.7410     5.7750     7.3030    23.3590    -6.7640     2.3980 
   67.3750    91.1440     6.6090     5.7790     6.7470    23.4220    -6.5610     2.3700 
   67.5000    91.8410     6.2660     5.5460     6.0610    23.7970    -6.3420     2.3400 
   67.6250    94.2460     5.9190     5.2380     5.8160    24.3770    -6.1160     2.3240 
   67.7500    95.8830     5.8010     5.0660     5.4490    24.7370    -5.9300     2.3310 
   67.8750    96.7990     6.0340     5.1400     5.3120    24.7720    -5.8030     2.3640 
   68.0000    96.8850     6.6230     5.4920     6.5000    24.6320    -5.7740     2.4160 
   68.1250    93.1970     7.4450     6.0910     9.1930    24.5760    -5.8270     2.4650 
   68.2500    86.7980     8.1950     6.7310    11.7440    24.5400    -6.0170     2.4870 
   68.3750    81.4080     8.6370     7.2200    10.8110    24.3320    -6.3770     2.4700 
   68.5000    80.2100     8.6470     7.4130     8.7140    23.8650    -6.9990     2.4220 
   68.6250    82.8860     8.2320     7.2400     8.0990    23.2310    -7.8860     2.3630 
   68.7500    84.2500     7.6490     6.8710     7.3900    22.7400    -8.7660     2.3160 
   68.8750    84.3080     7.0720     6.4490     6.8980    22.6140    -9.6000     2.2890 
   69.0000    87.1380     6.5990     6.0700     6.5490    23.0130   -10.2580     2.2800 
   69.1250    92.8560     6.2880     5.7960     5.9530    23.9830   -10.6950     2.2840 
   69.2500    95.4880     6.1080     5.6210     5.7630    24.6360   -10.8920     2.2920 
   69.3750    93.9690     6.0420     5.5400     5.9600    24.6800   -10.9140     2.2980 
   69.5000    92.7740     6.0690     5.5320     6.0340    24.4500   -10.6590     2.2990 
   69.6250    93.6950     6.1770     5.5850     5.9480    24.3220   -10.1880     2.2930 
   69.7500    94.6320     6.3230     5.6650     6.0610    24.2420    -9.6300     2.2850 
   69.8750    94.9950     6.4700     5.7440     5.7250    24.1850    -9.1010     2.2800 
   70.0000    93.9470     6.5690     5.7860     5.3970    24.0250    -8.7170     2.2860 
   70.1250    92.6740     6.5500     5.7440     5.3960    23.7210    -8.4850     2.3040 
   70.2500    92.8680     6.4160     5.6170     5.4200    23.4160    -8.3170     2.3260 
   70.3750    94.4460     6.2010     5.4240     5.0470    23.3260    -8.1080     2.3420 
   70.5000    97.9100     5.9730     5.2070     4.7820    23.3330    -7.8500     2.3460 
   70.6250   103.5840     5.8290     5.0290     4.6800    23.2310    -7.5950     2.3340 
   70.7500   109.4530     5.8170     4.9370     4.8230    23.0080    -7.4070     2.3170 
   70.8750   110.5520     5.9510     4.9640     5.1610    22.7160    -7.3100     2.3060 
   71.0000   104.3750     6.2020     5.1090     5.7170    22.5150    -7.2320     2.3120 
   71.1250    96.2850     6.5130     5.3400     6.2370    22.8380    -7.2120     2.3350 
   71.2500    93.2280     6.8040     5.5750     7.2010    23.4430    -7.2740     2.3540 
   71.3750    96.4930     7.0440     5.7660     8.6630    23.9880    -7.4920     2.3480 
   71.5000   100.9780     7.2390     5.8980     7.6740    24.1560    -7.9020     2.3140 
   71.6250    99.7480     7.4150     5.9880     6.8510    23.9200    -8.5540     2.2720 
   71.7500    94.7090     7.5750     6.0680     6.5620    23.5570    -9.3480     2.2490 
   71.8750    89.6470     7.6770     6.1290     6.7990    23.2670   -10.1570     2.2580 
   72.0000    86.6700     7.6620     6.1350     7.2150    23.0640   -11.0020     2.2860 
   72.1250    84.8440     7.4750     6.0350     7.3750    22.9140   -11.8040     2.3050 
   72.2500    83.6060     7.2150     5.8450     6.9160    22.7970   -12.6610     2.2940 
   72.3750    84.1710     7.0530     5.6350     6.4210    22.6550   -13.4910     2.2530 
   72.5000    84.6470     7.2180     5.5560     6.3400    22.3560   -14.3030     2.2050 
   72.6250    82.1610     8.0270     5.8710     7.1740    22.0290   -14.9400     2.1980 
   72.7500    77.9300     9.4500     6.6740     7.8770    22.1050   -15.4130     2.2560 
   72.8750    73.7750    11.2920     7.9820     9.8080    22.6440   -15.7030     2.3680 
   73.0000    70.7640    13.0810     9.5960    16.6340    23.3270   -15.8150     2.4900 
   73.1250    71.1020    13.9710    10.8400    32.8910    23.6850   -15.7620     2.5470 
   73.2500    75.5610    13.6610    11.0720    29.6790    23.6740   -15.5490     2.5170 
   73.3750    80.9340    12.3560    10.2630    15.3290    23.4540   -15.1720     2.4210 
   73.5000    83.1640    10.6730     8.9540    10.1590    23.2720   -14.6000     2.3060 
   73.6250    80.5000     9.3500     7.7910     9.4320    23.1900   -13.8620     2.2200 
   73.7500    76.4200     8.6280     7.0290     8.0320    23.1000   -13.0850     2.1720 
   73.8750    74.3760     8.4270     6.6810     7.2260    22.8480   -12.3630     2.1540 
   74.0000    74.1260     8.5220     6.6470     7.0230    22.4700   -11.7970     2.1540 
   74.1250    71.9000     8.6690     6.7800     7.2810    22.3740   -11.4530     2.1670 
   74.2500    67.8200     8.7140     6.9200     7.2270    22.6540   -11.2990     2.1840 
   74.3750    66.3400     8.6490     7.0180     6.9060    23.0650   -11.2960     2.2030 
   74.5000    69.8310     8.5260     7.0700     6.5010    23.3180   -11.4300     2.2190 
   74.6250    74.8110     8.4090     7.0780     6.2000    23.3490   -11.7030     2.2280 
   74.7500    75.6870     8.3250     7.0570     6.1400    23.2570   -12.1010     2.2310 
   74.8750    73.8250     8.2680     7.0150     6.3600    23.0920   -12.5720     2.2290 
   75.0000    72.2250     8.2240     6.9550     6.8560    22.9350   -12.9730     2.2270 
   75.1250    73.3180     8.1890     6.8940     6.7460    22.7910   -13.3300     2.2230 
   75.2500    74.2500     8.1660     6.8550     6.7370    22.7190   -13.5490     2.2150 
   75.3750    72.9180     8.1610     6.8510     6.6120    22.7820   -13.7820     2.2000 
