~V
VERS. 2.00: Ver 2.00
~W
STRT.M 50.0000:
STOP.M 257.0000:
STEP.M 0.1250:
NULL. -999.2500:
UWI. F11021:
~C
DEPT.M :
GR.API :
RML.OHMM :
RI. :
RXO.OHMM :
CALI.CM :
SP.MV :
DEN.GM/CC :
~A
# ...
  128.7500    58.8950    21.1300    19.5190    18.0530    23.8850    -0.6170     2.5460 
  128.8750    60.5780    20.9760    19.3230    17.3690    23.9710    -0.5930     2.5420 
  129.0000    62.5780    21.2290    19.4520    18.0950    24.0710    -0.5160     2.5460 
  129.1250    62.2230    21.7730    19.8990    18.8340    24.1250    -0.4660     2.5610 
  129.2500    60.3280    22.2880    20.4280    19.8500    24.1350    -0.4710     2.5760 
  129.3750    58.2890    22.5100    20.8070    21.2140    24.1210    -0.4750     2.5850 
  129.5000    57.4460    22.2490    20.8160    21.1790    24.0980    -0.4250     2.5870 
  129.6250    59.2830    21.4440    20.3070    19.5490    24.0590    -0.2870     2.5840 
  129.7500    62.6640    20.4310    19.6070    17.9950    24.0090    -0.1260     2.5810 
  129.8750    64.9910    20.2500    19.1320    17.1040    24.0010    -0.0050     2.5830 
  130.0000    64.5570    20.0950    18.7030    16.8500    24.0110     0.0700     2.5910 
  130.1250    60.5820    19.9910    18.9860    17.1370    23.9590     0.1760     2.6080 
  130.2500    56.2780    19.7960    19.3270    18.2860    23.8960     0.3110     2.6270 
  130.3750    54.5080    19.7660    19.3880    18.4660    23.9340     0.4130     2.6400 
  130.5000    55.6580    19.7620    19.3950    17.4950    24.0410     0.4480     2.6400 
  130.6250    57.1120    19.7580    19.4180    17.2280    24.1300     0.4190     2.6220 
  130.7500    57.5530    19.7290    19.5450    17.2140    24.1640     0.3960     2.5940 
  130.8750    57.7820    19.5490    19.6720    17.5440    24.2080     0.3730     2.5640 
  131.0000    56.2510    19.4760    19.6650    17.6670    24.2970     0.3560     2.5410 
  131.1250    52.8820    19.5490    19.5290    17.4370    24.4040     0.2790     2.5330 
  131.2500    51.7870    19.7570    19.3760    17.6190    24.4610     0.1760     2.5410 
  131.3750    53.4970    20.6140    19.6870    18.6430    24.4080     0.1380     2.5620 
  131.5000    56.4630    21.4500    20.1940    20.4950    24.2320     0.2040     2.5900 
  131.6250    57.8230    22.2770    20.9110    21.2660    24.0710     0.3380     2.6160 
  131.7500    56.0930    23.0360    21.6640    22.2310    24.0030     0.4210     2.6320 
  131.8750    52.5680    23.5290    22.2570    23.1480    24.0130     0.4850     2.6360 
  132.0000    50.3160    23.6480    22.5430    23.8670    24.0440     0.5210     2.6260 
  132.1250    54.1860    23.3980    22.4670    22.5300    24.0660     0.6200     2.6050 
  132.2500    60.2860    22.9910    22.2000    20.7640    24.0960     0.7870     2.5790 
  132.3750    62.6030    22.5620    21.8580    19.4110    24.3010     0.9120     2.5580 
  132.5000    59.7040    22.1990    21.5310    20.7940    24.6860     0.8870     2.5440 
  132.6250    55.9510    21.9730    21.2990    22.6200    24.8700     0.7330     2.5350 
  132.7500    55.8680    21.8910    21.1960    22.2220    24.8560     0.6190     2.5230 
  132.8750    58.1220    21.9790    21.2510    19.7560    24.8330     0.5320     2.5070 
  133.0000    60.5880    22.2690    21.4930    18.7910    24.8330     0.4360     2.4890 
  133.1250    61.5150    22.7780    21.9520    20.6170    24.7110     0.2560     2.4810 
  133.2500    59.8820    23.3600    22.5270    23.4370    24.6200     0.0150     2.4840 
  133.3750    57.6890    23.8380    23.0770    24.4240    24.6250    -0.1990     2.4920 
  133.5000    57.4400    24.0400    23.4330    24.1140    24.6880    -0.2900     2.4940 
  133.6250    58.8860    23.8510    23.4370    23.5210    24.7430    -0.3500     2.4850 
  133.7500    59.2480    23.4460    23.1890    22.7990    24.8920    -0.4890     2.4710 
  133.8750    58.5940    23.0000    22.8290    22.9060    25.0430    -0.6690     2.4650 
  134.0000    59.1330    22.6180    22.4710    22.5760    25.0900    -0.8150     2.4730 
  134.1250    62.2990    22.2950    22.1400    21.5850    24.9610    -0.8790     2.4960 
  134.2500    65.0200    21.9480    21.7860    20.1900    24.7800    -0.9280     2.5220 
  134.3750    64.9660    21.5390    21.3830    19.3870    24.7090    -1.0180     2.5440 
  134.5000    63.6150    21.0770    20.9320    18.8410    24.7420    -1.1880     2.5540 
  134.6250    63.8350    20.6220    20.4740    17.6540    24.7790    -1.3360     2.5490 
  134.7500    64.1390    20.2420    20.0720    17.0280    24.7770    -1.3680     2.5340 
  134.8750    63.3600    19.9620    19.7620    17.2770    24.6510    -1.3270     2.5140 
  135.0000    61.5540    19.7770    19.5450    18.1230    24.5590    -1.2910     2.4930 
  135.1250    59.8150    19.7010    19.4250    17.7920    24.5320    -1.3040     2.4710 
  135.2500    58.6880    19.7510    19.4030    17.7740    24.5190    -1.3340     2.4520 
  135.3750    59.0830    19.9640    19.5070    17.9420    24.4440    -1.3510     2.4420 
  135.5000    59.4850    20.3530    19.7590    18.1510    24.4000    -1.3280     2.4460 
  135.6250    62.3670    20.8910    20.1760    18.4510    24.3460    -1.2790     2.4670 
  135.7500    69.4050    21.4430    20.6670    18.7460    24.2210    -1.3100     2.4960 
  135.8750    74.5920    21.8910    21.1290    18.9900    24.3430    -1.3950     2.5250 
  136.0000    72.1890    22.1550    21.4600    20.7390    24.3540    -1.4680     2.5480 
  136.1250    66.0780    22.1840    21.5700    19.8170    24.3220    -1.4750     2.5620 
  136.2500    64.1660    22.0460    21.4880    19.0210    24.2990    -1.4380     2.5720 
  136.3750    65.7410    21.7970    21.2650    18.7140    24.3140    -1.4010     2.5770 
  136.5000    66.6240    21.5060    20.9760    19.1840    24.3660    -1.3950     2.5800 
  136.6250    66.6370    21.2430    20.7060    19.1220    24.3590    -1.3910     2.5800 
  136.7500    65.1840    21.0190    20.4820    19.1780    24.2790    -1.3160     2.5760 
  136.8750    63.8720    20.7890    20.2750    18.7400    24.2070    -1.2460     2.5690 
  137.0000    65.0560    20.4590    20.0020    18.0460    24.1710    -1.2730     2.5600 
  137.1250    66.5920    19.8930    19.5320    17.5300    24.1720    -1.4120     2.5530 
  137.2500    66.3830    19.1010    18.8480    16.7160    24.1500    -1.5630     2.5500 
  137.3750    65.6040    18.1660    18.0060    16.0320    24.0460    -1.6040     2.5470 
  137.5000    65.4140    17.2470    17.1350    15.2580    23.8910    -1.5230     2.5370 
  137.6250    63.4220    16.5640    16.4290    14.2340    23.7060    -1.4290     2.5150 
  137.7500    60.0360    16.1950    15.9790    13.8360    23.6260    -1.4070     2.4860 
  137.8750    57.7800    16.1420    15.8090    13.6840    23.6280    -1.4000     2.4620 
  138.0000    57.4790    16.3340    15.8780    13.9680    23.6910    -1.3040     2.4510 
  138.1250    57.2410    16.6570    16.1070    14.3790    23.7880    -1.1050     2.4580 
  138.2500    55.7630    16.9460    16.3440    14.6540    23.9600    -0.9010     2.4750 
  138.3750    53.6250    17.1030    16.4930    14.7830    24.1450    -0.8060     2.4940 
  138.5000    51.1200    17.0920    16.5050    14.7810    24.2910    -0.8280     2.5090 
  138.6250    49.4930    16.9330    16.3800    14.9450    24.3480    -0.8630     2.5170 
  138.7500    49.8100    16.7250    16.1900    15.1770    24.4260    -0.8370     2.5180 
  138.8750    51.7500    16.5300    15.9830    14.8780    24.6080    -0.7830     2.5150 
  139.0000    53.1520    16.3850    15.7940    14.7150    24.8220    -0.7790     2.5140 
  139.1250    52.0580    16.3080    15.6520    15.4890    24.9780    -0.8750     2.5200 
  139.2500    50.6060    16.2740    15.5580    16.3210    25.0740    -0.9920     2.5300 
  139.3750    50.3560    16.2560    15.5040    15.7650    25.0600    -1.1280     2.5410 
  139.5000    50.8420    16.2050    15.4570    15.2300    24.9320    -1.2910     2.5430 
  139.6250    52.7240    16.0270    15.3350    15.0420    24.7730    -1.4760     2.5320 
  139.7500    56.5090    15.6750    15.0720    15.4460    24.6980    -1.6640     2.5120 
  139.8750    61.0910    15.1370    14.6340    15.1210    24.6620    -1.8190     2.4930 
