~V
VERS. 2.00: Ver 2.00
~W
STRT.M 51.0000:
STOP.M 282.0000:
STEP.M 0.1250:
NULL. -999.2500:
UWI. F11065:
~C
DEPT.M :
GR.API :
RML.OHMM :
RI. :
RXO.OHMM :
CALI.CM :
DEN.GM/CC :
SP.MV :
~A
# ...
   62.2500    66.8050     9.9780     7.5010     9.9150    23.5170     2.1420   -15.9740 
   62.3750    65.6890     9.7860     7.4840    10.3840    23.6610     2.1480   -16.3790 
   62.5000    62.9510     9.6330     7.4650    10.5550    23.8640     2.1550   -16.8340 
   62.6250    60.0670     9.5110     7.4450    10.7200    24.0690     2.1640   -17.3300 
   62.7500    59.5050     9.3960     7.4240    10.6610    24.1750     2.1710   -17.8540 
   62.8750    62.2870     9.2470     7.4000    10.2440    24.2000     2.1730   -18.2690 
   63.0000    65.2210     9.0470     7.3720    10.0070    24.2040     2.1670   -18.4210 
   63.1250    67.3730     8.8190     7.3490    10.0600    24.1780     2.1550   -18.3700 
   63.2500    68.3100     8.6390     7.3590    10.0690    24.1720     2.1400   -18.1010 
   63.3750    67.3140     8.6340     7.4640    10.0270    24.1630     2.1290   -17.6280 
   63.5000    65.5590     8.8030     7.6720    10.0830    24.1270     2.1250   -16.9050 
   63.6250    64.4530     9.0340     7.9230    10.1690    24.1030     2.1270   -15.8580 
   63.7500    64.5830     9.1170     8.0720    10.2350    24.1360     2.1380   -14.5070 
   63.8750    66.8680     8.7780     7.8790     9.9820    24.1980     2.1610   -12.8020 
   64.0000    74.2740     8.0480     7.3200     9.0040    24.2570     2.1980   -10.9470 
   64.1250    84.6050     7.0920     6.5070     7.1820    24.3780     2.2460    -9.0540 
   64.2500    91.1660     6.1550     5.6510     5.6190    24.5920     2.3000    -7.2020 
   64.3750    93.4780     5.4930     4.9740     5.1180    24.7410     2.3490    -5.5340 
   64.5000    96.7630     5.1300     4.5260     5.0540    24.7510     2.3830    -4.1630 
   64.6250   101.8460     5.0060     4.2890     5.0050    24.7150     2.3980    -3.1840 
   64.7500   106.2050     5.0270     4.2000     4.8860    24.7150     2.3950    -2.5910 
   64.8750   107.8010     5.1520     4.2090     4.9830    24.8050     2.3760    -2.3660 
   65.0000   107.2270     5.4130     4.3090     5.3190    24.9640     2.3500    -2.4030 
   65.1250   103.8770     5.9170     4.5790     5.5620    25.0870     2.3300    -2.5090 
   65.2500    98.8220     6.7470     5.1190     5.8550    25.1310     2.3320    -2.6090 
   65.3750    93.3980     7.8800     6.0290     7.9440    25.1110     2.3730    -2.6580 
   65.5000    88.7270     8.9770     7.1400    13.6190    25.0600     2.4360    -2.7260 
   65.6250    86.6580     9.6540     8.1330    19.8450    25.0020     2.4910    -2.8680 
   65.7500    88.9610     9.6250     8.6070    20.0420    24.9340     2.5090    -3.0470 
   65.8750    93.7420     8.8560     8.3050    11.4440    24.8250     2.4730    -3.4180 
   66.0000    96.1780     7.8890     7.6470     8.0450    24.6560     2.4100    -3.8640 
   66.1250    95.0440     7.1410     7.0030     7.1420    24.3980     2.3470    -4.3690 
   66.2500    93.5110     6.8150     6.5730     7.4640    24.0920     2.3000    -4.8900 
   66.3750    94.3890     6.8850     6.4050     7.9440    23.8770     2.2730    -5.3140 
   66.5000    95.5070     7.0590     6.3400     7.6200    23.9560     2.2560    -5.5340 
   66.6250    95.6190     7.1590     6.2520     7.1880    24.1580     2.2470    -5.4540 
   66.7500    96.3720     7.1120     6.0780     6.7480    24.3680     2.2480    -5.2170 
   66.8750    98.4990     6.9500     5.8450     6.3930    24.5300     2.2610    -4.8820 
   67.0000   100.6860     6.7980     5.6480     6.2370    24.6110     2.2800    -4.5230 
   67.1250   101.6690     6.7470     5.5530     6.3510    24.5440     2.2980    -4.2570 
   67.2500   100.7760     6.8700     5.5890     6.2440    24.3600     2.3070    -4.1380 
   67.3750    99.1530     7.2360     5.7650     6.5000    24.2460     2.3020    -4.1890 
   67.5000    97.3000     7.7500     6.0120     6.8600    24.2400     2.2860    -4.3570 
   67.6250    94.8580     8.2560     6.2610     7.4910    24.2540     2.2670    -4.5990 
   67.7500    92.7620     8.5520     6.4330     8.7330    24.1670     2.2540    -4.8350 
   67.8750    91.9550     8.4250     6.4330     8.5740    24.0440     2.2510    -4.9870 
   68.0000    91.1600     7.9640     6.2690     7.4610    24.0730     2.2550    -5.0810 
   68.1250    90.0400     7.3440     5.9840     6.8030    24.2080     2.2630    -5.0320 
   68.2500    92.1350     6.7850     5.6560     6.6920    24.2700     2.2720    -4.8100 
   68.3750   102.0000     6.5040     5.3950     6.1680    24.1310     2.2840    -4.5620 
   68.5000   111.7940     6.5130     5.2750     5.6820    23.9110     2.2960    -4.2920 
   68.6250   113.7760     6.7650     5.3310     5.5760    23.7410     2.3030    -4.1290 
   68.7500   108.1340     7.1640     5.5560     5.7060    23.6980     2.3000    -3.9960 
   68.8750   103.6630     7.5810     5.9230     6.4270    23.6440     2.2850    -3.8250 
   69.0000   102.6160     7.8860     6.3180     7.2520    23.5480     2.2640    -3.6630 
   69.1250   101.0360     7.9950     6.6200     7.3210    23.4920     2.2460    -3.5010 
   69.2500    96.0130     7.8640     6.7080     6.9000    23.5160     2.2350    -3.3920 
   69.3750    91.6500     7.4730     6.4690     7.2800    23.5770     2.2390    -3.2150 
   69.5000    93.9100     6.9720     6.0020     7.4420    23.6490     2.2520    -3.0410 
   69.6250   102.9370     6.5480     5.4660     6.8970    23.7550     2.2690    -2.8200 
   69.7500   111.0620     6.4170     5.0660     6.3300    23.9020     2.2910    -2.5910 
   69.8750   109.0320     6.8380     5.0420     5.9420    24.0750     2.3190    -2.4170 
   70.0000   101.7800     7.7560     5.4380     6.4200    24.2100     2.3540    -2.2390 
   70.1250    93.9020     9.0070     6.2550     8.6290    24.3180     2.3860    -2.1180 
   70.2500    85.6970    10.2680     7.3600    13.7240    24.3580     2.3980    -2.0110 
   70.3750    77.8770    11.0250     8.3420    14.5520    24.0980     2.3680    -1.9340 
   70.5000    73.3520    11.0870     8.7850    11.6390    23.5450     2.3070    -1.9590 
   70.6250    72.3810    10.5360     8.6290     9.3780    23.0100     2.2360    -2.1220 
   70.7500    74.6310     9.6870     8.1370     8.6400    22.7070     2.1770    -2.4670 
   70.8750    77.8600     8.9580     7.6690     8.6690    22.6310     2.1510    -3.0300 
   71.0000    79.9090     8.5780     7.4180     8.7700    22.6200     2.1480    -3.6480 
   71.1250    81.1900     8.5870     7.4030     8.7440    22.6070     2.1590    -4.2520 
   71.2500    81.7170     8.9130     7.5610     8.7350    22.5700     2.1730    -4.8650 
   71.3750    80.9930     9.4100     7.8080     8.9460    22.5090     2.1820    -5.5130 
   71.5000    79.0190     9.8510     8.0530     9.4750    22.4750     2.1850    -6.0830 
   71.6250    76.2420    10.0950     8.2360     9.6720    22.4690     2.1830    -6.5470 
   71.7500    73.2140    10.0930     8.3140     9.6430    22.4790     2.1800    -6.8870 
   71.8750    70.4470     9.9040     8.2540     9.7640    22.5030     2.1780    -6.9770 
   72.0000    69.6530     9.7130     8.1290     9.6910    22.5470     2.1780    -7.0260 
   72.1250    71.2800     9.6410     8.0220     9.4440    22.5980     2.1770    -7.0800 
   72.2500    74.4730     9.7390     8.0000     9.4350    22.6200     2.1770    -7.2020 
   72.3750    77.3270    10.0100     8.0960     9.8830    22.5860     2.1770    -7.3340 
   72.5000    77.4670    10.3560     8.2770    10.6230    22.5830     2.1790    -7.4670 
   72.6250    75.6960    10.6900     8.5070    12.0420    22.7330     2.1870    -7.6320 
   72.7500    73.4750    10.9170     8.7240    12.8600    23.0640     2.2040    -7.7260 
   72.8750    69.0940    10.9160     8.8400    10.3660    23.4320     2.2320    -7.8260 
   73.0000    64.7050    10.7160     8.8310     9.7150    23.6770     2.2610    -7.9040 
   73.1250    64.1100    10.4360     8.7310    10.0200    23.7640     2.2830    -7.9550 
   73.2500    66.8730    10.2820     8.6590     9.7920    23.7610     2.2870    -8.0090 
   73.3750    70.8150    10.5230     8.8280     9.2240    23.7350     2.2740    -8.0890 
