~V
VERS. 2.00: Ver 2.00
~W
STRT.M 59.0000:
STOP.M 291.0000:
STEP.M 0.1250:
NULL. -999.2500:
UWI. F11077:
~C
DEPT.M :
DEN.GM/CC :
GR.API :
RML.OHMM :
RI. :
RXO.OHMM :
CALI.CM :
SP.MV :
~A
# ...
  137.7500     2.4430    76.3090    10.4240     8.2030    14.4040    26.1470    -3.4530 
  137.8750     2.3940    75.1330    11.5830     9.2120    16.2690    25.9370    -4.1510 
  138.0000     2.3350    74.9780    12.0720     9.8290    13.3510    25.6980    -4.8820 
  138.1250     2.2910    75.2690    11.9490     9.9930    10.5000    25.5050    -5.5060 
  138.2500     2.2820    77.5110    11.6720     9.9560     9.2180    25.3730    -5.9100 
  138.3750     2.3080    80.8840    11.7450    10.0660     8.7430    25.2760    -6.1130 
  138.5000     2.3560    81.7270    12.3190    10.5040     8.8330    25.1740    -6.1910 
  138.6250     2.4020    79.6550    13.2010    11.2070     9.8910    25.0640    -6.2010 
  138.7500     2.4220    77.2070    13.9700    11.9110    11.0870    25.0160    -6.1620 
  138.8750     2.4080    75.9510    14.2580    12.3130    11.0370    25.0810    -6.0940 
  139.0000     2.3700    76.1610    14.0280    12.3060    10.1450    25.1980    -6.0480 
  139.1250     2.3240    77.4790    13.4640    11.9830     9.8060    25.3600    -6.0550 
  139.2500     2.2850    77.7870    12.8530    11.5520     9.9690    25.5660    -6.1340 
  139.3750     2.2570    75.0110    12.4150    11.2090    10.2680    25.7360    -6.2610 
  139.5000     2.2380    70.3950    12.1860    11.0230    10.4840    25.8170    -6.3830 
  139.6250     2.2270    66.4320    12.1010    10.9660    10.5950    25.8470    -6.4890 
  139.7500     2.2200    63.9930    12.0820    10.9770    10.6400    25.8700    -6.6040 
  139.8750     2.2160    62.9710    12.0820    11.0010    10.5240    25.9110    -6.7310 
  140.0000     2.2130    63.2790    12.0750    11.0080    10.2900    25.9540    -6.8760 
  140.1250     2.2110    64.2250    12.0450    10.9840    10.1600    25.9490    -7.0520 
  140.2500     2.2100    66.0020    11.9730    10.9190    10.2860    25.8810    -7.2490 
  140.3750     2.2130    70.5190    11.8530    10.8140    10.5050    25.7930    -7.4310 
  140.5000     2.2190    76.7740    11.6990    10.6820    10.5200    25.7270    -7.6070 
  140.6250     2.2270    79.8170    11.5380    10.5400    10.3790    25.6830    -7.7460 
  140.7500     2.2330    77.3070    11.3990    10.4140    10.2820    25.6670    -7.8390 
  140.8750     2.2360    72.7550    11.3070    10.3260    10.3030    25.6660    -7.9080 
  141.0000     2.2370    69.6160    11.2730    10.2870    10.3660    25.6680    -7.9580 
  141.1250     2.2370    67.9400    11.2960    10.2980    10.4360    25.6740    -7.9630 
  141.2500     2.2380    68.4190    11.3610    10.3500    10.5290    25.6900    -7.9440 
  141.3750     2.2420    71.5080    11.4340    10.4210    10.6430    25.7050    -7.9250 
  141.5000     2.2470    74.4430    11.4800    10.4850    10.8670    25.7030    -7.9050 
  141.6250     2.2520    75.1040    11.4780    10.5260    11.1660    25.7040    -7.9060 
  141.7500     2.2540    73.7720    11.4290    10.5350    11.1590    25.7250    -7.8950 
  141.8750     2.2520    71.0010    11.3600    10.5210    10.8160    25.7540    -7.8500 
  142.0000     2.2480    67.4870    11.3150    10.5090    10.6320    25.7790    -7.7840 
  142.1250     2.2410    65.6420    11.3360    10.5220    10.5360    25.7910    -7.7060 
  142.2500     2.2340    67.0500    11.4450    10.5750    10.4080    25.8070    -7.5820 
  142.3750     2.2270    69.7950    11.6030    10.6390    10.2500    25.8300    -7.3740 
  142.5000     2.2200    71.0730    11.6750    10.6230    10.1490    25.8540    -7.0430 
  142.6250     2.2170    71.3570    11.5000    10.4130    10.1950    25.8780    -6.5860 
  142.7500     2.2220    71.8820    10.9490     9.9100    10.3010    25.8750    -6.0880 
  142.8750     2.2340    73.7730    10.0790     9.1620    10.0930    25.8490    -5.6230 
  143.0000     2.2560    78.7430     9.1770     8.3920     9.2020    25.8860    -5.2010 
  143.1250     2.2980    85.0750     8.5430     7.8240     8.0090    26.0020    -4.8790 
  143.2500     2.3640    87.2310     8.4530     7.6590     7.4580    26.1460    -4.7180 
  143.3750     2.4440    83.6330     9.0000     7.9870     8.1610    26.2460    -4.7720 
  143.5000     2.5130    79.0800    10.0020     8.7160    10.4720    26.2260    -5.0450 
  143.6250     2.5390    76.2980    11.1640     9.6680    13.7090    26.0670    -5.5090 
  143.7500     2.5070    74.5400    12.0550    10.5140    15.1220    25.8450    -6.1090 
  143.8750     2.4380    73.4770    12.3590    10.9400    13.4140    25.6530    -6.7780 
  144.0000     2.3600    73.7360    12.1340    10.9050    11.1970    25.5350    -7.4500 
  144.1250     2.2990    74.2480    11.6260    10.5660    10.3250    25.5000    -8.0390 
  144.2500     2.2630    73.8090    11.1080    10.1480     9.9660    25.5090    -8.5040 
  144.3750     2.2440    72.4940    10.7360     9.8020     9.6300    25.5160    -8.8130 
  144.5000     2.2350    71.6520    10.5070     9.5620     9.4180    25.5250    -9.0180 
  144.6250     2.2320    72.1320    10.3750     9.4060     9.2820    25.5260    -9.1600 
  144.7500     2.2340    73.2560    10.3140     9.3140     9.1190    25.4840    -9.2200 
  144.8750     2.2410    73.9600    10.3220     9.2800     9.0160    25.4130    -9.1870 
  145.0000     2.2530    73.5780    10.3910     9.3030     9.0660    25.3630    -9.1070 
  145.1250     2.2680    72.4140    10.5040     9.3750     9.1990    25.3450    -9.0400 
  145.2500     2.2820    72.2440    10.6220     9.4740     9.3030    25.3560    -9.0220 
  145.3750     2.2910    73.9890    10.6990     9.5660     9.4180    25.3790    -9.0690 
  145.5000     2.2920    75.6560    10.7070     9.6210     9.6440    25.3990    -9.1590 
  145.6250     2.2860    74.0890    10.6380     9.6310     9.9280    25.4150    -9.2830 
  145.7500     2.2770    70.5220    10.5190     9.6150     9.9930    25.4130    -9.4540 
  145.8750     2.2690    69.8880    10.4020     9.6140     9.7740    25.3900    -9.6480 
  146.0000     2.2640    72.2700    10.3460     9.6710     9.6270    25.3870    -9.7970 
  146.1250     2.2630    73.7080    10.3880     9.8080     9.6460    25.4260    -9.8440 
  146.2500     2.2610    73.1710    10.5290    10.0260     9.7640    25.4850    -9.7350 
  146.3750     2.2560    72.5680    10.6880    10.2580     9.8430    25.5320    -9.4760 
  146.5000     2.2490    72.2900    10.6980    10.3590     9.8600    25.5630    -9.0740 
  146.6250     2.2450    71.2720    10.3950    10.1710     9.8570    25.5970    -8.5480 
  146.7500     2.2490    70.7900     9.6890     9.5880     9.7140    25.6530    -7.9900 
  146.8750     2.2660    74.0210     8.6680     8.6750     9.0210    25.7600    -7.5010 
  147.0000     2.2920    80.9200     7.5780     7.6550     7.5450    25.9290    -7.1170 
  147.1250     2.3200    88.0450     6.6130     6.7090     6.0460    26.0990    -6.8660 
  147.2500     2.3440    92.2050     5.8950     5.9550     5.3830    26.2060    -6.7300 
  147.3750     2.3610    94.2020     5.4310     5.4180     5.2670    26.2380    -6.6570 
  147.5000     2.3740    96.4380     5.1300     5.0410     5.1660    26.2440    -6.6760 
  147.6250     2.3860    98.5200     4.9320     4.7830     5.0000    26.2460    -6.7980 
  147.7500     2.3970    99.2080     4.8150     4.6230     4.8590    26.2390    -6.9770 
  147.8750     2.4030    98.5420     4.7950     4.5650     4.6530    26.2030    -7.1800 
  148.0000     2.4030    98.8400     4.8970     4.6190     4.6150    26.1460    -7.4280 
  148.1250     2.3970   101.5870     5.1450     4.8040     5.0510    26.1030    -7.7520 
  148.2500     2.3880   102.7860     5.5320     5.1190     5.7280    26.0710    -8.2210 
  148.3750     2.3770    97.6600     6.0050     5.5330     6.0830    26.0390    -8.8650 
  148.5000     2.3640    89.5720     6.4840     5.9760     6.2230    25.9880    -9.6190 
  148.6250     2.3460    84.0040     6.9140     6.3850     6.5300    25.9080   -10.4180 
  148.7500     2.3280    81.8940     7.2580     6.7110     6.9710    25.8150   -11.2380 
  148.8750     2.3100    80.5090     7.5250     6.9470     7.3360    25.7250   -12.0210 
