~V
VERS. 2.00: Ver 2.00
~W
STRT.M 59.0000:
STOP.M 230.0000:
STEP.M 0.1250:
NULL. -999.2500:
UWI. F11001:
~C
DEPT.M :
GR.API :
RML.OHMM :
RI. :
RXO.OHMM :
CALI.CM :
SP.MV :
DEN.GM/CC :
~A
# ...
  115.2500    77.9570     9.8020     7.2900     7.8200    24.3330   -14.5100     2.1540 
  115.3750    78.7840     9.5650     7.1090     7.4720    24.3680   -13.6610     2.1500 
  115.5000    83.0430     9.1740     6.8200     6.7340    24.2570   -12.6550     2.1690 
  115.6250    89.2880     8.6390     6.4240     5.9640    24.0800   -11.6160     2.2040 
  115.7500    91.5750     8.0520     5.9790     5.6660    23.9280   -10.5960     2.2420 
  115.8750    90.6970     7.5530     5.5860     5.5040    23.8660    -9.5930     2.2730 
  116.0000    91.0630     7.2310     5.3140     5.2200    23.8530    -8.6300     2.2920 
  116.1250    91.0240     7.1240     5.1960     5.1390    23.7830    -7.8280     2.2990 
  116.2500    86.0050     7.2440     5.2550     5.3370    23.6450    -7.3980     2.2920 
  116.3750    83.1530     7.4950     5.4270     5.5850    23.5410    -7.2850     2.2760 
  116.5000    85.1650     7.8110     5.6680     5.6670    23.5160    -7.3840     2.2590 
  116.6250    85.7720     8.1260     5.9330     5.7350    23.5170    -7.5860     2.2440 
  116.7500    82.1520     8.3650     6.1600     5.8830    23.5010    -7.8010     2.2350 
  116.8750    80.5030     8.4850     6.3040     5.9620    23.4730    -7.9560     2.2340 
  117.0000    82.0240     8.4520     6.3300     6.0690    23.4620    -7.9930     2.2400 
  117.1250    83.4540     8.2490     6.2160     6.3270    23.4810    -7.8580     2.2540 
  117.2500    85.7830     7.8660     5.9480     6.5590    23.6030    -7.4320     2.2680 
  117.3750    90.1280     7.4020     5.6000     6.2750    23.8450    -6.8210     2.2740 
  117.5000    93.4020     6.9550     5.2510     5.5840    24.1450    -6.1560     2.2700 
  117.6250    94.9970     6.6190     4.9780     5.1040    24.4490    -5.5330     2.2570 
  117.7500    97.7390     6.4700     4.8430     4.9810    24.7150    -5.0080     2.2440 
  117.8750    99.1920     6.4560     4.8190     5.0910    24.8250    -4.5490     2.2390 
  118.0000    98.1480     6.5130     4.8690     5.2650    24.8290    -4.1540     2.2420 
  118.1250    96.0120     6.5640     4.9390     5.3450    24.7950    -3.8280     2.2540 
  118.2500    93.5340     6.5420     4.9720     5.2940    24.7890    -3.6410     2.2720 
  118.3750    92.7510     6.4410     4.9390     4.9970    24.7510    -3.5460     2.2900 
  118.5000    95.6010     6.2820     4.8450     4.8290    24.6220    -3.4510     2.3050 
  118.6250   101.1200     6.1020     4.7100     4.8490    24.3680    -3.2700     2.3160 
  118.7500   105.6300     5.9490     4.5670     4.9020    24.2360    -2.9690     2.3230 
  118.8750   107.4920     5.8450     4.4460     4.5990    24.3870    -2.6220     2.3320 
  119.0000   107.3000     5.7930     4.3570     4.4550    24.6740    -2.2990     2.3430 
  119.1250   104.3390     5.7790     4.2980     4.5600    24.8900    -2.0530     2.3570 
  119.2500    99.6330     5.7860     4.2590     4.6760    24.9790    -1.8620     2.3670 
  119.3750    96.8030     5.8130     4.2420     4.7330    25.0240    -1.7440     2.3730 
  119.5000    97.3630     5.8960     4.2750     4.7140    25.0440    -1.7740     2.3730 
  119.6250    98.3970     6.0950     4.3950     4.7610    25.0450    -2.0280     2.3680 
  119.7500    96.2090     6.5110     4.6690     4.8190    25.0700    -2.6070     2.3560 
  119.8750    93.5350     7.1230     5.0940     5.2240    25.0490    -3.4200     2.3360 
  120.0000    92.2250     7.8470     5.6340     6.1550    25.0120    -4.3470     2.3080 
  120.1250    90.8800     8.5090     6.1800     7.5060    24.9960    -5.2740     2.2740 
  120.2500    85.7860     8.8430     6.5230     7.6380    24.8440    -6.1560     2.2410 
  120.3750    80.4010     8.7830     6.5650     7.3620    24.5950    -6.9100     2.2160 
  120.5000    80.9960     8.3940     6.3260     6.7750    24.3180    -7.4410     2.2040 
  120.6250    87.6930     7.8520     5.9320     6.1800    24.0990    -7.7480     2.2030 
  120.7500    92.1950     7.3720     5.5560     5.5940    23.9690    -7.8180     2.2120 
  120.8750    89.5870     7.0670     5.2930     5.6120    23.8720    -7.7460     2.2270 
  121.0000    84.2220     6.9610     5.1720     5.6400    23.8440    -7.6040     2.2440 
  121.1250    82.4800     7.0560     5.1980     5.9010    23.8900    -7.4470     2.2580 
  121.2500    85.3050     7.3960     5.4080     6.0560    23.9780    -7.3500     2.2630 
  121.3750    87.9440     7.9300     5.7800     6.0330    24.0110    -7.3880     2.2550 
  121.5000    87.7490     8.5570     6.2710     6.1810    23.9900    -7.5450     2.2320 
  121.6250    83.1840     9.0820     6.7550     6.9570    24.1230    -7.6730     2.1970 
  121.7500    77.2540     9.1890     6.9680     7.8150    24.5970    -7.5980     2.1640 
  121.8750    76.5990     8.8170     6.7890     8.3180    25.1680    -7.2780     2.1490 
  122.0000    83.1210     8.0740     6.2680     7.6050    25.4920    -6.7710     2.1600 
  122.1250    93.2570     7.2180     5.5940     5.8820    25.4810    -6.2120     2.1890 
  122.2500    97.7120     6.5820     5.0120     4.7600    25.3520    -5.6470     2.2250 
  122.3750    98.4230     6.3050     4.6330     4.8390    25.2770    -5.0060     2.2530 
  122.5000   101.7220     6.3720     4.4730     5.0800    25.2540    -4.3260     2.2730 
  122.6250   107.7950     6.6420     4.4830     5.0380    25.1980    -3.7220     2.2870 
  122.7500   109.3520     6.8670     4.5500     4.8980    25.1790    -3.3300     2.2940 
  122.8750   104.6970     6.8610     4.5300     5.0800    25.1760    -3.2020     2.2910 
  123.0000    98.7620     6.6270     4.4000     5.3170    25.0940    -3.2570     2.2740 
  123.1250    96.2030     6.3580     4.2700     5.3840    24.9480    -3.3880     2.2510 
  123.2500    96.6720     6.5000     4.3830     5.4120    24.8040    -3.5930     2.2440 
  123.3750    95.4170     7.4580     4.9450     5.9150    24.6390    -3.8870     2.2720 
  123.5000    89.6620     9.6720     6.2490     8.5200    24.4960    -4.2250     2.3390 
  123.6250    79.4800    13.5360     8.6960    15.2680    24.4250    -4.5500     2.4350 
  123.7500    69.8220    19.1730    12.9240    25.6950    24.3930    -4.7930     2.5380 
  123.8750    64.7230    24.7900    18.1800    34.4930    24.3950    -4.9300     2.6210 
  124.0000    63.5450    27.9630    22.1910    42.5500    24.4410    -5.0180     2.6630 
  124.1250    64.7110    26.9340    22.0920    49.7840    24.4590    -5.0730     2.6490 
  124.2500    69.1630    21.8680    17.7550    49.2310    24.4510    -5.0410     2.5730 
  124.3750    76.0150    16.0210    12.9450    28.9360    24.4850    -4.9290     2.4660 
  124.5000    81.3080    11.3080     9.2160    12.4580    24.6120    -4.7730     2.3640 
  124.6250    83.8470     8.3200     6.7780     6.8130    24.6340    -4.6010     2.2960 
  124.7500    85.9560     6.9890     5.5150     5.8530    24.4590    -4.4360     2.2770 
  124.8750    89.4870     6.6090     4.9720     5.8700    24.2820    -4.2690     2.2830 
  125.0000    93.3750     6.8270     4.9560     5.6840    24.2400    -4.0420     2.2900 
  125.1250    94.5890     7.3340     5.2790     5.6340    24.4130    -3.7390     2.2830 
  125.2500    91.6800     7.8270     5.7200     6.0440    24.5940    -3.4270     2.2630 
  125.3750    90.1060     8.1030     6.0490     6.8550    24.6910    -3.1210     2.2470 
  125.5000    92.1090     8.1080     6.1730     6.8850    24.7600    -2.8200     2.2450 
  125.6250    94.3190     7.8950     6.0960     6.0330    24.8640    -2.5220     2.2570 
  125.7500    90.8160     7.5690     5.8890     5.6460    24.9160    -2.2190     2.2750 
  125.8750    87.4840     7.2480     5.6620     5.7370    24.9280    -1.9530     2.2860 
  126.0000    89.0640     6.9670     5.4570     5.9320    24.9220    -1.7750     2.2860 
  126.1250    93.4380     6.7220     5.2770     5.8620    24.9190    -1.6870     2.2820 
  126.2500    96.7370     6.5160     5.1150     5.3450    24.9220    -1.6020     2.2810 
  126.3750    98.0650     6.3630     4.9770     4.9980    24.8920    -1.5260     2.2840 
