~V
VERS. 2.00: Ver 2.00
~W
STRT.M 60.0000:
STOP.M 273.0000:
STEP.M 0.1250:
NULL. -999.2500:
UWI. F11028:
~C
DEPT.M :
DEN.GM/CC :
GR.API :
RML.OHMM :
RI. :
RXO.OHMM :
CALI.CM :
SP.MV :
~A
# ...
  195.0000     2.2380    64.5040    46.9810    39.5400    33.1560    24.0620   -26.5560 
  195.1250     2.2790    65.0990    45.0360    37.4840    34.2030    24.1810   -25.7060 
  195.2500     2.3300    65.9780    45.3500    37.4990    32.6920    24.2900   -24.7680 
  195.3750     2.3820    67.8820    46.3680    38.5410    32.0390    24.3020   -23.7430 
  195.5000     2.4250    67.9380    45.5650    38.5230    37.6830    23.9120   -22.7170 
  195.6250     2.4510    63.9410    39.7230    34.3000    58.6010    23.4600   -21.6660 
  195.7500     2.4600    62.7240    30.2900    26.7320    49.3470    23.1610   -20.6240 
  195.8750     2.4480    66.6100    20.5530    18.6440    22.0310    22.7140   -19.6040 
  196.0000     2.4130    70.4770    13.1340    12.2940     8.6630    21.6430   -18.6890 
  196.1250     2.3610    66.5890     8.9580     8.4880     5.7000    20.1820   -17.8730 
  196.2500     2.3040    58.7010     6.7420     6.2860     4.8720    20.0450   -17.1780 
  196.3750     2.2490    54.5280     5.7320     5.1360     4.3880    20.6650   -16.6170 
  196.5000     2.1990    57.6540     5.4040     4.6420     3.7160    21.9420   -16.1440 
  196.6250     2.1630    63.1540     5.4400     4.5530     3.4200    22.9960   -15.8340 
  196.7500     2.1410    65.0040     5.5430     4.5870     3.4080    23.8080   -15.6400 
  196.8750     2.1340    64.3910     5.5950     4.6230     3.4340    24.5330   -15.5840 
  197.0000     2.1370    63.8580     5.5690     4.6260     3.3730    25.5670   -15.6250 
  197.1250     2.1440    63.2510     5.5080     4.6160     3.3140    25.8340   -15.7900 
  197.2500     2.1430    60.8810     5.4810     4.6340     3.3540    26.1030   -15.9940 
  197.3750     2.1300    58.4140     5.5260     4.7020     3.5370    26.0560   -16.2220 
  197.5000     2.1080    57.0320     5.6540     4.8190     3.7630    25.3760   -16.5100 
  197.6250     2.0920    54.9470     5.8430     4.9640     3.9450    25.4370   -16.7850 
  197.7500     2.0910    53.1310     6.0250     5.0910     4.0640    25.3580   -17.0930 
  197.8750     2.1090    52.8220     6.1610     5.1750     4.2290    24.7280   -17.3740 
  198.0000     2.1420    54.0810     6.2130     5.2090     4.5760    24.2140   -17.6700 
  198.1250     2.1770    55.6680     6.2380     5.2230     4.9020    23.6150   -17.9720 
  198.2500     2.2050    58.1180     6.2690     5.2790     4.8440    23.9100   -18.2950 
  198.3750     2.2270    62.4660     6.3180     5.4340     4.6320    25.0480   -18.6870 
  198.5000     2.2490    68.8300     6.4970     5.7190     4.7720    24.7760   -19.0860 
  198.6250     2.2790    76.3710     6.9430     6.1360     5.2040    24.4970   -19.5330 
  198.7500     2.3170    83.3140     7.5560     6.5740     6.0690    24.1090   -19.9650 
  198.8750     2.3530    87.3720     8.0170     6.9140     6.9170    23.6480   -20.4190 
  199.0000     2.3760    90.7020     8.2060     7.0590     7.1880    23.4090   -20.8560 
  199.1250     2.3760    95.7070     8.0890     6.9750     6.2460    23.7470   -21.2910 
  199.2500     2.3600    98.7400     7.8690     6.8000     5.8210    24.1130   -21.7380 
  199.3750     2.3410    98.1770     7.7270     6.6490     5.8740    23.9230   -22.1530 
  199.5000     2.3270    95.8880     7.7740     6.5920     6.3220    23.4630   -22.5890 
  199.6250     2.3250    93.7980     7.9810     6.6310     6.8740    23.4450   -23.0040 
  199.7500     2.3270    91.4890     8.1550     6.6810     7.1760    23.2470   -23.4470 
  199.8750     2.3210    91.2740     8.1770     6.6780     7.1310    22.9920   -23.9030 
  200.0000     2.2990    96.1130     8.0380     6.5960     6.9120    22.9300   -24.3830 
  200.1250     2.2630   101.1870     7.8440     6.4540     6.5980    23.3130   -24.8950 
  200.2500     2.2290   102.2440     7.7160     6.3080     6.5460    24.7100   -25.4240 
  200.3750     2.2140   100.7600     7.6740     6.1910     6.7040    26.0240   -25.9720 
  200.5000     2.2230    98.4130     7.6900     6.1230     6.8570    25.6940   -26.4710 
  200.6250     2.2540    94.6900     7.7650     6.1430     6.6390    25.5030   -26.9560 
  200.7500     2.2870    89.9170     7.9450     6.2770     6.5080    25.4490   -27.3620 
  200.8750     2.3120    86.1330     8.3000     6.5640     6.6720    25.6930   -27.6850 
  201.0000     2.3290    83.5350     8.8770     7.0410     7.4920    25.7460   -27.8930 
  201.1250     2.3430    80.3760     9.6830     7.7320     8.8900    24.5230   -27.9570 
  201.2500     2.3630    78.0670    10.5260     8.4930    10.0680    23.7050   -27.9170 
  201.3750     2.3880    76.7240    11.1400     9.1140    10.4900    23.6160   -27.7360 
  201.5000     2.4130    77.4600    11.2530     9.3570    10.7110    23.6110   -27.4600 
  201.6250     2.4270    80.1310    10.6800     9.0220    10.4690    23.5840   -27.0420 
  201.7500     2.4300    83.2270     9.7670     8.3370     9.0210    23.5850   -26.5960 
  201.8750     2.4230    86.0730     8.8660     7.5680     7.4260    23.4950   -26.1460 
  202.0000     2.4120    89.1610     8.2330     6.9420     6.5310    22.9060   -25.7690 
  202.1250     2.4000    92.5270     8.0380     6.6450     6.4480    22.5660   -25.4730 
  202.2500     2.3910    93.1140     8.2200     6.6840     7.0060    23.0730   -25.2530 
  202.3750     2.3880    90.8330     8.7700     7.0760     7.9530    23.5900   -25.1160 
  202.5000     2.3940    86.9650     9.7380     7.8360     8.9050    23.7160   -25.0120 
  202.6250     2.4140    81.6280    11.2920     9.0490     9.5350    23.6120   -24.9790 
  202.7500     2.4420    77.7280    13.2820    10.6110    10.8110    23.3620   -24.9300 
  202.8750     2.4740    78.2770    15.3400    12.3270    12.9490    23.1410   -24.8530 
  203.0000     2.5040    81.2040    16.7730    13.7600    15.6460    23.0030   -24.6700 
  203.1250     2.5200    81.1440    16.5170    14.0650    18.4390    22.5440   -24.3830 
  203.2500     2.5100    81.6350    14.6630    13.0680    16.8470    21.8470   -23.9650 
  203.3750     2.4650    85.3570    11.9270    11.1480    12.5400    21.3540   -23.4470 
  203.5000     2.3890    89.4240     9.2560     9.0000     8.4350    21.0810   -22.9000 
  203.6250     2.3060    87.4660     7.3390     7.2360     6.4290    20.8660   -22.2760 
  203.7500     2.2380    81.1070     6.1250     5.9870     5.3010    21.2270   -21.6610 
  203.8750     2.1890    73.9770     5.4700     5.2270     4.7720    22.1620   -21.0370 
  204.0000     2.1550    69.3200     5.2190     4.8720     4.5880    23.1670   -20.4470 
  204.1250     2.1330    69.8810     5.2680     4.8560     4.5650    24.0270   -19.9140 
  204.2500     2.1220    73.5700     5.4610     5.0240     4.4620    24.4760   -19.4550 
  204.3750     2.1290    77.7500     5.7090     5.2860     4.5820    24.3720   -19.0550 
  204.5000     2.1580    82.7550     5.9280     5.5600     4.9180    24.3570   -18.6280 
  204.6250     2.2080    88.2980     6.0350     5.7540     5.0900    23.6660   -18.2050 
  204.7500     2.2640    91.8630     6.0290     5.8400     5.2310    23.4180   -17.7340 
  204.8750     2.3130    92.6340     5.9340     5.8210     5.2330    23.2140   -17.2670 
  205.0000     2.3470    92.0880     5.7920     5.7180     5.2090    23.0470   -16.7790 
  205.1250     2.3630    93.0480     5.6660     5.5590     5.2510    22.5690   -16.2890 
  205.2500     2.3690    93.5670     5.6230     5.4030     5.3450    22.2140   -15.7750 
  205.3750     2.3690    92.0500     5.7140     5.3100     5.4350    21.9370   -15.2600 
  205.5000     2.3660    90.0720     5.9840     5.3440     5.5110    21.6370   -14.8250 
  205.6250     2.3600    88.2590     6.5270     5.6060     5.7000    21.6060   -14.4590 
  205.7500     2.3530    86.4590     7.3290     6.1030     6.4260    21.6860   -14.1570 
  205.8750     2.3450    84.3520     8.3350     6.8140     8.2610    21.4570   -13.8820 
  206.0000     2.3370    82.0850     9.4050     7.6620    10.7040    21.2020   -13.6660 
  206.1250     2.3260    79.2140    10.3000     8.5050    11.7420    21.0580   -13.4250 
