~V
VERS. 2.00: Ver 2.00
~W
STRT.M 55.0000:
STOP.M 276.0000:
STEP.M 0.1250:
NULL. -999.2500:
UWI. F11046:
~C
DEPT.M :
GR.API :
RML.OHMM :
RI. :
RXO.OHMM :
CALI.CM :
DEN.GM/CC :
SP.MV :
~A
# ...
  268.7500    62.8290     8.1420     6.5060     6.2840    24.4140     2.4130     1.8270 
  268.8750    62.8290     8.0640     6.3830     6.0440    24.4150     2.4370     1.6840 
  269.0000    62.8290     8.1210     6.3740     5.9320    24.4170     2.4700     1.6350 
  269.1250    62.8290     8.2780     6.4790     5.9240    24.4130     2.4940     1.5220 
  269.2500    62.8290     8.4280     6.6170     5.9840    24.4230     2.5060     1.3910 
  269.3750    62.8290     8.4880     6.7130     6.1030    24.4790     2.5050     1.3600 
  269.5000    62.8290     8.4150     6.7070     6.1790    24.5350     2.4920     1.3790 
  269.6250    62.8290     8.2070     6.5690     6.0500    24.5660     2.4680     1.3990 
  269.7500    62.8290     7.9600     6.3640     5.9640    24.5920     2.4410     1.4090 
  269.8750    62.8290     7.7550     6.1590     5.9480    24.6340     2.4200     1.4380 
  270.0000    62.8290     7.6540     6.0130     5.8540    24.6740     2.4150     1.4700 
  270.1250    62.8290     7.7030     5.9800     5.8920    24.6630     2.4300     1.5980 
  270.2500    62.8290     7.8600     6.0470     5.6940    24.5990     2.4520     1.7910 
  270.3750    62.8290     8.0780     6.1940     5.4830    24.5440     2.4680     1.9370 
  270.5000    62.8290     8.2980     6.3800     5.3470    24.4970     2.4710     2.1110 
  270.6250    62.8290     8.4360     6.5450     5.2910    24.4900     2.4600     2.2730 
  270.7500    62.8290     8.4590     6.6440     5.3960    24.5610     2.4460     2.4960 
  270.8750    62.8290     8.3710     6.6630     5.5730    24.6910     2.4370     2.6960 
  271.0000    62.8290     8.2220     6.6120     5.7370    24.7640     2.4400     2.8310 
  271.1250    62.8290     8.0950     6.5240     5.8000    24.7640     2.4520     2.9290 
  271.2500    62.8290     8.0400     6.4450     5.8120    24.7610     2.4650     2.9660 
  271.3750    62.8290     8.0560     6.3970     5.8420    24.7660     2.4700     3.0110 
  271.5000    62.8290     8.1060     6.3850     5.9010    24.7710     2.4610     2.9840 
  271.6250    62.8290     8.1430     6.3990     5.7900    24.7890     2.4380     2.9300 
  271.7500    62.8290     8.1500     6.4170     5.6000    24.7990     2.4110     2.8830 
  271.8750    62.8290     8.1430     6.4280     5.4660    24.8100     2.3920     2.8820 
  272.0000    62.8290     8.1350     6.4300     5.4540    24.8490     2.3840     2.9050 
  272.1250    62.8290     8.1340     6.4300     5.4890    24.8170     2.3880     2.9210 
  272.2500    62.8290     8.1340     6.4300     5.4750    24.7620     2.3950     2.9870 
  272.3750    62.8290     8.1340     6.4300     5.4360    24.7300     2.4030     3.0530 
  272.5000    62.8290     8.1340     6.4300     5.5080    24.7480     2.4080     3.1180 
  272.6250    62.8290     8.1340     6.4300     5.7300    24.7590     2.4130     3.1400 
  272.7500    62.8290     8.1340     6.4300     6.0560    24.7300     2.4170     3.0970 
  272.8750    62.8290     8.1340     6.4300     6.2970    24.6990     2.4220     3.0910 
  273.0000    62.8290     8.1340     6.4300     6.0730    24.7040     2.4280     3.1000 
  273.1250    62.8290     8.1340     6.4300     5.8040    24.7400     2.4370     3.0430 
  273.2500    62.8290     8.1340     6.4300     5.5580    24.7650     2.4460     2.9560 
  273.3750    62.8290     8.1340     6.4300     5.4820    24.7500     2.4460     2.8600 
  273.5000    62.8290     8.1340     6.4300     5.5410    24.7440     2.4350     2.8190 
  273.6250    62.8290     8.1340     6.4300     5.4650    24.7780     2.4160     2.8040 
  273.7500    62.8290     8.1340     6.4300     5.5010    24.8950     2.3960     2.8560 
  273.8750    62.8290     8.1340     6.4300     5.6130    25.2180     2.3790     2.8800 
  274.0000    62.8290     8.1340     6.4300     5.8550    25.7240     2.3720     2.8920 
  274.1250    62.8290     8.1340     6.4300     6.0800    26.0880     2.3690     2.9630 
  274.2500    62.8290     8.1340     6.4300     6.1970    26.1790     2.3640     3.0480 
  274.3750    62.8290     8.1340     6.4300     6.3930    26.0980     2.3530     3.1290 
  274.5000    62.8290     8.1340     6.4300     7.0770    25.7880     2.3480     3.1910 
  274.6250    62.8290     8.1340     6.4300     8.9510    25.5140     2.3580     3.2490 
  274.7500    62.8290     8.1340     6.4300    11.5040    25.4070     2.3840     3.2770 
  274.8750    62.8290     8.1340     6.4300    12.3260    25.2550     2.4160     3.2770 
  275.0000    62.8290     8.1340     6.4300    10.2940    24.8260     2.4330     3.2770 
  275.1250    62.8290     8.1340     6.4300     8.9180    24.3040     2.4220  -999.2500 
  275.2500    62.8290     8.1340     6.4300     8.9610    24.0580     2.3800  -999.2500 
  275.3750    62.8290     8.1340     6.4300     8.6690    24.0270     2.3100  -999.2500 
  275.5000    62.8290     8.1340     6.4300     7.4410    24.0050     2.2300  -999.2500 
  275.6250    62.8290     8.1340     6.4300     6.5310    23.8380     2.1520  -999.2500 
  275.7500    62.8290     8.1340     6.4300     6.1760    23.1750     2.0840  -999.2500 
  275.8750    62.8290     8.1340     6.4300     5.8990    21.3960     2.0350  -999.2500 
  276.0000    62.8290     8.1340     6.4300     5.5920    18.2810     2.0040  -999.2500 
