~V
VERS. 2.00: Ver 2.00
~W
STRT.M 60.0000:
STOP.M 274.0000:
STEP.M 0.1250:
NULL. -999.2500:
UWI. F11079:
~C
DEPT.M :
GR.API :
RML.OHMM :
RI. :
RXO.OHMM :
CALI.CM :
DEN.GM/CC :
SP.MV :
~A
# ...
   71.2500    64.1300     8.1920     6.4870     8.7540    24.4180     2.1450   -19.6220 
   71.3750    64.3380     8.3660     6.5940     8.8190    24.4350     2.1540   -19.3020 
   71.5000    64.7020     8.5240     6.6880     8.8250    24.4260     2.1610   -18.9520 
   71.6250    64.9550     8.6010     6.7480     8.8990    24.4390     2.1650   -18.5710 
   71.7500    63.8050     8.5760     6.7800     8.9710    24.5500     2.1660   -18.1690 
   71.8750    62.1490     8.4620     6.7930     9.0280    24.7400     2.1630   -17.7250 
   72.0000    60.9210     8.3170     6.7900     8.8950    24.8940     2.1570   -17.2140 
   72.1250    60.5420     8.2230     6.7700     8.6620    24.7910     2.1520   -16.5910 
   72.2500    60.3810     8.2010     6.7360     8.5740    24.5190     2.1470   -15.8270 
   72.3750    61.5790     8.2150     6.6820     8.5220    24.2980     2.1420   -14.9530 
   72.5000    64.4150     8.1940     6.6000     8.4700    24.1700     2.1360   -13.9880 
   72.6250    65.0430     8.0610     6.4660     8.5060    24.1430     2.1320   -12.9340 
   72.7500    63.4100     7.8520     6.2870     8.4050    24.1410     2.1330   -11.8100 
   72.8750    63.1240     7.6750     6.1130     8.0850    24.1650     2.1390   -10.6360 
   73.0000    67.0330     7.6680     6.0310     7.6060    24.1830     2.1560    -9.4370 
   73.1250    72.3270     7.9370     6.1450     7.3250    24.2050     2.1860    -8.2490 
   73.2500    73.5600     8.3770     6.4170     7.5390    24.2430     2.2230    -7.0940 
   73.3750    72.9340     8.8220     6.7550     8.6010    24.2610     2.2570    -5.9720 
   73.5000    74.9300     9.0630     7.0130    10.0020    24.1840     2.2930    -4.9170 
   73.6250    80.7320     8.8950     7.0090    10.0070    23.9650     2.3360    -4.0090 
   73.7500    86.4270     8.4480     6.7740     7.5170    23.7790     2.3630    -3.2640 
   73.8750    89.4970     7.9250     6.4260     6.6730    23.6540     2.3520    -2.6600 
   74.0000    90.2820     7.4960     6.0950     6.6090    23.5540     2.3130    -2.1850 
   74.1250    89.8260     7.2640     5.8860     6.4430    23.4400     2.2730    -1.8300 
   74.2500    89.6300     7.1540     5.7900     6.5370    23.4670     2.2350    -1.5690 
   74.3750    90.3880     7.0830     5.7610     6.3900    23.5700     2.1950    -1.4000 
   74.5000    92.7790     7.0000     5.7440     5.9310    23.5700     2.1570    -1.2900 
   74.6250    94.7280     6.9280     5.7200     5.6380    23.3770     2.1330    -1.1800 
   74.7500    94.2330     6.9090     5.7080     5.7830    23.1250     2.1220    -1.0310 
   74.8750    92.0090     6.9410     5.7180     6.1340    22.8810     2.1190    -0.8410 
   75.0000    91.0010     6.9830     5.7370     6.5560    22.7140     2.1240    -0.6080 
   75.1250    94.0740     6.9590     5.7230     6.7020    22.6790     2.1510    -0.3450 
   75.2500    97.4790     6.8380     5.6420     6.4270    22.7710     2.1960    -0.0880 
   75.3750    97.3480     6.6420     5.4900     6.0400    23.0260     2.2410     0.1420 
   75.5000    93.5780     6.4500     5.3100     5.8380    23.4410     2.2640     0.3480 
   75.6250    90.1540     6.3830     5.1880     5.6610    23.8250     2.2640     0.5410 
   75.7500    89.6210     6.4720     5.1800     5.5080    24.0800     2.2680     0.7220 
   75.8750    90.9840     6.6840     5.2930     5.4830    24.1650     2.2810     0.8850 
   76.0000    93.1020     6.9300     5.4820     5.8550    24.1400     2.2970     1.0170 
   76.1250    96.5940     7.0660     5.6470     6.5070    24.0460     2.3060     1.0890 
   76.2500   100.1490     7.0260     5.6970     6.7330    23.9760     2.3070     1.1250 
   76.3750   102.0650     6.8320     5.6050     6.0270    23.9950     2.3000     1.1620 
   76.5000   101.7270     6.5840     5.4220     5.4030    24.0790     2.2850     1.2040 
   76.6250   101.2790     6.4190     5.2540     5.2750    24.1190     2.2730     1.2240 
   76.7500   103.2850     6.3900     5.1800     5.3250    24.1230     2.2670     1.1990 
   76.8750   104.8390     6.4960     5.2170     5.3770    24.0770     2.2610     1.0970 
   77.0000   102.8840     6.6820     5.3360     5.5010    23.9730     2.2490     0.9080 
   77.1250   100.0180     6.8580     5.4670     5.6610    23.8850     2.2340     0.6700 
   77.2500    98.6430     6.9730     5.5570     5.6550    23.8780     2.2220     0.3980 
   77.3750    98.5930     7.0270     5.5950     5.6660    23.9040     2.2210     0.0980 
   77.5000    99.4770     7.0340     5.5890     5.7030    23.9460     2.2280    -0.2350 
   77.6250   102.1810     6.9900     5.5390     5.6180    23.9670     2.2370    -0.6000 
   77.7500   104.0980     6.8780     5.4460     5.6660    23.9730     2.2410    -0.9840 
   77.8750   103.4600     6.6830     5.3040     5.7370    23.9720     2.2430    -1.3900 
   78.0000   101.5690     6.4560     5.1440     5.7930    23.9700     2.2510    -1.8060 
   78.1250    99.9600     6.4330     5.1030     5.6260    23.9710     2.2680    -2.2310 
   78.2500    97.3190     6.8430     5.3330     5.6020    23.9780     2.2890    -2.6800 
   78.3750    94.2360     7.8120     5.9390     5.7390    23.9780     2.3090    -3.2120 
   78.5000    92.2220     9.3020     6.9350     6.7090    23.9660     2.3290    -3.8590 
   78.6250    87.4170    11.0420     8.2200     9.8880    23.9440     2.3560    -4.6380 
   78.7500    78.7870    12.4350     9.4110    14.3230    23.8990     2.3770    -5.4780 
   78.8750    71.0220    12.9990    10.1260    14.0410    23.8870     2.3590    -6.3220 
   79.0000    68.0180    12.6270    10.1730    10.1330    23.9850     2.2780    -7.1150 
   79.1250    68.8910    11.6490     9.6540     8.2530    24.0470     2.1990    -7.8380 
   79.2500    70.0600    10.6700     8.9970     7.7660    23.8750     2.1950    -8.4770 
   79.3750    72.1190     9.9300     8.4090     7.8390    23.5060     2.2610    -8.9960 
   79.5000    73.9910     9.4700     7.9730     7.6320    23.2470     2.3380    -9.3810 
   79.6250    75.6540     9.2470     7.6990     7.4500    23.2060     2.3320    -9.5940 
   79.7500    77.7800     9.1520     7.5250     7.2370    23.2920     2.2630    -9.6970 
   79.8750    78.1130     9.1690     7.4400     7.1790    23.4800     2.1940    -9.7220 
   80.0000    76.3560     9.2740     7.4400     7.2770    23.7560     2.1370    -9.7190 
   80.1250    73.8990     9.3750     7.4830     7.5080    24.0950     2.0740    -9.7000 
   80.2500    71.7200     9.3700     7.4800     7.7440    24.2920     2.0130    -9.6780 
   80.3750    70.2200     9.2330     7.3890     7.8320    24.3260     1.9760    -9.6190 
   80.5000    71.5140     9.0120     7.2210     7.6550    24.2670     1.9720    -9.4900 
   80.6250    76.3210     8.7930     7.0230     7.5430    24.2110     1.9960    -9.3040 
   80.7500    80.3130     8.6220     6.8440     7.6300    24.1720     2.0320    -9.0760 
   80.8750    83.3230     8.5010     6.7070     7.8960    24.1250     2.0700    -8.8020 
   81.0000    85.4700     8.4260     6.6210     8.0870    24.0880     2.1050    -8.5030 
   81.1250    86.2550     8.4060     6.5890     8.1180    24.1710     2.1290    -8.2120 
   81.2500    85.4220     8.4280     6.5850     8.1320    24.2770     2.1440    -7.9430 
   81.3750    83.7680     8.4710     6.5870     8.2060    24.3640     2.1520    -7.7190 
   81.5000    81.3170     8.4960     6.5650     8.2210    24.4050     2.1560    -7.5590 
   81.6250    81.1880     8.4420     6.4820     8.1310    24.3640     2.1600    -7.4620 
   81.7500    86.0630     8.3040     6.3420     7.8700    24.2740     2.1730    -7.4110 
   81.8750    91.6970     8.1260     6.1690     7.4950    24.2050     2.1980    -7.4420 
   82.0000    93.7920     7.9890     6.0110     7.0160    24.1710     2.2290    -7.5620 
   82.1250    92.1540     7.9870     5.9450     6.6270    24.1480     2.2530    -7.7700 
   82.2500    87.9510     8.1300     6.0010     6.5200    24.1640     2.2580    -8.0630 
   82.3750    80.7900     8.3950     6.1800     6.8050    24.2260     2.2420    -8.4440 
