~V
VERS. 2.00: Ver 2.00
~W
STRT.M 55.0000:
STOP.M 280.0000:
STEP.M 0.1250:
NULL. -999.2500:
UWI. F11032:
~C
DEPT.M :
DEN.GM/CC :
GR.API :
RML.OHMM :
RI. :
RXO.OHMM :
CALI.CM :
SP.MV :
~A
# ...
  212.5000     2.2400    69.8620    23.9340    18.4390    26.6970    24.5670   -15.1240 
  212.6250     2.2430    67.5600    25.8860    20.1040    28.9310    24.5730   -15.1400 
  212.7500     2.2500    64.4230    27.5110    21.5310    28.0360    24.5730   -15.1930 
  212.8750     2.2550    61.0720    28.8410    22.7110    28.8420    24.5730   -15.2550 
  213.0000     2.2580    58.5010    30.0880    23.7530    29.7480    24.5720   -15.3840 
  213.1250     2.2620    58.7580    31.9320    25.0760    27.6270    24.5670   -15.5860 
  213.2500     2.2670    62.1750    35.1250    27.2770    27.8450    24.5730   -15.7610 
  213.3750     2.2710    66.5210    40.3920    31.0010    34.4880    24.5860   -15.9130 
  213.5000     2.2680    69.4680    48.3220    36.8620    43.3900    24.6360   -16.0840 
  213.6250     2.2520    68.6870    59.7700    45.8580    48.3850    24.8360   -16.2280 
  213.7500     2.2280    62.3000    73.8640    57.5410    63.7530    24.8720   -16.3850 
  213.8750     2.2000    53.2800    89.0060    70.7680    90.0580    24.8800   -16.5280 
  214.0000     2.1730    49.4750   102.3410    83.1910   106.1120    24.8800   -16.6490 
  214.1250     2.1540    53.9990   109.9370    91.3760   102.7880    24.8800   -16.7720 
  214.2500     2.1430    58.3620   111.7150    94.6600    99.8260    24.8800   -16.8740 
  214.3750     2.1370    59.1010   109.0200    93.7240    95.7600    24.8800   -16.9760 
  214.5000     2.1340    58.6450   103.8850    90.1590    86.4740    24.8800   -17.0800 
  214.6250     2.1330    58.4390    97.8890    85.4470    77.5840    24.8800   -17.1460 
  214.7500     2.1340    58.1060    91.9910    80.6370    75.7970    24.8800   -17.1770 
  214.8750     2.1380    58.1400    86.7130    76.1970    72.8830    24.8800   -17.2220 
  215.0000     2.1430    57.7490    82.6360    72.6360    65.2720    24.8800   -17.2430 
  215.1250     2.1460    55.9330    80.5360    70.6800    61.5770    24.8790   -17.2470 
  215.2500     2.1460    55.9670    80.2710    70.3300    61.7030    24.8730   -17.2790 
  215.3750     2.1410    56.8290    81.6530    71.5360    63.0050    24.8320   -17.2870 
  215.5000     2.1350    55.4830    84.1900    73.9650    64.8880    24.8300   -17.2720 
  215.6250     2.1300    52.1700    87.0400    76.9150    70.0040    24.8050   -17.3110 
  215.7500     2.1280    50.2810    89.3450    79.4500    74.5290    24.7910   -17.3860 
  215.8750     2.1310    50.0530    90.8680    81.1870    76.3700    24.7420   -17.4350 
  216.0000     2.1390    50.7040    91.8520    82.2420    77.1620    24.7200   -17.4950 
  216.1250     2.1510    52.1740    92.9290    83.1770    76.4040    24.7160   -17.5910 
  216.2500     2.1650    53.5120    94.7810    84.7370    74.1640    24.7160   -17.6770 
  216.3750     2.1780    55.1160    97.7700    87.3930    77.6820    24.7160   -17.7770 
  216.5000     2.1850    59.4190   101.8000    91.2240    85.8670    24.7160   -17.8780 
  216.6250     2.1850    62.3840   106.0970    95.7390    92.6840    24.7160   -17.9460 
  216.7500     2.1790    60.1280   109.2200    99.6520    96.6430    24.7160   -17.9830 
  216.8750     2.1680    55.4740   109.9300   101.7590   102.7450    24.7160   -18.0260 
  217.0000     2.1560    52.9800   107.6220   101.2660   108.9170    24.7150   -18.0650 
  217.1250     2.1500    52.4040   102.2620    97.8240   106.8030    24.6930   -18.0510 
  217.2500     2.1560    50.3140    95.2530    92.6120    97.7770    24.5890   -18.0300 
  217.3750     2.1730    49.9520    87.4190    86.3470    89.3050    24.3820   -18.0370 
  217.5000     2.1970    53.8200    83.4730    79.6530    84.3650    24.2730   -18.0320 
  217.6250     2.2130    58.6090    76.0140    73.2870    84.7310    24.2560   -18.0070 
  217.7500     2.2140    59.8680    69.9690    67.8730    77.4820    24.2470   -18.0340 
  217.8750     2.2020    59.7510    65.6700    63.8360    65.5770    24.2030   -18.0750 
  218.0000     2.1840    59.5990    63.1190    61.3320    58.4910    24.1820   -18.0970 
  218.1250     2.1700    59.6570    62.0710    60.3040    60.4640    24.1780   -18.1760 
  218.2500     2.1620    59.0680    61.5410    59.8830    74.9470    24.1780   -18.2640 
  218.3750     2.1580    59.1120    60.8810    59.4000    95.3110    24.1780   -18.3290 
  218.5000     2.1570    61.5270    59.7870    58.4490   104.5520    24.1730   -18.4370 
  218.6250     2.1580    63.7330    58.6120    57.1340    91.3100    24.1430   -18.5860 
  218.7500     2.1630    62.3320    58.3560    56.2930    73.3290    24.0980   -18.6770 
  218.8750     2.1690    58.2250    60.0950    56.9350    61.7480    24.0840   -18.7630 
  219.0000     2.1740    56.1730    64.7670    60.0240    61.1070    24.0540   -18.9110 
  219.1250     2.1760    58.6670    73.6680    66.9210    72.1830    23.9130   -19.0350 
  219.2500     2.1750    61.7880    86.3160    77.4490    89.5510    23.8060   -19.1540 
  219.3750     2.1710    64.3500   101.9990    91.2140   110.9790    23.8230   -19.3040 
  219.5000     2.1630    64.6310   118.9580   106.7630   134.0150    24.1240   -19.4760 
  219.6250     2.1540    61.4840   133.7890   121.0460   133.1120    24.4660   -19.6090 
  219.7500     2.1460    57.8270   143.9490   131.3990   137.1060    24.7640   -19.7470 
  219.8750     2.1410    56.1610   148.6230   136.7080   144.6570    24.9090   -19.9260 
  220.0000     2.1420    55.3470   148.9490   137.6280   152.0010    24.6540   -20.0720 
  220.1250     2.1480    55.2540   147.3260   136.1470   147.5780    24.5120   -20.1770 
  220.2500     2.1560    55.6310   146.0460   134.8000   142.4930    24.4880   -20.3310 
  220.3750     2.1630    55.0290   144.9720   133.9100   133.3320    24.4890   -20.4840 
  220.5000     2.1650    53.0670   142.2990   132.0660   118.8460    24.4990   -20.5590 
  220.6250     2.1610    52.5550   135.0680   126.4430   102.8310    24.5620   -20.6710 
  220.7500     2.1560    54.8710   120.8740   116.8570    90.2200    24.5580   -20.8380 
  220.8750     2.1520    57.6760   105.1320   104.9620    82.7380    24.5010   -20.9640 
  221.0000     2.1520    59.0450    93.4520    93.4340    82.1890    24.1600   -21.0870 
  221.1250     2.1600    59.5580    85.4380    85.0610    77.2840    24.0900   -21.2750 
  221.2500     2.1700    59.0630    80.9950    80.1020    67.0980    24.1840   -21.4310 
  221.3750     2.1800    57.1870    79.4640    78.0640    57.2110    24.2440   -21.5510 
  221.5000     2.1850    54.5280    79.8830    78.0820    53.0970    24.2540   -21.7320 
  221.6250     2.1850    53.7620    81.3740    79.3210    52.4010    24.2490   -21.9120 
  221.7500     2.1800    55.0720    83.1130    80.8600    53.3290    24.2540   -22.0000 
  221.8750     2.1740    56.8740    84.8840    82.4100    57.4870    24.2540   -22.0560 
  222.0000     2.1670    58.9610    86.5600    83.8290    63.7420    24.2430   -22.1150 
  222.1250     2.1590    60.5160    87.7480    84.7800    70.1590    24.1950   -22.0840 
  222.2500     2.1510    59.7210    88.1140    84.9570    77.0070    24.1880   -22.0040 
  222.3750     2.1450    58.5930    87.6160    84.2650    87.1680    24.3150   -21.9470 
  222.5000     2.1440    58.9580    86.6540    83.0270    92.8270    24.3060   -21.8380 
  222.6250     2.1470    59.8250    86.0870    82.0580    79.1310    24.1240   -21.6390 
  222.7500     2.1520    58.5170    86.4800    82.0310    68.8760    24.2020   -21.5170 
  222.8750     2.1550    56.1010    87.8250    83.0410    73.4650    24.3560   -21.4530 
  223.0000     2.1560    55.3460    89.5910    84.6300    83.6620    24.3950   -21.3720 
  223.1250     2.1550    55.3940    90.7100    85.7860    87.2470    24.3980   -21.3810 
  223.2500     2.1580    56.0190    90.4280    85.6500    85.1320    24.3980   -21.4600 
  223.3750     2.1630    58.7920    88.6140    83.9470    83.4830    24.3980   -21.5200 
  223.5000     2.1700    63.7890    85.8240    81.0940    81.9680    24.3980   -21.6140 
  223.6250     2.1720    66.6610    83.0260    77.9800    78.0800    24.3980   -21.7330 
