~V
VERS. 2.00: Ver 2.00
~W
STRT.M 60.0000:
STOP.M 276.0000:
STEP.M 0.1250:
NULL. -999.2500:
UWI. F11026:
~C
DEPT.M :
DEN.GM/CC :
GR.API :
RML.OHMM :
RI. :
RXO.OHMM :
CALI.CM :
SP.MV :
~A
# ...
   71.2500     2.2310    68.2530     9.4150     7.1720     7.7830    24.1240   -35.4800 
   71.3750     2.2410    68.9820     9.5840     7.3150     7.9630    24.0730   -35.3290 
   71.5000     2.2500    70.2850     9.7040     7.4320     8.2690    23.9870   -35.1640 
   71.6250     2.2560    71.7340     9.6780     7.4350     7.9880    24.0420   -34.9880 
   71.7500     2.2550    73.7700     9.5130     7.3230     7.3610    24.0420   -34.7950 
   71.8750     2.2510    74.9160     9.2610     7.1370     7.1960    23.8590   -34.5770 
   72.0000     2.2490    73.7540     9.0180     6.9510     7.5540    23.5430   -34.2870 
   72.1250     2.2550    72.3350     8.8950     6.8440     7.9660    23.3030   -33.9020 
   72.2500     2.2570    74.9300     8.9040     6.8290     8.1410    23.2760   -33.5030 
   72.3750     2.2430    79.2070     9.0060     6.8910     8.2330    23.5220   -33.1390 
   72.5000     2.2100    79.9520     9.1270     6.9930     8.1950    24.0780   -32.7780 
   72.6250     2.1690    75.3770     9.1850     7.0820     7.9950    24.3330   -32.4050 
   72.7500     2.1400    72.6230     9.1590     7.1230     8.0120    24.4100   -32.0230 
   72.8750     2.1310    74.6010     9.0630     7.1060     8.5700    24.2820   -31.6460 
   73.0000     2.1390    75.9440     8.9320     7.0370     9.0900    24.1720   -31.2950 
   73.1250     2.1580    73.7370     8.8000     6.9220     8.9850    24.0590   -30.9440 
   73.2500     2.1750    71.2610     8.6840     6.7870     8.6530    23.8800   -30.6290 
   73.3750     2.1880    71.6330     8.5830     6.6560     8.3110    23.7030   -30.3930 
   73.5000     2.1930    73.9170     8.4890     6.5510     7.9970    23.5960   -30.2660 
   73.6250     2.1920    74.5470     8.3980     6.4810     7.8460    23.5450   -30.2230 
   73.7500     2.1900    73.1940     8.3180     6.4320     7.7070    23.5760   -30.1740 
   73.8750     2.1910    71.9320     8.2630     6.3990     7.5420    23.6420   -30.1440 
   74.0000     2.1990    72.4520     8.2480     6.3830     7.5230    23.6050   -30.1740 
   74.1250     2.2110    73.9410     8.2740     6.3910     7.6690    23.4690   -30.2710 
   74.2500     2.2220    73.0850     8.3210     6.4260     7.6760    23.3500   -30.3190 
   74.3750     2.2260    70.9160     8.3690     6.4820     7.6080    23.3180   -30.2140 
   74.5000     2.2240    70.5680     8.3980     6.5380     7.6080    23.3510   -29.9300 
   74.6250     2.2170    74.4220     8.3850     6.5690     7.7130    23.3840   -29.5100 
   74.7500     2.2140    78.5550     8.3240     6.5690     7.7110    23.3770   -29.0170 
   74.8750     2.2150    79.6370     8.2050     6.5310     7.5220    23.3570   -28.3710 
   75.0000     2.2200    79.1310     8.0170     6.4370     7.3200    23.3710   -27.5240 
   75.1250     2.2240    81.5050     7.7380     6.2510     7.2570    23.4810   -26.4400 
   75.2500     2.2260    85.2280     7.3900     5.9780     7.0870    23.7570   -25.2240 
   75.3750     2.2290    88.2420     7.0070     5.6410     6.5520    24.2160   -24.0670 
   75.5000     2.2370    91.4260     6.6490     5.2910     5.8270    24.7700   -23.1270 
   75.6250     2.2550    96.9920     6.4160     5.0190     5.9350    24.8820   -22.4650 
   75.7500     2.2780   100.8230     6.3610     4.8810     6.0090    24.6270   -22.0270 
   75.8750     2.2980   100.1760     6.5150     4.9130     5.9010    24.3260   -21.7960 
   76.0000     2.3070    95.5660     6.8730     5.1230     5.8480    24.1610   -21.7630 
   76.1250     2.2990    89.6790     7.3940     5.5020     6.1870    24.0280   -21.9590 
   76.2500     2.2720    85.6800     7.9370     5.9520     6.8610    23.8410   -22.2470 
   76.3750     2.2280    84.1580     8.3700     6.3690     7.3820    23.7910   -22.4570 
   76.5000     2.1740    83.9640     8.5750     6.6320     7.4590    24.0010   -22.3960 
   76.6250     2.1300    83.8430     8.4600     6.6200     7.2880    24.3010   -21.9710 
   76.7500     2.1180    85.7410     8.1360     6.3980     7.0530    24.4460   -21.4200 
   76.8750     2.1400    90.0000     7.7190     6.0720     6.5590    24.2530   -20.8650 
   77.0000     2.1840    94.6830     7.3340     5.7450     6.1470    23.7480   -20.2730 
   77.1250     2.2250    98.9230     7.1270     5.5220     5.9840    23.3530   -19.5830 
   77.2500     2.2560   100.9340     7.1620     5.4550     6.5480    23.1400   -18.8720 
   77.3750     2.2900   100.0480     7.4920     5.5860     7.1610    23.1690   -18.1970 
   77.5000     2.3460    97.5860     8.1210     5.9470     7.0590    23.3630   -17.6630 
   77.6250     2.4360    95.0610     8.9830     6.5700     6.6330    23.6500   -17.3940 
   77.7500     2.5350    93.0560     9.8140     7.3050     7.3790    23.9320   -17.2740 
   77.8750     2.6100    91.9320    10.3660     7.9370     9.8320    24.1020   -17.2520 
   78.0000     2.6380    92.9060    10.4820     8.2430    12.0580    24.1210   -17.3270 
   78.1250     2.6040    92.9380    10.1770     8.1260    13.0440    23.9770   -17.4020 
   78.2500     2.5340    91.5680     9.7770     7.8400    11.8380    23.6700   -17.4780 
   78.3750     2.4590    89.9710     9.4970     7.5970     9.1990    23.4070   -17.6480 
   78.5000     2.3990    88.6040     9.3880     7.4960     8.7870    23.4810   -17.8280 
   78.6250     2.3650    86.5240     9.2840     7.4710    12.0390    23.8810   -17.7800 
   78.7500     2.3440    86.8080     8.9650     7.3230    15.1220    24.2710   -17.5280 
   78.8750     2.3290    92.3750     8.3780     6.9540    12.3990    24.5240   -17.1620 
   79.0000     2.3150   100.1570     7.6540     6.4280     7.4630    24.6530   -16.7140 
   79.1250     2.3080   103.8360     7.0710     5.9390     5.7450    24.6760   -16.3560 
   79.2500     2.3070   103.4630     6.7810     5.6290     5.8710    24.6040   -16.1340 
   79.3750     2.3110   101.6840     6.7680     5.5250     6.8050    24.4330   -15.9160 
   79.5000     2.3140    99.5180     6.8980     5.5640     6.7480    24.2600   -15.6850 
   79.6250     2.3180    96.2910     6.9680     5.6140     6.4830    24.2090   -15.5750 
   79.7500     2.3220    94.6820     6.8720     5.5530     5.9540    24.2940   -15.6190 
   79.8750     2.3260    98.1020     6.6340     5.3620     5.6670    24.4300   -15.7330 
   80.0000     2.3280   104.1140     6.3770     5.1120     5.4280    24.4950   -15.9090 
   80.1250     2.3280   105.5970     6.3250     4.9630     5.3800    24.5540   -16.2310 
   80.2500     2.3390   102.4320     6.6090     5.0430     5.4760    24.6760   -16.6710 
   80.3750     2.3760    99.1220     7.2890     5.4280     5.7730    24.6810   -17.3180 
   80.5000     2.4410    96.2100     8.3060     6.1250     7.0040    24.6530   -18.2430 
   80.6250     2.5080    88.9020     9.4340     7.0460    10.3170    24.7460   -19.3780 
   80.7500     2.5390    77.4650    10.2980     7.8840    14.8580    24.9280   -20.4770 
   80.8750     2.5140    67.6870    10.6480     8.3600    13.0100    25.1960   -21.5270 
   81.0000     2.4410    65.8210    10.4570     8.3530     9.5240    25.3530   -22.6070 
   81.1250     2.3520    71.3870     9.9390     7.9840     8.0590    25.0480   -23.6790 
   81.2500     2.2830    73.9480     9.5090     7.5990     7.8790    24.4730   -24.6370 
   81.3750     2.2440    68.7570     9.3710     7.3840     7.8990    24.0130   -25.4410 
   81.5000     2.2290    61.2210     9.5470     7.3970     8.1960    23.7220   -26.1270 
   81.6250     2.2280    59.2980     9.9070     7.5880     8.4440    23.6040   -26.7560 
   81.7500     2.2290    60.7610    10.2150     7.7790     8.4870    23.6160   -27.3860 
   81.8750     2.2260    63.1220    10.3350     7.8560     8.2760    23.7690   -27.9260 
   82.0000     2.2160    65.3810    10.2240     7.7650     8.1230    24.0000   -28.2760 
   82.1250     2.2000    67.1590     9.9140     7.5120     8.1670    24.3690   -28.4420 
   82.2500     2.1830    64.9080     9.5670     7.2150     8.1350    24.9060   -28.5760 
   82.3750     2.1680    59.2330     9.3030     6.9730     8.0170    25.3720   -28.6640 
