~V
VERS. 2.00: Ver 2.00
~W
STRT.M 50.0000:
STOP.M 270.0000:
STEP.M 0.1250:
NULL. -999.2500:
UWI. F11070:
~C
DEPT.M :
DEN.GM/CC :
GR.API :
RML.OHMM :
RI. :
RXO.OHMM :
CALI.CM :
SP.MV :
~A
# ...
   61.2500     2.1550    63.4350     8.1000     6.7050    10.5000    27.0890   -44.6800 
   61.3750     2.1570    61.3640     8.0500     6.6900    10.2820    27.0020   -44.8340 
   61.5000     2.1650    61.1220     7.9980     6.6880    10.0890    26.8570   -44.8480 
   61.6250     2.1700    62.6880     7.9720     6.7130    10.1250    26.6140   -44.7870 
   61.7500     2.1710    64.8220     7.9890     6.7600    10.3840    26.3140   -44.7560 
   61.8750     2.1680    65.8890     8.0440     6.8210    10.5590    26.1060   -44.6390 
   62.0000     2.1620    64.4920     8.1260     6.8800    10.6430    26.0440   -44.3960 
   62.1250     2.1520    62.1820     8.2000     6.9180    10.5150    25.9640   -44.2100 
   62.2500     2.1480    59.5960     8.2310     6.9230    10.5800    25.7750   -43.9600 
   62.3750     2.1560    57.9340     8.2030     6.8970    10.6260    25.5850   -43.6180 
   62.5000     2.1740    58.3870     8.1270     6.8520    10.5010    25.5230   -43.3340 
   62.6250     2.1900    62.1580     8.0400     6.8070     9.9280    25.5890   -43.0680 
   62.7500     2.1930    66.7090     7.9910     6.7740     9.5300    25.6930   -42.6750 
   62.8750     2.1850    68.9120     8.0070     6.7560     9.4360    25.8380   -42.2580 
   63.0000     2.1740    68.6540     8.0840     6.7550     9.5810    25.9110   -41.9300 
   63.1250     2.1690    67.8420     8.1620     6.7680     9.8660    25.8860   -41.5190 
   63.2500     2.1720    66.8680     8.1610     6.7640     9.8270    25.8740   -41.1210 
   63.3750     2.1770    66.0580     8.0500     6.7090     9.5030    25.9630   -40.7640 
   63.5000     2.1770    66.8200     7.8520     6.5790     8.9740    26.0720   -40.3180 
   63.6250     2.1710    70.0510     7.6360     6.3820     8.6240    26.0820   -39.9050 
   63.7500     2.1680    73.4520     7.4690     6.1810     8.4740    25.8840   -39.6650 
   63.8750     2.1750    74.4170     7.3760     6.0270     8.3100    25.6430   -39.5220 
   64.0000     2.1880    74.0780     7.3640     5.9530     8.2390    25.5510   -39.3720 
   64.1250     2.1850    75.9090     7.4550     5.9850     8.2160    25.6310   -39.3860 
   64.2500     2.1550    78.7270     7.6240     6.0920     8.4260    25.6930   -39.5030 
   64.3750     2.1190    78.7920     7.8290     6.2410     8.7350    25.5490   -39.5880 
   64.5000     2.1130    74.2400     8.0100     6.3880     8.8070    25.2820   -39.7260 
   64.6250     2.1580    68.7830     8.1000     6.4770     9.0300    25.1190   -39.8580 
   64.7500     2.2110    64.8790     8.1020     6.4900     9.5520    25.2050   -39.8050 
   64.8750     2.2230    62.2580     8.0310     6.4250     9.7650    25.2850   -39.5780 
   65.0000     2.1930    63.4010     7.9140     6.3000     9.7600    25.2090   -39.2800 
   65.1250     2.1670    68.7890     7.7740     6.1400     9.3310    25.0540   -38.7790 
   65.2500     2.1640    72.4950     7.6390     5.9860     8.7370    24.9180   -38.0900 
   65.3750     2.1690    71.5530     7.5340     5.8660     8.3050    24.8010   -37.3910 
   65.5000     2.1680    68.7320     7.4800     5.7980     8.1600    24.6710   -36.6310 
   65.6250     2.1570    67.5410     7.4890     5.7840     8.5660    24.4520   -35.7210 
   65.7500     2.1500    67.4810     7.5390     5.7950     9.0200    24.1650   -34.8300 
   65.8750     2.1570    67.7570     7.6120     5.8110     9.1470    24.0420   -33.9570 
   66.0000     2.1760    69.6930     7.7000     5.8260     8.9960    24.0440   -32.9990 
   66.1250     2.1910    71.8270     7.8030     5.8490     9.0330    24.0750   -32.0880 
   66.2500     2.1910    72.3720     7.9180     5.8850     9.0750    24.2280   -31.2990 
   66.3750     2.1730    71.0910     8.0350     5.9310     9.1710    24.6450   -30.5470 
   66.5000     2.1430    68.8670     8.1360     5.9720     9.1890    25.1650   -29.9900 
   66.6250     2.1150    69.2390     8.1850     5.9840     9.1680    25.5900   -29.8140 
   66.7500     2.0990    72.1940     8.1570     5.9560     8.9310    25.8070   -29.8120 
   66.8750     2.1000    75.1990     8.0390     5.8850     8.6250    25.8710   -29.8430 
   67.0000     2.1120    74.5360     7.8520     5.7830     8.3450    25.7670   -29.8980 
   67.1250     2.1350    69.8590     7.6720     5.6910     8.2960    25.5810   -29.9360 
   67.2500     2.1600    66.7510     7.5870     5.6540     8.2340    25.5080   -29.9280 
   67.3750     2.1810    67.6400     7.6360     5.6920     8.3070    25.5390   -30.0440 
   67.5000     2.1930    70.9820     7.7940     5.7960     8.7290    25.6740   -30.2700 
   67.6250     2.1940    71.8320     7.9660     5.9090     9.9480    25.9730   -30.3990 
   67.7500     2.1870    70.6480     8.0370     5.9540    10.4160    26.1560   -30.4130 
   67.8750     2.1750    71.2810     7.9640     5.8930     9.8140    25.9370   -30.4040 
   68.0000     2.1650    74.0360     7.7780     5.7420     8.4530    25.2970   -30.3790 
   68.1250     2.1660    75.9070     7.5860     5.5770     7.6450    24.6040   -30.4050 
   68.2500     2.1750    75.3260     7.5010     5.4820     7.7160    24.1560   -30.7060 
   68.3750     2.1840    73.2480     7.5860     5.5010     8.3430    24.0480   -31.0890 
   68.5000     2.1860    69.6650     7.8430     5.6390     9.1130    24.3020   -31.3920 
   68.6250     2.1750    65.4460     8.2020     5.8670     9.8000    25.0240   -31.6040 
   68.7500     2.1560    62.0310     8.5220     6.0960    10.3100    25.7250   -31.6550 
   68.8750     2.1380    58.5380     8.7130     6.2580    10.6220    26.1250   -31.5220 
   69.0000     2.1280    55.4830     8.7400     6.3100    10.5330    26.2290   -31.3620 
   69.1250     2.1260    54.0650     8.6110     6.2370     9.7600    26.1150   -31.2650 
   69.2500     2.1230    55.0060     8.4130     6.0990     8.8870    25.7660   -30.9680 
   69.3750     2.1190    58.3750     8.1960     5.9400     8.4280    25.2480   -30.4640 
   69.5000     2.1190    62.9960     8.0020     5.7940     8.2080    24.7350   -29.7930 
   69.6250     2.1270    67.9610     7.8880     5.6900     8.1830    24.3340   -28.7920 
   69.7500     2.1350    71.6580     7.8680     5.6350     8.1310    24.2180   -27.6900 
   69.8750     2.1390    73.1970     7.9330     5.6340     8.0890    24.4170   -26.7160 
   70.0000     2.1410    71.7480     8.0420     5.6760     8.2330    24.8980   -25.8130 
   70.1250     2.1440    69.0440     8.1330     5.7380     8.4610    25.3490   -24.7970 
   70.2500     2.1510    69.5250     8.1640     5.7850     8.5740    25.4550   -23.7620 
   70.3750     2.1620    72.6070     8.1150     5.7910     8.4520    25.2560   -22.6860 
   70.5000     2.1820    76.6210     7.9870     5.7400     8.0060    24.8940   -21.3940 
   70.6250     2.2160    80.4100     7.7930     5.6390     7.1910    24.5620   -20.1070 
   70.7500     2.2490    83.9760     7.5960     5.5300     6.4230    24.4090   -19.0010 
   70.8750     2.2640    87.7010     7.4490     5.4440     5.8510    24.4830   -18.0090 
   71.0000     2.2550    89.8990     7.3830     5.3990     5.5020    24.5680   -17.1700 
   71.1250     2.2330    88.8930     7.3960     5.3920     5.5810    24.4560   -16.5930 
   71.2500     2.2200    86.9200     7.4210     5.3870     5.9540    24.2990   -16.0160 
   71.3750     2.2200    88.1370     7.3890     5.3520     6.2100    24.2380   -15.3800 
   71.5000     2.2350    91.2780     7.2580     5.2650     6.0560    24.2430   -14.8560 
   71.6250     2.2580    91.6460     7.0550     5.1390     5.8350    24.3100   -14.4830 
   71.7500     2.2790    90.2390     6.9080     5.0400     5.8970    24.4550   -14.2150 
   71.8750     2.2940    89.7630     6.9430     5.0440     5.9010    24.5890   -14.1310 
   72.0000     2.3040    91.6470     7.2450     5.2170     5.6180    24.5510   -14.2150 
   72.1250     2.3190    92.8260     7.8440     5.6010     6.0250    24.2920   -14.2340 
   72.2500     2.3460    91.0950     8.5390     6.0830     7.1580    24.0700   -14.2060 
   72.3750     2.3820    86.7510     9.0910     6.5170     8.9330    23.9530   -14.1420 
