~V
VERS. 2.00: Ver 2.00
~W
STRT.M 51.0000:
STOP.M 240.0000:
STEP.M 0.1250:
NULL. -999.2500:
UWI. F11016:
~C
DEPT.M :
GR.API :
RML.OHMM :
RI. :
RXO.OHMM :
CALI.CM :
DEN.GM/CC :
SP.MV :
~A
# ...
  208.5000    59.9500    31.1560    28.8110    27.1210    23.8090     2.2580    -7.1640 
  208.6250    61.0820    33.9120    31.3390    31.3820    23.9210     2.2600    -7.3680 
  208.7500    58.8220    36.5030    33.9240    36.6230    24.0050     2.2630    -7.5710 
  208.8750    54.0730    38.1130    35.7850    40.8910    24.0480     2.2650    -7.7550 
  209.0000    49.8920    38.3250    36.3870    42.9300    24.0660     2.2660    -7.9340 
  209.1250    48.8690    37.2650    35.6960    43.0370    24.0690     2.2640    -8.1050 
  209.2500    51.2910    35.4260    34.1040    41.6430    24.0540     2.2620    -8.2590 
  209.3750    54.7630    33.5750    32.3170    37.9980    23.9960     2.2650    -8.4190 
  209.5000    55.9470    32.3700    30.9880    34.1930    23.8320     2.2740    -8.5780 
  209.6250    55.1160    32.1490    30.4760    32.1250    23.5240     2.2880    -8.7370 
  209.7500    55.5230    32.9800    30.9010    31.7360    23.2310     2.3010    -8.9050 
  209.8750    57.6470    34.7440    32.2530    33.2120    23.1890     2.3060    -9.0820 
  210.0000    58.1360    37.0180    34.2310    36.2860    23.3930     2.3010    -9.2720 
  210.1250    56.1350    39.3050    36.4140    40.0640    23.5950     2.2890    -9.4700 
  210.2500    54.3270    41.2330    38.4340    43.4690    23.5980     2.2760    -9.6610 
  210.3750    54.4730    42.5360    39.9530    45.2110    23.4740     2.2660    -9.8090 
  210.5000    55.1100    43.2720    40.9140    44.6500    23.3370     2.2580    -9.9120 
  210.6250    54.1090    43.6960    41.4810    43.8270    23.1900     2.2530    -9.9780 
  210.7500    51.6940    44.0570    41.8680    44.2440    23.1140     2.2500   -10.0160 
  210.8750    50.8800    44.5370    42.2650    45.4600    23.2400     2.2490   -10.0330 
  211.0000    53.3830    45.1480    42.7380    46.5110    23.5260     2.2500   -10.0400 
  211.1250    56.1330    45.7740    43.2220    47.0730    23.7890     2.2520   -10.0480 
  211.2500    55.7730    46.2600    43.5920    47.3950    23.9290     2.2550   -10.0450 
  211.3750    53.7000    46.4510    43.7010    47.3180    23.9620     2.2570   -10.0530 
  211.5000    52.4600    46.3360    43.5220    46.9180    23.9490     2.2560   -10.0830 
  211.6250    52.6060    46.0340    43.1450    45.7890    23.9250     2.2540   -10.1210 
  211.7500    54.2300    45.7080    42.7100    43.5900    23.8790     2.2480   -10.1660 
  211.8750    56.9210    45.5480    42.3870    41.3110    23.8030     2.2420   -10.2370 
  212.0000    58.1400    45.6580    42.2760    40.8120    23.7060     2.2380   -10.3250 
  212.1250    56.6250    46.0710    42.4110    43.1450    23.6180     2.2370   -10.4040 
  212.2500    54.1860    46.8680    42.8630    46.8050    23.5570     2.2400   -10.5040 
  212.3750    52.5900    48.4460    43.9570    49.0740    23.5300     2.2490   -10.6370 
  212.5000    52.0820    51.4450    46.2550    49.3850    23.5660     2.2640   -10.8000 
  212.6250    52.1570    56.7230    50.5480    49.1870    23.7140     2.2800   -11.0000 
  212.7500    52.0280    65.2300    57.7720    51.1160    23.9210     2.2960   -11.2260 
  212.8750    50.9520    77.9050    68.9670    59.2210    24.0320     2.3090   -11.4520 
  213.0000    49.1430    93.8580    83.5460    75.7670    24.0150     2.3170   -11.6790 
  213.1250    47.5750   110.2590    99.1030   101.7600    23.9560     2.3220   -11.9190 
  213.2500    47.6590   123.0810   112.0060   136.5800    23.9200     2.3230   -12.1700 
  213.3750    50.0540   126.9200   117.2460   159.5400    23.9130     2.3210   -12.3930 
  213.5000    52.1460   120.1330   112.9550   155.7060    23.9120     2.3170   -12.5660 
  213.6250    51.8480   105.8830   101.3540   134.8040    23.9100     2.3110   -12.7130 
  213.7500    52.1870    89.4620    86.7870   110.1870    23.9110     2.3030   -12.8370 
  213.8750    55.5720    76.0180    74.1110    86.9610    23.9170     2.2920   -12.9190 
  214.0000    58.2780    67.5800    65.7870    68.6250    23.9230     2.2810   -12.9590 
  214.1250    57.2830    64.0450    62.1450    59.6930    23.9240     2.2740   -12.9560 
  214.2500    55.3280    64.8530    62.8490    62.3270    23.9280     2.2790   -12.9040 
  214.3750    55.1010    69.1170    67.2650    76.4980    23.9500     2.3050   -12.8140 
  214.5000    54.9390    74.6550    73.3740    97.0150    23.9890     2.3500   -12.6930 
  214.6250    54.6470    78.4840    78.1560   109.9810    24.0300     2.4030   -12.5160 
  214.7500    55.6640    77.6910    78.4530   114.9420    24.0660     2.4510   -12.2690 
  214.8750    56.1980    69.7190    71.2040   110.5810    24.0770     2.4790   -11.9510 
  215.0000    55.9300    55.9400    57.4560   100.9050    24.0140     2.4860   -11.5720 
  215.1250    58.6720    40.6690    41.7630    91.9390    23.9100     2.4810   -11.1500 
  215.2500    65.7650    27.7000    28.3880    71.3390    23.8520     2.4730   -10.7020 
  215.3750    72.9760    19.0540    19.5390    40.5530    23.8670     2.4700   -10.2730 
  215.5000    76.5970    14.1520    14.5190    19.0890    23.8990     2.4720    -9.8770 
  215.6250    77.1480    11.6290    11.8410    11.0230    23.9210     2.4760    -9.5080 
  215.7500    76.6160    10.5130    10.5320     8.8710    23.9370     2.4770    -9.1930 
  215.8750    74.7620    10.0680     9.9110     8.2680    23.9040     2.4740    -8.9490 
  216.0000    70.6270     9.7500     9.4710     7.8830    23.7830     2.4680    -8.7860 
  216.1250    64.9750     9.3040     8.9540     7.3720    23.6030     2.4600    -8.7340 
  216.2500    60.3600     8.7540     8.3640     6.6350    23.4240     2.4490    -8.8040 
  216.3750    58.2460     8.3140     7.8900     5.8100    23.3250     2.4370    -8.9620 
  216.5000    56.7840     8.1690     7.6980     5.5630    23.3310     2.4240    -9.1760 
  216.6250    54.7680     8.3480     7.8170     6.1200    23.3970     2.4110    -9.4140 
  216.7500    53.4750     8.7530     8.1570     7.1860    23.4840     2.4020    -9.6400 
  216.8750    54.5850     9.1920     8.5380     8.2460    23.5970     2.4000    -9.8370 
  217.0000    59.0640     9.4880     8.7730     8.5110    23.7490     2.4020    -9.9890 
  217.1250    66.9100     9.5600     8.7680     8.2570    23.8980     2.4040   -10.0560 
  217.2500    76.2600     9.4320     8.5460     8.0790    23.9400     2.4020   -10.0380 
  217.3750    84.2140     9.2280     8.2390     8.0270    23.8850     2.3960    -9.9720 
  217.5000    88.8190     9.1380     8.0270     7.9960    23.8100     2.3860    -9.8990 
  217.6250    89.6730     9.3800     8.0810     8.0240    23.7710     2.3760    -9.8420 
  217.7500    88.1210    10.1880     8.5630     8.4340    23.7800     2.3700    -9.8260 
  217.8750    86.3860    11.7310     9.7120     9.7610    23.8230     2.3740    -9.8620 
  218.0000    85.1220    14.0480    11.6320    12.4340    23.8570     2.3910    -9.9030 
  218.1250    83.8290    16.9060    14.2420    16.9390    23.8440     2.4170    -9.9060 
  218.2500    81.5550    19.6080    17.2450    23.1980    23.8080     2.4460    -9.8580 
  218.3750    76.3820    21.8680    19.9400    29.0560    23.7900     2.4670    -9.7220 
  218.5000    68.6970    22.9480    21.5160    32.7320    23.7780     2.4770    -9.4900 
  218.6250    62.2540    22.2600    21.4660    33.8480    23.7520     2.4750    -9.2140 
  218.7500    60.0870    20.0870    19.8450    31.8970    23.7240     2.4650    -8.9080 
  218.8750    61.7830    17.1880    17.2780    27.0070    23.7100     2.4510    -8.5710 
  219.0000    65.5230    14.3790    14.5870    21.4170    23.7080     2.4370    -8.2570 
  219.1250    70.5570    12.0830    12.2620    16.3570    23.7040     2.4230    -7.9820 
  219.2500    75.2470    10.3670    10.4230    13.2220    23.6950     2.4100    -7.7110 
  219.3750    77.1890     9.1680     9.0560    11.2850    23.6960     2.3970    -7.4360 
  219.5000    76.1020     8.3140     8.0340     9.9180    23.7110     2.3840    -7.1480 
  219.6250    73.3880     7.6540     7.2380     8.8300    23.7140     2.3720    -6.8160 
