~V
VERS. 2.00: Ver 2.00
~W
STRT.M 47.0000:
STOP.M 272.0000:
STEP.M 0.1250:
NULL. -999.2500:
UWI. F11040:
~C
DEPT.M :
DEN.GM/CC :
GR.API :
RML.OHMM :
RI. :
RXO.OHMM :
CALI.CM :
SP.MV :
~A
# ...
   92.0000     2.1580    54.2280     9.0260     7.2190     8.9840    22.0850   -16.1600 
   92.1250     2.1470    56.1120     9.1240     7.3090     9.1790    22.0770   -16.0780 
   92.2500     2.1360    59.3190     9.1850     7.3760     9.4130    22.0710   -15.9810 
   92.3750     2.1260    59.2800     9.1980     7.4040     9.8720    22.0480   -15.8650 
   92.5000     2.1180    55.0390     9.1630     7.3900    10.4000    22.0050   -15.7590 
   92.6250     2.1120    52.1720     9.0910     7.3360    10.5000    21.9610   -15.6680 
   92.7500     2.1090    53.6250     9.0120     7.2700     9.6420    21.9320   -15.6020 
   92.8750     2.1080    56.9350     8.9410     7.2090     8.9460    21.9190   -15.5260 
   93.0000     2.1100    58.7020     8.8860     7.1640     8.7040    21.9260   -15.4080 
   93.1250     2.1140    57.5110     8.8550     7.1480     8.7110    21.9580   -15.2390 
   93.2500     2.1190    55.5950     8.8460     7.1610     8.6210    21.9980   -15.0610 
   93.3750     2.1240    52.9410     8.8600     7.2020     8.5730    22.0230   -14.9010 
   93.5000     2.1290    50.3790     8.8990     7.2700     8.5920    22.0320   -14.7260 
   93.6250     2.1340    49.6430     8.9620     7.3600     8.8120    22.0340   -14.5330 
   93.7500     2.1390    51.4090     9.0320     7.4550     8.9950    22.0410   -14.3030 
   93.8750     2.1470    55.4310     9.0780     7.5330     9.2260    22.0590   -14.0280 
   94.0000     2.1630    58.6820     9.0630     7.5650     9.5540    22.0960   -13.6850 
   94.1250     2.1890    58.7950     8.9370     7.5090     9.8250    22.1710   -13.2930 
   94.2500     2.2220    58.3210     8.7150     7.3690    10.0230    22.2730   -12.8680 
   94.3750     2.2520    58.8570     8.4290     7.1620     9.9480    22.4080   -12.4290 
   94.5000     2.2720    61.2410     8.1340     6.9260     9.4220    22.5940   -12.0150 
   94.6250     2.2790    64.3730     7.8900     6.7080     8.6790    22.8730   -11.6280 
   94.7500     2.2800    68.5340     7.7120     6.5320     8.1640    23.1950   -11.2840 
   94.8750     2.2820    73.6710     7.5930     6.4000     8.0610    23.4720   -10.9940 
   95.0000     2.2870    76.2090     7.5130     6.3040     8.0130    23.6570   -10.7910 
   95.1250     2.2970    75.4170     7.4700     6.2420     7.9120    23.7270   -10.7130 
   95.2500     2.3070    73.6200     7.4670     6.2130     7.5080    23.7420   -10.7430 
   95.3750     2.3190    72.2860     7.5110     6.2220     7.3720    23.7320   -10.8910 
   95.5000     2.3380    71.8500     7.5950     6.2680     7.4270    23.7060   -11.1350 
   95.6250     2.3670    72.0520     7.6870     6.3330     7.6280    23.6450   -11.3990 
   95.7500     2.3950    72.6280     7.7800     6.4050     8.0820    23.5210   -11.7130 
   95.8750     2.4100    72.8350     7.9300     6.5130     8.8820    23.3240   -12.0630 
   96.0000     2.4050    73.1590     8.2530     6.7350     9.7600    23.0920   -12.4610 
   96.1250     2.3850    72.9160     8.9330     7.2070     8.9900    22.8630   -12.9430 
   96.2500     2.3640    69.3010     9.9300     7.9320     8.4890    22.6410   -13.4760 
   96.3750     2.3470    63.1620    11.0800     8.8240     9.5640    22.4700   -13.9860 
   96.5000     2.3270    58.3280    12.0860     9.6870    11.8690    22.4200   -14.4410 
   96.6250     2.2950    57.3560    12.5130    10.1920    15.5760    22.4120   -14.8540 
   96.7500     2.2540    58.1200    12.2730    10.1950    17.9460    22.1890   -15.2090 
   96.8750     2.2160    57.8620    11.4940     9.7290    14.1310    21.7290   -15.5310 
   97.0000     2.1940    55.1340    10.5110     9.0130     9.7330    21.2460   -15.8110 
   97.1250     2.1930    53.1460     9.7330     8.3570     8.4470    21.0590   -15.9900 
   97.2500     2.2020    53.8080     9.3040     7.9210     8.0710    21.0470   -16.0870 
   97.3750     2.2150    55.1540     9.1820     7.7160     7.9280    21.1240   -16.1150 
   97.5000     2.2280    55.6530     9.2510     7.6810     7.7840    21.2470   -16.0880 
   97.6250     2.2440    55.7690     9.3870     7.7450     7.6450    21.4030   -16.0230 
   97.7500     2.2630    56.8600     9.5070     7.8310     7.6260    21.5580   -15.9640 
   97.8750     2.2810    58.6060     9.5940     7.9170     7.7270    21.6740   -15.8960 
   98.0000     2.2880    60.8070     9.6530     7.9930     7.8120    21.7330   -15.8280 
   98.1250     2.2770    62.5250     9.6840     8.0480     7.7720    21.7380   -15.7960 
   98.2500     2.2550    62.6200     9.6950     8.0790     7.7660    21.7350   -15.7950 
   98.3750     2.2280    61.1760     9.6870     8.0820     7.7910    21.7470   -15.8490 
   98.5000     2.2070    58.6170     9.6650     8.0610     7.8600    21.7560   -15.9220 
   98.6250     2.1940    57.0450     9.6340     8.0230     7.9580    21.7510   -16.0440 
   98.7500     2.1880    56.9580     9.6010     7.9810     8.0830    21.7330   -16.1700 
   98.8750     2.1860    55.9680     9.5670     7.9410     8.2780    21.6950   -16.3000 
   99.0000     2.1870    53.8220     9.5270     7.9010     8.4510    21.6310   -16.4550 
   99.1250     2.1900    52.3020     9.4750     7.8580     8.5350    21.5600   -16.5820 
   99.2500     2.1940    51.8140     9.4140     7.8100     8.5440    21.5230   -16.7000 
   99.3750     2.1970    51.3230     9.3500     7.7590     8.4960    21.5150   -16.7730 
   99.5000     2.1990    51.9300     9.2910     7.7100     8.4500    21.5050   -16.8420 
   99.6250     2.2000    53.4950     9.2470     7.6700     8.3850    21.4640   -16.8580 
   99.7500     2.1990    54.7150     9.2180     7.6400     8.2360    21.4170   -16.8490 
   99.8750     2.1970    55.2420     9.2030     7.6210     8.1840    21.4030   -16.8500 
  100.0000     2.1940    54.2220     9.1970     7.6100     8.2150    21.4180   -16.8200 
  100.1250     2.1940    50.6540     9.2040     7.6070     8.1960    21.4250   -16.8040 
  100.2500     2.1980    49.8260     9.2240     7.6130     8.1230    21.4170   -16.7270 
  100.3750     2.2020    54.0330     9.2590     7.6290     8.0510    21.3930   -16.6310 
  100.5000     2.2040    60.7410     9.3010     7.6550     8.0280    21.3530   -16.5290 
  100.6250     2.2030    64.0430     9.3390     7.6850     8.0110    21.3250   -16.5010 
  100.7500     2.2020    62.8670     9.3610     7.7110     7.9820    21.3350   -16.5240 
  100.8750     2.2020    57.4110     9.3610     7.7270     7.9540    21.3780   -16.5570 
  101.0000     2.2010    50.4610     9.3430     7.7300     7.9310    21.4000   -16.6170 
  101.1250     2.1970    49.0460     9.3110     7.7210     7.8790    21.3490   -16.6600 
  101.2500     2.1890    52.7830     9.2750     7.7070     7.8050    21.2690   -16.7500 
  101.3750     2.1820    56.4840     9.2370     7.6920     7.6290    21.2120   -16.8300 
  101.5000     2.1800    56.7920     9.1990     7.6780     7.3850    21.1680   -16.8880 
  101.6250     2.1830    54.0910     9.1580     7.6640     7.1720    21.1370   -16.9160 
  101.7500     2.1870    51.2020     9.1050     7.6430     7.1970    21.1090   -16.9230 
  101.8750     2.1860    50.3170     9.0350     7.6050     7.2780    21.0900   -16.9430 
  102.0000     2.1790    53.5020     8.9460     7.5420     7.3620    21.0690   -16.9700 
  102.1250     2.1680    58.0280     8.8450     7.4560     7.3830    21.0360   -16.9900 
  102.2500     2.1590    59.0150     8.7570     7.3670     7.3350    21.0100   -16.9890 
  102.3750     2.1550    57.6370     8.7030     7.2950     7.2310    21.0010   -17.0520 
  102.5000     2.1550    57.2530     8.6920     7.2560     7.1170    21.0140   -17.1920 
  102.6250     2.1590    59.1930     8.7180     7.2530     7.0760    21.0410   -17.3400 
  102.7500     2.1650    60.5900     8.7480     7.2640     7.1310    21.0630   -17.4650 
  102.8750     2.1730    61.6100     8.7550     7.2700     7.3510    21.0870   -17.5110 
  103.0000     2.1820    62.0350     8.7300     7.2580     7.4510    21.1020   -17.4990 
  103.1250     2.1910    59.8390     8.6790     7.2260     7.3650    21.1060   -17.4480 
