~V
VERS. 2.00: Ver 2.00
~W
STRT.M 7.0000:
STOP.M 259.0000:
STEP.M 0.1250:
NULL. -999.2500:
UWI. F11018:
~C
DEPT.M :
DEN.GM/CC :
SP.MV :
GR.API :
RML.OHMM :
RI. :
RXO.OHMM :
CALI.CM :
~A
# ...
  175.7500     2.2870   -23.7760    70.4510   120.7010   110.5670    56.9000    23.2100 
  175.8750     2.2860   -23.8880    71.1080   128.3890   115.2220    56.4630    23.1950 
  176.0000     2.2790   -24.0160    71.5950   141.3030   127.6810    58.4840    23.1830 
  176.1250     2.2640   -24.1200    67.9450   154.1310   146.2860    64.3380    23.1690 
  176.2500     2.2460   -24.1180    62.5950   178.9540   169.0980    67.8040    23.1840 
  176.3750     2.2350   -24.0950    60.8280   204.7130   192.8230    58.8970    23.3310 
  176.5000     2.2330   -24.0700    62.9920   226.4090   212.8190    61.1590    23.7290 
  176.6250     2.2290   -23.9570    63.3410   241.5380   226.8640    84.1220    24.2540 
  176.7500     2.2190   -23.7660    60.8680   248.6710   233.8160   136.8720    24.7130 
  176.8750     2.2060   -23.5750    58.4760   246.1720   232.5510   198.1350    24.9560 
  177.0000     2.1940   -23.3290    59.4370   230.8120   220.2290   257.7200    25.0540 
  177.1250     2.1830   -23.0250    61.5610   207.1090   199.5770   277.4880    25.1030 
  177.2500     2.1810   -22.7120    61.1290   181.5260   175.2390   217.4500    25.1220 
  177.3750     2.1930   -22.4080    59.4780   160.4500   153.2460   146.9430    25.0930 
  177.5000     2.2170   -22.0600    58.1400   148.8250   139.4320   123.5810    25.0400 
  177.6250     2.2380   -21.6940    56.9350   145.6800   133.9450   124.9880    24.9510 
  177.7500     2.2480   -21.3690    56.0390   149.9170   135.9820   137.9080    24.7940 
  177.8750     2.2480   -21.0530    56.7520   159.6060   143.7370   161.3080    24.6320 
  178.0000     2.2440   -20.7390    58.0320   171.3270   154.2400   199.5660    24.5530 
  178.1250     2.2420   -20.4600    57.9780   179.5360   162.4690   226.9080    24.4570 
  178.2500     2.2420   -20.2220    57.6380   180.0700   164.5360   231.6000    24.3810 
  178.3750     2.2440   -20.0140    57.4380   172.0030   158.8640   217.7580    24.4160 
  178.5000     2.2480   -19.8530    56.9580   158.3030   146.8630   193.9660    24.6000 
  178.6250     2.2530   -19.7140    56.9690   144.9090   133.8730   164.7990    24.8860 
  178.7500     2.2580   -19.5890    57.6420   134.6380   123.0770   133.0150    25.1450 
  178.8750     2.2620   -19.5000    57.9440   128.3040   115.9560   110.8110    25.2310 
  179.0000     2.2630   -19.4210    60.0490   125.4830   112.7540   111.9320    25.1810 
  179.1250     2.2620   -19.3720    63.5460   123.6290   111.2770   131.7650    25.1280 
  179.2500     2.2600   -19.3770    65.8540   120.5820   109.6130   163.0700    25.1100 
  179.3750     2.2580   -19.3530    65.1160   114.5490   105.9860   200.6780    25.1460 
  179.5000     2.2570   -19.3080    65.2760   104.2650    98.7140   203.9150    25.1480 
  179.6250     2.2590   -19.3400    67.4010    91.5290    88.6300   158.4770    25.1030 
  179.7500     2.2640   -19.3900    68.6910    78.5480    77.3420   118.6110    25.0200 
  179.8750     2.2710   -19.4070    67.6690    67.4410    66.8740    94.1930    24.9650 
  180.0000     2.2830   -19.4860    65.4150    59.9050    59.1860    72.3900    24.9330 
  180.1250     2.2950   -19.5710    63.1930    55.2360    54.1860    53.8630    24.9700 
  180.2500     2.3020   -19.5880    60.4530    52.3290    51.1220    46.8640    25.0710 
  180.3750     2.2980   -19.6010    58.3810    49.5490    48.5280    51.3160    25.2000 
  180.5000     2.2920   -19.6540    59.2980    44.8580    44.3180    62.5040    25.2530 
  180.6250     2.2950   -19.6740    61.8720    38.1340    38.1030    61.3370    25.2560 
  180.7500     2.3090   -19.6520    64.8570    30.6700    31.0370    45.5800    25.2910 
  180.8750     2.3290   -19.6240    68.2350    26.5990    24.7580    29.5500    25.4110 
  181.0000     2.3450   -19.5540    71.1900    22.0120    20.5540    21.7180    25.5740 
  181.1250     2.3550   -19.4650    73.2850    19.5010    18.1120    16.9400    25.6300 
  181.2500     2.3610   -19.3670    75.1130    18.4270    16.9770    18.1240    25.6500 
  181.3750     2.3630   -19.2570    76.3510    18.1140    16.6310    20.5870    25.6910 
  181.5000     2.3580   -19.1470    74.4520    18.0820    16.6740    20.5630    25.7490 
  181.6250     2.3510   -19.0130    71.4880    18.0910    16.8320    20.4650    25.7390 
  181.7500     2.3460   -18.8960    71.7050    18.1470    17.0710    21.7570    25.6710 
  181.8750     2.3410   -18.7990    75.1750    18.2530    17.3820    21.5920    25.5560 
  182.0000     2.3360   -18.6820    76.6730    18.2360    17.6230    27.0060    25.3610 
  182.1250     2.3370   -18.5540    75.5230    17.8450    17.5300    31.7450    25.1880 
  182.2500     2.3490   -18.4710    74.1640    16.9760    16.9260    27.5040    25.1000 
  182.3750     2.3740   -18.4500    75.7230    15.8090    15.8950    18.1930    25.0610 
  182.5000     2.4010   -18.4260    82.2930    14.8010    14.7980    13.6290    25.0350 
  182.6250     2.4150   -18.4400    87.8740    14.2920    14.0240    13.0560    25.0690 
  182.7500     2.4110   -18.5180    87.1410    14.3590    13.7360    15.0980    25.1130 
  182.8750     2.3960   -18.6500    81.6720    14.8530    13.9000    19.0070    25.1350 
  183.0000     2.3910   -18.8120    79.0150    15.4470    14.3030    18.9720    25.1100 
  183.1250     2.3960   -19.0580    80.9830    15.8320    14.6080    16.5400    25.0610 
  183.2500     2.4020   -19.3560    84.3930    15.9420    14.6710    16.5570    25.0270 
  183.3750     2.4010   -19.6320    85.0250    15.9350    14.5420    16.4000    25.0070 
  183.5000     2.3930   -19.9090    82.6800    16.2460    14.5010    15.4560    24.9800 
  183.6250     2.3800   -20.2350    82.1350    17.2620    14.8810    15.9190    24.9700 
  183.7500     2.3600   -20.5710    83.2820    19.3190    15.9680    19.0250    24.9810 
  183.8750     2.3370   -20.8640    82.9810    22.7430    18.0550    22.7390    24.9780 
  184.0000     2.3200   -21.1840    79.6880    28.2600    21.8250    26.4170    24.8960 
  184.1250     2.3090   -21.5160    77.7950    34.1860    27.5150    35.6680    24.7540 
  184.2500     2.2990   -21.8350    76.6470    41.8490    35.2790    53.1270    24.5440 
  184.3750     2.2900   -22.1630    73.7710    52.7420    44.6880    66.7540    24.2580 
  184.5000     2.2860   -22.4800    70.4410    64.1240    54.4030    67.8320    24.0320 
  184.6250     2.2860   -22.7600    68.3680    74.0200    62.6490    70.6000    24.0450 
  184.7500     2.2860   -23.0230    66.5950    81.4120    68.5800    80.9280    24.3100 
  184.8750     2.2830   -23.3090    63.1880    86.6800    72.5010    92.4140    24.6650 
  185.0000     2.2760   -23.5560    60.1330    90.9820    75.3650    99.1690    24.8820 
  185.1250     2.2700   -23.7330    60.7660    95.1250    78.0550    99.0740    24.8330 
  185.2500     2.2660   -23.8910    62.4480    98.8070    80.5390    93.2390    24.5760 
  185.3750     2.2660   -24.0040    60.9810   101.4370    82.4590    86.5180    24.2750 
  185.5000     2.2660   -24.0650    58.8050   102.4190    83.3510    82.0780    24.0780 
  185.6250     2.2640   -24.1040    61.7790   102.2310    83.4240    80.1720    23.9740 
  185.7500     2.2580   -24.1120    67.0280   101.5080    83.0820    76.0700    23.9310 
  185.8750     2.2540   -24.0520    68.6290   100.9700    82.8640    69.1260    23.9200 
  186.0000     2.2520   -23.9840    67.3400   101.2770    83.3450    65.7150    23.9290 
  186.1250     2.2520   -23.9170    67.4640   102.3510    84.5220    66.0200    23.9430 
  186.2500     2.2520   -23.7900    67.2480   103.8080    86.1040    69.8720    23.9550 
  186.3750     2.2530   -23.6970    64.4740   105.0770    87.6130    74.0610    24.0020 
  186.5000     2.2530   -23.6750    60.8300   105.6040    88.4900    76.8300    24.1040 
  186.6250     2.2540   -23.6350    58.0860   105.6960    88.8020    76.3960    24.2340 
  186.7500     2.2550   -23.5860    56.8010   106.2370    89.1220    72.2270    24.3770 
  186.8750     2.2570   -23.5980    56.9670   108.4050    90.3960    72.0030    24.5830 
