~V
VERS. 2.00: Ver 2.00
~W
STRT.M 47.0000:
STOP.M 270.0000:
STEP.M 0.1250:
NULL. -999.2500:
UWI. F11075:
~C
DEPT.M :
GR.API :
RML.OHMM :
RI. :
RXO.OHMM :
CALI.CM :
DEN.GM/CC :
SP.MV :
~A
# ...
   80.7500    69.5800    19.5360    15.7400    25.2690    24.6950     2.4270   -17.6730 
   80.8750    70.9260    16.7310    13.7960    17.0510    24.6230     2.4190   -17.9230 
   81.0000    72.6920    13.8530    11.6090    11.4540    24.5650     2.3660   -18.1600 
   81.1250    75.9110    11.6640     9.8070     9.6680    24.5420     2.2910   -18.3630 
   81.2500    79.8300    10.4060     8.6150     9.4400    24.5340     2.2200   -18.5300 
   81.3750    81.1690    10.0580     8.0990     9.5240    24.5310     2.1760   -18.6930 
   81.5000    79.7250    10.1860     7.9910     9.5160    24.5310     2.1520   -18.8560 
   81.6250    77.3690    10.5110     8.1100     9.4980    24.5350     2.1400   -18.9810 
   81.7500    75.2460    10.8120     8.3010     9.5140    24.5450     2.1330   -19.0580 
   81.8750    74.9880    10.9520     8.4620     9.4660    24.5500     2.1310   -19.1040 
   82.0000    76.0820    10.9640     8.5680     9.4060    24.5510     2.1310   -19.1170 
   82.1250    75.5800    10.9010     8.6050     9.3870    24.5500     2.1320   -19.1080 
   82.2500    73.0150    10.8180     8.5710     9.4230    24.5410     2.1340   -19.0950 
   82.3750    72.2370    10.7600     8.4650     9.3530    24.5310     2.1350   -19.0700 
   82.5000    75.3130    10.7520     8.3260     9.3210    24.5310     2.1360   -19.0290 
   82.6250    78.7210    10.8040     8.2040     9.3370    24.5600     2.1390   -19.0000 
   82.7500    77.7970    10.9070     8.1370     9.3940    24.6100     2.1440   -18.9930 
   82.8750    71.7000    11.0240     8.1530     9.4050    24.6690     2.1500   -18.9880 
   83.0000    66.7880    11.0970     8.2190     9.4410    24.7010     2.1550   -18.9900 
   83.1250    67.2510    11.0930     8.2970     9.6090    24.7060     2.1600   -19.0410 
   83.2500    69.6110    11.0110     8.3600     9.7340    24.6890     2.1620   -19.1110 
   83.3750    68.7020    10.8650     8.3810     9.7850    24.6410     2.1590   -19.1750 
   83.5000    66.6060    10.6890     8.3700     9.6980    24.6090     2.1510   -19.2650 
   83.6250    64.9490    10.4930     8.3420     9.7200    24.5970     2.1400   -19.3710 
   83.7500    62.9540    10.2790     8.2990     9.7890    24.5940     2.1280   -19.4630 
   83.8750    61.1000    10.0580     8.2350     9.7880    24.5920     2.1200   -19.5340 
   84.0000    61.9600     9.8590     8.1450     9.7570    24.5870     2.1160   -19.6130 
   84.1250    65.1210     9.7090     8.0360     9.7010    24.5810     2.1150   -19.6700 
   84.2500    68.7320     9.6280     7.9410     9.5260    24.5720     2.1130   -19.6910 
   84.3750    73.0480     9.6360     7.8980     9.2730    24.5260     2.1090   -19.6870 
   84.5000    75.6540     9.7160     7.9150     9.1970    24.4260     2.1070   -19.6870 
   84.6250    73.6930     9.8530     7.9770     9.3610    24.3210     2.1080   -19.6930 
   84.7500    68.8380    10.0260     8.0490     9.6000    24.2680     2.1130   -19.6980 
   84.8750    67.3590    10.2050     8.0970     9.8500    24.2600     2.1200   -19.7040 
   85.0000    68.7710    10.3610     8.1030    10.0080    24.2560     2.1260   -19.7130 
   85.1250    70.2620    10.4810     8.0690    10.0940    24.2600     2.1300   -19.7340 
   85.2500    70.4860    10.5520     8.0140    10.1700    24.2800     2.1330   -19.7720 
   85.3750    71.1530    10.5580     7.9620    10.2390    24.3280     2.1340   -19.8400 
   85.5000    72.7990    10.5050     7.9370    10.0450    24.3510     2.1350   -19.8930 
   85.6250    74.8940    10.4030     7.9460     9.6440    24.3570     2.1390   -19.9300 
   85.7500    76.0300    10.2710     7.9730     9.2060    24.3570     2.1460   -19.9560 
   85.8750    74.4240    10.1310     7.9900     9.0900    24.3600     2.1530   -20.0000 
   86.0000    71.1280    10.0010     7.9750     9.1240    24.3590     2.1580   -20.0400 
   86.1250    68.4200     9.8850     7.9380     9.2300    24.3480     2.1580   -20.0590 
   86.2500    67.2740     9.7950     7.9040     9.3650    24.3230     2.1550   -20.0740 
   86.3750    67.3530     9.7480     7.9050     9.4080    24.3080     2.1520   -20.0810 
   86.5000    67.1050     9.7420     7.9460     9.3830    24.3020     2.1500   -20.0920 
   86.6250    66.5700     9.7590     8.0010     9.3330    24.3050     2.1460   -20.0810 
   86.7500    66.0660     9.7650     8.0220     9.4180    24.3120     2.1380   -20.0450 
   86.8750    64.8880     9.7000     7.9670     9.5110    24.3160     2.1290   -19.9740 
   87.0000    63.6840     9.5450     7.8400     9.5270    24.3180     2.1220   -19.8880 
   87.1250    64.2120     9.3270     7.6540     9.4120    24.3180     2.1210   -19.7910 
   87.2500    67.2410     9.1490     7.4610     9.2960    24.3170     2.1230   -19.6570 
   87.3750    70.8760     9.2450     7.4040     9.3200    24.3090     2.1240   -19.4720 
   87.5000    71.5960     9.7650     7.6140     9.4970    24.3110     2.1260   -19.2510 
   87.6250    69.7070    10.7560     8.1720     9.8090    24.3580     2.1400   -19.0240 
   87.7500    67.0990    12.0570     9.0610    10.3710    24.4380     2.1820   -18.8080 
   87.8750    64.3860    13.1580    10.0710    12.9980    24.5000     2.2550   -18.5960 
   88.0000    61.3940    13.5390    10.7380    17.5790    24.5410     2.3280   -18.4020 
   88.1250    60.3420    13.0140    10.7350    18.3800    24.5560     2.3670   -18.2410 
   88.2500    63.1240    11.8350    10.1050    13.5340    24.5580     2.3530   -18.1130 
   88.3750    67.7310    10.5700     9.2070    11.0560    24.5520     2.2900   -18.0340 
   88.5000    71.4510     9.6890     8.4590    10.5190    24.5340     2.2200   -17.9920 
   88.6250    72.7370     9.3170     8.0260    10.4970    24.4990     2.1690   -17.9610 
   88.7500    70.3660     9.3910     7.9260    10.5440    24.4760     2.1450   -17.9300 
   88.8750    65.6810     9.7530     8.0790    10.5860    24.4440     2.1410   -17.9080 
   89.0000    65.0000    10.1230     8.2610    10.6150    24.4050     2.1430   -17.8760 
   89.1250    70.1080    10.3230     8.3290    10.7130    24.4190     2.1450   -17.8150 
   89.2500    75.8970    10.2730     8.2230    10.8830    24.4630     2.1480   -17.7550 
   89.3750    77.6760     9.9810     7.9500    10.6140    24.4910     2.1590   -17.7040 
   89.5000    78.3160     9.6240     7.6320     9.6450    24.4930     2.1790   -17.6490 
   89.6250    80.8630     9.3530     7.3800     8.7030    24.4940     2.2070   -17.6330 
   89.7500    82.8060     9.2970     7.2910     8.4110    24.4950     2.2360   -17.7040 
   89.8750    79.4710     9.5890     7.4830     9.1800    24.5000     2.2530   -17.8710 
   90.0000    73.0870    10.1800     7.9450    10.5900    24.5020     2.2550   -18.0670 
   90.1250    67.5770    10.9780     8.6250    12.0600    24.5020     2.2490   -18.3070 
   90.2500    64.2770    11.8010     9.3830    12.7140    24.4990     2.2460   -18.5980 
   90.3750    61.1260    12.3420     9.9720    12.1380    24.5170     2.2480   -18.8950 
   90.5000    58.8730    12.4420    10.2310    11.1790    24.6580     2.2450   -19.1740 
   90.6250    58.9740    12.0820    10.1350    10.8240    24.9900     2.2290   -19.4080 
   90.7500    61.7620    11.3910     9.7770    10.9870    25.3180     2.1980   -19.5580 
   90.8750    65.9180    10.5810     9.2960    11.3690    25.3070     2.1620   -19.5900 
   91.0000    68.5200     9.8620     8.8480    11.3240    25.1180     2.1390   -19.5510 
   91.1250    67.6020     9.3240     8.5080    10.9150    24.9790     2.1330   -19.4250 
   91.2500    63.7600     9.0060     8.3110    10.5880    24.9620     2.1410   -19.2070 
   91.3750    59.8860     8.9750     8.3130    10.6510    25.0290     2.1520   -18.8980 
   91.5000    58.2530     9.2310     8.5180    11.0910    25.0510     2.1560   -18.5080 
   91.6250    59.2320     9.7740     8.9520    12.0030    24.9860     2.1530   -18.0310 
   91.7500    63.0240    10.5020     9.5710    12.5020    24.9590     2.1570   -17.4800 
   91.8750    67.2640    11.1000    10.1660    12.8100    24.9950     2.1890   -16.8300 
