~V
VERS. 2.00: Ver 2.00
~W
STRT.M 55.0000:
STOP.M 280.0000:
STEP.M 0.1250:
NULL. -999.2500:
UWI. F11032:
~C
DEPT.M :
DEN.GM/CC :
GR.API :
RML.OHMM :
RI. :
RXO.OHMM :
CALI.CM :
SP.MV :
~A
   55.0000  -999.2500    64.1890     1.0910     0.2210     1.0660    22.3460    58.9940 
   55.1250     2.4590    58.4150     1.1750     0.1750     1.0770    22.3460    59.6230 
   55.2500     2.4590    52.8630     1.2120     0.1390     1.1100    22.3460    60.1640 
   55.3750     2.4630    50.2030     1.1960     0.1040     1.1680    22.3460    60.6220 
   55.5000     2.4710    47.6450     1.1250     0.0630     1.2230    22.3460    61.0410 
   55.6250     2.4780    44.2570     1.0380     0.0320     1.2730    22.3460    61.4350 
   55.7500     2.4820    44.6200     0.9990     0.0240     1.3200    22.3480    61.7990 
   55.8750     2.4790    48.1780     1.0100     0.0380     1.3530    22.3630    62.1120 
   56.0000     2.4700    50.6070     1.0480     0.0630     1.3450    22.4570    62.3620 
   56.1250     2.4590    48.7890     1.0740     0.0790     1.2600    22.6840    62.5270 
   56.2500     2.4500    46.1950     1.0530     0.0780     1.1510    23.0510    62.5640 
   56.3750     2.4450    44.4290     0.9630     0.0620     1.0500    23.3560    62.4780 
   56.5000     2.4440    42.4620     0.8180     0.0510     0.9940    23.4440    62.3210 
   56.6250     2.4420    41.3980     0.6500     0.0700     0.9830    23.4480    62.1540 
   56.7500     2.4380    42.1760     0.4850     0.1170     0.9840    23.4160    62.0170 
   56.8750     2.4270    44.6030     0.3540     0.1730     0.9860    23.3830    61.8980 
   57.0000     2.4060    47.3940     0.3120     0.2100     0.9900    23.3810    61.7550 
   57.1250     2.3680    46.3750     0.3730     0.2190     0.9950    23.4160    61.4510 
   57.2500     2.3150    43.0640     0.4750     0.2290     0.9910    23.5620    61.0270 
   57.3750     2.2510    40.8750     0.5720     0.2660     0.9880    23.9300    60.5620 
   57.5000     2.1840    39.9500     0.6340     0.3320     0.9870    24.6130    60.0790 
   57.6250     2.1270    39.3480     0.6540     0.3930     0.9870    25.2130    59.5150 
   57.7500     2.0820    38.7930     0.6540     0.4210     0.9860    25.3180    58.7890 
   57.8750     2.0500    38.9700     0.6380     0.4120     0.9820    25.3400    57.8530 
   58.0000     2.0260    39.2290     0.6030     0.3920     0.9770    25.3410    56.6940 
   58.1250     2.0070    38.3570     0.5440     0.3990     0.9760    25.3380    55.3930 
   58.2500     1.9900    38.6940     0.4850     0.4400     0.9760    25.3330    54.0580 
   58.3750     1.9770    41.9700     0.4390     0.4990     0.9790    25.3380    52.6960 
   58.5000     1.9680    47.0450     0.3930     0.5400     0.9840    25.3410    51.2820 
   58.6250     1.9640    50.8380     0.3380     0.5280     0.9870    25.3400    49.7670 
   58.7500     1.9600    52.8830     0.2990     0.4730     0.9870    25.3360    48.2400 
   58.8750     1.9550    53.5390     0.3030     0.4070     0.9890    25.3310    46.7730 
   59.0000     1.9460    53.1410     0.3530     0.3710     0.9890    25.3300    45.4310 
   59.1250     1.9380    51.5150     0.4200     0.3930     0.9880    25.3300    44.2290 
   59.2500     1.9340    49.2010     0.4520     0.4390     0.9870    25.3310    43.0520 
   59.3750     1.9370    47.1070     0.4290     0.4610     0.9890    25.3360    41.7640 
   59.5000     1.9480    46.8540     0.3580     0.4180     0.9930    25.3320    40.2210 
   59.6250     1.9720    48.6050     0.2720     0.3020     0.9960    25.3340    38.1670 
   59.7500     2.0140    48.0420     0.2070     0.1730     0.9980    25.3370    35.4520 
   59.8750     2.0830    44.8850     0.1650     0.0780     1.0040    25.3240    31.8940 
   60.0000     2.1770    42.8060     0.1390     0.0300     1.0280    25.2680    27.3260 
   60.1250     2.2670    44.5370     0.1340     0.0170     1.1590    25.1500    21.5070 
   60.2500     2.3040    47.2780     0.1760     0.0250     1.6120    24.7190    14.8120 
   60.3750     2.2570    50.1250     0.3270     0.0870     2.6990    24.2980     7.7460 
   60.5000     2.1420    53.6210     0.6890     0.2900     4.9400    24.6290     0.7410 
   60.6250     2.0000    56.9480     1.5150     0.8230     6.5990    27.0120    -5.8580 
   60.7500     1.8790    58.1140     2.8490     1.7520     6.8820    31.3600   -11.8650 
   60.8750     1.7970    57.3480     4.3270     2.9970     6.4210    34.2360   -17.0840 
   61.0000     1.7600    56.6540     5.2640     4.3000     6.4930    34.7790   -21.2660 
   61.1250     1.7690    57.9520     5.5900     5.4590     6.9800    34.5830   -24.0320 
   61.2500     1.8120    59.8670     5.9300     6.5580     7.3810    33.0950   -25.6900 
   61.3750     1.8860    59.9490     6.4540     7.6490     7.7860    28.7520   -26.6290 
   61.5000     1.9880    58.8810     6.9870     8.5890     8.6240    24.5590   -27.1840 
   61.6250     2.1030    61.5020     7.1500     8.9960     9.9050    23.1560   -27.4710 
   61.7500     2.2010    70.8490     6.8920     8.8130     9.7930    22.6440   -27.6100 
   61.8750     2.2620    82.5530     6.4020     8.2240     8.2090    22.6020   -27.5990 
   62.0000     2.2810    89.2860     5.9420     7.5460     7.2600    22.6440   -27.4870 
   62.1250     2.2700    88.9200     5.6900     7.0550     7.1130    22.9050   -27.3560 
   62.2500     2.2540    88.0940     5.6390     6.7980     7.0470    23.0240   -27.2420 
   62.3750     2.2430    88.5340     5.7990     6.7300     6.9490    23.0460   -27.1840 
   62.5000     2.2410    87.9130     6.1280     6.7560     6.9740    23.0480   -27.1860 
   62.6250     2.2440    88.6950     6.4840     6.7610     7.3190    23.0550   -27.1840 
   62.7500     2.2520    94.1040     6.6660     6.7010     7.0260    23.1080   -27.1610 
   62.8750     2.2590    98.0970     6.5740     6.6070     6.4030    23.4000   -27.1830 
   63.0000     2.2640    94.3250     6.2780     6.5160     6.2100    23.7120   -27.2510 
   63.1250     2.2610    87.9550     6.0310     6.4390     6.3260    23.7810   -27.3190 
   63.2500     2.2500    87.5990     5.9800     6.3620     6.4540    23.8190   -27.4520 
   63.3750     2.2360    90.7660     6.0530     6.2750     6.8930    23.7910   -27.6480 
   63.5000     2.2210    91.5060     6.0980     6.1810     7.7410    23.6550   -27.9390 
   63.6250     2.2090    89.5130     6.0520     6.1190     7.2770    23.6110   -28.3750 
   63.7500     2.2020    90.7750     6.0710     6.1500     6.7460    23.5770   -28.8780 
   63.8750     2.2020    94.0550     6.3260     6.3330     6.6170    23.4620   -29.4360 
   64.0000     2.2140    95.6700     6.8750     6.6800     6.6800    23.2810   -30.0480 
   64.1250     2.2390    92.2340     7.5830     7.1410     6.8920    23.1950   -30.7830 
   64.2500     2.2650    86.1930     8.1380     7.5560     7.2110    23.1200   -31.5490 
   64.3750     2.2790    81.1540     8.3770     7.7780     7.7710    23.0380   -32.3560 
   64.5000     2.2750    80.0810     8.3120     7.7410     8.2600    22.8570   -33.1470 
   64.6250     2.2550    82.9950     8.1150     7.5010     8.5180    22.8260   -33.9640 
   64.7500     2.2320    82.6780     8.0740     7.2510     8.1330    22.8180   -34.8180 
   64.8750     2.2120    76.7170     8.3540     7.1150     8.5210    22.8040   -35.6810 
   65.0000     2.1950    69.7630     9.0270     7.1550    10.4160    22.7530   -36.5440 
   65.1250     2.1810    66.6860    10.2300     7.4120    10.7520    22.4500   -37.3220 
   65.2500     2.1760    65.4920    11.8840     7.8160     9.9120    22.3050   -38.0420 
   65.3750     2.1840    63.1780    13.6760     8.2820     9.6300    22.2870   -38.6560 
   65.5000     2.2060    60.0180    14.7630     8.7070    10.1110    22.3730   -39.1790 
   65.6250     2.2270    57.2960    14.1110     8.9500    10.9480    22.5960   -39.4720 
   65.7500     2.2310    56.2240    12.3060     8.9740    11.1400    22.9210   -39.5380 
   65.8750     2.2130    57.3860    10.2630     8.8040    10.2200    22.9380   -39.3850 
   66.0000     2.1790    59.7470     8.8350     8.5230     9.3420    22.5250   -38.9880 
   66.1250     2.1450    62.6140     8.5080     8.2280     9.0850    22.5200   -38.3570 
