~V
VERS. 2.00: Ver 2.00
~W
STRT.M 57.0000:
STOP.M 272.0000:
STEP.M 0.1250:
NULL. -999.2500:
UWI. F11045:
~C
DEPT.M :
DEN.GM/CC :
GR.API :
RML.OHMM :
RI. :
RXO.OHMM :
CALI.CM :
SP.MV :
~A
# ...
  135.7500     2.5630    53.0760    19.9780    18.2580    24.4650    24.0540     3.1890 
  135.8750     2.5670    55.8040    19.7200    18.3160    22.8450    24.0860     3.1740 
  136.0000     2.5550    58.1760    19.4710    18.3160    19.7210    24.0400     3.1990 
  136.1250     2.5390    57.9960    19.6640    18.5620    19.1890    24.0150     3.2080 
  136.2500     2.5390    56.1930    20.3940    19.2000    21.1330    23.9730     3.1830 
  136.3750     2.5580    54.3950    21.4220    20.1510    24.0920    23.8900     3.1390 
  136.5000     2.5820    53.6360    22.1770    21.0200    25.2560    23.8100     3.1110 
  136.6250     2.5900    53.4330    21.7160    20.9340    25.0240    23.8180     3.1160 
  136.7500     2.5790    53.3160    19.9250    19.5970    24.2410    23.7860     3.1150 
  136.8750     2.5520    54.7710    17.3160    17.3900    20.2630    23.6370     3.0910 
  137.0000     2.5130    57.2020    14.8130    15.1400    14.7240    23.4650     3.0280 
  137.1250     2.4640    59.5710    13.4330    13.7210    11.1060    23.4440     2.9810 
  137.2500     2.4280    62.4870    13.3470    13.3160    10.5630    23.4130     2.9440 
  137.3750     2.4220    64.5510    14.3850    13.8760    13.6740    23.3940     2.9200 
  137.5000     2.4480    63.4720    15.9490    15.0550    19.6230    23.5570     2.8720 
  137.6250     2.4850    59.1760    16.7900    15.9010    26.1780    23.7370     2.8180 
  137.7500     2.5000    57.6210    16.0740    15.5050    23.7620    23.8620     2.7760 
  137.8750     2.4760    61.6930    14.0300    13.8980    17.1750    23.9550     2.6930 
  138.0000     2.4250    68.3060    11.7540    11.9480    11.5700    24.0290     2.6490 
  138.1250     2.3890    74.8120    10.5350    10.6840     9.4450    24.0360     2.6380 
  138.2500     2.3910    76.7950    10.6500    10.4120    10.2150    23.9850     2.6570 
  138.3750     2.4330    72.1550    12.0140    11.1950    14.1130    23.9120     2.6800 
  138.5000     2.4980    62.6860    14.3260    12.9610    20.0420    23.8670     2.6950 
  138.6250     2.5590    54.5380    17.0680    15.4610    22.6010    23.8730     2.6630 
  138.7500     2.5930    52.1750    19.4480    17.9130    21.4110    23.8830     2.6410 
  138.8750     2.5980    52.5800    21.0090    19.7360    20.4730    23.9240     2.7290 
  139.0000     2.5920    53.0660    21.7320    20.7670    21.1620    23.9490     2.8010 
  139.1250     2.5930    53.8040    21.9270    21.2290    22.1650    23.9620     2.8110 
  139.2500     2.6040    55.0390    22.0260    21.5210    23.2520    23.9210     2.7840 
  139.3750     2.6140    55.1440    22.0970    21.6850    23.6990    23.8870     2.7530 
  139.5000     2.6170    54.5620    22.0590    21.6240    22.8610    23.8900     2.7730 
  139.6250     2.6090    54.4040    21.7940    21.2350    21.6290    23.8880     2.8890 
  139.7500     2.5980    54.2260    21.3410    20.6470    21.3120    23.8660     3.0560 
  139.8750     2.5870    53.7450    20.7940    20.0120    20.6180    23.8760     3.1770 
  140.0000     2.5780    53.2100    20.2700    19.4680    19.8310    23.9250     3.3190 
  140.1250     2.5680    51.6130    19.8730    19.1090    19.8900    23.9070     3.4910 
  140.2500     2.5510    48.6010    19.5990    18.8880    19.9120    23.8200     3.6440 
  140.3750     2.5200    48.1910    19.4220    18.7390    19.5960    23.7340     3.7430 
  140.5000     2.4800    50.6480    19.2870    18.5990    19.2940    23.6990     3.7560 
  140.6250     2.4460    52.6690    19.1190    18.4150    18.6370    23.6810     3.6890 
  140.7500     2.4270    54.3140    18.9070    18.2040    18.1190    23.6130     3.5740 
  140.8750     2.4240    55.8680    18.7060    18.0170    17.7250    23.5360     3.4400 
  141.0000     2.4370    55.1010    18.5780    17.8950    17.8270    23.5130     3.3010 
  141.1250     2.4610    50.6020    18.5280    17.8340    17.5730    23.5460     3.1660 
  141.2500     2.4840    48.2180    18.4740    17.7650    17.4500    23.5640     3.0400 
  141.3750     2.4970    49.9740    18.3500    17.6210    17.6610    23.5780     2.9180 
  141.5000     2.4970    52.2970    18.1270    17.3430    17.7890    23.5880     2.8090 
  141.6250     2.4870    51.6250    17.8320    16.9000    16.4130    23.5660     2.7210 
  141.7500     2.4730    50.0540    17.5640    16.4020    15.5640    23.5320     2.6730 
  141.8750     2.4600    50.1320    17.3930    15.9740    16.0100    23.4750     2.6020 
  142.0000     2.4510    50.4600    17.3270    15.7080    16.5200    23.4380     2.4700 
  142.1250     2.4470    48.6400    17.3350    15.6590    16.1000    23.4150     2.3110 
  142.2500     2.4480    47.1730    17.3500    15.7360    16.0890    23.3830     2.1600 
  142.3750     2.4540    49.6920    17.3130    15.8210    17.1370    23.3870     2.0280 
  142.5000     2.4590    54.2310    17.1720    15.7910    17.3360    23.4180     1.9240 
  142.6250     2.4530    56.1480    16.8710    15.5400    16.3170    23.4350     1.8520 
  142.7500     2.4440    56.1430    16.4480    15.1180    15.4130    23.4490     1.8360 
  142.8750     2.4400    56.7370    15.9750    14.6060    15.8270    23.4920     1.9030 
  143.0000     2.4430    58.8660    15.5700    14.1190    16.3410    23.5440     2.0420 
  143.1250     2.4500    61.4200    15.3920    13.7890    15.5640    23.5420     2.2170 
  143.2500     2.4580    63.2250    15.3960    13.5940    13.9010    23.5440     2.3980 
  143.3750     2.4650    63.8040    15.4270    13.4340    14.6640    23.5750     2.5830 
  143.5000     2.4690    62.4850    15.2870    13.1810    16.2650    23.5660     2.7410 
  143.6250     2.4640    60.8140    14.7880    12.7190    15.4500    23.5410     2.8120 
  143.7500     2.4500    60.3630    14.0270    12.1050    13.7490    23.5430     2.7480 
  143.8750     2.4340    61.4120    13.1930    11.4620    12.0700    23.5860     2.5290 
  144.0000     2.4220    63.2150    12.5240    10.9460    11.3150    23.5910     2.2000 
  144.1250     2.4180    65.3890    12.2720    10.7180    11.2280    23.4450     1.7510 
  144.2500     2.4210    69.4370    12.3760    10.7290    11.8190    23.2140     1.2160 
  144.3750     2.4250    74.8250    12.6380    10.8430    12.2060    23.0700     0.5940 
  144.5000     2.4230    78.1460    12.7550    10.8520    12.4920    23.0620    -0.0980 
  144.6250     2.4090    76.3090    12.3890    10.5130    12.0670    23.0350    -0.8110 
  144.7500     2.3820    71.7280    11.6340     9.8680    10.6190    23.0260    -1.5370 
  144.8750     2.3440    69.1300    10.7450     9.0720     9.1260    23.0510    -2.2490 
  145.0000     2.3020    70.5440     9.9820     8.3120     8.4130    23.1110    -2.9510 
  145.1250     2.2770    74.8200     9.5310     7.7670     8.5410    23.1390    -3.5730 
  145.2500     2.2690    79.3060     9.3320     7.4610     8.9640    23.1600    -4.0670 
  145.3750     2.2690    82.1810     9.3030     7.3720     9.3270    23.1710    -4.4050 
  145.5000     2.2720    82.5540     9.3560     7.4250    10.1070    23.1180    -4.5900 
  145.6250     2.2770    82.0960     9.3760     7.4910    10.2990    22.9940    -4.6140 
  145.7500     2.2860    83.2690     9.2500     7.4350    10.2090    22.9270    -4.4910 
  145.8750     2.2940    84.7450     8.8910     7.1830     9.8860    22.9840    -4.1720 
  146.0000     2.2970    83.9010     8.2870     6.7310     8.7230    23.1190    -3.6170 
  146.1250     2.2980    84.4680     7.4540     6.1310     7.6080    23.2710    -2.8320 
  146.2500     2.3060    88.3860     6.5140     5.5050     7.4550    23.4040    -1.9220 
  146.3750     2.3250    92.5030     5.9020     4.9240     7.0280    23.5840    -0.9110 
  146.5000     2.3480    93.9910     5.4370     4.4360     6.4060    23.7640     0.2060 
  146.6250     2.3590    95.9790     5.1420     4.0930     5.4230    23.9090     1.3180 
  146.7500     2.3550    99.1370     4.9740     3.8770     4.8020    24.0670     2.3650 
  146.8750     2.3480    99.8600     4.9080     3.7760     4.6440    24.1970     3.2800 
