~V
VERS. 2.00: Ver 2.00
~W
STRT.M 57.0000:
STOP.M 283.0000:
STEP.M 0.1250:
NULL. -999.2500:
UWI. F11039:
~C
DEPT.M :
SP.MV :
GR.API :
RML.OHMM :
RI. :
RXO.OHMM :
CALI.CM :
DEN.GM/CC :
~A
   57.0000    42.1020    38.5850     0.9580     0.3340     0.6620    25.2400     2.2750 
   57.1250    37.1240    40.1730     0.6040     0.2620     0.4720    25.2200     2.3970 
   57.2500    31.6550    41.2850     0.3510     0.2130     0.3600    25.1710     2.5000 
   57.3750    25.6650    43.0280     0.2700     0.2060     0.3340    25.1130     2.4990 
   57.5000    19.4470    45.5430     0.3320     0.2600     1.2230    25.0830     2.3990 
   57.6250    13.2280    47.6780     0.5620     0.4140     2.1970    25.0920     2.2580 
   57.7500     7.2390    48.1970     1.0110     0.7300     3.7850    25.2390     2.1250 
   57.8750     1.7150    47.3350     1.7460     1.3040     4.2760    25.7960     2.0410 
   58.0000    -3.2080    48.9860     2.6510     2.1010     5.9650    26.1180     2.0110 
   58.1250    -7.3810    55.8000     3.5510     3.0370     6.8500    25.0460     2.0280 
   58.2500   -10.7620    63.1270     4.2100     3.9550     7.0140    22.9260     2.0700 
   58.3750   -13.1890    63.7970     4.4230     4.6460     7.2660    21.4880     2.1110 
   58.5000   -14.9010    61.7660     4.4100     5.0920     7.3990    20.8940     2.1370 
   58.6250   -16.1560    60.6910     4.3770     5.3600     7.4000    20.7250     2.1500 
   58.7500   -17.1550    59.7560     4.4030     5.5300     7.4130    20.6680     2.1560 
   58.8750   -18.0030    58.0010     4.4770     5.6430     7.5030    20.6620     2.1570 
   59.0000   -18.8280    56.9660     4.5560     5.7320     7.5710    20.6710     2.1540 
   59.1250   -19.6840    56.4240     4.6300     5.8130     7.6770    20.6720     2.1510 
   59.2500   -20.5440    55.1690     4.7060     5.8960     7.7850    20.6660     2.1490 
   59.3750   -21.3610    54.5050     4.7920     5.9800     7.8320    20.6300     2.1490 
   59.5000   -22.1100    55.7880     4.8890     6.0580     7.8420    20.5600     2.1500 
   59.6250   -22.7870    57.3220     4.9900     6.1250     7.8460    20.4810     2.1520 
   59.7500   -23.4390    58.7100     5.0880     6.1710     7.8770    20.4540     2.1530 
   59.8750   -24.0370    60.3560     5.1720     6.1910     7.9550    20.4790     2.1550 
   60.0000   -24.5690    61.0770     5.2380     6.1900     8.0200    20.5260     2.1550 
   60.1250   -25.0270    59.2020     5.2860     6.1750     8.0020    20.5820     2.1550 
   60.2500   -25.3570    55.7520     5.3240     6.1550     7.9480    20.6390     2.1560 
   60.3750   -25.5810    54.9270     5.3680     6.1460     7.9510    20.6700     2.1590 
   60.5000   -25.7670    56.3040     5.4310     6.1550     8.0270    20.6810     2.1620 
   60.6250   -25.8940    58.2230     5.5150     6.1870     8.1310    20.6900     2.1640 
   60.7500   -25.9330    60.1900     5.6130     6.2390     8.2260    20.7090     2.1630 
   60.8750   -25.8920    60.8100     5.7190     6.3120     8.2590    20.7460     2.1610 
   61.0000   -25.8150    59.6090     5.8250     6.3950     8.2680    20.8040     2.1590 
   61.1250   -25.6640    57.6540     5.9320     6.4810     8.3090    20.8770     2.1580 
   61.2500   -25.5010    56.5050     6.0440     6.5630     8.2900    20.9400     2.1600 
   61.3750   -25.2810    55.5220     6.1550     6.6260     8.3080    20.9710     2.1650 
   61.5000   -24.9710    55.1800     6.2490     6.6660     8.3550    20.9860     2.1710 
   61.6250   -24.5890    57.3850     6.3120     6.6800     8.4550    21.0400     2.1750 
   61.7500   -24.1360    61.0140     6.3390     6.6700     8.4750    21.1430     2.1780 
   61.8750   -23.6620    63.8110     6.3320     6.6410     8.4660    21.2580     2.1790 
   62.0000   -23.1790    62.9090     6.3150     6.6020     8.4710    21.3420     2.1810 
   62.1250   -22.7000    60.4910     6.3030     6.5560     8.4360    21.3750     2.1840 
   62.2500   -22.2090    58.8670     6.3080     6.5110     8.3130    21.3390     2.1870 
   62.3750   -21.7290    56.9170     6.3480     6.4770     8.1930    21.2640     2.1930 
   62.5000   -21.2610    54.8060     6.4210     6.4620     8.2600    21.1990     2.1990 
   62.6250   -20.8390    54.7260     6.5170     6.4710     8.2980    21.1400     2.2060 
   62.7500   -20.4660    57.4250     6.6170     6.5020     8.3100    21.0910     2.2110 
   62.8750   -20.1150    57.9870     6.6970     6.5520     8.3570    21.0560     2.2110 
   63.0000   -19.7190    55.9860     6.7550     6.6090     8.3660    21.0110     2.2070 
   63.1250   -19.2770    55.1930     6.7930     6.6600     8.3210    20.9380     2.2020 
   63.2500   -18.7710    56.4050     6.8080     6.6880     8.2580    20.8500     2.2010 
   63.3750   -18.1360    59.3400     6.7790     6.6540     8.1850    20.8180     2.2080 
   63.5000   -17.4170    63.5490     6.6930     6.5470     8.1010    20.9090     2.2220 
   63.6250   -16.6470    68.2850     6.5460     6.3700     7.9980    21.1670     2.2400 
   63.7500   -15.8430    73.1050     6.3560     6.1510     7.8810    21.5760     2.2540 
   63.8750   -15.0330    77.7010     6.1710     5.9440     7.5590    22.0690     2.2600 
   64.0000   -14.2690    80.9850     6.0560     5.8080     6.9320    22.4950     2.2570 
   64.1250   -13.5510    82.7030     6.0700     5.7820     6.4590    22.5990     2.2480 
   64.2500   -12.8970    83.5690     6.2320     5.8800     6.4820    22.2110     2.2370 
   64.3750   -12.4210    83.7730     6.5000     6.0720     6.8540    21.6770     2.2260 
   64.5000   -12.0460    83.2970     6.7420     6.2560     6.9520    21.4240     2.2190 
   64.6250   -11.7260    82.2050     6.8490     6.3430     6.9350    21.3620     2.2140 
   64.7500   -11.4280    82.9500     6.7670     6.2710     7.0700    21.4880     2.2110 
   64.8750   -11.1220    87.3470     6.4990     6.0240     6.9930    21.9320     2.2060 
   65.0000   -10.8670    94.6540     6.1790     5.7050     6.5850    22.6360     2.1990 
   65.1250   -10.6910   101.0270     5.9150     5.4040     6.0340    23.3900     2.1910 
   65.2500   -10.6240   100.6550     5.7940     5.2000     5.7830    23.8580     2.1860 
   65.3750   -10.7310    93.8720     5.9050     5.1720     5.8330    23.9090     2.1900 
   65.5000   -10.9640    90.4780     6.2220     5.3150     5.9530    23.8420     2.2060 
   65.6250   -11.3060    91.5130     6.7050     5.6090     6.1270    23.6820     2.2330 
   65.7500   -11.7920    89.9530     7.2750     6.0110     6.5110    23.3980     2.2610 
   65.8750   -12.4610    82.2900     7.8290     6.4560     6.8880    23.1570     2.2700 
   66.0000   -13.2120    77.6960     8.2780     6.8630     7.3600    22.9930     2.2530 
   66.1250   -13.9720    77.5450     8.5670     7.1700     7.8600    22.7700     2.2180 
   66.2500   -14.6740    76.9920     8.6800     7.3410     7.8940    22.4930     2.1820 
   66.3750   -15.1800    73.8770     8.6240     7.3590     8.0130    22.0380     2.1630 
   66.5000   -15.5570    71.3110     8.4860     7.2890     8.3460    21.5820     2.1610 
   66.6250   -15.7930    69.8880     8.3260     7.1890     8.2420    21.3440     2.1660 
   66.7500   -15.8970    67.9560     8.2080     7.1150     7.7160    21.3830     2.1690 
   66.8750   -15.9130    66.0960     8.2040     7.1240     7.3730    21.5060     2.1650 
   67.0000   -15.8580    67.3690     8.3140     7.2160     7.4360    21.5120     2.1550 
   67.1250   -15.7900    71.1750     8.5140     7.3720     7.8490    21.4590     2.1450 
   67.2500   -15.7340    72.5350     8.7510     7.5550     8.3490    21.3920     2.1360 
   67.3750   -15.7160    68.3820     8.9380     7.7040     9.0970    21.2630     2.1310 
   67.5000   -15.6710    64.6590     9.0190     7.7710    10.2390    21.0440     2.1310 
   67.6250   -15.5850    64.5130     8.9730     7.7320    10.6600    20.7920     2.1330 
   67.7500   -15.4490    65.1850     8.8110     7.5870     8.8410    20.6410     2.1390 
   67.8750   -15.1750    66.0470     8.5440     7.3390     7.6960    20.7050     2.1490 
   68.0000   -14.8090    68.2170     8.2160     7.0330     7.2420    20.9230     2.1640 
   68.1250   -14.3660    69.6490     7.8490     6.7000     7.1330    21.2580     2.1830 
