~V
VERS. 2.00: Ver 2.00
~W
STRT.M 57.0000:
STOP.M 226.0000:
STEP.M 0.1250:
NULL. -999.2500:
UWI. F11011:
~C
DEPT.M :
GR.API :
RML.OHMM :
RI. :
RXO.OHMM :
CALI.CM :
SP.MV :
DEN.GM/CC :
~A
   57.0000  -999.2500  -999.2500  -999.2500  -999.2500  -999.2500  -999.2500  -999.2500 
   57.1250  -999.2500  -999.2500  -999.2500  -999.2500  -999.2500  -999.2500  -999.2500 
   57.2500  -999.2500  -999.2500  -999.2500  -999.2500  -999.2500  -999.2500  -999.2500 
   57.3750  -999.2500  -999.2500  -999.2500  -999.2500  -999.2500  -999.2500  -999.2500 
   57.5000  -999.2500  -999.2500  -999.2500  -999.2500  -999.2500  -999.2500  -999.2500 
   57.6250  -999.2500  -999.2500  -999.2500  -999.2500  -999.2500  -999.2500  -999.2500 
   57.7500  -999.2500  -999.2500  -999.2500  -999.2500  -999.2500  -999.2500  -999.2500 
   57.8750  -999.2500  -999.2500  -999.2500  -999.2500  -999.2500  -999.2500     2.3560 
   58.0000  -999.2500  -999.2500  -999.2500  -999.2500  -999.2500  -999.2500     2.3560 
   58.1250  -999.2500  -999.2500  -999.2500  -999.2500  -999.2500  -999.2500     2.3770 
   58.2500  -999.2500  -999.2500  -999.2500  -999.2500  -999.2500  -999.2500     2.3910 
   58.3750  -999.2500  -999.2500  -999.2500  -999.2500  -999.2500  -999.2500     2.3860 
   58.5000  -999.2500  -999.2500  -999.2500  -999.2500  -999.2500  -999.2500     2.3550 
   58.6250  -999.2500  -999.2500  -999.2500  -999.2500  -999.2500  -999.2500     2.3030 
   58.7500  -999.2500  -999.2500  -999.2500  -999.2500  -999.2500  -999.2500     2.2630 
   58.8750  -999.2500  -999.2500  -999.2500  -999.2500  -999.2500  -999.2500     2.2650 
   59.0000  -999.2500  -999.2500  -999.2500  -999.2500  -999.2500  -999.2500     2.3200 
   59.1250  -999.2500  -999.2500  -999.2500  -999.2500  -999.2500  -999.2500     2.4060 
   59.2500  -999.2500  -999.2500  -999.2500  -999.2500  -999.2500  -999.2500     2.4690 
   59.3750  -999.2500  -999.2500  -999.2500  -999.2500  -999.2500  -999.2500     2.4740 
   59.5000  -999.2500  -999.2500  -999.2500  -999.2500  -999.2500  -999.2500     2.4160 
   59.6250  -999.2500  -999.2500  -999.2500  -999.2500  -999.2500  -999.2500     2.3230 
   59.7500  -999.2500  -999.2500  -999.2500  -999.2500  -999.2500  -999.2500     2.2410 
   59.8750  -999.2500  -999.2500  -999.2500  -999.2500  -999.2500  -999.2500     2.1840 
   60.0000  -999.2500  -999.2500  -999.2500  -999.2500  -999.2500  -999.2500     2.1530 
   60.1250  -999.2500  -999.2500  -999.2500  -999.2500  -999.2500  -999.2500     2.1450 
   60.2500  -999.2500  -999.2500  -999.2500  -999.2500  -999.2500  -999.2500     2.1540 
   60.3750  -999.2500  -999.2500  -999.2500  -999.2500  -999.2500  -999.2500     2.1770 
   60.5000  -999.2500  -999.2500  -999.2500  -999.2500  -999.2500  -999.2500     2.2080 
   60.6250  -999.2500  -999.2500  -999.2500  -999.2500  -999.2500  -999.2500     2.2370 
   60.7500  -999.2500  -999.2500  -999.2500  -999.2500  -999.2500  -999.2500     2.2630 
   60.8750  -999.2500  -999.2500  -999.2500  -999.2500  -999.2500  -999.2500     2.2850 
   61.0000  -999.2500  -999.2500  -999.2500  -999.2500  -999.2500   272.9990     2.3020 
   61.1250  -999.2500  -999.2500  -999.2500  -999.2500  -999.2500   272.9990     2.3130 
   61.2500  -999.2500  -999.2500  -999.2500  -999.2500  -999.2500   272.9990     2.3160 
   61.3750  -999.2500  -999.2500  -999.2500  -999.2500  -999.2500   272.9990     2.3100 
   61.5000  -999.2500  -999.2500  -999.2500  -999.2500  -999.2500   272.9990     2.2970 
   61.6250  -999.2500  -999.2500  -999.2500  -999.2500  -999.2500   272.9990     2.2690 
   61.7500  -999.2500  -999.2500  -999.2500  -999.2500  -999.2500   272.9990     2.2240 
   61.8750  -999.2500  -999.2500  -999.2500  -999.2500  -999.2500   272.1290     2.1590 
   62.0000     0.0000     0.0000     0.0000     0.0000     0.0000   269.2880     2.0830 
   62.1250     0.0000     0.0000     0.0000     0.0000     0.0000   265.5920     2.0170 
   62.2500     0.0000     0.8720     0.0000     0.0000     0.0000   259.4600     1.9770 
   62.3750    36.5290     1.8030     0.7260     1.0010    19.2790   249.6890     1.9650 
   62.5000    51.5860     1.8690     0.9580     1.2910    25.7070   238.8210     1.9700 
   62.6250    54.6070     1.8280     0.9000     1.3240    25.7060   228.1870     1.9810 
   62.7500    56.6850     1.7260     0.9190     1.2290    25.7060   217.2790     1.9900 
   62.8750    50.7210     1.6380     0.9580     1.3060    25.7050   205.2980     1.9980 
   63.0000    45.8430     1.5920     0.9730     1.3270    25.7090   198.5120     2.0080 
   63.1250    43.4350     1.5710     0.9760     1.2020    25.7260   195.1340     2.0180 
   63.2500    42.6290     1.5500     0.9790     1.1470    25.7550   190.4440     2.0210 
   63.3750    44.0840     1.5430     0.9890     1.4090    25.7690   188.4430     2.0140 
   63.5000    47.6880     1.5760     1.0060     2.4050    25.7730   186.3970     1.9960 
   63.6250    52.9210     1.6430     1.0270     3.1110    25.7740   182.9340     1.9780 
   63.7500    57.6810     1.6860     1.0470     3.4700    25.7750   178.8060     1.9670 
   63.8750    59.5730     1.6610     1.0630     4.2410    25.7750   175.5980     1.9670 
   64.0000    60.8250     1.5670     1.0770     6.3670    25.7760   167.9920     1.9760 
   64.1250    62.9570     1.4540     1.0920     6.2030    25.7760   156.5080     1.9890 
   64.2500    63.1820     1.3910     1.1100     4.6840    25.7720   147.7650     2.0000 
   64.3750    60.7700     1.3990     1.1350     3.9990    25.7610   138.9440     2.0060 
   64.5000    58.2610     1.4510     1.1630     3.4020    25.7370   130.2020     2.0040 
   64.6250    58.7960     1.4840     1.1940     3.1220    25.7250   121.5090     1.9980 
   64.7500    60.5950     1.4660     1.2200     3.0290    25.7210   112.9810     1.9940 
   64.8750    62.7280     1.3950     1.2280     2.9950    25.7230   104.8780     1.9950 
   65.0000    64.4360     1.2790     1.1890     3.0010    25.7240    97.3550     2.0040 
   65.1250    63.7840     1.1130     1.0460     3.0520    25.7240    90.1570     2.0170 
   65.2500    61.8780     0.9040     0.8020     3.1850    25.7230    82.8990     2.0310 
   65.3750    59.5770     0.6720     0.5140     3.3600    25.7220    75.5180     2.0560 
   65.5000    56.7240     0.4540     0.2710     3.4800    25.7190    68.0480     2.1150 
   65.6250    53.8530     0.3110     0.1330     3.3320    25.7220    60.5350     2.2360 
   65.7500    52.1860     0.2630     0.0640     3.0680    25.7910    52.9230     2.3790 
   65.8750    53.0830     0.3170     0.0400     2.9310    26.0230    45.2420     2.4730 
   66.0000    56.5400     0.4810     0.0550     3.1670    26.3070    37.6730     2.4500 
   66.1250    60.2090     0.8350     0.1610     3.9510    28.0540    30.5870     2.2860 
   66.2500    62.0310     1.5130     0.4580     4.6740    30.3010    24.1070     2.0970 
   66.3750    61.3410     2.7670     1.1910     5.5160    30.9570    18.2600     1.9940 
   66.5000    58.7220     4.9770     2.8110     7.2520    28.6710    13.0200     2.0310 
   66.6250    57.0980     8.3840     6.0610    12.6240    25.6070     8.4420     2.1680 
   66.7500    57.8200    11.7560    10.1260    17.5380    23.9840     4.3880     2.2860 
   66.8750    60.5280    13.6470    13.1640    14.2180    23.2290     0.7040     2.3240 
   67.0000    63.5510    13.4770    14.0350     9.8550    22.6580    -2.6950     2.2860 
   67.1250    66.6410    11.9910    13.1630     8.4030    22.4920    -5.7620     2.2210 
   67.2500    68.9010    10.5990    11.8720     8.1140    22.5460    -8.5920     2.1800 
   67.3750    67.9440     9.6700    10.7090     7.9550    22.6510   -11.1150     2.1720 
   67.5000    66.1650     9.1600     9.9100     7.8760    22.7040   -13.2090     2.1860 
   67.6250    67.9970     8.9780     9.5430     7.7840    22.7210   -14.9260     2.2060 
   67.7500    70.6840     8.9580     9.4400     7.8170    22.7600   -16.4620     2.2190 
   67.8750    70.5900     9.0150     9.4860     7.9040    22.8970   -17.8150     2.2170 
   68.0000    67.3150     9.0950     9.5820     7.8900    23.1840   -19.0430     2.1990 
   68.1250    64.8760     9.1670     9.6530     7.6560    23.7100   -20.1550     2.1730 
