~V
VERS. 2.00: Ver 2.00
~W
STRT.M 53.0000:
STOP.M 257.0000:
STEP.M 0.1250:
NULL. -999.2500:
UWI. F11022:
~C
DEPT.M :
GR.API :
RML.OHMM :
RI. :
RXO.OHMM :
CALI.CM :
SP.MV :
DEN.GM/CC :
~A
# ...
   75.5000    64.3560     8.9830     7.2570    11.5620    25.7900   -27.4550     2.1030 
   75.6250    63.6150     9.0880     7.1600    11.6620    25.8040   -27.3720     2.1080 
   75.7500    61.8170     9.3570     7.2010    11.8220    25.7860   -27.2410     2.1190 
   75.8750    60.4300     9.6270     7.3160    12.0830    25.7600   -27.2230     2.1320 
   76.0000    59.8870     9.7820     7.4430    12.3370    25.7480   -27.2460     2.1420 
   76.1250    60.4240     9.7440     7.5250    12.2230    25.7470   -27.1200     2.1430 
   76.2500    60.9640     9.5710     7.5400    11.9510    25.7470   -27.0130     2.1350 
   76.3750    59.6190     9.3160     7.4930    11.6990    25.7470   -27.0390     2.1240 
   76.5000    56.4090     9.0310     7.4040    11.5170    25.7470   -27.0240     2.1130 
   76.6250    54.5840     8.7570     7.3050    11.5210    25.7500   -26.8750     2.1100 
   76.7500    55.9090     8.5320     7.2320    11.4410    25.7630   -26.7830     2.1100 
   76.8750    59.2920     8.3870     7.1970    11.3380    25.7860   -26.7130     2.1120 
   77.0000    60.1290     8.3340     7.1940    11.3640    25.7890   -26.5040     2.1130 
   77.1250    57.1570     8.3590     7.2020    11.4520    25.7630   -26.3220     2.1160 
   77.2500    55.7760     8.3910     7.1920    11.5160    25.7330   -26.2070     2.1160 
   77.3750    57.7970     8.3850     7.1480    11.5560    25.7000   -25.9140     2.1100 
   77.5000    60.1380     8.3320     7.0690    11.4200    25.6790   -25.5870     2.1010 
   77.6250    57.7420     8.2710     6.9670    11.3990    25.6720   -25.3630     2.0950 
   77.7500    55.8910     8.2370     6.8620    11.4020    25.6720   -25.0430     2.0940 
   77.8750    57.8770     8.2160     6.7530    11.5040    25.6720   -24.6710     2.0950 
   78.0000    60.5760     8.1470     6.6280    11.4800    25.6710   -24.3890     2.0950 
   78.1250    59.6670     7.9580     6.4710    11.3240    25.6390   -24.0080     2.0990 
   78.2500    57.8070     7.6960     6.3020    11.0200    25.5490   -23.5300     2.1080 
   78.3750    58.5810     7.4890     6.1800    10.8740    25.4310   -23.1940     2.1180 
   78.5000    61.4810     7.5140     6.2040    11.1740    25.4130   -22.8370     2.1260 
   78.6250    63.7870     8.0190     6.5390    11.7240    25.5260   -22.3330     2.1340 
   78.7500    64.4030     9.0860     7.2660    13.6210    25.5940   -21.9080     2.1530 
   78.8750    64.4900    10.8510     8.5170    20.0420    25.5000   -21.5110     2.2120 
   79.0000    66.8780    13.4450    10.4630    37.7420    25.3450   -21.0100     2.3260 
   79.1250    71.1400    16.9630    13.4090    53.6880    25.3000   -20.5950     2.4760 
   79.2500    72.0120    20.7620    17.0570    50.8740    25.3350   -20.3350     2.5860 
   79.3750    69.1920    23.7810    20.5880    46.1660    25.3710   -20.0150     2.6230 
   79.5000    67.2150    24.6170    22.4450    52.7800    25.3900   -19.7140     2.6170 
   79.6250    67.6300    22.0050    20.8150    49.6370    25.4070   -19.7030     2.5910 
   79.7500    68.9630    17.5110    17.0450    29.7150    25.4090   -19.7410     2.5380 
   79.8750    73.3600    12.8930    12.9200    14.0660    25.3740   -19.7150     2.4590 
   80.0000    82.0390     9.3140     9.5760     8.0670    25.3450   -19.8710     2.3760 
   80.1250    92.5660     7.2390     7.4500     6.0680    25.4240   -20.1290     2.3210 
   80.2500   100.6400     6.1630     6.1780     5.4330    25.6010   -20.2760     2.3030 
   80.3750   104.8070     5.7250     5.5140     5.1200    25.7310   -20.5470     2.3140 
   80.5000   104.7330     5.5990     5.2240     5.0000    25.7050   -20.8770     2.3350 
   80.6250   101.1100     5.5540     5.1250     4.9190    25.6870   -21.0430     2.3480 
   80.7500    97.4340     5.5150     5.0860     4.8610    25.7140   -21.3060     2.3450 
   80.8750    96.9250     5.5520     5.1190     4.8780    25.7830   -21.6610     2.3310 
   81.0000   100.5640     5.7590     5.2700     4.9920    25.8370   -21.9310     2.3100 
   81.1250   103.9490     6.2390     5.6110     5.5030    25.8970   -22.2830     2.2880 
   81.2500    99.6360     6.9300     6.1170     6.7350    25.9170   -22.7480     2.2610 
   81.3750    84.9050     7.7230     6.7300     8.6830    25.9570   -23.0850     2.2260 
   81.5000    66.1730     8.4560     7.3290     9.5830    26.0930   -23.4550     2.1840 
   81.6250    54.3150     8.9130     7.7370     9.7620    26.2280   -23.9900     2.1500 
   81.7500    51.8100     9.0620     7.9090     9.9370    26.2660   -24.3820     2.1320 
   81.8750    54.0830     8.9570     7.8810    10.2400    26.2720   -24.6550     2.1250 
   82.0000    55.1270     8.7240     7.7440    10.2480    26.2990   -24.9850     2.1190 
   82.1250    54.6460     8.5060     7.5960    10.2530    26.3600   -25.2550     2.1130 
   82.2500    54.2150     8.3720     7.4870    10.3220    26.4210   -25.3810     2.1110 
   82.3750    54.9780     8.3240     7.4240    10.5120    26.4440   -25.5120     2.1140 
   82.5000    56.7150     8.3500     7.4100    10.7200    26.4230   -25.6370     2.1190 
   82.6250    58.5230     8.4410     7.4560    11.0870    26.4060   -25.6070     2.1220 
   82.7500    58.2700     8.5770     7.5410    11.1890    26.3970   -25.5350     2.1230 
   82.8750    55.0020     8.7480     7.6470    11.2300    26.3770   -25.5590     2.1250 
   83.0000    51.4340     8.9590     7.7700    11.7250    26.3300   -25.5490     2.1300 
   83.1250    51.7700     9.2320     7.9290    12.2910    26.2830   -25.3730     2.1400 
   83.2500    55.0140     9.5380     8.1140    12.4080    26.2640   -25.2620     2.1560 
   83.3750    58.1750     9.7900     8.2680    12.3330    26.2730   -25.1960     2.1760 
   83.5000    58.3410     9.8430     8.2820    12.6440    26.3440   -24.9680     2.1950 
   83.6250    55.3630     9.4840     7.9780    12.9730    26.5810   -24.7540     2.2000 
   83.7500    54.8240     8.7600     7.3820    12.2850    26.8800   -24.6100     2.1920 
   83.8750    59.7200     7.8500     6.6320    10.2120    27.0270   -24.3240     2.1800 
   84.0000    68.5280     7.0250     5.9270     7.2660    26.9360   -24.0200     2.1750 
   84.1250    77.7150     6.6160     5.4950     5.8090    26.7540   -23.8750     2.1810 
   84.2500    83.5240     6.7470     5.4160     5.9490    26.5630   -23.6800     2.1980 
   84.3750    82.7310     7.4820     5.7500     7.4010    26.3570   -23.5180     2.2260 
   84.5000    74.3940     8.7470     6.5050     9.2470    26.1910   -23.5730     2.2580 
   84.6250    64.8050    10.2670     7.6190    12.3920    26.1060   -23.6750     2.2780 
   84.7500    60.5900    11.5050     8.7470    15.6760    26.0940   -23.7460     2.2910 
   84.8750    61.0490    12.0330     9.5350    20.1990    26.0940   -23.9770     2.3050 
   85.0000    61.7700    11.7120     9.7420    19.8910    26.0830   -24.2730     2.3060 
   85.1250    59.2240    10.7950     9.3810    13.6390    26.0650   -24.4560     2.2630 
   85.2500    55.1790     9.8710     8.8520    11.1400    26.0790   -24.6870     2.2060 
   85.3750    54.2990     9.1860     8.3680    10.7440    26.1210   -24.9420     2.1730 
   85.5000    57.6700     8.7780     8.0120    10.8020    26.2060   -25.0220     2.1660 
   85.6250    62.0960     8.5730     7.7860    10.3810    26.3350   -25.0220     2.1630 
   85.7500    65.0830     8.4030     7.6120     9.4810    26.4300   -25.1340     2.1540 
   85.8750    67.9420     8.2020     7.4500     8.0830    26.4470   -25.1640     2.1520 
   86.0000    72.9350     8.0100     7.3110     6.9570    26.3970   -25.1000     2.1670 
   86.1250    79.1470     7.9570     7.2550     6.9840    26.3300   -25.2210     2.1900 
   86.2500    82.3080     8.0870     7.3100     7.7420    26.2820   -25.3670     2.2040 
   86.3750    80.2700     8.3690     7.4710     8.7990    26.2880   -25.4350     2.1990 
   86.5000    75.3390     8.6960     7.6850     9.4200    26.3330   -25.6590     2.1830 
   86.6250    72.7220     8.8960     7.8360     9.2870    26.3400   -25.9470     2.1690 
