~V
VERS. 2.00: Ver 2.00
~W
STRT.M 50.0000:
STOP.M 257.0000:
STEP.M 0.1250:
NULL. -999.2500:
UWI. F11021:
~C
DEPT.M :
GR.API :
RML.OHMM :
RI. :
RXO.OHMM :
CALI.CM :
SP.MV :
DEN.GM/CC :
~A
# ...
  162.5000    85.9530    11.7060     9.1880     9.7500    25.5490    -6.6690     2.2730 
  162.6250    82.8160    12.2060     9.6040    10.5680    25.4230    -6.5400     2.2690 
  162.7500    79.8440    12.5790     9.9500    10.6900    25.3230    -6.4700     2.2680 
  162.8750    80.3710    12.8220    10.2110    10.7040    25.2850    -6.4410     2.2690 
  163.0000    84.6720    12.9940    10.4110    11.3020    25.2950    -6.4310     2.2690 
  163.1250    88.6310    13.2270    10.6210    12.0100    25.3290    -6.4280     2.2620 
  163.2500    89.3030    13.6180    10.9120    12.1110    25.3250    -6.4150     2.2520 
  163.3750    87.9420    14.1810    11.3160    12.2440    25.1810    -6.4400     2.2470 
  163.5000    86.4980    14.8120    11.8020    13.5640    24.8670    -6.5220     2.2520 
  163.6250    84.3670    15.2660    12.2480    14.8390    24.7930    -6.6180     2.2670 
  163.7500    81.7640    15.3890    12.5340    15.8200    25.0270    -6.6560     2.2830 
  163.8750    80.2630    15.1670    12.6090    15.3920    25.2480    -6.6950     2.2920 
  164.0000    80.8900    14.7380    12.5080    14.4320    25.3130    -6.7910     2.2920 
  164.1250    83.8430    14.3810    12.3690    13.1100    25.2650    -6.9370     2.2870 
  164.2500    86.4410    14.3270    12.3740    12.4550    25.1990    -7.0750     2.2880 
  164.3750    83.9980    14.6330    12.6170    12.5650    25.1830    -7.1570     2.2980 
  164.5000    77.4150    15.1460    13.0600    13.2880    25.2050    -7.2240     2.3150 
  164.6250    75.2800    15.4480    13.4550    14.6610    25.3020    -7.3460     2.3330 
  164.7500    78.4190    15.1340    13.4380    15.7850    25.4530    -7.5480     2.3450 
  164.8750    82.4100    14.0140    12.7710    15.3250    25.5330    -7.7540     2.3480 
  165.0000    85.4290    12.2170    11.4760    13.7120    25.4550    -7.8830     2.3400 
  165.1250    91.0620    10.1560     9.8330     9.8010    25.2430    -7.9200     2.3270 
  165.2500    97.5570     8.3500     8.2820     7.5820    25.0680    -7.9170     2.3150 
  165.3750   102.1610     7.0830     7.0670     6.4840    24.8470    -7.9280     2.3100 
  165.5000   104.9110     6.5130     6.3280     5.8410    24.4640    -7.9630     2.3130 
  165.6250   104.7690     6.8590     6.2390     5.5090    24.1540    -8.0270     2.3230 
  165.7500   102.0250     8.0430     6.7670     5.7510    24.2920    -8.0480     2.3320 
  165.8750    96.5730    10.0760     7.9710     7.4460    24.7020    -8.0240     2.3340 
  166.0000    90.7220    12.8210     9.8700    11.5670    25.0050    -7.9870     2.3240 
  166.1250    86.5010    12.9610    11.9880    15.2560    24.1670    -7.9520     2.3020 
  166.2500    87.7500    15.5620    14.3060    15.4070    24.2330    -7.9380     2.2780 
  166.3750    88.3620    17.9990    16.1340    13.4410    24.4000    -7.9520     2.2580 
  166.5000    86.2740    19.7970    17.1740    11.1630    24.4330    -7.9750     2.2490 
  166.6250    82.3230    20.3710    17.3670    10.0540    24.5000    -7.9310     2.2510 
  166.7500    81.3000    20.1600    17.1680    10.2290    24.7000    -7.8160     2.2570 
  166.8750    85.8990    19.7930    16.8570    13.4720    24.7000    -7.6600     2.2670 
  167.0000    93.2070    19.6380    16.5930    16.8040    24.7000    -7.4990     2.2780 
  167.1250    94.7630    19.6790    16.4470    17.1370    24.8330    -7.3710     2.2940 
  167.2500    89.4400    19.8270    16.4060    17.5240    24.9000    -7.2910     2.3090 
  167.3750    83.1720    20.0200    16.4510    17.7030    24.9670    -7.2070     2.3170 
  167.5000    81.4470    20.1980    16.5500    17.7860    24.9670    -7.0590     2.3110 
  167.6250    84.0150    20.3110    16.6670    18.0270    25.5990    -6.8690     2.2900 
  167.7500    86.2220    20.3610    16.7740    17.9320    25.6150    -6.7420     2.2660 
  167.8750    86.7500    20.3720    16.8750    17.6870    25.6170    -6.7160     2.2450 
  168.0000    86.0590    20.3790    16.9870    17.6650    25.6170    -6.7720     2.2330 
  168.1250    84.5050    20.4310    17.1470    17.5650    25.6170    -6.8670     2.2290 
  168.2500    82.6330    20.5510    17.3660    17.5550    25.6130    -6.9190     2.2300 
  168.3750    80.8710    20.7440    17.6440    17.8260    25.5750    -6.9250     2.2350 
  168.5000    79.6310    20.9910    17.9620    18.1740    25.4750    -6.9310     2.2410 
  168.6250    79.5090    21.2350    18.2770    18.4950    25.2980    -6.9310     2.2420 
  168.7500    80.2110    21.3840    18.5210    18.3700    25.1840    -6.9280     2.2380 
  168.8750    80.9220    21.3380    18.6120    17.6840    25.1470    -6.9110     2.2300 
  169.0000    81.1730    21.0040    18.4620    17.0360    25.2180    -6.8760     2.2230 
  169.1250    82.2290    20.2810    17.9610    16.5950    25.2360    -6.8270     2.2190 
  169.2500    85.4790    19.3000    17.1970    15.8700    25.0860    -6.8210     2.2190 
  169.3750    90.2350    18.2540    16.3140    14.8960    24.8830    -6.8840     2.2220 
  169.5000    93.9690    17.4270    15.5300    14.1500    24.8890    -7.0590     2.2290 
  169.6250    94.1740    17.2770    15.1860    13.6160    25.1110    -7.3800     2.2470 
  169.7500    92.2460    18.0110    15.4760    13.8580    25.1950    -7.6760     2.2720 
  169.8750    90.1150    19.7470    16.5640    15.3210    25.1500    -7.9170     2.2970 
  170.0000    88.7880    22.3620    18.4880    18.1570    25.0600    -8.1700     2.3140 
  170.1250    87.8240    25.3600    21.0650    22.2170    25.0620    -8.5100     2.3090 
  170.2500    86.1460    27.7990    23.5320    27.5300    25.1760    -8.8510     2.2860 
  170.3750    83.6130    28.9200    25.1430    33.7450    25.3640    -9.1180     2.2540 
  170.5000    81.4380    28.3580    25.3760    33.3210    25.5210    -9.2690     2.2240 
  170.6250    81.8260    26.1910    24.0520    26.1090    25.4120    -9.3680     2.2070 
  170.7500    84.1850    23.4230    21.9680    20.0880    25.1550    -9.5220     2.2020 
  170.8750    86.6820    20.7320    19.7290    17.8460    24.9990    -9.7360     2.2060 
  171.0000    88.3310    18.5660    17.7790    16.9720    24.9080    -9.9100     2.2180 
  171.1250    89.7610    17.2710    16.4650    16.0660    24.7420    -9.9400     2.2370 
  171.2500    91.4520    16.7670    15.7880    14.3940    24.5270    -9.9550     2.2610 
  171.3750    92.8480    17.0110    15.7560    12.8880    24.3680   -10.0120     2.2860 
  171.5000    93.6980    17.8870    16.3280    14.2520    24.3210   -10.0990     2.3020 
  171.6250    94.3740    19.2120    17.4550    17.3290    24.3680   -10.1630     2.3040 
  171.7500    94.6930    20.5900    18.8270    19.3520    24.4220   -10.2150     2.2960 
  171.8750    93.7840    21.7490    20.1830    19.7960    24.4590   -10.2620     2.2840 
  172.0000    91.3260    22.5420    21.2940    21.2110    24.5410   -10.3120     2.2750 
  172.1250    88.7400    22.9950    22.0250    21.5000    24.6930   -10.3840     2.2730 
  172.2500    87.6690    23.4200    22.5680    21.1890    24.7450   -10.4280     2.2760 
  172.3750    87.4180    24.0560    23.1490    20.9180    24.5320   -10.4640     2.2810 
  172.5000    86.1660    24.9880    23.9280    21.4580    24.2350   -10.5380     2.2820 
  172.6250    84.1100    26.0240    24.8570    21.3120    24.1190   -10.6310     2.2740 
  172.7500    84.0680    26.7070    25.5740    22.7730    24.1170   -10.6820     2.2580 
  172.8750    86.4720    26.6570    25.6940    25.9820    24.1060   -10.7180     2.2410 
  173.0000    89.0210    25.7580    25.0100    27.5030    24.0080   -10.8010     2.2310 
  173.1250    90.1110    24.3190    23.6410    22.5330    23.8660   -10.9210     2.2340 
  173.2500    91.4400    23.2200    22.3100    17.6700    23.9290   -11.0660     2.2460 
  173.3750    93.4880    23.2960    21.6940    16.3400    24.2070   -11.2200     2.2600 
  173.5000    94.2360    25.1780    22.4390    17.5600    24.4990   -11.4290     2.2690 
  173.6250    90.9570    30.2030    25.6150    21.3540    24.6780   -11.7530     2.2670 
