~V
VERS. 2.00: Ver 2.00
~W
STRT.M 54.0000:
STOP.M 226.0000:
STEP.M 0.1250:
NULL. -999.2500:
UWI. F11002:
~C
DEPT.M :
GR.API :
RML.OHMM :
RI. :
RXO.OHMM :
CALI.CM :
DEN.GM/CC :
SP.MV :
~A
# ...
  189.0000    57.0280   202.6290   184.0490   201.5050    24.9960     2.2010   -14.1130 
  189.1250    59.4680   203.6020   186.1890   191.0020    24.9290     2.2100   -13.5500 
  189.2500    60.9830   202.7450   186.2350   185.9420    24.8880     2.2180   -13.2200 
  189.3750    62.8450   201.3150   185.7800   198.2520    24.8760     2.2220   -13.1030 
  189.5000    63.8270   200.5630   186.4120   183.1320    24.8760     2.2230   -13.0160 
  189.6250    61.5000   200.7470   188.5590   166.5070    24.8760     2.2220   -12.9770 
  189.7500    56.9090   201.4410   191.7790   172.0240    24.8710     2.2210   -12.9930 
  189.8750    55.7670   201.7240   194.9270   179.8130    24.8550     2.2200   -13.0970 
  190.0000    58.6870   200.4820   196.8620   181.2330    24.8270     2.2190   -13.2460 
  190.1250    62.8470   195.6460   196.3610   180.8090    24.7870     2.2170   -13.3020 
  190.2500    66.4860   184.0610   190.3600   176.2010    24.8730     2.2140   -13.1870 
  190.3750    67.3630   166.0810   172.6370   170.4610    25.0130     2.2110   -12.9550 
  190.5000    66.4940   137.5360   145.5460   163.4310    25.0090     2.2110   -12.7960 
  190.6250    65.7920   109.0310   115.9040   150.5470    24.7540     2.2140   -12.7300 
  190.7500    66.1570    86.4430    91.0590   118.8350    24.5620     2.2190   -12.7090 
  190.8750    66.8230    74.4120    76.7560    66.5660    24.5650     2.2190   -12.6520 
  191.0000    67.3450    71.7110    72.5180    42.5200    24.6210     2.2080   -12.5950 
  191.1250    67.3270    77.9530    78.2730    53.9750    24.7460     2.1910   -12.5150 
  191.2500    65.9880    92.9590    93.7620    97.4910    24.8590     2.1730   -12.4500 
  191.3750    64.4470   117.0560   119.2600   164.4760    24.8900     2.1650   -12.5440 
  191.5000    64.8140   145.0020   148.9400   172.8970    24.9500     2.1650   -12.7350 
  191.6250    65.4870   170.2990   174.9770   173.6620    24.9900     2.1700   -12.9010 
  191.7500    64.2140   186.6530   189.7380   176.8770    24.9410     2.1770   -12.8320 
  191.8750    61.9750   190.3890   190.1620   177.7790    25.0700     2.1840   -12.4740 
  192.0000    63.2340   187.2320   184.0010   171.8490    25.1740     2.1930   -12.1620 
  192.1250    67.4900   182.2220   176.4250   159.6110    25.0050     2.2040   -12.0290 
  192.2500    70.1120   179.0700   170.8600   139.2280    24.7590     2.2130   -12.0100 
  192.3750    68.5810   180.5520   170.1450   132.0680    24.6200     2.2220   -11.8430 
  192.5000    67.0130   186.4210   174.0320   137.1660    24.8860     2.2290   -11.4370 
  192.6250    66.2650   195.4880   181.4810   147.1100    25.5590     2.2350   -10.9490 
  192.7500    64.3080   205.1690   190.2270   174.7580    26.7820     2.2370   -10.5870 
  192.8750    61.4610   211.1720   196.2560   193.3610    25.6940     2.2320   -10.3550 
  193.0000    60.0160   211.2870   196.8780   198.7350    25.1210     2.2230   -10.0500 
  193.1250    60.5160   205.3630   191.4600   192.6590    24.9420     2.2140    -9.6710 
  193.2500    62.8110   195.2530   181.5020   178.1040    24.9570     2.2120    -9.2280 
  193.3750    66.1320   183.9880   169.9970   161.9270    24.8450     2.2160    -8.8320 
  193.5000    68.2170   174.5650   160.2750   149.3690    24.6760     2.2210    -8.5970 
  193.6250    68.3390   168.6630   154.1390   145.4680    24.6970     2.2240    -8.5760 
  193.7500    66.7450   167.3980   152.6430   143.2770    24.9130     2.2240    -8.8660 
  193.8750    65.0170   172.4730   157.3930   141.7290    24.9550     2.2220    -9.5370 
  194.0000    63.9060   183.2010   167.6450   153.1660    24.9330     2.2230   -10.3380 
  194.1250    62.3870   198.8540   182.6290   176.5250    24.8890     2.2260   -11.1140 
  194.2500    60.7550   217.4200   200.4550   204.6350    24.8710     2.2310   -11.9060 
  194.3750    61.1620   234.8720   217.1830   241.1320    24.8730     2.2270   -12.8150 
  194.5000    62.2170   246.9380   228.7330   256.7580    24.8740     2.2050   -13.6920 
  194.6250    62.3200   250.0140   232.6580   240.3120    24.8750     2.1740   -14.2390 
  194.7500    62.5580   240.9840   226.9650   221.3710    24.8920     2.1590   -14.4170 
  194.8750    65.2930   216.3980   207.1860   192.3300    24.9660     2.1980   -14.3460 
  195.0000    68.7410   182.1850   176.5410   141.4770    24.9170     2.2790   -14.2160 
  195.1250    74.2670   145.6090   141.5200   101.7360    24.4980     2.3600   -14.0580 
  195.2500    82.6960   114.0030   109.9390   102.8760    24.0390     2.3850   -13.7760 
  195.3750    87.2120    93.3500    88.6240    67.9850    24.0790     2.3130   -13.4200 
  195.5000    83.8090    82.5040    77.3230    42.3510    24.3400     2.1940   -13.2360 
  195.6250    76.3210    80.3070    74.8880    41.9860    24.6090     2.0970   -13.3280 
  195.7500    69.0580    85.5700    79.7960    57.5970    24.8990     2.0840   -13.4270 
  195.8750    62.7810    97.3430    91.7240    82.9490    24.6300     2.1880   -13.3150 
  196.0000    60.0350   109.5200   106.6020   107.9900    24.1830     2.3470   -13.0810 
  196.1250    61.2970   113.7980   116.3580   161.7420    23.9440     2.4970   -12.7930 
  196.2500    63.6950   103.3400   109.0280   187.9440    23.9250     2.5860   -12.5280 
  196.3750    65.9800    78.2870    80.4270   160.9980    24.0130     2.5820   -12.1310 
  196.5000    69.8400    51.3500    49.8870   121.9490    24.1250     2.5250   -11.4280 
  196.6250    74.4770    30.4670    27.9580    68.5380    24.2640     2.4520   -10.4860 
  196.7500    76.1350    16.7400    15.4240    25.7020    24.3610     2.3910    -9.5640 
  196.8750    74.1260    10.2240     9.7830    10.5440    24.3940     2.3540    -8.7770 
  197.0000    71.8770     6.7150     7.0040     6.3270    24.3610     2.3330    -8.0700 
  197.1250    70.1010     5.1060     5.6420     5.7100    24.3580     2.3190    -7.4460 
  197.2500    69.4420     4.6190     5.0320     5.7000    24.3700     2.3090    -6.8340 
  197.3750    69.6770     4.6390     4.9110     5.5280    24.3450     2.3040    -6.2330 
  197.5000    70.3190     4.7820     5.0120     5.3130    24.3180     2.3070    -5.7730 
  197.6250    73.2690     4.9850     5.2200     5.6670    24.2900     2.3200    -5.4350 
  197.7500    80.0780     5.2320     5.4670     6.2040    24.2500     2.3410    -5.1260 
  197.8750    89.0020     5.5350     5.7200     6.4880    24.2170     2.3690    -4.8820 
  198.0000    95.2130     5.8410     5.9470     6.6880    24.1440     2.3970    -4.6510 
  198.1250    98.8200     6.0730     6.1190     6.2610    24.0570     2.4190    -4.4000 
  198.2500   101.6230     6.1700     6.2160     6.0650    24.0000     2.4310    -4.2070 
  198.3750   104.4450     6.0990     6.2110     6.3780    24.0010     2.4320    -4.1380 
  198.5000   106.4160     5.9320     6.1140     6.5000    23.9540     2.4240    -4.1200 
  198.6250   107.7010     5.7320     5.9390     6.2140    23.7610     2.4120    -4.1310 
  198.7500   108.9000     5.5540     5.7320     5.8180    23.4120     2.3970    -4.1950 
  198.8750   108.3260     5.4490     5.5630     5.9000    23.2730     2.3850    -4.2300 
  199.0000   106.0080     5.4300     5.4610     5.8140    23.4550     2.3790    -4.2170 
  199.1250   104.3920     5.5040     5.4210     5.5010    23.7280     2.3810    -4.2140 
  199.2500   104.4590     5.6520     5.4200     5.3530    23.8020     2.3890    -4.1950 
  199.3750   103.5550     5.8210     5.4290     5.5120    23.7310     2.4000    -4.1230 
  199.5000   102.6300     5.9400     5.4290     5.6710    23.6650     2.4070    -4.0360 
  199.6250   103.8090     5.9700     5.4110     5.6990    23.6580     2.4060    -4.0020 
  199.7500   104.4950     5.9150     5.3630     5.8200    23.6560     2.3980    -3.9810 
  199.8750   100.5430     5.8200     5.2650     5.9410    23.5730     2.3880    -3.8570 
  200.0000    96.6440     5.7420     5.1340     5.7440    23.4490     2.3840    -3.6710 
  200.1250    94.7040     5.6990     5.0080     5.4740    23.3700     2.3890    -3.4410 
