~V
VERS. 2.00: Ver 2.00
~W
STRT.M 53.0000:
STOP.M 279.0000:
STEP.M 0.1250:
NULL. -999.2500:
UWI. F11068:
~C
DEPT.M :
GR.API :
RML.OHMM :
RI. :
RXO.OHMM :
CALI.CM :
SP.MV :
DEN.GM/CC :
~A
# ...
  154.2500    75.4090    16.7060    15.8320    16.8380    24.1570    -9.0870     2.6120 
  154.3750    74.7280    16.3980    15.4110    16.4920    24.0510    -9.2420     2.6180 
  154.5000    73.0690    16.4300    15.4000    16.5170    23.8310    -9.3700     2.6200 
  154.6250    72.1560    16.6250    15.6640    17.0350    23.5290    -9.5560     2.6090 
  154.7500    71.9910    16.7380    15.8840    18.2710    23.4360    -9.7360     2.5900 
  154.8750    71.0160    16.6910    15.8930    18.0900    23.5920    -9.9480     2.5720 
  155.0000    69.3300    16.5630    15.7120    16.9000    23.9900   -10.1870     2.5620 
  155.1250    68.9730    16.6000    15.5750    15.1900    24.3870   -10.4510     2.5660 
  155.2500    70.0820    16.9570    15.7270    15.0040    24.5830   -10.7330     2.5760 
  155.3750    71.2050    17.6180    16.2510    17.0310    24.6200   -11.0560     2.5840 
  155.5000    70.3830    18.3800    17.0190    19.7980    24.6500   -11.3640     2.5880 
  155.6250    68.1850    18.8440    17.6470    21.7260    24.6920   -11.6160     2.5850 
  155.7500    65.3300    18.7880    17.7880    21.2700    24.6950   -11.7970     2.5780 
  155.8750    59.7450    18.2110    17.3460    20.2550    24.6730   -11.9140     2.5690 
  156.0000    53.8800    17.3160    16.4960    17.3430    24.5990   -11.9790     2.5590 
  156.1250    54.5690    16.4320    15.5780    14.7710    24.5240   -12.0140     2.5530 
  156.2500    59.6940    15.8010    14.8600    14.3150    24.5000   -12.0370     2.5520 
  156.3750    62.4390    15.4970    14.4300    14.0480    24.4740   -12.0050     2.5580 
  156.5000    60.8590    15.4900    14.2930    13.6920    24.4060   -11.9230     2.5640 
  156.6250    60.8260    15.6770    14.4040    13.8420    24.3360   -11.7770     2.5620 
  156.7500    63.0530    15.8590    14.5660    14.3850    24.3270   -11.6970     2.5460 
  156.8750    63.7120    15.8990    14.6230    15.3530    24.3930   -11.6630     2.5200 
  157.0000    61.2420    15.7350    14.4690    16.1720    24.4550   -11.6960     2.4930 
  157.1250    59.0850    15.3940    14.0730    15.3300    24.4570   -11.7480     2.4810 
  157.2500    59.6840    15.0710    13.6010    14.0270    24.4380   -11.8210     2.4900 
  157.3750    61.4360    14.9540    13.2510    12.8920    24.3610   -11.9030     2.5160 
  157.5000    63.5760    15.1840    13.2050    12.8950    24.2140   -12.0070     2.5460 
  157.6250    66.4850    15.8260    13.6100    13.0750    24.0400   -12.2350     2.5570 
  157.7500    70.2280    16.6510    14.3120    13.9680    23.8830   -12.5400     2.5410 
  157.8750    73.7110    17.4120    15.0940    14.9180    23.7620   -12.8450     2.5020 
  158.0000    75.4820    17.8960    15.6870    15.2520    23.6560   -13.0860     2.4540 
  158.1250    75.0540    17.9830    15.8700    15.8340    23.6820   -13.2920     2.4190 
  158.2500    75.8310    17.8550    15.7990    15.9220    23.9850   -13.5520     2.3990 
  158.3750    79.4040    17.6480    15.6500    16.7110    24.5220   -13.8590     2.3860 
  158.5000    81.4910    17.3770    15.4770    16.3390    25.0610   -14.1710     2.3690 
  158.6250    78.0790    16.8550    15.1160    16.3670    25.3960   -14.4000     2.3430 
  158.7500    75.6800    15.9490    14.3890    17.4800    25.5320   -14.5710     2.3140 
  158.8750    78.7920    14.6360    13.2200    19.2740    25.5450   -14.7410     2.2920 
  159.0000    83.7440    12.9330    11.7220    18.0690    25.5010   -15.0060     2.2800 
  159.1250    83.5710    11.0040    10.1720    11.6580    25.2540   -15.3360     2.2730 
  159.2500    80.6190     9.3110     8.8270     9.3140    24.9290   -15.6470     2.2660 
  159.3750    78.0810     8.1910     7.7980     8.7160    24.6940   -15.8890     2.2600 
  159.5000    77.2520     7.6990     7.1420     8.4060    24.5130   -16.0790     2.2640 
  159.6250    78.2730     7.7410     6.9570     7.9200    24.3100   -16.2150     2.2940 
  159.7500    78.3500     8.1220     7.1630     7.9370    24.1120   -16.2410     2.3470 
  159.8750    75.9720     8.7090     7.6830     8.9080    23.9690   -16.1200     2.4120 
  160.0000    73.5330     9.2540     8.3320    10.8720    23.9080   -15.7730     2.4690 
  160.1250    75.1350     9.3760     8.7190    13.9000    23.9900   -15.2510     2.5010 
  160.2500    81.1130     8.9450     8.5450    15.2520    24.1420   -14.4790     2.5090 
  160.3750    88.3180     8.0320     7.7900    12.1330    24.2260   -13.5550     2.5040 
  160.5000    94.4270     6.8960     6.7210     8.4620    24.1860   -12.5370     2.4860 
  160.6250    97.9020     5.8890     5.7120     5.9720    24.0590   -11.5270     2.4430 
  160.7500    98.3800     5.1880     4.9520     5.2110    23.9460   -10.5350     2.3670 
  160.8750    97.6380     4.8070     4.4650     4.9540    23.8220    -9.6390     2.2630 
  161.0000    95.9630     4.6690     4.1990     4.7290    23.7380    -8.8740     2.1580 
  161.1250    93.3860     4.6740     4.0880     4.4140    23.7730    -8.2380     2.0930 
  161.2500    91.2450     4.7030     4.0340     4.2070    23.9980    -7.8510     2.0820 
  161.3750    91.8660     4.7150     3.9970     4.0680    24.3610    -7.7400     2.1140 
  161.5000    95.9110     4.7080     3.9690     4.0640    24.8020    -7.8540     2.1690 
  161.6250    98.0360     4.6980     3.9530     4.2270    25.0170    -8.0660     2.2270 
  161.7500    98.0590     4.6980     3.9490     4.3500    24.9700    -8.3140     2.2790 
  161.8750    99.0720     4.7100     3.9520     4.3560    24.7350    -8.5580     2.3240 
  162.0000   101.4950     4.7330     3.9580     4.3050    24.4270    -8.8110     2.3590 
  162.1250   106.0530     4.7680     3.9640     4.2270    24.3140    -8.9980     2.3760 
  162.2500   111.0370     4.8130     3.9660     4.1820    24.2820    -9.0910     2.3800 
  162.3750   113.5590     4.8680     3.9660     4.1680    24.2760    -9.0690     2.3780 
  162.5000   111.2110     4.9310     3.9700     4.2650    24.2870    -8.9500     2.3750 
  162.6250   103.4430     4.9930     3.9810     4.3160    24.3050    -8.8230     2.3740 
  162.7500    95.5640     5.0440     3.9960     4.3230    24.3600    -8.6960     2.3740 
  162.8750    91.7640     5.0760     4.0100     4.4210    24.4480    -8.5740     2.3730 
  163.0000    92.0640     5.0900     4.0180     4.5660    24.5520    -8.3940     2.3740 
  163.1250    93.8850     5.0940     4.0130     4.6280    24.6660    -8.2740     2.3760 
  163.2500    94.3670     5.1020     3.9980     4.6720    24.6960    -8.1220     2.3790 
  163.3750    94.9180     5.1220     3.9780     4.6730    24.6100    -7.9320     2.3800 
  163.5000    95.6730     5.1520     3.9550     4.6370    24.4650    -7.7150     2.3790 
  163.6250    96.5070     5.1810     3.9340     4.6410    24.3960    -7.5160     2.3790 
  163.7500    98.9520     5.1960     3.9140     4.6890    24.4030    -7.2930     2.3830 
  163.8750   102.5450     5.1880     3.8890     4.7200    24.4490    -7.1250     2.3900 
  164.0000   105.2750     5.1480     3.8540     4.7190    24.4980    -7.0240     2.3980 
  164.1250   103.2510     5.0710     3.8060     4.5940    24.5470    -6.9390     2.4000 
  164.2500    96.0620     4.9760     3.7510     4.4700    24.6230    -6.9570     2.3940 
  164.3750    89.2350     4.8800     3.6950     4.4200    24.7310    -7.0660     2.3820 
  164.5000    91.4830     4.7970     3.6420     4.3670    24.8040    -7.2490     2.3690 
  164.6250   103.7010     4.7310     3.5940     4.2190    24.8440    -7.4560     2.3600 
  164.7500   114.9230     4.6720     3.5530     4.0800    24.8750    -7.7030     2.3570 
  164.8750   117.8010     4.6160     3.5210     4.0840    24.8950    -7.9870     2.3600 
  165.0000   111.3700     4.5730     3.5040     4.1330    24.9070    -8.2920     2.3650 
  165.1250   101.5620     4.5640     3.5030     4.1280    24.8770    -8.5650     2.3690 
  165.2500    96.8420     4.5930     3.5110     4.1290    24.8420    -8.7670     2.3710 
  165.3750    99.8090     4.6430     3.5210     4.1560    24.8200    -8.9060     2.3740 
