~V
VERS. 2.00: Ver 2.00
~W
STRT.M 47.0000:
STOP.M 272.0000:
STEP.M 0.1250:
NULL. -999.2500:
UWI. F11040:
~C
DEPT.M :
DEN.GM/CC :
GR.API :
RML.OHMM :
RI. :
RXO.OHMM :
CALI.CM :
SP.MV :
~A
# ...
  170.7500     2.2800    57.7830   185.9170   166.4110   152.1360    23.9100   -20.6390 
  170.8750     2.2700    56.8920   199.5250   178.5950   182.3160    24.1590   -20.7400 
  171.0000     2.2630    55.3640   203.5720   182.5780   212.8160    24.1890   -20.8170 
  171.1250     2.2610    54.4130   196.5780   176.8260   228.4870    24.0570   -20.9230 
  171.2500     2.2630    55.2060   184.8330   166.3370   201.0360    23.9180   -20.9770 
  171.3750     2.2670    57.0680   173.9220   155.7940   163.5770    23.8030   -20.9670 
  171.5000     2.2730    58.9020   167.9590   149.0660   144.5840    23.6690   -20.9360 
  171.6250     2.2790    62.0310   170.1770   149.4360   125.6800    23.4210   -20.8740 
  171.7500     2.2830    63.9070   179.6060   156.2850   122.8980    23.1180   -20.8300 
  171.8750     2.2840    62.1550   195.3670   168.8140   133.7800    22.9000   -20.7590 
  172.0000     2.2810    58.7000   215.7920   185.4940   150.6980    22.8340   -20.6150 
  172.1250     2.2740    56.3160   238.2840   204.1140   169.4230    22.9250   -20.3660 
  172.2500     2.2630    55.8940   258.9990   221.4710   185.5230    23.0570   -20.0940 
  172.3750     2.2510    56.8710   274.9540   235.0970   195.8800    23.1490   -19.8210 
  172.5000     2.2390    58.6660   284.1890   243.2530   201.4920    23.1850   -19.5370 
  172.6250     2.2320    58.2150   285.4900   244.6080   205.1750    23.1930   -19.1830 
  172.7500     2.2330    56.0370   281.9730   241.5300   211.3470    23.2050   -18.7530 
  172.8750     2.2390    53.9190   276.3580   236.2930   219.2220    23.2330   -18.2920 
  173.0000     2.2440    53.5290   271.1600   231.2520   220.3560    23.2880   -17.8730 
  173.1250     2.2440    53.6290   268.1070   228.2950   210.4240    23.3870   -17.4860 
  173.2500     2.2370    52.2380   266.5590   227.1130   211.2280    23.4800   -17.0960 
  173.3750     2.2280    49.0950   265.0380   226.5670   222.0220    23.4810   -16.7150 
  173.5000     2.2190    46.6720   261.4720   224.9080   236.1220    23.3420   -16.3370 
  173.6250     2.2140    48.3160   252.6890   219.3200   242.5390    23.0530   -16.0200 
  173.7500     2.2110    50.7400   237.9100   208.6280   243.0430    22.7090   -15.7490 
  173.8750     2.2100    52.4280   217.4580   192.5910   224.1280    22.4100   -15.5290 
  174.0000     2.2130    55.6830   193.3660   172.5290   219.6620    22.3580   -15.3380 
  174.1250     2.2200    58.3580   169.1390   151.2240   220.7450    22.6170   -15.2310 
  174.2500     2.2290    58.6980   147.9700   131.9700   197.7160    23.0070   -15.1600 
  174.3750     2.2360    59.6860   131.4040   116.5440   153.0520    23.3700   -15.0700 
  174.5000     2.2390    62.9470   119.8470   105.5900   113.6180    23.6380   -14.9810 
  174.6250     2.2350    63.4470   113.5220    99.5100    99.0140    23.7850   -14.9310 
  174.7500     2.2280    59.7270   110.6220    96.7980   100.5180    23.8420   -14.9210 
  174.8750     2.2210    58.4590   110.0720    96.6170   101.8400    23.8300   -14.9380 
  175.0000     2.2180    62.4500   110.8810    98.1950    98.4600    23.7880   -14.9890 
  175.1250     2.2210    66.3760   112.2850   101.0040   102.8260    23.7790   -15.0100 
  175.2500     2.2250    65.8040   113.6180   104.2770   107.9490    23.7990   -15.0180 
  175.3750     2.2260    63.0090   114.3470   107.3350   110.1540    23.8500   -15.0580 
  175.5000     2.2210    61.2940   113.6440   109.0970   109.7010    23.9230   -15.1010 
  175.6250     2.2150    61.7900   109.7090   107.3870   108.8140    23.9920   -15.1430 
  175.7500     2.2130    63.6690   101.6760   101.0840   113.9360    24.0540   -15.1760 
  175.8750     2.2170    65.1560    89.1640    89.6360   120.3100    24.1080   -15.1720 
  176.0000     2.2290    64.3640    73.2780    74.1280   117.3930    24.1210   -15.1100 
  176.1250     2.2480    61.9770    56.9090    57.7050    98.9380    24.0740   -15.0570 
  176.2500     2.2720    62.3340    43.0490    43.7750    75.3090    23.9700   -15.0190 
  176.3750     2.3000    66.3610    32.8450    33.5350    49.3290    23.8360   -14.9730 
  176.5000     2.3300    70.0460    26.2100    26.8000    30.5970    23.7220   -14.9350 
  176.6250     2.3540    70.3540    22.9540    23.2430    22.5530    23.6540   -14.8840 
  176.7500     2.3680    68.5970    22.1640    21.8720    23.6480    23.6020   -14.8450 
  176.8750     2.3710    65.4130    23.9890    22.6870    26.0520    23.5540   -14.8510 
  177.0000     2.3620    61.8770    28.9980    26.1250    23.8440    23.5260   -14.9070 
  177.1250     2.3450    60.1180    38.5440    33.6880    28.2850    23.5470   -14.9670 
  177.2500     2.3240    60.3100    51.8370    45.6490    45.0210    23.6460   -15.0030 
  177.3750     2.3030    59.9840    68.3590    61.9210    75.7200    23.7940   -15.0290 
  177.5000     2.2860    58.1290    86.4560    81.0500   120.0890    23.9170   -15.0500 
  177.6250     2.2740    57.4800   102.2100    99.6670   141.9750    23.9170   -15.0520 
  177.7500     2.2640    58.5510   116.8650   114.2250   127.8070    23.8550   -15.0390 
  177.8750     2.2500    59.8630   127.6730   123.4690   104.4110    23.7940   -15.0210 
  178.0000     2.2320    58.8870   135.9680   128.8570    88.6020    23.7700   -14.9970 
  178.1250     2.2090    55.4640   143.5420   132.7090    97.9160    23.7960   -14.9610 
  178.2500     2.1900    54.3900   150.5970   136.0160   115.3030    23.8820   -14.9560 
  178.3750     2.1780    57.3710   155.7260   137.9760   134.7020    24.0110   -14.9590 
  178.5000     2.1760    62.5910   157.4510   137.6260   148.5200    24.1480   -14.9450 
  178.6250     2.1850    64.6100   154.5810   134.2300   137.1710    24.2390   -14.9100 
  178.7500     2.1990    63.3350   148.7320   128.9630   126.9790    24.2810   -14.8820 
  178.8750     2.2150    61.5170   141.5440   123.0360   120.7750    24.2920   -14.8620 
  179.0000     2.2310    60.5780   134.5320   117.5850   120.2770    24.2930   -14.8610 
  179.1250     2.2440    60.6860   128.7470   113.4390   117.0540    24.2930   -14.8560 
  179.2500     2.2550    61.5680   123.9200   110.2640   108.8880    24.2930   -14.8110 
  179.3750     2.2640    62.3810   119.2460   107.3080   102.6580    24.2930   -14.7610 
  179.5000     2.2680    61.3760   113.5250   103.4590   104.0930    24.2930   -14.7300 
  179.6250     2.2710    58.8420   105.2140    97.2040   108.3400    24.2930   -14.7270 
  179.7500     2.2730    57.5170    94.5250    88.5550   110.5820    24.2930   -14.7280 
  179.8750     2.2770    58.1810    82.5120    78.3200   104.5050    24.2930   -14.7330 
  180.0000     2.2820    59.2040    70.9180    68.0540    90.4050    24.2930   -14.7500 
  180.1250     2.2880    61.1600    61.9220    59.8120    71.5860    24.2930   -14.7680 
  180.2500     2.2900    64.6810    56.0340    54.2600    54.3670    24.2950   -14.8030 
  180.3750     2.2880    66.7310    53.1880    51.4310    46.0350    24.3000   -14.8160 
  180.5000     2.2820    66.7930    52.8760    50.9250    44.9270    24.3110   -14.8320 
  180.6250     2.2760    67.1400    54.5870    52.3570    48.0680    24.3280   -14.9100 
  180.7500     2.2730    68.2020    57.2230    54.7390    52.3460    24.3440   -15.0220 
  180.8750     2.2740    66.0980    60.1990    57.5020    56.4210    24.3450   -15.1530 
  181.0000     2.2760    61.0170    63.1370    60.2190    58.5680    24.3310   -15.2620 
  181.1250     2.2760    60.6320    65.8720    62.6250    59.6520    24.3060   -15.3480 
  181.2500     2.2700    64.8960    68.5410    64.7960    60.2270    24.2660   -15.4400 
  181.3750     2.2600    67.0750    71.3410    66.8960    62.7480    24.2140   -15.5730 
  181.5000     2.2470    63.7150    74.4830    69.1200    66.7030    24.1750   -15.7220 
  181.6250     2.2370    60.0650    78.2340    71.7080    70.7070    24.1610   -15.8320 
  181.7500     2.2340    61.8950    82.5920    74.7260    73.9900    24.1600   -15.9330 
  181.8750     2.2350    64.8180    87.5420    78.2020    77.6300    24.1580   -16.0030 
