~V
VERS. 2.00: Ver 2.00
~W
STRT.M 40.0000:
STOP.M 275.0000:
STEP.M 0.1250:
NULL. -999.2500:
UWI. F11027:
~C
DEPT.M :
DEN.GM/CC :
GR.API :
RML.OHMM :
RI. :
RXO.OHMM :
CALI.CM :
SP.MV :
~A
# ...
  152.5000     2.1180    76.1550   168.0340   145.1700  4179.2410    20.3670    -9.5400 
  152.6250     2.1370    77.3490   125.6540   110.0200  2335.2760    20.7470    -9.4410 
  152.7500     2.1520    75.4220    97.4530    86.1500  2254.8380    21.3090    -9.1980 
  152.8750     2.1700    72.8580    76.8890    68.0790  2071.1160    21.9980    -8.9280 
  153.0000     2.1970    72.2490    60.8640    53.4940  1102.7350    22.8200    -8.6730 
  153.1250     2.2310    74.0490    49.1440    42.7630   244.7410    23.6480    -8.3860 
  153.2500     2.2600    76.3860    40.9150    35.4630    81.9330    24.2690    -8.0540 
  153.3750     2.2780    76.6130    35.6970    31.1750    35.1540    24.6530    -7.7580 
  153.5000     2.2830    74.2010    32.8280    29.1790    27.1150    24.9760    -7.5990 
  153.6250     2.2810    71.3380    31.7860    28.8170    25.9930    25.2380    -7.6030 
  153.7500     2.2800    70.0300    31.4920    29.0870    24.3070    25.3420    -7.7390 
  153.8750     2.2830    68.4350    31.3730    29.5270    22.6480    25.3400    -7.9030 
  154.0000     2.2890    66.3990    31.2700    29.9220    21.4100    25.3110    -8.0690 
  154.1250     2.2950    67.2730    31.5560    30.4020    23.3060    25.2750    -8.2840 
  154.2500     2.2980    69.1610    32.6170    31.3730    24.5500    25.2890    -8.6210 
  154.3750     2.2950    68.3420    34.8170    33.2830    24.1960    25.2970    -9.0090 
  154.5000     2.2840    65.2380    38.3580    36.4640    23.9700    25.2710    -9.3570 
  154.6250     2.2660    63.5280    43.3190    41.1850    28.8230    25.2880    -9.6310 
  154.7500     2.2490    64.9460    48.8750    46.7250    39.6960    25.3080    -9.7930 
  154.8750     2.2380    67.3730    54.0820    52.0890    51.1620    25.2920    -9.8540 
  155.0000     2.2370    68.7810    57.9460    56.1130    55.4510    25.2960    -9.8880 
  155.1250     2.2430    68.0070    59.5970    57.7360    51.9750    25.3400    -9.9380 
  155.2500     2.2480    65.8910    59.7290    57.6540    47.4440    25.3690    -9.9400 
  155.3750     2.2480    63.0140    59.2380    56.8670    46.1340    25.3810    -9.9360 
  155.5000     2.2440    60.9100    58.9690    56.3580    48.0490    25.3710    -9.9430 
  155.6250     2.2410    60.9550    59.4410    56.6900    46.9210    25.3550    -9.9700 
  155.7500     2.2430    61.6970    60.4230    57.5580    47.5680    25.3250   -10.0590 
  155.8750     2.2500    61.3940    61.5390    58.6540    53.9230    25.2980   -10.1560 
  156.0000     2.2600    60.8540    62.2000    59.6800    57.6760    25.2580   -10.1500 
  156.1250     2.2730    62.3470    61.1040    59.6540    51.7970    25.1810   -10.0690 
  156.2500     2.2870    65.0120    57.4560    57.1960    48.3840    25.1060    -9.9460 
  156.3750     2.3010    66.0810    51.1810    51.4650    48.4890    25.0750    -9.7530 
  156.5000     2.3120    65.1580    43.4260    43.4230    49.0080    25.1010    -9.5280 
  156.6250     2.3130    65.7300    36.5280    35.7730    37.9820    25.0990    -9.2190 
  156.7500     2.3050    66.7810    32.2200    30.5050    25.4050    25.0640    -8.8470 
  156.8750     2.2960    65.6020    31.1900    28.2710    22.4720    25.0480    -8.5110 
  157.0000     2.2960    63.4750    33.3310    29.1190    32.9550    25.0670    -8.3190 
  157.1250     2.3170    64.5330    38.0280    33.0650    47.8430    25.0930    -8.2320 
  157.2500     2.3510    65.9940    43.0340    38.4310    49.6900    25.0610    -8.1910 
  157.3750     2.3800    64.1980    46.2630    43.0240    45.0010    24.9780    -8.1820 
  157.5000     2.3910    62.4320    46.2250    44.3860    41.4260    24.9250    -8.1730 
  157.6250     2.3750    63.4050    42.6370    41.3300    35.9620    24.9320    -8.2370 
  157.7500     2.3470    64.0900    37.7890    36.5810    31.1820    25.0030    -8.3590 
  157.8750     2.3230    63.7580    33.2580    32.0760    27.4090    25.0680    -8.4720 
  158.0000     2.3120    62.9240    29.7880    28.5830    23.7170    25.1000    -8.5080 
  158.1250     2.3140    62.2520    27.5430    26.1890    22.3550    25.1060    -8.4180 
  158.2500     2.3200    61.7960    26.1150    24.5260    23.0370    25.1030    -8.2860 
  158.3750     2.3220    62.9330    25.3690    23.4990    22.8810    25.0890    -8.1210 
  158.5000     2.3170    66.7480    25.2020    23.0650    20.5450    25.0340    -7.9160 
  158.6250     2.3050    72.3170    25.4750    23.2030    19.1060    24.9370    -7.6800 
  158.7500     2.2940    76.4490    25.7530    23.5670    19.7980    24.8030    -7.4190 
  158.8750     2.2880    75.4280    25.6070    23.7280    22.3350    24.7110    -7.2040 
  159.0000     2.2870    70.5760    24.6560    23.1630    23.3720    24.7010    -7.0560 
  159.1250     2.2920    69.7360    22.6360    21.3530    21.5450    24.6990    -7.0040 
  159.2500     2.2990    74.8530    20.0250    18.7320    17.9760    24.6680    -6.9550 
  159.3750     2.3090    81.3820    17.3670    15.9350    15.1950    24.6250    -6.9150 
  159.5000     2.3190    85.0080    15.1980    13.5620    13.5160    24.6190    -6.8910 
  159.6250     2.3280    84.9910    14.0230    12.0840    11.4050    24.4710    -6.8120 
  159.7500     2.3310    85.6290    13.7700    11.4270    10.2710    24.1730    -6.7110 
  159.8750     2.3280    87.3010    14.3070    11.5100    10.7510    24.0530    -6.5830 
  160.0000     2.3170    88.5370    15.3920    12.2000    13.2990    24.2600    -6.4270 
  160.1250     2.3040    87.6670    16.6880    13.3170    15.1230    24.6580    -6.2710 
  160.2500     2.2910    84.2970    17.7790    14.4540    16.4500    24.8910    -6.1520 
  160.3750     2.2820    78.6990    18.4230    15.2860    17.1360    24.9650    -6.0930 
  160.5000     2.2810    72.4090    18.5490    15.6140    17.0030    24.9500    -6.1100 
  160.6250     2.2910    68.7520    18.2310    15.4140    16.4540    24.9540    -6.2160 
  160.7500     2.3050    68.3580    17.7790    14.9870    15.5710    24.9710    -6.4000 
  160.8750     2.3190    70.4080    17.3830    14.5270    15.0450    24.9700    -6.6190 
  161.0000     2.3260    73.3730    17.1600    14.1660    14.7250    24.9530    -6.8420 
  161.1250     2.3240    76.2290    17.1810    14.0020    15.6470    24.9840    -7.0270 
  161.2500     2.3160    76.6340    17.3660    14.0080    15.7110    25.0580    -7.1720 
  161.3750     2.3050    74.8120    17.6260    14.1330    15.2740    25.1280    -7.2850 
  161.5000     2.2940    73.6050    17.8390    14.2900    15.1120    25.1460    -7.3550 
  161.6250     2.2860    74.2320    17.8430    14.3410    15.3930    25.1030    -7.3880 
  161.7500     2.2840    76.1710    17.5950    14.2100    14.9750    25.0290    -7.3880 
  161.8750     2.2890    77.6090    17.1170    13.8790    14.2540    24.9780    -7.3290 
  162.0000     2.3000    79.0940    16.5010    13.3980    13.5050    24.9320    -7.2200 
  162.1250     2.3140    80.2580    15.8900    12.8640    13.1470    24.8520    -7.0830 
  162.2500     2.3270    79.6260    15.4040    12.3920    12.7510    24.7030    -6.9460 
  162.3750     2.3360    78.3240    15.0910    12.0430    12.5470    24.5370    -6.7990 
  162.5000     2.3400    77.9810    14.9520    11.8370    12.4700    24.4320    -6.7140 
  162.6250     2.3390    79.4140    14.9650    11.7820    12.5110    24.4110    -6.6480 
  162.7500     2.3350    79.7990    15.0490    11.8150    12.5670    24.4340    -6.5220 
  162.8750     2.3310    77.4530    15.1540    11.8870    12.4780    24.4840    -6.3900 
  163.0000     2.3260    74.4810    15.2430    11.9600    12.6630    24.5100    -6.3170 
  163.1250     2.3200    74.4840    15.2960    12.0030    13.1180    24.4690    -6.3450 
  163.2500     2.3130    77.2750    15.3290    12.0170    13.8280    24.4070    -6.4480 
  163.3750     2.3080    79.0770    15.3700    12.0120    14.2160    24.3950    -6.6350 
  163.5000     2.3070    78.2780    15.4540    12.0130    14.4060    24.4420    -6.8480 
  163.6250     2.3110    77.6760    15.6350    12.0620    14.5630    24.4230    -7.0890 
