~V
VERS. 2.00: Ver 2.00
~W
STRT.M 55.0000:
STOP.M 249.0000:
STEP.M 0.1250:
NULL. -999.2500:
UWI. F11017:
~C
DEPT.M :
GR.API :
RML.OHMM :
RI. :
RXO.OHMM :
CALI.CM :
DEN.GM/CC :
SP.MV :
~A
# ...
  133.7500    45.5350    29.7170    27.9060    30.0040    23.8230     2.5490    -9.3150 
  133.8750    45.1130    29.5780    28.0490    29.9730    23.7700     2.5480    -9.4250 
  134.0000    44.9240    28.7160    27.5630    28.5150    23.7070     2.5490    -9.5510 
  134.1250    43.8820    27.3490    26.5820    27.1560    23.6000     2.5490    -9.7080 
  134.2500    43.7010    26.0180    25.5600    25.3890    23.4900     2.5490    -9.8860 
  134.3750    45.5100    25.1360    24.8610    23.2630    23.4090     2.5460   -10.0900 
  134.5000    47.8140    24.9730    24.7460    21.1540    23.3360     2.5420   -10.3200 
  134.6250    47.7150    25.5950    25.3320    20.3760    23.2680     2.5420   -10.5680 
  134.7500    46.3370    26.3990    26.1370    21.5500    23.2550     2.5450   -10.8200 
  134.8750    45.2560    26.6450    26.5130    23.9830    23.2740     2.5490   -11.0740 
  135.0000    46.1640    25.5940    25.7320    27.1500    23.3220     2.5440   -11.3340 
  135.1250    49.8270    22.6680    23.1010    28.3300    23.4390     2.5200   -11.6040 
  135.2500    54.4450    18.6990    19.3450    25.9960    23.5880     2.4790   -11.9010 
  135.3750    59.7860    14.7140    15.4850    20.0170    23.6730     2.4270   -12.2150 
  135.5000    66.2780    11.5940    12.3860    12.4150    23.6730     2.3730   -12.5210 
  135.6250    70.9730     9.8620    10.5210     8.1700    23.6240     2.3260   -12.7920 
  135.7500    71.6060     9.0780     9.5300     7.4970    23.5580     2.2910   -13.0120 
  135.8750    69.6160     8.8590     9.1210     8.3380    23.5060     2.2690   -13.1680 
  136.0000    66.7150     8.8800     9.0250     9.2360    23.4880     2.2600   -13.2400 
  136.1250    63.1850     8.9740     9.0740     9.3350    23.5130     2.2590   -13.2190 
  136.2500    61.8850     9.1540     9.2190     8.7260    23.5590     2.2640   -13.1360 
  136.3750    64.7610     9.5710     9.5690     7.8110    23.6380     2.2750   -13.0130 
  136.5000    69.1380    10.3830    10.2760     7.7990    23.7780     2.2970   -12.8630 
  136.6250    67.4280    11.6950    11.4850     8.9760    23.9430     2.3340   -12.6910 
  136.7500    61.9970    13.2470    12.9980    11.3710    24.0550     2.3720   -12.5160 
  136.8750    60.2600    14.7060    14.5220    15.0110    24.1210     2.3900   -12.3630 
  137.0000    63.8570    15.7080    15.6800    17.0740    24.1740     2.3740   -12.2640 
  137.1250    66.0130    15.9030    16.0390    16.4050    24.2090     2.3260   -12.2240 
  137.2500    65.0740    15.5110    15.7320    15.0470    24.2510     2.2760   -12.2020 
  137.3750    64.6530    14.8820    15.0820    14.0460    24.2930     2.2380   -12.1670 
  137.5000    66.6940    14.4180    14.4950    13.4810    24.3370     2.2170   -12.1010 
  137.6250    67.0170    14.5110    14.3530    13.4540    24.3520     2.2110   -12.0020 
  137.7500    65.8460    15.1810    14.7130    13.8060    24.3560     2.2180   -11.8860 
  137.8750    65.6260    16.3750    15.5680    14.4200    24.3490     2.2410   -11.7560 
  138.0000    64.1740    17.9670    16.8450    15.9810    24.3230     2.2860   -11.6080 
  138.1250    57.1700    19.7460    18.4170    19.2270    24.3000     2.3520   -11.4450 
  138.2500    47.8510    21.3960    19.9990    22.7440    24.2940     2.4240   -11.2870 
  138.3750    42.4030    22.6920    21.3630    24.7680    24.2860     2.4900   -11.1450 
  138.5000    43.2940    23.5170    22.3480    26.6530    24.2790     2.5380   -11.0270 
  138.6250    46.5050    23.8510    22.8590    26.1760    24.2840     2.5610   -10.9310 
  138.7500    47.1770    23.9640    23.0980    25.2500    24.2870     2.5670   -10.8490 
  138.8750    44.1960    24.0460    23.2340    23.8150    24.2840     2.5620   -10.7770 
  139.0000    40.7450    24.2030    23.3850    22.3150    24.2900     2.5550   -10.7150 
  139.1250    39.6070    24.4300    23.5750    21.9610    24.2960     2.5520   -10.6760 
  139.2500    40.1200    24.6070    23.7250    22.7000    24.2920     2.5540   -10.6480 
  139.3750    41.0730    24.6100    23.7340    24.0430    24.2880     2.5600   -10.6310 
  139.5000    41.0930    24.3490    23.5220    24.6330    24.2940     2.5670   -10.6170 
  139.6250    40.0440    23.7760    23.0420    23.0500    24.2970     2.5700   -10.6180 
  139.7500    38.9170    23.0250    22.4070    21.3350    24.2890     2.5660   -10.6340 
  139.8750    39.6480    22.2090    21.7160    20.4640    24.2850     2.5580   -10.6630 
  140.0000    42.8950    21.4430    21.0630    20.2990    24.2880     2.5470   -10.7060 
  140.1250    45.1990    20.8560    20.5590    20.7620    24.2760     2.5360   -10.7540 
  140.2500    46.2870    20.4980    20.2540    20.9630    24.2590     2.5270   -10.8100 
  140.3750    47.5640    20.4090    20.1930    20.1440    24.2350     2.5200   -10.8670 
  140.5000    49.7490    20.5800    20.3800    19.3520    24.1960     2.5140   -10.9240 
  140.6250    50.8250    20.9270    20.7580    19.2610    24.1370     2.5040   -10.9800 
  140.7500    50.6090    21.2430    21.1370    19.4800    24.0840     2.4880   -11.0420 
  140.8750    51.5220    21.3620    21.3510    20.0160    24.0200     2.4670   -11.1190 
  141.0000    53.4150    21.1770    21.2780    20.8020    23.9720     2.4460   -11.2100 
  141.1250    54.0330    20.6400    20.8460    20.1400    24.0190     2.4330   -11.3040 
  141.2500    53.1760    19.9300    20.2090    18.5530    24.0540     2.4320   -11.3820 
  141.3750    51.5120    19.1990    19.5120    17.8730    24.0670     2.4420   -11.4440 
  141.5000    49.0800    18.5650    18.8670    18.3810    24.0610     2.4570   -11.4960 
  141.6250    46.8880    18.0990    18.3480    18.4860    24.1120     2.4690   -11.5410 
  141.7500    46.1180    17.7550    17.9320    17.6620    24.1910     2.4720   -11.5790 
  141.8750    47.4290    17.4980    17.6010    16.9620    24.2360     2.4670   -11.6080 
  142.0000    50.4560    17.3170    17.3490    16.8170    24.2650     2.4580   -11.6320 
  142.1250    54.0060    17.2760    17.2340    16.6850    24.2880     2.4490   -11.6520 
  142.2500    55.3750    17.4460    17.3110    16.9710    24.2890     2.4440   -11.6740 
  142.3750    54.0270    17.9120    17.6560    17.4710    24.2840     2.4430   -11.7010 
  142.5000    51.9480    18.7150    18.3210    17.9110    24.2900     2.4470   -11.7250 
  142.6250    52.9460    19.8310    19.3240    18.3580    24.2870     2.4540   -11.7520 
  142.7500    55.8060    21.0130    20.4560    19.6060    24.2840     2.4630   -11.8020 
  142.8750    56.8460    22.0100    21.4850    21.7390    24.2900     2.4700   -11.8740 
  143.0000    54.2290    22.5990    22.1700    24.2250    24.2970     2.4730   -11.9570 
  143.1250    50.0790    22.5970    22.2760    24.7350    24.2910     2.4670   -12.0330 
  143.2500    48.3470    22.1940    21.9380    22.4480    24.2910     2.4580   -12.0870 
  143.3750    48.0830    21.6010    21.3460    20.3630    24.3040     2.4510   -12.1160 
  143.5000    47.7010    21.0180    20.7090    19.5740    24.3150     2.4510   -12.1510 
  143.6250    48.7020    20.5870    20.1990    19.7930    24.2950     2.4590   -12.2030 
  143.7500    51.5020    20.3020    19.8470    19.7600    24.2880     2.4700   -12.2550 
  143.8750    53.5020    20.1340    19.6390    18.9890    24.2890     2.4800   -12.3030 
  144.0000    53.0600    20.0640    19.5480    18.0980    24.2850     2.4870   -12.3510 
  144.1250    51.5630    20.1030    19.5670    17.9100    24.2820     2.4940   -12.4030 
  144.2500    49.7630    20.2070    19.6490    18.1100    24.2900     2.5040   -12.4660 
  144.3750    47.2790    20.3100    19.7370    18.7180    24.2940     2.5160   -12.5370 
  144.5000    44.9890    20.3290    19.7610    19.0730    24.2910     2.5280   -12.6080 
  144.6250    45.4150    20.1800    19.6430    19.3440    24.2940     2.5380   -12.6830 
  144.7500    48.9750    19.9150    19.4140    19.3000    24.2910     2.5430   -12.7670 
  144.8750    54.7220    19.6320    19.1540    18.5300    24.2800     2.5430   -12.8570 
