~V
VERS. 2.00: Ver 2.00
~W
STRT.M 55.0000:
STOP.M 276.0000:
STEP.M 0.1250:
NULL. -999.2500:
UWI. F11046:
~C
DEPT.M :
GR.API :
RML.OHMM :
RI. :
RXO.OHMM :
CALI.CM :
DEN.GM/CC :
SP.MV :
~A
# ...
  145.0000    89.6360     7.8590     6.7650     6.9160    24.8320     2.3980    -9.2480 
  145.1250    85.9520     7.7280     6.6290     6.7130    24.9110     2.4000    -9.4320 
  145.2500    86.0350     7.5760     6.4510     6.6430    24.9390     2.4070    -9.5470 
  145.3750    89.4360     7.4450     6.2730     6.6040    24.9370     2.4090    -9.6470 
  145.5000    92.4250     7.3630     6.1330     6.5770    24.9450     2.4000    -9.7050 
  145.6250    91.3530     7.3560     6.0600     6.6570    24.9720     2.3820    -9.9040 
  145.7500    88.4840     7.4120     6.0470     6.8710    24.9630     2.3630   -10.3100 
  145.8750    86.6980     7.5190     6.0840     7.2380    24.9100     2.3500   -10.9440 
  146.0000    85.7920     7.6570     6.1640     7.4890    24.8660     2.3430   -11.7680 
  146.1250    84.4060     7.7910     6.2680     7.7850    24.8520     2.3400   -12.4470 
  146.2500    83.7710     7.8820     6.3560     7.9220    24.8530     2.3380   -12.9950 
  146.3750    83.9040     7.8970     6.3950     8.0360    24.8450     2.3370   -13.3410 
  146.5000    85.2600     7.8180     6.3570     8.0290    24.8140     2.3350   -13.4100 
  146.6250    86.9440     7.6230     6.2120     7.6840    24.7590     2.3340   -13.1960 
  146.7500    88.7960     7.3430     5.9830     6.9020    24.6740     2.3340   -12.7450 
  146.8750    90.8370     7.0060     5.6940     6.5190    24.5860     2.3380   -12.0140 
  147.0000    93.5780     6.6480     5.3770     6.4670    24.5370     2.3460   -11.0660 
  147.1250    95.3630     6.3150     5.0720     6.0450    24.5470     2.3580   -10.0530 
  147.2500    94.7040     6.0310     4.8030     5.6310    24.6050     2.3700    -9.0740 
  147.3750    93.1160     5.8040     4.5830     5.0660    24.6850     2.3760    -8.2080 
  147.5000    91.9800     5.6310     4.4120     4.6080    24.7400     2.3760    -7.4840 
  147.6250    91.8800     5.5150     4.2970     4.4220    24.7640     2.3740    -6.8320 
  147.7500    93.0610     5.4440     4.2250     4.3420    24.7430     2.3760    -6.2540 
  147.8750    93.3460     5.4130     4.1910     4.2590    24.6980     2.3840    -5.8630 
  148.0000    90.6800     5.4130     4.1900     4.2580    24.6690     2.3960    -5.6040 
  148.1250    86.4300     5.4350     4.2130     4.3130    24.6520     2.4070    -5.5030 
  148.2500    85.6740     5.4590     4.2460     4.4080    24.6280     2.4090    -5.5180 
  148.3750    89.4970     5.4770     4.2730     4.4910    24.6000     2.4030    -5.5560 
  148.5000    94.5430     5.4830     4.2860     4.5130    24.5680     2.3910    -5.6770 
  148.6250    98.8040     5.4820     4.2750     4.4520    24.4920     2.3780    -5.7690 
  148.7500   101.7710     5.4780     4.2510     4.3910    24.3790     2.3680    -5.8360 
  148.8750   102.1040     5.4740     4.2220     4.4000    24.2750     2.3610    -5.7790 
  149.0000    99.8800     5.4640     4.1920     4.4420    24.2150     2.3590    -5.7140 
  149.1250    95.5860     5.4380     4.1550     4.4370    24.2030     2.3610    -5.7170 
  149.2500    91.1670     5.3910     4.1060     4.4170    24.2010     2.3680    -5.6980 
  149.3750    88.8020     5.3280     4.0440     4.3560    24.1980     2.3770    -5.7530 
  149.5000    90.4560     5.2600     3.9780     4.2550    24.1950     2.3880    -5.7690 
  149.6250    94.3710     5.2070     3.9240     4.1970    24.1940     2.3950    -5.8070 
  149.7500    96.2930     5.1780     3.8900     4.2390    24.1940     2.3970    -5.8750 
  149.8750    97.4740     5.1730     3.8790     4.3220    24.1940     2.3930    -5.9620 
  150.0000   101.2920     5.1830     3.8860     4.3830    24.1940     2.3850    -6.0430 
  150.1250   105.1970     5.1940     3.9070     4.3620    24.2010     2.3750    -6.0520 
  150.2500   104.8200     5.1950     3.9270     4.3350    24.2210     2.3690    -5.9730 
  150.3750   102.2900     5.1780     3.9380     4.3490    24.2460     2.3680    -5.8430 
  150.5000   102.0230     5.1450     3.9370     4.3340    24.2540     2.3730    -5.7810 
  150.6250   104.2220     5.0960     3.9160     4.2630    24.2370     2.3830    -5.7760 
  150.7500   105.8620     5.0410     3.8810     4.1580    24.2050     2.3890    -5.7380 
  150.8750   107.5630     4.9870     3.8370     4.1220    24.1900     2.3900    -5.6680 
  151.0000   107.8980     4.9370     3.7900     4.0600    24.2060     2.3860    -5.5730 
  151.1250   103.7660     4.8940     3.7480     3.9890    24.2770     2.3820    -5.4510 
  151.2500    98.2820     4.8540     3.7140     3.9320    24.2880     2.3800    -5.4390 
  151.3750    94.8620     4.8170     3.6890     3.9570    24.2290     2.3820    -5.5000 
  151.5000    93.4190     4.7820     3.6710     4.0450    24.1460     2.3830    -5.5670 
  151.6250    90.6750     4.7590     3.6630     4.0360    24.0890     2.3850    -5.6750 
  151.7500    88.9900     4.7560     3.6700     4.0080    24.0700     2.3900    -5.8360 
  151.8750    91.0830     4.7800     3.7020     3.9580    24.0670     2.3980    -6.1330 
  152.0000    95.8280     4.8250     3.7590     3.9480    24.0670     2.4080    -6.4640 
  152.1250    99.6220     4.8770     3.8340     4.0400    24.0670     2.4130    -6.8630 
  152.2500   101.8210     4.9100     3.9010     4.2000    24.0670     2.4110    -7.2150 
  152.3750   105.9390     4.9100     3.9420     4.2810    24.0660     2.4020    -7.4850 
  152.5000   110.6400     4.8750     3.9480     4.2550    24.0610     2.3900    -7.7340 
  152.6250   108.3580     4.8230     3.9210     4.0710    24.0470     2.3750    -7.8740 
  152.7500   102.5220     4.7860     3.8860     3.9830    24.0300     2.3610    -7.9810 
  152.8750   100.5500     4.7890     3.8680     4.0730    24.0170     2.3500    -8.0050 
  153.0000   102.1810     4.8430     3.8880     4.1540    23.9960     2.3440    -7.9900 
  153.1250   102.5610     4.9440     3.9620     4.1890    23.9680     2.3420    -8.0270 
  153.2500   101.3290     5.0590     4.0630     4.2780    23.9460     2.3390    -8.1030 
  153.3750   101.5420     5.1660     4.1620     4.4980    23.9380     2.3360    -8.2160 
  153.5000   101.9830     5.2570     4.2370     4.7160    23.9410     2.3340    -8.3440 
  153.6250    98.7600     5.3500     4.2900     4.6480    23.9390     2.3350    -8.4850 
  153.7500    95.1180     5.4680     4.3450     4.4910    23.9340     2.3410    -8.6890 
  153.8750    93.7720     5.6200     4.4180     4.4810    23.9300     2.3460    -8.9530 
  154.0000    93.7090     5.7970     4.5070     4.8200    23.9240     2.3510    -9.3020 
  154.1250    92.3650     5.9970     4.6020     5.2820    23.9050     2.3520    -9.7270 
  154.2500    90.2830     6.2540     4.7160     5.5840    23.8800     2.3510   -10.2000 
  154.3750    89.1250     6.6690     4.9080     5.8210    23.8610     2.3530   -10.7140 
  154.5000    87.4610     7.3980     5.2830     6.2930    23.8420     2.3610   -11.1820 
  154.6250    82.6510     8.7350     6.0500     7.6480    23.8480     2.3780   -11.6720 
  154.7500    75.9780    10.7630     7.3320    10.3300    23.8670     2.3940   -12.0610 
  154.8750    67.9720    13.5370     9.2760    13.7380    23.8770     2.3960   -12.3680 
  155.0000    61.4800    16.9640    11.9560    20.5200    23.9050     2.3730   -12.5430 
  155.1250    62.0320    20.7690    15.3140    23.0100    24.1030     2.3240   -12.4920 
  155.2500    65.7050    24.4550    18.8350    25.3390    24.5050     2.2680   -12.3880 
  155.3750    67.1850    27.6920    22.1140    27.4740    24.9290     2.2190   -12.2470 
  155.5000    64.9900    30.2740    24.9190    28.3870    25.1450     2.1860   -12.1590 
  155.6250    63.0540    31.8170    26.9700    28.8680    25.1790     2.1720   -12.1010 
  155.7500    63.9630    32.1110    28.0020    30.7620    25.1660     2.1710   -12.1860 
  155.8750    66.2590    30.9090    27.5790    32.8410    25.1330     2.1810   -12.3400 
  156.0000    68.5800    28.3590    25.6350    33.2180    25.0940     2.2020   -12.6290 
  156.1250    69.5030    25.1390    22.7150    28.7990    25.0460     2.2300   -13.0960 
