~V
VERS. 2.00: Ver 2.00
~W
STRT.M 52.0000:
STOP.M 278.0000:
STEP.M 0.1250:
NULL. -999.2500:
UWI. F11035:
~C
DEPT.M :
DEN.GM/CC :
GR.API :
RML.OHMM :
RI. :
RXO.OHMM :
CALI.CM :
SP.MV :
~A
# ...
  254.5000     2.5320    73.2960    17.8500    16.7080    20.4410    24.4690    -2.5420 
  254.6250     2.5240    72.6440    17.7190    16.6200    20.7140    24.4690    -2.3810 
  254.7500     2.5080    72.7490    17.6320    16.5680    21.4850    24.4200    -2.2040 
  254.8750     2.4890    72.6540    17.5890    16.5440    21.4220    24.3390    -1.9990 
  255.0000     2.4710    71.9010    17.5830    16.5480    20.9630    24.2450    -1.8030 
  255.1250     2.4610    71.4250    17.5890    16.5780    21.9330    24.2640    -1.6360 
  255.2500     2.4620    71.0560    17.5750    16.6150    22.3550    24.3510    -1.4780 
  255.3750     2.4740    70.4870    17.5290    16.6410    21.7400    24.4960    -1.3150 
  255.5000     2.4930    70.2070    17.4640    16.6530    20.5030    24.5680    -1.1390 
  255.6250     2.5120    70.1200    17.4230    16.6680    20.9230    24.5640    -0.9620 
  255.7500     2.5260    69.8110    17.4430    16.7100    21.3390    24.5400    -0.8230 
  255.8750     2.5350    70.1580    17.5340    16.7870    21.7220    24.5090    -0.7060 
  256.0000     2.5380    71.6820    17.6770    16.8820    21.4720    24.4370    -0.6490 
  256.1250     2.5410    72.1430    17.8130    16.9500    21.2270    24.3730    -0.6060 
  256.2500     2.5460    71.4210    17.8890    16.9550    20.4330    24.3090    -0.6570 
  256.3750     2.5500    72.3510    17.8870    16.8890    19.9970    24.2300    -0.7300 
  256.5000     2.5490    75.1330    17.8380    16.7820    19.8790    24.0700    -0.8820 
  256.6250     2.5410    75.3550    17.8180    16.7020    18.5530    23.7920    -1.0700 
  256.7500     2.5300    72.5190    17.8980    16.7130    17.6580    23.4850    -1.2500 
  256.8750     2.5200    70.0120    18.1100    16.8560    17.5560    23.3880    -1.4250 
  257.0000     2.5130    70.1140    18.4530    17.1440    19.6590    23.5760    -1.5680 
  257.1250     2.5130    71.8140    18.9080    17.5840    22.7290    23.9430    -1.7390 
  257.2500     2.5170    71.8840    19.4060    18.1160    23.6850    24.2320    -1.8340 
  257.3750     2.5260    69.7730    19.8810    18.6930    22.2680    24.3280    -1.9290 
  257.5000     2.5380    69.1440    20.2460    19.2430    20.6860    24.3030    -1.9880 
  257.6250     2.5500    73.3760    20.3310    19.5990    23.0600    24.2740    -2.0690 
  257.7500     2.5560    76.9410    20.0460    19.6110    25.8570    24.2080    -2.1600 
  257.8750     2.5540    76.8300    19.3400    19.1440    26.4210    24.1740    -2.2410 
  258.0000     2.5430    75.0840    18.2650    18.1790    23.7350    24.1510    -2.2700 
  258.1250     2.5220    74.5250    16.9670    16.8340    20.4390    24.1150    -2.2390 
  258.2500     2.4970    73.0000    15.7050    15.4450    17.8050    24.1390    -2.2050 
  258.3750     2.4760    69.7250    14.6330    14.2350    17.7690    24.2740    -2.1810 
  258.5000     2.4650    67.1100    13.8340    13.3280    20.4160    24.4500    -2.1720 
  258.6250     2.4720    66.8920    13.3480    12.7930    20.2380    24.5800    -2.1570 
  258.7500     2.4870    68.7800    13.0690    12.4970    17.8800    24.5970    -2.1290 
  258.8750     2.5050    71.0270    12.9350    12.3460    15.8600    24.5620    -2.1210 
  259.0000     2.5170    71.9540    12.9070    12.2770    16.1270    24.4940    -2.1620 
  259.1250     2.5220    72.2440    13.0180    12.3090    17.3130    24.3740    -2.2210 
  259.2500     2.5210    73.7410    13.3040    12.4930    18.6750    24.2900    -2.3740 
  259.3750     2.5150    75.6880    13.8180    12.8970    19.5330    24.3090    -2.5130 
  259.5000     2.5070    75.8720    14.5770    13.5590    20.2270    24.3720    -2.6490 
  259.6250     2.5020    75.2260    15.5550    14.4970    20.8340    24.4230    -2.7730 
  259.7500     2.5030    74.5840    16.5850    15.5650    21.0420    24.5120    -2.9120 
  259.8750     2.5090    73.6190    17.5160    16.6150    20.5000    24.6010    -3.0510 
  260.0000     2.5130    72.5060    18.2210    17.4940    19.8830    24.6360    -3.1860 
  260.1250     2.5080    71.9570    18.5940    18.0390    19.6370    24.5800    -3.3410 
  260.2500     2.4970    71.2770    18.7230    18.2800    20.2510    24.4910    -3.4020 
  260.3750     2.4840    69.3970    18.7020    18.2850    21.5910    24.4230    -3.3980 
  260.5000     2.4730    66.8720    18.6260    18.1530    21.6110    24.3520    -3.3500 
  260.6250     2.4670    64.3680    18.5630    17.9840    20.8780    24.3790    -3.2430 
  260.7500     2.4620    64.4090    18.5370    17.8610    20.4860    24.4290    -3.1330 
  260.8750     2.4600    68.4840    18.5550    17.8190    20.8070    24.4290    -3.0230 
  261.0000     2.4630    73.2470    18.6230    17.8570    22.3130    24.4010    -2.9290 
  261.1250     2.4740    72.9920    18.7490    17.9500    22.7010    24.4000    -2.8240 
  261.2500     2.4880    69.4200    18.9010    18.0480    22.5100    24.4660    -2.7370 
  261.3750     2.5000    67.8020    19.0420    18.1290    22.6050    24.5190    -2.7110 
  261.5000     2.5060    69.4860    19.1400    18.1920    22.7750    24.4860    -2.7320 
  261.6250     2.5060    70.5160    19.1890    18.2570    23.2670    24.4430    -2.8150 
  261.7500     2.5050    68.4940    19.2260    18.3390    24.0130    24.4570    -2.9320 
  261.8750     2.5060    65.9220    19.2730    18.4400    24.8450    24.5340    -3.0540 
  262.0000     2.5090    65.8510    19.3230    18.5380    24.2520    24.5940    -3.1260 
  262.1250     2.5120    67.3550    19.3280    18.5950    24.7860    24.5900    -3.1890 
  262.2500     2.5150    68.1590    19.2630    18.5990    25.1320    24.5780    -3.2700 
  262.3750     2.5190    69.4930    19.1370    18.5600    26.0820    24.5920    -3.3560 
  262.5000     2.5240    71.1060    18.9960    18.5130    26.3400    24.5970    -3.4020 
  262.6250     2.5300    70.8860    18.9150    18.5000    26.3900    24.5830    -3.4650 
  262.7500     2.5360    69.4570    18.9170    18.5310    25.8220    24.5400    -3.5270 
  262.8750     2.5440    68.5440    18.9780    18.5880    25.9150    24.5020    -3.6230 
  263.0000     2.5510    69.1040    19.0380    18.6210    26.9170    24.5040    -3.7960 
  263.1250     2.5510    70.2090    18.9990    18.5490    27.2330    24.4870    -4.0170 
  263.2500     2.5380    71.8950    18.8340    18.3550    26.0660    24.4720    -4.2230 
  263.3750     2.5120    72.7390    18.5680    18.0560    21.7360    24.5300    -4.4570 
  263.5000     2.4830    71.1870    18.2710    17.7090    16.8490    24.6190    -4.7440 
  263.6250     2.4660    68.6140    18.0370    17.4070    14.3450    24.6380    -5.0120 
  263.7500     2.4670    67.1950    17.9070    17.2120    13.8000    24.6230    -5.2680 
  263.8750     2.4810    67.6260    17.8770    17.1340    14.3000    24.6040    -5.5190 
  264.0000     2.4940    68.9280    17.9100    17.1560    16.0110    24.6070    -5.7800 
  264.1250     2.4940    68.7950    17.9610    17.2470    16.8700    24.6160    -6.0770 
  264.2500     2.4870    66.5390    18.0020    17.3620    16.6320    24.6150    -6.3910 
  264.3750     2.4810    64.4100    18.0380    17.4870    15.4670    24.6030    -6.6340 
  264.5000     2.4840    64.9880    18.0900    17.6250    13.9080    24.5930    -6.8460 
  264.6250     2.4930    67.0930    18.1620    17.7700    14.4940    24.6530    -7.0050 
  264.7500     2.4960    69.3900    18.2210    17.8780    16.7450    24.6460    -7.1650 
  264.8750     2.4850    71.3870    18.2180    17.8970    20.0030    24.5620    -7.3150 
  265.0000     2.4590    72.0990    18.1130    17.7840    23.0300    24.4600    -7.4580 
  265.1250     2.4260    70.2770    17.8840    17.5240    23.1290    24.3960    -7.5210 
  265.2500     2.4010    68.7630    17.5860    17.2090    22.0720    24.4580    -7.5990 
  265.3750     2.3930    69.5580    17.2630    16.9270    22.6370    24.6300    -7.7010 
  265.5000     2.4020    70.5040    16.9550    16.7370    26.4480    24.8620    -7.7650 
  265.6250     2.4200    69.9540    16.7110    16.6660    30.2640    24.9920    -7.8390 
