~V
VERS. 2.00: Ver 2.00
~W
STRT.M 59.0000:
STOP.M 225.0000:
STEP.M 0.1250:
NULL. -999.2500:
UWI. F11010:
~C
DEPT.M :
GR.API :
RML.OHMM :
RI. :
RXO.OHMM :
CALI.CM :
SP.MV :
DEN.GM/CC :
~A
# ...
  216.5000    77.4670    16.5560    15.2850    16.2210    24.1280    -3.3000     2.5110 
  216.6250    77.4670    16.4860    15.2140    16.8230    24.1230    -3.2640     2.5240 
  216.7500    77.4670    16.4520    15.1790    19.4210    24.1540    -3.2090     2.5320 
  216.8750    77.4670    16.4440    15.1730    18.2610    24.2350    -3.1480     2.5340 
  217.0000    77.4670    16.4570    15.1920    15.1920    24.3540    -3.0650     2.5330 
  217.1250    77.4670    16.4760    15.2200    13.6090    24.4960    -2.9690     2.5320 
  217.2500    77.4670    16.4760    15.2250    14.2710    24.5080    -2.8400     2.5350 
  217.3750    77.4670    16.4390    15.1900    15.0650    24.4720    -2.6710     2.5390 
  217.5000    77.4670    16.3600    15.1140    15.6790    24.4400    -2.4440     2.5410 
  217.6250    77.4670    16.2510    15.0120    16.2090    24.4370    -2.1930     2.5400 
  217.7500    77.4670    16.1410    14.9020    16.0350    24.4410    -1.9350     2.5370 
  217.8750    77.4670    16.0460    14.7970    14.8090    24.4510    -1.6530     2.5350 
  218.0000    77.4670    15.9730    14.7090    13.6840    24.4760    -1.4060     2.5350 
  218.1250    77.4670    15.9190    14.6500    13.1490    24.4750    -1.1690     2.5360 
  218.2500    77.4670    15.8770    14.6200    13.1170    24.4980    -1.0340     2.5350 
  218.3750    77.4670    15.8510    14.6230    13.7370    24.5250    -0.9570     2.5330 
  218.5000    77.4670    15.8480    14.6570    15.8290    24.5480    -0.9360     2.5280 
  218.6250    77.4670    15.8740    14.7170    18.4550    24.5610    -0.9410     2.5230 
  218.7500    77.4670    15.9130    14.7810    19.2370    24.5750    -0.9550     2.5210 
  218.8750    77.4670    15.9430    14.8270    18.5770    24.6030    -1.0140     2.5250 
  219.0000    77.4670    15.9480    14.8390    17.3950    24.6610    -1.0930     2.5350 
  219.1250    77.4670    15.9140    14.8020    14.6390    24.7020    -1.2000     2.5470 
  219.2500    77.4670    15.8460    14.7280    12.3190    24.7300    -1.2260     2.5520 
  219.3750    77.4670    15.7510    14.6260    11.4070    24.7680    -1.2280     2.5500 
  219.5000    77.4670    15.6350    14.5020    11.6520    24.8130    -1.2170     2.5430 
  219.6250    77.4670    15.5110    14.3700    11.5040    24.8010    -1.2410     2.5380 
  219.7500    77.4670    15.4040    14.2560    11.0800    24.7390    -1.2750     2.5390 
  219.8750    77.4670    15.3300    14.1810    11.4820    24.6910    -1.2360     2.5450 
  220.0000    77.4670    15.2950    14.1480    12.6670    24.6500    -1.1640     2.5500 
  220.1250    77.4670    15.2910    14.1460    11.3380    24.5900    -1.0780     2.5490 
  220.2500    77.4670    15.2960    14.1500    10.8940    24.5260    -1.0010     2.5410 
  220.3750    77.4670    15.3010    14.1520    11.1000    24.5300    -0.9100     2.5280 
  220.5000    77.4670    15.3040    14.1490    12.2790    24.5480    -0.8380     2.5150 
  220.6250    77.4670    15.3060    14.1450    14.0910    24.5310    -0.7170     2.5060 
  220.7500    77.4670    15.3070    14.1440    14.2360    24.5610    -0.5860     2.4990 
  220.8750    77.4670    15.3070    14.1440    12.9760    24.5890    -0.5190     2.4960 
  221.0000    77.4670    15.3070    14.1440    12.0950    24.5890    -0.4790     2.4960 
  221.1250    77.4670    15.3070    14.1440    12.1920    24.5660    -0.4390     2.4980 
  221.2500    77.4670    15.3070    14.1440    12.4700    24.5560    -0.4590     2.5010 
  221.3750    77.4670    15.3070    14.1440    12.6680    24.5210    -0.5080     2.5000 
  221.5000    77.4670    15.3070    14.1440    13.1980    24.4940    -0.5240     2.4970 
  221.6250    77.4670    15.3070    14.1440    13.9500    24.5560    -0.5290     2.4900 
  221.7500    77.4670    15.3070    14.1440    13.7380    24.6590    -0.5280     2.4850 
  221.8750    77.4670    15.3070    14.1440    13.6210    24.7410    -0.5500     2.4840 
  222.0000    77.4670    15.3070    14.1440    14.6790    24.7250    -0.5700     2.4850 
  222.1250    77.4670    15.3070    14.1440    15.8350    24.6660    -0.5490     2.4890 
  222.2500    77.4670    15.3070    14.1440    16.2780    24.5760    -0.5050     2.4930 
  222.3750    77.4670    15.3070    14.1440    15.8640    24.4960    -0.4700     2.4950 
  222.5000    77.4670    15.3070    14.1440    15.8280    24.4620    -0.4530     2.4950 
  222.6250    77.4670    15.3070    14.1440    16.7400    24.5140    -0.4480     2.4950 
  222.7500    77.4670    15.3070    14.1440    16.6940    24.5700    -0.4850     2.4990 
  222.8750    77.4670    15.3070    14.1440    15.2920    24.5420    -0.4540     2.5080 
  223.0000    77.4670    15.3070    14.1440    13.2730    24.4680    -0.3610     2.5220 
  223.1250    77.4670    15.3070    14.1440    12.6990    24.4650    -0.3250     2.5260 
  223.2500    77.4670    15.3070    14.1440    12.5880    24.5140    -0.2760     2.5040 
  223.3750    77.4670    15.3070    14.1440    12.1810    24.5430    -0.2130     2.4560 
  223.5000    77.4670    15.3070    14.1440    11.5500    24.5640    -0.1390     2.3960 
  223.6250    77.4670    15.3070    14.1440    10.7970    24.6470    -0.0790     2.3570 
  223.7500    77.4670    15.3070    14.1440     9.6620    24.7220     0.0310     2.3580 
  223.8750    77.4670    15.3070    14.1440     9.6470    24.6950     0.0760     2.3940 
  224.0000    77.4670    15.3070    14.1440    11.2710    24.6320     0.0760     2.4370 
  224.1250    77.4670    15.3070    14.1440    12.3100    24.6030     0.0760     2.4400 
  224.2500    77.4670    15.3070    14.1440    12.0900    24.5590  -999.2500     2.3750 
  224.3750    77.4670    15.3070    14.1440    11.1420    24.0290  -999.2500     2.2430 
  224.5000    77.4670    15.3070    14.1440     8.9540    22.3260  -999.2500     2.0690 
  224.6250    77.4670    15.3070    14.1440     6.5200    19.1700  -999.2500     1.9010 
  224.7500    77.4670    15.3070    14.1440     5.5610    17.3500  -999.2500     1.7770 
  224.8750    77.4670    15.3070    14.1440     5.3580    16.7870  -999.2500     1.7070 
  225.0000    77.4670    15.3070    14.1440     5.3540    16.7460  -999.2500     1.6770 
