~V
VERS. 2.00: Ver 2.00
~W
STRT.M 59.0000:
STOP.M 225.0000:
STEP.M 0.1250:
NULL. -999.2500:
UWI. F11010:
~C
DEPT.M :
GR.API :
RML.OHMM :
RI. :
RXO.OHMM :
CALI.CM :
SP.MV :
DEN.GM/CC :
~A
# ...
  149.0000    69.1810   105.1560    91.9690    60.9150    25.6880   -15.9430     2.2270 
  149.1250    67.2890   113.7630   100.1290    66.5650    25.8040   -15.8960     2.2190 
  149.2500    66.0280   119.2630   105.9380    75.7020    25.8230   -15.7020     2.2140 
  149.3750    65.1880   119.5670   107.1080    84.5640    25.7520   -15.3700     2.2140 
  149.5000    65.5190   114.1580   102.7210    75.6570    25.6580   -14.9830     2.2170 
  149.6250    66.9880   104.3270    93.7810    57.5130    25.6630   -14.6130     2.2180 
  149.7500    68.0370    93.9060    84.1130    47.0070    25.7580   -14.2750     2.2180 
  149.8750    68.1060    85.1850    75.9760    40.1870    25.6820   -13.9610     2.2180 
  150.0000    69.3910    79.1540    70.3420    35.1880    25.4500   -13.6450     2.2210 
  150.1250    73.6840    75.6100    67.2830    34.9140    25.2150   -13.3610     2.2250 
  150.2500    77.3620    72.4620    64.9250    47.2200    25.0500   -13.1450     2.2290 
  150.3750    77.7540    68.0540    61.4270    58.2080    24.9860   -13.0180     2.2340 
  150.5000    75.1380    61.6260    55.7890    56.6010    25.0250   -12.9590     2.2420 
  150.6250    72.0330    53.8640    48.7670    51.8310    25.0090   -12.9180     2.2530 
  150.7500    70.7320    46.9620    42.5750    36.5230    24.8280   -12.8740     2.2620 
  150.8750    71.4130    42.6360    38.6610    23.0340    24.5670   -12.8300     2.2630 
  151.0000    72.6370    41.8620    37.9180    15.9880    24.3600   -12.7960     2.2550 
  151.1250    70.8390    44.8650    41.0880    25.6270    24.2260   -12.7860     2.2420 
  151.2500    65.9300    49.1800    46.4130    36.5070    24.2070   -12.8050     2.2320 
  151.3750    60.9340    52.2470    51.3510    43.4790    24.2990   -12.8150     2.2330 
  151.5000    59.6320    52.0260    52.9740    48.6590    24.4030   -12.7560     2.2440 
  151.6250    64.1030    47.8490    49.7050    50.1990    24.4770   -12.6190     2.2600 
  151.7500    70.4180    42.1550    44.3830    34.6840    24.5130   -12.4500     2.2710 
  151.8750    76.1480    36.7060    39.1640    21.2670    24.5770   -12.2600     2.2720 
  152.0000    79.5340    32.1660    34.7870    20.5050    24.7220   -12.0770     2.2690 
  152.1250    79.4760    28.2210    30.6420    34.4420    25.0000   -11.9350     2.2750 
  152.2500    79.9110    24.3280    26.1890    37.5230    25.3020   -11.8260     2.2970 
  152.3750    83.8640    20.6040    21.8590    22.5200    25.5300   -11.7610     2.3290 
  152.5000    89.0290    17.4490    18.2990    10.8240    25.6250   -11.7640     2.3590 
  152.6250    91.2340    15.3610    15.9800     8.3680    25.6320   -11.8500     2.3680 
  152.7500    91.3950    14.2170    14.6350     8.7540    25.5880   -12.0050     2.3600 
  152.8750    91.5060    13.8530    14.0890    11.4360    25.5860   -12.1950     2.3440 
  153.0000    91.1610    14.1020    14.1590    13.9270    25.6170   -12.4040     2.3300 
  153.1250    87.4360    15.1570    14.8620    12.7100    25.5660   -12.5930     2.3230 
  153.2500    82.7960    17.4330    16.4010    10.0360    25.3800   -12.7560     2.3160 
  153.3750    79.5660    21.7310    19.4600    10.2010    25.1680   -12.9250     2.3010 
  153.5000    78.1950    28.8400    24.9900    14.3600    25.0760   -13.1030     2.2770 
  153.6250    75.9710    39.4130    34.3860    28.2930    25.0510   -13.2950     2.2490 
  153.7500    70.2590    51.5790    46.5630    45.9380    25.0300   -13.4750     2.2280 
  153.8750    64.3980    62.7590    58.7470    64.1480    25.0100   -13.6690     2.2170 
  154.0000    61.1710    70.3380    66.9820    72.4840    24.9560   -13.8860     2.2150 
  154.1250    63.1860    72.7590    68.7010    59.7380    24.8280   -14.1380     2.2140 
  154.2500    68.2180    72.5830    67.3910    47.8710    24.6860   -14.4050     2.2140 
  154.3750    70.1370    72.1810    66.0010    43.5110    24.6120   -14.6240     2.2130 
  154.5000    67.4650    72.9940    66.0250    48.8760    24.6150   -14.7880     2.2130 
  154.6250    66.1730    75.1710    67.6680    55.7740    24.6310   -14.9020     2.2160 
  154.7500    68.4220    77.4330    69.7130    60.5920    24.6260   -15.0160     2.2190 
  154.8750    69.0280    78.6640    70.9900    63.3180    24.6390   -15.1210     2.2210 
  155.0000    65.1660    78.1080    70.6440    62.4110    24.6720   -15.1860     2.2230 
  155.1250    65.4120    75.3480    68.2090    60.4590    24.6620   -15.1810     2.2260 
  155.2500    71.9880    71.2980    64.4850    56.3200    24.5950   -15.1570     2.2330 
  155.3750    77.8530    66.8610    60.2720    49.9860    24.5360   -15.1370     2.2420 
  155.5000    77.7660    63.0450    56.5000    46.2080    24.5510   -15.1270     2.2500 
  155.6250    74.0120    61.1920    54.3270    43.4030    24.5890   -15.1660     2.2530 
  155.7500    71.5740    61.8620    54.2540    40.3240    24.6220   -15.2380     2.2510 
  155.8750    69.7850    65.5190    56.7730    39.4140    24.6880   -15.3000     2.2440 
  156.0000    67.3380    72.2920    62.1540    46.0160    24.8790   -15.3430     2.2360 
  156.1250    67.4910    82.2110    70.6700    65.0160    25.1920   -15.3970     2.2270 
  156.2500    70.7560    93.7710    81.0950    77.1130    25.3570   -15.4370     2.2180 
  156.3750    74.1620   105.6470    92.2140    92.0900    25.3860   -15.4880     2.2110 
  156.5000    73.9290   116.5440   102.6500   102.6560    25.3430   -15.5780     2.2090 
  156.6250    71.0320   125.1200   111.1130    98.6320    25.2970   -15.6270     2.2140 
  156.7500    68.2370   131.0290   117.4900    96.9360    25.2580   -15.5970     2.2240 
  156.8750    66.5710   133.5130   121.2030   100.0750    25.2380   -15.5680     2.2330 
  157.0000    68.3620   131.6300   121.1550   114.6410    25.2480   -15.5580     2.2370 
  157.1250    70.8880   124.1880   115.6810   127.2310    25.2890   -15.5790     2.2360 
  157.2500    68.0620   113.1550   106.2390   121.5110    25.3280   -15.6140     2.2330 
  157.3750    61.5880   100.8370    94.9660    93.1620    25.3670   -15.6280     2.2300 
  157.5000    60.1900    89.7650    84.4530    69.5940    25.3790   -15.5970     2.2260 
  157.6250    67.5290    82.4410    77.2770    58.9390    25.3860   -15.5680     2.2220 
  157.7500    72.7260    78.8900    73.6750    56.2800    25.4030   -15.5910     2.2160 
  157.8750    70.5700    78.5620    73.2760    57.8500    25.4080   -15.6230     2.2110 
  158.0000    64.5250    80.4130    75.1490    72.3440    25.3970   -15.6950     2.2100 
  158.1250    62.9290    83.4570    78.2600    76.8200    25.3800   -15.8010     2.2130 
  158.2500    65.7260    86.9940    81.7540    69.7610    25.3950   -15.9570     2.2190 
  158.3750    67.7350    91.3060    85.8200    66.3620    25.4290   -16.1410     2.2240 
  158.5000    67.3090    97.0680    91.1500    64.0230    25.4370   -16.3610     2.2270 
  158.6250    66.9320   105.1000    98.7550    73.2990    25.3590   -16.6320     2.2240 
  158.7500    67.2750   114.5350   108.0320    80.7590    25.2120   -16.9100     2.2210 
  158.8750    65.9930   123.8120   117.4770   104.8490    25.1180   -17.1880     2.2170 
  159.0000    63.3070   130.9340   124.8770   135.7810    25.0890   -17.4320     2.2130 
  159.1250    61.7410   133.7420   127.7060   142.8650    25.0900   -17.6450     2.2070 
  159.2500    62.7930   132.9720   126.5840   113.8460    25.1100   -17.8210     2.1980 
  159.3750    66.1700   130.1580   123.0150    98.8890    25.1600   -17.9970     2.1890 
  159.5000    69.9080   127.4870   119.2440   100.7240    25.1930   -18.1440     2.1860 
  159.6250    72.0110   127.9550   118.2400   104.7050    25.1720   -18.2470     2.1930 
  159.7500    71.2160   133.4160   121.7800    92.7170    25.0690   -18.3500     2.2040 
  159.8750    69.0660   145.6560   131.6380    71.8220    24.8970   -18.5070     2.2110 
  160.0000    67.2310   165.9230   149.4360    62.2530    24.8050   -18.7520     2.2060 
  160.1250    66.0540   194.3800   176.4200    70.1790    24.8560   -19.0670     2.1890 
