~V
VERS. 2.00: Ver 2.00
~W
STRT.M 50.0000:
STOP.M 276.0000:
STEP.M 0.1250:
NULL. -999.2500:
UWI. F11044:
~C
DEPT.M :
SP.MV :
GR.API :
RML.OHMM :
RI. :
RXO.OHMM :
CALI.CM :
DEN.GM/CC :
~A
# ...
   95.0000    -5.0570    96.9820     7.8580     6.0670     6.8030    24.7770     2.2860 
   95.1250    -4.8330    91.6380     8.5980     6.5510     7.0350    24.5140     2.2630 
   95.2500    -4.6850    84.3610     9.4020     7.2410     7.6590    24.0510     2.2380 
   95.3750    -4.6530    79.8250    10.0450     7.9450     8.3610    23.6190     2.2170 
   95.5000    -4.6850    79.3630    10.3480     8.4230     8.6300    23.3680     2.2040 
   95.6250    -4.8360    79.8100    10.2270     8.4780     8.5200    23.3090     2.1980 
   95.7500    -5.1310    79.7080     9.9050     8.2700     8.3660    23.3040     2.1980 
   95.8750    -5.4110    79.7840     9.5840     8.0020     8.2040    23.3220     2.2020 
   96.0000    -5.6660    78.8420     9.4130     7.8360     8.2870    23.3470     2.2110 
   96.1250    -5.9790    76.4400     9.4520     7.8570     8.5790    23.3270     2.2220 
   96.2500    -6.1820    75.0210     9.5940     7.9830     8.7480    23.2500     2.2320 
   96.3750    -6.3470    75.1910     9.7320     8.1170     8.8060    23.1570     2.2390 
   96.5000    -6.5770    76.5010     9.7710     8.1700     8.6710    23.1070     2.2410 
   96.6250    -6.7110    76.9960     9.6250     8.0680     8.5300    23.0910     2.2370 
   96.7500    -6.7400    76.0530     9.3290     7.8390     8.6330    23.0900     2.2270 
   96.8750    -6.8120    74.0270     8.9670     7.5300     9.0040    23.1570     2.2120 
   97.0000    -6.9040    72.6500     8.6880     7.2240     9.1390    23.3410     2.1910 
   97.1250    -6.8830    73.7340     8.7590     7.0860     8.9680    23.5870     2.1710 
   97.2500    -6.9130    74.9850     9.3070     7.2500     8.9430    23.7790     2.1740 
   97.3750    -6.9920    74.0300    10.3620     7.8260     9.3520    23.9160     2.2160 
   97.5000    -7.0260    70.4540    11.7690     8.8330    11.0770    24.0390     2.2970 
   97.6250    -7.1600    67.8470    13.0820    10.1130    15.7930    24.1570     2.3860 
   97.7500    -7.3880    66.3400    13.7790    11.1430    23.4130    24.2630     2.4370 
   97.8750    -7.6250    66.4980    13.5730    11.4360    26.5840    24.2520     2.4300 
   98.0000    -7.9040    69.7680    12.5610    10.8650    21.0660    24.0990     2.3750 
   98.1250    -8.2390    72.3750    11.2030     9.7830    13.0330    23.9620     2.3040 
   98.2500    -8.6190    70.3740    10.0960     8.7880    10.3930    23.9280     2.2530 
   98.3750    -9.0370    65.5550     9.4820     8.1180     9.8520    23.9600     2.2270 
   98.5000    -9.4430    64.2520     9.3600     7.8290     9.9200    24.0380     2.2200 
   98.6250    -9.7800    66.8110     9.5900     7.8870     9.9890    24.1190     2.2210 
   98.7500   -10.0680    68.2560     9.8860     8.0890    10.0410    24.1920     2.2200 
   98.8750   -10.2700    68.3000    10.0940     8.2990    10.0480    24.2390     2.2150 
   99.0000   -10.3600    67.3720    10.1520     8.4410    10.0580    24.2500     2.2050 
   99.1250   -10.4610    66.2700    10.0690     8.4870    10.1370    24.2070     2.1930 
   99.2500   -10.5430    64.4170     9.9380     8.4790    10.2220    24.1190     2.1830 
   99.3750   -10.5330    60.7510     9.8090     8.4430    10.1310    24.0380     2.1780 
   99.5000   -10.5330    56.9460     9.7030     8.4010    10.1890    23.9890     2.1790 
   99.6250   -10.5090    58.0510     9.6250     8.3610    10.2720    23.9580     2.1850 
   99.7500   -10.4110    63.3370     9.5700     8.3260    10.3040    23.9430     2.1910 
   99.8750   -10.3180    68.0830     9.5470     8.3000    10.2910    23.9360     2.1920 
  100.0000   -10.2830    68.9690     9.5610     8.2800    10.3800    23.9310     2.1880 
  100.1250   -10.2410    67.1380     9.6020     8.2610    10.3720    23.9160     2.1800 
  100.2500   -10.1360    65.7740     9.6300     8.2340    10.2940    23.9120     2.1720 
  100.3750   -10.0780    64.5800     9.6130     8.1930    10.1380    23.9540     2.1650 
  100.5000    -9.9820    64.0070     9.5400     8.1350     9.7690    24.0250     2.1590 
  100.6250    -9.8230    65.3430     9.4170     8.0570     9.1500    24.0320     2.1560 
  100.7500    -9.7600    67.0070     9.2890     7.9760     8.7800    23.9640     2.1580 
  100.8750    -9.6930    68.5680     9.1900     7.9060     9.0920    23.8580     2.1650 
  101.0000    -9.5140    69.4800     9.1410     7.8630     9.4100    23.7540     2.1710 
  101.1250    -9.3320    69.5670     9.1570     7.8660     9.3760    23.7030     2.1660 
  101.2500    -9.1800    67.9930     9.2070     7.9090     9.3150    23.6980     2.1520 
  101.3750    -9.0040    65.8760     9.2630     7.9780     9.3710    23.7290     2.1350 
  101.5000    -8.8790    65.6620     9.3040     8.0560     9.3270    23.7590     2.1250 
  101.6250    -8.7440    66.2120     9.3180     8.1250     9.0380    23.7360     2.1290 
  101.7500    -8.5900    65.9520     9.3120     8.1710     8.9720    23.6950     2.1410 
  101.8750    -8.4560    63.9240     9.2780     8.1830     9.3210    23.6810     2.1520 
  102.0000    -8.3210    61.5720     9.2040     8.1450     9.6870    23.7480     2.1610 
  102.1250    -8.2050    62.7950     9.0790     8.0500     9.8660    23.8640     2.1700 
  102.2500    -8.1670    66.0720     8.9320     7.9210     9.9470    23.9810     2.1860 
  102.3750    -8.1430    68.6210     8.8010     7.7860     9.8070    24.0460     2.2080 
  102.5000    -8.0960    68.9460     8.7230     7.6770     9.3460    24.0660     2.2300 
  102.6250    -8.1700    67.8390     8.7220     7.6380     8.9560    24.0310     2.2410 
  102.7500    -8.2600    66.6990     8.7730     7.6660     9.4270    23.9530     2.2330 
  102.8750    -8.3060    66.4270     8.8490     7.7440     9.8880    23.8720     2.2070 
  103.0000    -8.3850    67.4920     8.9140     7.8390     9.9550    23.8520     2.1730 
  103.1250    -8.4330    66.6880     8.9050     7.8820     9.9420    23.8980     2.1520 
  103.2500    -8.3370    64.4410     8.7850     7.8210     9.9850    23.9730     2.1500 
  103.3750    -8.1640    63.4360     8.5480     7.6410     9.9080    24.0270     2.1690 
  103.5000    -8.0130    65.9590     8.2350     7.3780     9.5650    24.0260     2.1970 
  103.6250    -7.7600    70.3870     7.9580     7.1100     8.9000    23.9810     2.2240 
  103.7500    -7.4550    73.3870     7.8210     6.9210     8.1730    23.9700     2.2430 
  103.8750    -7.2710    75.2980     7.8710     6.8690     7.9610    23.9470     2.2500 
  104.0000    -7.1090    76.2030     8.0890     6.9670     8.3910    23.8700     2.2480 
  104.1250    -6.9330    74.6240     8.3860     7.1880     9.0620    23.7600     2.2350 
  104.2500    -6.9070    70.6450     8.6290     7.4300     9.3470    23.6200     2.2160 
  104.3750    -6.9630    67.9900     8.7500     7.6230     9.3790    23.4900     2.1960 
  104.5000    -7.0060    68.6760     8.7480     7.7290     9.2860    23.4230     2.1780 
  104.6250    -7.1380    68.9740     8.6850     7.7550     9.0890    23.3910     2.1660 
  104.7500    -7.2470    68.0640     8.6540     7.7600     8.8840    23.3560     2.1590 
  104.8750    -7.3030    68.0390     8.6940     7.7750     8.7150    23.3640     2.1560 
  105.0000    -7.4300    69.5540     8.7940     7.8080     8.7740    23.4410     2.1550 
  105.1250    -7.5740    71.3170     8.9160     7.8490     8.9920    23.4710     2.1560 
  105.2500    -7.7050    71.4380     9.0130     7.8830     8.9910    23.4020     2.1560 
  105.3750    -7.9140    71.4360     9.0610     7.9000     8.8650    23.4570     2.1540 
  105.5000    -8.1290    71.8660     9.0590     7.8990     8.8320    23.7110     2.1500 
  105.6250    -8.2630    72.2080     9.0200     7.8920     9.1990    23.9790     2.1450 
  105.7500    -8.4970    70.6160     8.9810     7.8890     9.3480    23.8880     2.1400 
  105.8750    -8.7600    67.3640     8.9610     7.8910     9.4320    23.4600     2.1390 
  106.0000    -8.9300    64.9450     8.9590     7.8900     9.4150    22.9560     2.1400 
  106.1250    -9.0950    64.4270     8.9580     7.8680     9.3300    22.7660     2.1430 
