~V
VERS. 2.00: Ver 2.00
~W
STRT.M 52.0000:
STOP.M 271.0000:
STEP.M 0.1250:
NULL. -999.2500:
UWI. F11069:
~C
DEPT.M :
GR.API :
RML.OHMM :
RI. :
RXO.OHMM :
CALI.CM :
DEN.GM/CC :
SP.MV :
~A
# ...
  198.2500    68.1210    43.9860    38.1440    70.1620    24.9600     2.2540   -14.9180 
  198.3750    66.2170    47.4350    41.7520    73.6180    24.8380     2.2900   -14.9620 
  198.5000    65.2910    49.7270    44.5740    63.1230    24.6920     2.3720   -14.9970 
  198.6250    64.6760    50.3240    45.7850    54.2580    24.5700     2.3870   -15.0380 
  198.7500    63.6810    49.6340    45.8650    50.5970    24.4880     2.3740   -15.0790 
  198.8750    64.1430    47.7390    45.0590    49.5820    24.3870     2.3480   -15.1160 
  199.0000    67.6880    44.5040    43.1460    52.9070    24.3420     2.3300   -15.1060 
  199.1250    72.5140    39.6980    39.4720    51.4990    24.5260     2.3350   -15.0470 
  199.2500    76.8170    34.1080    34.5890    40.9570    24.7800     2.3570   -14.9480 
  199.3750    81.8340    28.6100    29.4380    29.1390    24.8280     2.3840   -14.8220 
  199.5000    89.1630    23.9750    24.9660    22.3990    24.6400     2.4090   -14.7140 
  199.6250    96.7330    20.7530    21.8260    20.0680    24.3990     2.4290   -14.6230 
  199.7500   101.3060    18.6070    19.7320    19.6000    24.2520     2.4450   -14.5590 
  199.8750   102.6770    17.2290    18.4070    18.4950    24.1830     2.4600   -14.5070 
  200.0000   100.4310    16.3180    17.5710    17.7730    24.1500     2.4730   -14.4850 
  200.1250    95.4360    15.6620    16.9750    16.3980    24.0690     2.4820   -14.5250 
  200.2500    93.2440    15.1050    16.4140    14.6900    23.9820     2.4880   -14.6210 
  200.3750    94.4050    14.6360    15.8710    13.7810    24.0210     2.4900   -14.8160 
  200.5000    94.5960    14.2770    15.3750    13.7700    24.1540     2.4880   -15.0140 
  200.6250    92.2940    14.0770    14.9680    13.6510    24.1680     2.4800   -15.1150 
  200.7500    93.1160    14.0260    14.6600    13.4820    24.0470     2.4660   -15.1880 
  200.8750    97.3290    14.1600    14.4850    13.4170    23.8930     2.4480   -15.2950 
  201.0000    99.9240    14.5700    14.5120    13.4330    23.8680     2.4280   -15.4390 
  201.1250    98.7930    15.5750    14.9650    14.1030    23.9820     2.4060   -15.5600 
  201.2500    95.6160    17.4590    16.0440    15.9180    24.1290     2.3770   -15.6300 
  201.3750    90.5670    20.6190    18.0710    19.1550    24.2860     2.3420   -15.6670 
  201.5000    83.2310    25.4130    21.4480    24.4130    24.4250     2.3040   -15.7550 
  201.6250    77.4540    32.3120    26.9120    32.8560    24.4850     2.2700   -15.9310 
  201.7500    75.3720    40.7560    34.2980    45.4260    24.5770     2.2470   -16.0790 
  201.8750    74.1860    50.0980    43.1670    60.3710    24.7720     2.2320   -16.1830 
  202.0000    71.6690    59.4520    52.5270    71.7450    24.9450     2.2230   -16.2670 
  202.1250    68.2400    67.7140    60.9010    76.8070    25.0130     2.2140   -16.3460 
  202.2500    66.6590    74.4800    67.5860    82.5480    25.0730     2.2090   -16.3930 
  202.3750    66.6620    79.6640    72.4540    96.5780    25.1760     2.2110   -16.3780 
  202.5000    66.0020    83.4230    75.6940   104.9960    25.2190     2.2220   -16.3380 
  202.6250    65.5120    85.9040    77.4550   100.0210    25.1820     2.2390   -16.3290 
  202.7500    64.9730    87.7630    78.4590    94.1560    25.1360     2.2520   -16.3460 
  202.8750    64.2750    89.6330    79.3340    94.1480    25.1390     2.2560   -16.4010 
  203.0000    63.1510    92.3970    80.9070    95.8020    25.1550     2.2500   -16.4960 
  203.1250    62.5970    97.6380    84.7020    91.6270    25.1350     2.2370   -16.6240 
  203.2500    63.7880   106.2620    91.6660    99.2160    25.1270     2.2250   -16.7960 
  203.3750    63.8120   119.1730   102.7100   113.0220    25.1590     2.2170   -17.0290 
  203.5000    60.4750   136.8160   118.4120   131.4190    25.2190     2.2160   -17.2980 
  203.6250    56.5180   159.1740   139.0980   181.8980    25.2750     2.2220   -17.6010 
  203.7500    54.2430   183.1580   161.8990   219.4180    25.3060     2.2290   -17.9570 
  203.8750    53.7020   205.3750   183.4510   226.9690    25.3120     2.2320   -18.2920 
  204.0000    53.2550   222.4660   200.2770   216.7610    25.3330     2.2280   -18.5400 
  204.1250    52.8230   231.3960   209.3520   210.8330    25.3600     2.2200   -18.7260 
  204.2500    52.6240   233.9630   212.7510   210.4470    25.4000     2.2130   -18.9250 
  204.3750    52.0210   232.1520   212.7550   220.5260    25.4460     2.2130   -19.1520 
  204.5000    51.1500   229.6510   211.2510   223.2790    25.4590     2.2170   -19.3910 
  204.6250    49.8870   229.1290   208.7800   221.1490    25.4030     2.2230   -19.5200 
  204.7500    49.4640   228.1020   205.3150   220.8100    25.3030     2.2250   -19.5650 
  204.8750    50.0940   223.5030   200.7050   222.2570    25.2250     2.2220   -19.6550 
  205.0000    51.2420   215.2410   195.0680   213.8310    25.1840     2.2160   -19.8320 
  205.1250    53.3410   205.7330   188.7250   195.2290    25.1840     2.2100   -19.9790 
  205.2500    55.3130   196.1280   182.2100   178.8340    25.1820     2.2050   -20.0280 
  205.3750    55.7900   186.1710   175.6430   174.6790    25.1710     2.2020   -19.9870 
  205.5000    56.3880   175.6490   168.7350   175.8030    25.1490     2.2040   -19.8810 
  205.6250    58.7160   163.6830   160.3080   181.4540    25.1250     2.2120   -19.7370 
  205.7500    60.4720   149.9700   149.4340   178.4520    25.1000     2.2260   -19.5400 
  205.8750    59.6740   134.8610   136.0450   166.4550    25.0920     2.2470   -19.3030 
  206.0000    57.2010   119.5780   121.4340   145.1100    25.1250     2.2710   -19.0470 
  206.1250    55.7590   106.2630   108.0730   118.8510    25.1300     2.2870   -18.8110 
  206.2500    56.4080    96.0940    97.6530    96.7430    25.0850     2.2890   -18.5870 
  206.3750    59.4840    89.5840    90.9670    86.2760    25.0150     2.2780   -18.3500 
  206.5000    62.0320    86.5280    88.0500    95.1090    24.9630     2.2620   -18.0820 
  206.6250    60.8820    86.2710    88.5050   105.9250    24.9850     2.2560   -17.8790 
  206.7500    59.2790    86.7580    90.1130   103.8860    25.0140     2.2650   -17.7910 
  206.8750    59.8960    86.4620    90.9290    99.2470    25.0160     2.2820   -17.7350 
  207.0000    61.5810    84.4080    89.4180   105.8060    24.9680     2.2990   -17.6460 
  207.1250    61.9000    80.4700    85.0830   110.9360    24.8640     2.3070   -17.5330 
  207.2500    61.7690    76.1280    79.8050    98.3090    24.7400     2.3060   -17.4390 
  207.3750    62.0660    72.7110    75.2200    79.9570    24.6760     2.2950   -17.3620 
  207.5000    61.6730    71.1950    72.5420    68.2160    24.6500     2.2770   -17.2980 
  207.6250    61.4110    72.2890    72.7390    80.1910    24.6630     2.2580   -17.2140 
  207.7500    62.9330    75.1660    75.0990    91.5990    24.7750     2.2460   -17.0740 
  207.8750    65.0630    78.9200    78.7140    98.7340    24.8930     2.2450   -16.8770 
  208.0000    65.5820    82.5190    82.4070    94.8670    24.9730     2.2550   -16.6930 
  208.1250    63.9230    85.0020    85.0930    95.9440    24.9630     2.2690   -16.5770 
  208.2500    62.0030    86.3630    86.7930    98.7890    24.8740     2.2780   -16.4830 
  208.3750    61.0940    86.7800    87.7440    91.7460    24.7900     2.2810   -16.3600 
  208.5000    62.7750    86.3220    87.8610    89.6120    24.7680     2.2810   -16.1910 
  208.6250    63.9610    84.5820    86.4030   102.6710    24.8010     2.2820   -15.9640 
  208.7500    61.4750    81.5030    83.2950   115.4970    24.8340     2.2870   -15.7360 
  208.8750    56.8400    77.1890    78.7270    98.2200    24.8250     2.2960   -15.5290 
  209.0000    55.9060    72.1130    73.2230    65.1980    24.7870     2.3050   -15.3140 
  209.1250    60.9780    67.0620    67.6210    55.9380    24.7800     2.3090   -15.0680 
  209.2500    64.5610    62.7120    62.6990    61.5120    24.7550     2.3050   -14.7960 
  209.3750    64.9820    59.3770    58.8570    69.9940    24.6760     2.2970   -14.5310 
