~V
VERS. 2.00: Ver 2.00
~W
STRT.M 50.0000:
STOP.M 229.0000:
STEP.M 0.1250:
NULL. -999.2500:
UWI. F11009:
~C
DEPT.M :
DEN.GM/CC :
GR.API :
RML.OHMM :
RI. :
RXO.OHMM :
CALI.CM :
SP.MV :
~A
# ...
  173.7500     2.2750    66.7620   114.2490   106.2020    35.1460    22.2100   -17.7400 
  173.8750     2.2670    65.8690   111.7930   105.0940    40.6770    22.5820   -17.6850 
  174.0000     2.2690    66.6990   105.8250   100.2890    39.4880    22.9690   -17.5480 
  174.1250     2.2770    69.5170    99.8520    94.5930    32.3940    23.0430   -17.2580 
  174.2500     2.2790    72.4860    97.0500    91.2950    27.5200    22.9900   -16.8000 
  174.3750     2.2700    74.6370    98.3900    91.7430    26.6290    22.9690   -16.2300 
  174.5000     2.2530    73.7320   103.0830    95.5720    27.5850    22.9190   -15.6180 
  174.6250     2.2340    68.3280   108.6730   100.8050    29.2680    22.7810   -14.9080 
  174.7500     2.2190    63.6410   111.6360   104.1560    32.2360    22.5940   -14.1320 
  174.8750     2.2030    62.8500   109.6640   103.3070    40.0030    22.6930   -13.3220 
  175.0000     2.1820    63.8130   102.4420    97.5130    51.1870    23.2140   -12.5070 
  175.1250     2.1620    63.8790    92.0350    87.9810    63.4600    23.9130   -11.7220 
  175.2500     2.1600    64.5360    82.7160    78.5610    72.2710    24.3350   -10.9470 
  175.3750     2.1940    65.4490    77.2040    72.0630    70.7590    24.3430   -10.1870 
  175.5000     2.2690    65.3140    77.0140    70.4120    58.6490    24.1220    -9.4760 
  175.6250     2.3800    64.4740    83.5970    75.5540    55.4370    23.8300    -8.8670 
  175.7500     2.4930    63.1180    95.3070    86.1490    68.8650    23.5660    -8.3350 
  175.8750     2.5880    61.6990   109.7600   100.0740    96.4170    23.3180    -7.8750 
  176.0000     2.6560    62.4750   122.2960   113.1360   121.5710    23.1450    -7.4270 
  176.1250     2.6990    66.3410   125.3760   118.3760   121.5220    22.9720    -6.9880 
  176.2500     2.7270    66.7120   118.0050   113.8620   108.2150    22.8280    -6.6070 
  176.3750     2.7340    61.9740   103.7440   101.7290    94.2090    22.7820    -6.2810 
  176.5000     2.7170    56.5130    88.8700    87.2170    82.1320    22.9060    -5.9940 
  176.6250     2.6810    54.7770    79.7350    76.6920    65.3480    23.3030    -5.7590 
  176.7500     2.6500    57.0730    77.2690    72.5200    48.5030    23.6590    -5.5630 
  176.8750     2.6400    61.5740    79.7300    73.9520    36.9000    23.3980    -5.3480 
  177.0000     2.6600    65.0320    82.2550    76.7360    33.4830    22.7670    -5.1130 
  177.1250     2.7070    64.2260    76.4840    72.7140    36.1380    22.3000    -4.8780 
  177.2500     2.7570    61.4050    61.1350    59.5590    37.7640    22.2500    -4.6390 
  177.3750     2.7800    58.9890    41.1040    41.1290    36.1280    22.3590    -4.4050 
  177.5000     2.7490    58.4160    23.5620    24.0770    31.0670    22.4380    -4.2150 
  177.6250     2.6380    61.2060    13.2010    13.5380    19.0990    22.4100    -4.0810 
  177.7500     2.4770    63.3970     7.7420     7.9840    10.1250    22.5200    -3.9690 
  177.8750     2.3150    61.5410     5.2310     5.4400     6.2340    23.0070    -3.9470 
  178.0000     2.1980    57.4460     4.4740     4.4810     5.0940    23.6910    -4.0380 
  178.1250     2.1620    56.4760     4.7580     4.4420     5.0690    24.1900    -4.2290 
  178.2500     2.1800    58.3540     5.3230     4.8280     5.2590    24.3210    -4.5730 
  178.3750     2.2210    60.4210     5.9460     5.4270     5.5640    24.2530    -5.0350 
  178.5000     2.2600    61.0260     6.4690     6.0430     6.0040    24.0970    -5.5030 
  178.6250     2.2800    59.9360     6.7190     6.4720     6.4630    23.8290    -5.8650 
  178.7500     2.2790    60.0360     6.7200     6.6550     6.7120    23.4750    -6.1160 
  178.8750     2.2580    62.9840     6.5410     6.6040     6.7020    23.2010    -6.2590 
  179.0000     2.2250    64.3390     6.2780     6.3870     6.3470    23.1740    -6.3210 
  179.1250     2.2080    60.3890     6.0410     6.1040     5.8160    23.4250    -6.3130 
  179.2500     2.2350    55.4260     5.8880     5.8440     5.5760    23.8220    -6.1920 
  179.3750     2.3100    53.2150     5.8260     5.6370     5.6380    24.1610    -5.9340 
  179.5000     2.4060    53.2400     5.8240     5.4780     5.8600    24.3330    -5.5910 
  179.6250     2.4710    52.6130     5.8390     5.3470     6.0810    24.3950    -5.2470 
  179.7500     2.4810    51.8640     5.8440     5.2250     6.0810    24.4400    -4.9810 
  179.8750     2.4420    51.4200     5.8400     5.1140     5.8620    24.5130    -4.8240 
  180.0000     2.3790    52.6520     5.8470     5.0290     5.6960    24.6140    -4.7550 
  180.1250     2.3210    55.4670     5.8930     4.9950     5.7360    24.6950    -4.7250 
  180.2500     2.2820    56.6190     5.9780     5.0130     5.8410    24.7060    -4.7270 
  180.3750     2.2650    55.8120     6.0920     5.0730     5.8740    24.6720    -4.8090 
  180.5000     2.2680    54.6940     6.2100     5.1510     5.9280    24.5820    -4.9630 
  180.6250     2.2870    54.8360     6.2840     5.2070     6.0260    24.4500    -5.1540 
  180.7500     2.3070    58.1170     6.2910     5.2150     6.1470    24.3090    -5.3370 
  180.8750     2.3240    63.9730     6.2280     5.1720     6.1810    24.2500    -5.4480 
  181.0000     2.3380    69.5460     6.1240     5.0950     6.1430    24.1970    -5.4780 
  181.1250     2.3530    69.0980     6.0360     5.0240     6.0220    24.1640    -5.4550 
  181.2500     2.3680    64.7300     6.0140     4.9960     5.8800    24.1390    -5.3870 
  181.3750     2.3820    61.5950     6.0730     5.0280     5.9140    24.0440    -5.2860 
  181.5000     2.3930    62.0390     6.2030     5.1140     6.0590    23.7770    -5.1830 
  181.6250     2.3980    63.8010     6.3720     5.2330     6.2760    23.4550    -5.0990 
  181.7500     2.3980    63.4110     6.5360     5.3480     6.4340    23.4780    -5.0380 
  181.8750     2.3910    61.3310     6.6700     5.4380     6.5250    23.8370    -4.9860 
  182.0000     2.3790    59.6280     6.7660     5.4920     6.6450    24.2110    -4.9630 
  182.1250     2.3670    56.7790     6.8160     5.5140     6.7560    24.2520    -5.0050 
  182.2500     2.3620    53.2510     6.8340     5.5230     6.6990    24.2030    -5.1040 
  182.3750     2.3650    52.3890     6.8370     5.5310     6.5990    24.1780    -5.2500 
  182.5000     2.3720    54.9850     6.8460     5.5450     6.4400    24.1680    -5.4280 
  182.6250     2.3780    57.5630     6.8800     5.5650     6.3240    24.1300    -5.6270 
  182.7500     2.3840    59.6150     6.9250     5.5840     6.3290    24.0340    -5.8520 
  182.8750     2.3930    64.4470     6.9550     5.5940     6.3910    23.8610    -6.1430 
  183.0000     2.4070    70.9830     6.9400     5.5880     6.3950    23.5420    -6.5090 
  183.1250     2.4230    72.4760     6.8760     5.5690     6.3310    23.0920    -6.9540 
  183.2500     2.4320    71.1770     6.8120     5.5510     6.2580    22.8930    -7.4710 
  183.3750     2.4260    75.1890     6.8030     5.5540     6.1700    23.0520    -8.0400 
  183.5000     2.4060    86.2440     6.8870     5.5930     6.1390    23.3720    -8.6590 
  183.6250     2.3780    96.1470     7.0690     5.6830     6.1790    23.4030    -9.3650 
  183.7500     2.3540   101.4570     7.2820     5.8020     6.2480    23.0350   -10.1180 
  183.8750     2.3410   105.1770     7.4660     5.9230     6.3640    22.6500   -10.9130 
  184.0000     2.3420   107.9300     7.5830     6.0150     6.5610    22.5810   -11.7270 
  184.1250     2.3590   108.8180     7.6180     6.0520     6.6930    22.7730   -12.5130 
  184.2500     2.3820   110.0790     7.6090     6.0460     6.7140    22.8440   -13.3170 
  184.3750     2.4020   113.7760     7.5880     6.0210     6.5620    22.8530   -14.2020 
  184.5000     2.4090   117.3080     7.5800     6.0000     6.4120    22.9440   -15.1970 
  184.6250     2.3930   114.8620     7.6090     6.0090     6.4760    23.3090   -16.2800 
  184.7500     2.3560   108.3660     7.6820     6.0530     6.8990    23.6780   -17.4290 
  184.8750     2.3070   102.4420     7.8070     6.1370     7.3420    24.1240   -18.5780 
