~V
VERS. 2.00: Ver 2.00
~W
STRT.M 53.0000:
STOP.M 220.0000:
STEP.M 0.1250:
NULL. -999.2500:
UWI. F11005:
~C
DEPT.M :
DEN.GM/CC :
GR.API :
RML.OHMM :
RI. :
RXO.OHMM :
CALI.CM :
SP.MV :
~A
# ...
  188.0000     2.3390    87.6730    10.9950     9.9510    11.0880    25.3640   -19.3690 
  188.1250     2.3270    88.2870    11.3020    10.3810     9.5500    25.3420   -19.0890 
  188.2500     2.3170    87.1940    11.6790    10.9210    10.5180    25.2870   -18.8400 
  188.3750     2.3160    86.2530    11.9680    11.4170    12.9910    25.1970   -18.6140 
  188.5000     2.3240    85.2020    12.0150    11.6760    14.0090    25.1230   -18.4020 
  188.6250     2.3370    83.4650    11.7140    11.5270    11.6660    25.0960   -18.1390 
  188.7500     2.3460    84.1610    11.2290    11.1130     9.5140    25.0740   -17.8800 
  188.8750     2.3500    87.6770    10.7470    10.6200     8.3790    25.0130   -17.6250 
  189.0000     2.3470    91.1020    10.4110    10.2160     8.5630    24.8910   -17.3770 
  189.1250     2.3380    91.6400    10.2590     9.9840     9.5280    24.7490   -17.1730 
  189.2500     2.3250    91.8160    10.1330     9.8010     9.5270    24.6290   -16.9690 
  189.3750     2.3100    93.0940     9.9040     9.5340     8.6560    24.5650   -16.7690 
  189.5000     2.2980    93.4040     9.5490     9.1290     7.9160    24.5060   -16.6000 
  189.6250     2.2980    91.3570     9.2540     8.7190     8.0850    24.3940   -16.5290 
  189.7500     2.3060    89.6150     9.3420     8.5820     8.2210    24.2630   -16.5050 
  189.8750     2.3140    90.0540    10.1690     8.9850     8.5130    24.1230   -16.5290 
  190.0000     2.3130    90.0590    12.0550    10.2200     9.4410    23.9950   -16.6580 
  190.1250     2.2990    86.2420    15.8390    12.9720    13.6490    23.9300   -16.7660 
  190.2500     2.2840    80.6620    22.1720    17.6730    22.5380    23.9360   -16.9160 
  190.3750     2.2750    77.6940    31.6090    24.9820    32.9200    23.9690   -17.1400 
  190.5000     2.2760    77.3230    44.2650    35.5490    40.7030    24.0150   -17.3640 
  190.6250     2.2770    73.6920    60.9840    50.7330    50.0090    24.0470   -17.5730 
  190.7500     2.2680    65.6570    81.9000    70.2820    79.2510    24.0380   -17.7720 
  190.8750     2.2490    58.8710   106.9530    93.6910   108.1220    23.9840   -17.9510 
  191.0000     2.2230    58.1010   133.7450   118.7550   103.2540    23.9650   -18.0690 
  191.1250     2.1960    61.3760   155.7380   139.3660   114.2280    24.1860   -18.2110 
  191.2500     2.1740    64.6120   167.8880   150.2850   122.7250    24.5840   -18.3010 
  191.3750     2.1580    66.8370   169.3100   150.8450   127.8960    25.0200   -18.3420 
  191.5000     2.1480    66.8650   163.3940   145.1010   128.8780    25.2140   -18.3630 
  191.6250     2.1470    67.3100   154.8180   137.9820   127.8700    25.2310   -18.2750 
  191.7500     2.1510    70.5210   146.2990   131.6440   124.8790    25.2620   -18.1510 
  191.8750     2.1600    72.7350   137.2560   125.4420   122.7890    25.3040   -17.9780 
  192.0000     2.1700    69.2720   126.2460   117.8080   118.6930    25.3030   -17.7490 
  192.1250     2.1810    62.9030   112.3300   106.9460   112.8110    25.2460   -17.4450 
  192.2500     2.1910    61.3170    97.3850    93.7010    99.6240    25.2560   -17.0890 
  192.3750     2.1980    64.2730    83.2170    79.8860    71.5220    25.2790   -16.6840 
  192.5000     2.2020    67.6000    70.9940    67.5860    45.1630    25.2620   -16.2670 
  192.6250     2.2030    68.3800    61.8040    58.7570    32.9890    25.2660   -15.9730 
  192.7500     2.2020    68.7310    55.5840    53.1480    28.6480    25.3410   -15.7210 
  192.8750     2.2020    69.9180    52.1520    50.2710    28.8290    25.3800   -15.5480 
  193.0000     2.2030    70.3580    50.7170    49.4140    32.3900    25.3880   -15.4630 
  193.1250     2.2010    70.7330    50.5380    49.9170    34.5980    25.3630   -15.4780 
  193.2500     2.1990    71.5450    50.6450    50.7490    34.3370    25.3300   -15.6070 
  193.3750     2.1960    69.6760    50.5380    51.2860    34.5540    25.2520   -15.7900 
  193.5000     2.1950    64.3100    49.9710    51.1600    35.7270    25.1220   -16.0180 
  193.6250     2.1980    60.9910    48.9270    50.2690    36.1870    25.0740   -16.2160 
  193.7500     2.2040    62.8730    47.7060    49.0010    33.9220    25.1470   -16.4400 
  193.8750     2.2110    63.9920    46.5030    47.5960    29.8540    25.2510   -16.6680 
  194.0000     2.2170    62.1620    45.4120    46.1670    27.7210    25.3090   -16.8870 
  194.1250     2.2190    62.6890    44.4670    44.7270    29.5780    25.3390   -17.1220 
  194.2500     2.2170    66.7310    43.7190    43.3330    30.7610    25.3530   -17.3150 
  194.3750     2.2110    70.2310    43.4280    42.2300    29.7810    25.3460   -17.5420 
  194.5000     2.2030    70.2000    44.1100    41.9230    26.9700    25.2900   -17.7880 
  194.6250     2.1950    68.0530    47.1050    43.6200    25.9930    25.1440   -18.0300 
  194.7500     2.1900    65.7600    53.0830    48.2470    28.4870    25.0310   -18.3200 
  194.8750     2.1880    64.5390    62.8680    57.0970    35.5980    25.1150   -18.6010 
  195.0000     2.1870    64.4620    77.6750    71.5090    48.7100    25.2790   -18.8980 
  195.1250     2.1890    64.7210    99.6020    93.1240    77.2940    25.3920   -19.1730 
  195.2500     2.1950    64.7920   126.0120   118.9800   109.7860    25.3830   -19.4240 
  195.3750     2.2080    66.5220   151.9080   144.2800   129.9160    25.2860   -19.6170 
  195.5000     2.2250    68.5250   170.7800   162.7460   140.8470    25.1520   -19.7800 
  195.6250     2.2410    66.5210   175.8690   167.6440   144.2660    25.1200   -19.9250 
  195.7500     2.2480    63.4410   169.7850   161.4880   128.4580    25.1480   -19.9400 
  195.8750     2.2460    62.3200   157.1640   148.8180   110.2070    25.0920   -19.9060 
  196.0000     2.2340    64.1390   143.4530   134.8880    92.5560    24.9790   -19.8060 
  196.1250     2.2170    68.0000   133.7230   124.4910    71.5630    24.9560   -19.7340 
  196.2500     2.2020    71.0510   129.6730   119.5260    62.7990    25.1800   -19.8260 
  196.3750     2.1930    69.5640   131.7620   120.8310    67.4930    25.4340   -20.0740 
  196.5000     2.1850    63.2490   139.1850   128.0040    82.9080    25.6450   -20.3740 
  196.6250     2.1680    59.7690   149.2680   139.0490    98.6950    25.8440   -20.6680 
  196.7500     2.1400    61.7780   156.6150   148.6370    92.7470    25.9140   -21.0340 
  196.8750     2.1130    64.2840   157.0380   151.9160    79.1590    26.0410   -21.4090 
  197.0000     2.1150    64.0860   149.0980   146.3380    88.9860    26.2920   -21.8440 
  197.1250     2.1700    64.4010   134.6240   133.2200   129.9820    26.2540   -22.1920 
  197.2500     2.2600    68.4770   119.1650   118.6420   173.2910    25.6160   -22.3500 
  197.3750     2.3560    75.1490   105.5280   105.6060   170.1980    25.0630   -22.3660 
  197.5000     2.4330    82.1040    94.4460    95.0230   153.7870    24.9180   -22.2160 
  197.6250     2.4770    87.6380    84.9260    86.2890   145.6800    25.0200   -21.9780 
  197.7500     2.4980    91.1640    74.6270    76.8140   126.8030    25.0750   -21.6150 
  197.8750     2.5020    92.6730    62.2780    64.4180   108.4360    25.0500   -21.1300 
  198.0000     2.4870    92.8750    48.2010    49.0940    97.2400    24.9700   -20.5640 
  198.1250     2.4530    90.8880    34.6150    34.1850    90.0560    24.9430   -19.9910 
  198.2500     2.4130    86.3300    23.5240    22.6910    46.8880    24.9770   -19.4400 
  198.3750     2.3780    79.9310    15.5100    15.0820    19.4600    25.0650   -18.9250 
  198.5000     2.3530    71.4600    10.3310    10.5640     8.9480    25.1190   -18.5850 
  198.6250     2.3370    62.2780     7.7610     8.3140     6.8740    25.0390   -18.4100 
  198.7500     2.3240    56.5270     6.6940     7.1990     6.6290    24.7370   -18.3820 
  198.8750     2.3120    56.2620     6.4470     6.8120     6.7600    24.3650   -18.4820 
  199.0000     2.3060    57.7400     6.5330     6.8630     7.1450    24.2300   -18.6370 
  199.1250     2.3080    56.1320     6.7230     7.0940     7.1220    24.5740   -18.8720 
