~V
VERS. 2.00: Ver 2.00
~W
STRT.M 52.0000:
STOP.M 269.0000:
STEP.M 0.1250:
NULL. -999.2500:
UWI. F11071:
~C
DEPT.M :
GR.API :
RML.OHMM :
RI. :
RXO.OHMM :
CALI.CM :
DEN.GM/CC :
SP.MV :
~A
# ...
  130.7500    88.4440     7.2270     5.8570     6.3670    24.6740     2.2640    -9.9900 
  130.8750    83.6820     7.9800     6.3110     7.0370    24.6290     2.2540   -10.1490 
  131.0000    75.3760     9.2110     7.1270     7.8240    24.6190     2.2700   -10.3080 
  131.1250    70.6330    10.9880     8.4780     9.2050    24.6460     2.3310   -10.4710 
  131.2500    68.9120    13.0110    10.2620    11.3920    24.7170     2.4160   -10.6070 
  131.3750    67.4050    14.8330    12.2110    14.9700    24.8150     2.4900   -10.7200 
  131.5000    66.1140    15.8770    13.7400    19.0420    24.8870     2.5130   -10.8320 
  131.6250    67.4930    15.4940    13.9150    20.9450    24.8900     2.4600   -10.9330 
  131.7500    70.7370    14.0100    12.8310    18.6260    24.7940     2.3680   -10.9880 
  131.8750    73.4640    12.0450    11.0840    13.5540    24.6560     2.2780   -10.9840 
  132.0000    75.0390    10.2940     9.3450     9.2090    24.6350     2.2210   -10.9480 
  132.1250    75.3160     9.2450     8.0970     7.8040    24.6320     2.2100   -10.9330 
  132.2500    74.2680     8.7660     7.3680     7.5370    24.6230     2.2220   -10.9670 
  132.3750    72.4000     8.7280     7.1090     7.6130    24.6070     2.2380   -11.0420 
  132.5000    70.9030     9.0190     7.2170     7.7660    24.5940     2.2450   -11.1190 
  132.6250    70.6750     9.4820     7.5770     9.1470    24.6210     2.2360   -11.2190 
  132.7500    70.6090     9.8960     7.9860    11.8350    24.6850     2.2170   -11.3730 
  132.8750    69.6500    10.1670     8.3170    13.0700    24.8310     2.1950   -11.6090 
  133.0000    68.0900    10.2690     8.5000    11.0260    25.0770     2.1760   -11.9310 
  133.1250    67.0120    10.2170     8.5150     9.5620    25.2710     2.1660   -12.3320 
  133.2500    66.7640    10.1050     8.4450     8.9250    25.3470     2.1630   -12.7340 
  133.3750    67.2060     9.9930     8.3490     8.8590    25.3060     2.1650   -13.0620 
  133.5000    68.0350     9.9260     8.2720     8.8760    25.3620     2.1700   -13.3230 
  133.6250    70.5080     9.9320     8.2400     8.9270    25.7440     2.1730   -13.5580 
  133.7500    74.6660     9.9990     8.2450     8.8800    26.0210     2.1750   -13.7900 
  133.8750    76.3800    10.1120     8.2840     8.8380    25.8150     2.1730   -14.0120 
  134.0000    73.8390    10.2530     8.3560     8.8270    25.3310     2.1650   -14.1770 
  134.1250    70.2140    10.3860     8.4450     8.9860    25.1100     2.1530   -14.2600 
  134.2500    70.2990    10.4730     8.5180     9.1680    25.1190     2.1430   -14.3020 
  134.3750    72.5080    10.4810     8.5400     9.3240    25.1770     2.1410   -14.3540 
  134.5000    73.2610    10.4000     8.4880     9.3020    25.1790     2.1490   -14.3970 
  134.6250    73.1830    10.2480     8.3550     9.1960    25.0490     2.1670   -14.4050 
  134.7500    73.7700    10.0930     8.1860     8.7850    24.9090     2.1830   -14.4000 
  134.8750    74.0060     9.9810     8.0240     8.3620    24.8460     2.1910   -14.3590 
  135.0000    74.0150     9.9390     7.9100     8.1930    24.8740     2.1890   -14.2930 
  135.1250    74.3940     9.9790     7.8860     8.3770    24.9420     2.1790   -14.2320 
  135.2500    75.4560    10.0740     7.9510     8.6560    24.9450     2.1690   -14.2110 
  135.3750    76.0550    10.2120     8.0950     8.9030    24.9090     2.1660   -14.2080 
  135.5000    75.0830    10.3850     8.2960     9.1930    24.8770     2.1680   -14.2440 
  135.6250    72.3340    10.5790     8.5280     9.5750    24.8750     2.1700   -14.2990 
  135.7500    68.5030    10.7620     8.7520     9.8630    24.8910     2.1690   -14.3150 
  135.8750    65.5850    10.8900     8.9380     9.9910    24.9110     2.1620   -14.2890 
  136.0000    64.8430    10.9110     9.0460     9.9310    24.9090     2.1540   -14.2570 
  136.1250    65.6200    10.7500     9.0040     9.6890    24.9230     2.1510   -14.2410 
  136.2500    66.7290    10.4190     8.8030     9.4570    24.9450     2.1550   -14.1650 
  136.3750    67.2200     9.9480     8.4570     9.3560    24.9680     2.1650   -13.9830 
  136.5000    67.8810     9.4050     8.0140     8.9410    24.9510     2.1780   -13.6830 
  136.6250    70.8810     8.8790     7.5470     7.8830    24.8710     2.1890   -13.3140 
  136.7500    76.2440     8.4320     7.1260     7.0460    24.7890     2.1980   -12.9410 
  136.8750    81.1330     8.0850     6.7840     6.8200    24.7520     2.2060   -12.5960 
  137.0000    82.7260     7.8300     6.5330     6.8510    24.7250     2.2170   -12.2550 
  137.1250    82.3190     7.6680     6.3930     6.7250    24.6620     2.2330   -11.9040 
  137.2500    83.3030     7.5990     6.3580     6.5020    24.5800     2.2500   -11.6170 
  137.3750    86.1740     7.6510     6.4450     6.2930    24.4880     2.2640   -11.4350 
  137.5000    89.1330     7.8260     6.6610     6.2580    24.3740     2.2680   -11.3450 
  137.6250    88.6990     8.0610     6.9740     6.6560    24.2320     2.2610   -11.2800 
  137.7500    85.0900     8.1990     7.2470     7.4530    24.1330     2.2520   -11.1680 
  137.8750    80.6810     8.1100     7.3320     8.1320    24.1860     2.2490   -10.9650 
  138.0000    78.1850     7.7380     7.1250     7.9820    24.4690     2.2570   -10.6680 
  138.1250    79.9390     7.1350     6.6140     6.7980    24.8430     2.2750   -10.2880 
  138.2500    84.4460     6.5100     6.0090     5.7610    25.0820     2.2960    -9.8710 
  138.3750    89.8280     6.0100     5.4650     4.9740    25.1870     2.3160    -9.4130 
  138.5000    95.0820     5.7100     5.0790     4.5840    25.2110     2.3320    -8.9160 
  138.6250    98.6850     5.6140     4.8890     4.7290    25.2290     2.3380    -8.3710 
  138.7500    98.5770     5.5890     4.7980     4.9360    25.2560     2.3360    -7.8230 
  138.8750    95.1620     5.5260     4.7020     4.9520    25.2680     2.3300    -7.3260 
  139.0000    91.1460     5.3630     4.5270     5.1320    25.2680     2.3250    -6.9140 
  139.1250    90.8690     5.1490     4.2820     4.9640    25.2700     2.3210    -6.6150 
  139.2500    92.0820     5.0640     4.1050     4.4620    25.2710     2.3160    -6.3860 
  139.3750    92.0010     5.3060     4.1350     4.0180    25.2670     2.3100    -6.2080 
  139.5000    89.6390     6.0490     4.5040     4.3210    25.2420     2.3160    -6.0960 
  139.6250    85.3260     7.4760     5.4260     6.3260    25.1600     2.3580    -6.1470 
  139.7500    79.4220     9.3630     6.8910    10.1020    25.0220     2.4340    -6.3530 
  139.8750    73.0920    11.3550     8.7790    13.2110    24.8440     2.5190    -6.6780 
  140.0000    69.6940    12.9350    10.6650    16.2480    24.6760     2.5720    -7.0790 
  140.1250    70.4700    13.4780    11.7050    19.8350    24.6560     2.5480    -7.5110 
  140.2500    72.3530    13.0920    11.6800    19.6540    24.8070     2.4620    -7.9270 
  140.3750    73.8370    12.1390    10.9120    13.8700    25.0350     2.3500    -8.3300 
  140.5000    74.6740    11.0940     9.9200     9.8650    25.1720     2.2500    -8.7080 
  140.6250    73.0850    10.3790     9.1180     8.6080    25.2170     2.1880    -9.0290 
  140.7500    71.0020    10.0790     8.6220     8.3700    25.2460     2.1530    -9.3100 
  140.8750    71.5310    10.1670     8.4560     8.3250    25.2730     2.1390    -9.5490 
  141.0000    72.8260    10.5570     8.5900     8.6020    25.3110     2.1420    -9.7340 
  141.1250    73.1210    11.1320     8.9720     9.2380    25.3650     2.1610    -9.8680 
  141.2500    73.6750    11.7130     9.4400     9.8160    25.3700     2.1830    -9.9900 
  141.3750    74.4710    12.1880     9.8760    10.1060    25.3380     2.1970   -10.1120 
  141.5000    73.9620    12.4850    10.1920    10.2610    25.3460     2.1950   -10.2160 
  141.6250    72.2950    12.5650    10.3250    10.4250    25.3680     2.1800   -10.2590 
  141.7500    71.7410    12.5150    10.3340    10.4250    25.3580     2.1620   -10.2470 
  141.8750    71.1020    12.4040    10.2800    10.2780    25.3280     2.1520   -10.2300 
