~V
VERS. 2.00: Ver 2.00
~W
STRT.M 63.0000:
STOP.M 273.0000:
STEP.M 0.1250:
NULL. -999.2500:
UWI. F11030:
~C
DEPT.M :
DEN.GM/CC :
GR.API :
RML.OHMM :
RI. :
RXO.OHMM :
CALI.CM :
SP.MV :
~A
# ...
  130.5000     2.6580    52.4290    23.6890    22.0830    20.7140    24.3300    -5.0160 
  130.6250     2.6420    50.4030    23.7850    22.1900    20.1450    24.4600    -5.1030 
  130.7500     2.6170    49.4940    23.9890    22.4210    19.7780    24.4840    -5.0430 
  130.8750     2.5900    49.3550    24.2590    22.7530    21.5080    24.4190    -4.8980 
  131.0000     2.5670    48.2640    24.5140    23.1090    22.3900    24.3240    -4.7900 
  131.1250     2.5500    46.9050    24.6690    23.3700    21.6290    24.2320    -4.5670 
  131.2500     2.5370    49.1520    24.7340    23.5100    19.4700    24.2180    -4.2150 
  131.3750     2.5260    51.6160    24.7520    23.5690    18.6580    24.3140    -3.9370 
  131.5000     2.5180    51.0810    24.7740    23.6150    18.8330    24.5120    -3.7590 
  131.6250     2.5120    50.5510    24.8250    23.7100    20.3760    24.7310    -3.5560 
  131.7500     2.5070    52.3590    24.8720    23.8320    22.6930    24.9840    -3.4200 
  131.8750     2.5000    55.1290    24.8800    23.9250    22.9230    25.1000    -3.3830 
  132.0000     2.4950    55.6750    24.8380    23.9430    21.2050    25.0700    -3.3400 
  132.1250     2.4960    54.1610    24.7770    23.8960    18.8810    24.9660    -3.3650 
  132.2500     2.5030    52.7280    24.7410    23.8580    18.1940    24.8410    -3.5760 
  132.3750     2.5130    52.1080    24.7320    23.8530    18.6860    24.7370    -3.8570 
  132.5000     2.5210    54.6210    24.7190    23.8550    19.3380    24.7100    -4.0980 
  132.6250     2.5210    58.9900    24.6530    23.8070    20.8570    24.7800    -4.3810 
  132.7500     2.5150    59.7860    24.5300    23.7060    20.1030    24.9010    -4.7300 
  132.8750     2.5040    56.1160    24.3680    23.5760    19.5240    24.9430    -5.0150 
  133.0000     2.4920    51.0630    24.1910    23.4350    19.4180    24.9990    -5.2420 
  133.1250     2.4810    47.0400    24.0220    23.2870    20.0270    25.0850    -5.5900 
  133.2500     2.4730    46.3600    23.8820    23.1370    20.6850    25.1010    -5.9180 
  133.3750     2.4710    51.2180    23.8010    23.0120    20.7150    24.9670    -6.1460 
  133.5000     2.4770    58.1300    23.8140    22.9550    19.8000    24.7140    -6.3600 
  133.6250     2.4830    59.7190    23.9470    23.0260    19.3770    24.6750    -6.4880 
  133.7500     2.4800    56.2820    24.1350    23.2000    19.5770    24.9070    -6.4600 
  133.8750     2.4650    53.5650    24.2830    23.3940    21.2600    25.2320    -6.4320 
  134.0000     2.4460    53.8490    24.2840    23.4800    22.2120    25.2570    -6.4670 
  134.1250     2.4410    54.6980    24.0550    23.3140    22.8730    24.9020    -6.3190 
  134.2500     2.4580    56.0900    23.6970    22.9610    23.2070    24.5080    -6.1070 
  134.3750     2.4920    57.3680    23.3560    22.5700    22.6340    24.2950    -5.9760 
  134.5000     2.5300    58.4300    23.1810    22.3080    21.2190    24.2250    -5.8610 
  134.6250     2.5580    59.7130    23.2930    22.3260    19.7220    24.1790    -5.7580 
  134.7500     2.5740    61.1850    23.5950    22.5630    19.2480    24.1070    -5.7180 
  134.8750     2.5780    60.3560    23.9570    22.8920    19.6190    24.0460    -5.6380 
  135.0000     2.5730    56.2840    24.2360    23.1650    20.4980    24.0950    -5.4820 
  135.1250     2.5610    54.4670    24.3010    23.2420    19.6350    24.3660    -5.3890 
  135.2500     2.5460    55.6940    24.1600    23.1220    19.6280    24.8140    -5.3490 
  135.3750     2.5310    55.8360    23.8410    22.8330    20.4770    25.0990    -5.2390 
  135.5000     2.5190    53.1790    23.3800    22.4130    19.2700    25.0500    -5.0160 
  135.6250     2.5150    52.0850    22.7840    21.8710    19.1190    24.7520    -4.7830 
  135.7500     2.5130    53.0190    22.0900    21.2120    18.3790    24.4650    -4.5970 
  135.8750     2.5090    52.7380    21.3290    20.4400    16.8080    24.3470    -4.4460 
  136.0000     2.4980    52.8680    20.5540    19.6060    15.8860    24.3410    -4.3380 
  136.1250     2.4810    55.2280    19.8660    18.8190    15.3390    24.3810    -4.3310 
  136.2500     2.4680    56.3660    19.3480    18.1800    14.7830    24.4000    -4.3510 
  136.3750     2.4680    54.9060    19.0590    17.7610    14.2980    24.3650    -4.3660 
  136.5000     2.4850    52.7320    19.0230    17.5910    14.4190    24.3160    -4.4910 
  136.6250     2.5110    52.9060    19.2330    17.6840    14.9630    24.3490    -4.6990 
  136.7500     2.5320    52.6500    19.5540    17.9280    15.2300    24.3840    -4.8730 
  136.8750     2.5380    52.9040    19.8630    18.2160    15.3020    24.4640    -5.1130 
  137.0000     2.5270    55.5040    20.0320    18.4150    15.6960    24.5640    -5.4350 
  137.1250     2.5020    56.5690    19.9520    18.3650    15.7780    24.5190    -5.5830 
  137.2500     2.4760    53.9100    19.5530    18.0500    15.3710    24.3950    -5.6050 
  137.3750     2.4530    49.5870    18.7620    17.5040    14.2670    24.3450    -5.7060 
  137.5000     2.4410    47.3310    17.7320    16.8140    13.2240    24.3610    -5.8080 
  137.6250     2.4450    47.4670    16.9030    16.1210    12.7770    24.3820    -5.7850 
  137.7500     2.4620    46.2410    16.5110    15.5900    12.5310    24.4200    -5.7780 
  137.8750     2.4840    44.1830    16.5290    15.3480    12.2960    24.4670    -5.7410 
  138.0000     2.5020    43.6290    16.8570    15.4570    11.6740    24.4210    -5.6620 
  138.1250     2.5080    45.2360    17.3980    15.8920    12.0720    24.3550    -5.7530 
  138.2500     2.5050    47.8880    17.8520    16.3760    13.3890    24.3280    -5.9740 
  138.3750     2.4990    50.4160    17.9650    16.6180    15.1260    24.3480    -6.0860 
  138.5000     2.4930    53.1110    17.5990    16.3840    15.7460    24.3630    -6.0940 
  138.6250     2.4860    54.9900    16.7770    15.6090    14.0040    24.3630    -6.2840 
  138.7500     2.4760    57.4560    15.8420    14.6520    12.1240    24.3390    -6.5060 
  138.8750     2.4680    60.8300    15.0510    13.7930    11.3670    24.3710    -6.6640 
  139.0000     2.4650    63.2090    14.5380    13.1940    11.5740    24.4590    -6.7660 
  139.1250     2.4740    64.2510    14.3050    12.9070    12.7750    24.3750    -6.8070 
  139.2500     2.4930    64.2350    14.1550    12.7680    14.1170    24.1770    -6.7930 
  139.3750     2.5160    64.3780    13.9530    12.6280    13.8810    24.0810    -6.7980 
  139.5000     2.5360    65.2640    13.6410    12.3900    12.6960    24.1500    -6.9650 
  139.6250     2.5420    64.0220    13.2360    12.0500    10.8810    24.4120    -7.0940 
  139.7500     2.5310    60.4780    12.8050    11.6940    10.4100    24.7360    -7.0850 
  139.8750     2.5050    58.3680    12.3290    11.3260    10.6320    25.0550    -7.0670 
  140.0000     2.4740    60.7230    11.7230    10.8620    10.5540    25.3430    -7.0520 
  140.1250     2.4480    64.2950    10.8430    10.1270    10.1480    25.4650    -6.9360 
  140.2500     2.4260    66.0610     9.7300     9.1140     9.9920    25.2590    -6.8190 
  140.3750     2.4010    69.4260     8.5090     7.9360     8.6960    24.9000    -6.7380 
  140.5000     2.3660    75.4330     7.3720     6.8000     6.6010    24.6300    -6.5000 
  140.6250     2.3260    80.5620     6.5440     5.9340     5.3830    24.6150    -6.1670 
  140.7500     2.2970    82.8720     6.0430     5.3690     4.9700    24.7670    -5.9740 
  140.8750     2.2920    84.8190     5.8270     5.0830     4.9750    24.9470    -5.8260 
  141.0000     2.3130    88.8620     5.8000     5.0120     5.1830    25.0680    -5.6350 
  141.1250     2.3470    93.0980     5.8450     5.0650     5.1680    25.0820    -5.4690 
  141.2500     2.3750    92.7070     5.8540     5.1150     5.2060    25.0560    -5.3320 
  141.3750     2.3820    89.6090     5.7910     5.0990     5.1380    25.0130    -5.2110 
  141.5000     2.3660    88.7700     5.6610     5.0030     5.0510    24.9530    -5.1690 
  141.6250     2.3330    93.0860     5.5030     4.8490     4.8310    24.8480    -5.2060 
