~V
VERS. 2.00: Ver 2.00
~W
STRT.M 55.0000:
STOP.M 275.0000:
STEP.M 0.1250:
NULL. -999.2500:
UWI. F11036:
~C
DEPT.M :
GR.API :
RML.OHMM :
RI. :
RXO.OHMM :
CALI.CM :
DEN.GM/CC :
SP.MV :
~A
# ...
  257.5000    66.9700    10.1720     8.9280     9.2770    24.4020     2.4530     3.4380 
  257.6250    64.9830    10.1820     8.9680     8.9310    24.3830     2.4500     3.5040 
  257.7500    65.3750    10.2430     9.0570     9.6590    24.3640     2.4480     3.5730 
  257.8750    65.5580    10.3260     9.1740    11.2140    24.3610     2.4470     3.7230 
  258.0000    65.1620    10.4010     9.2930    11.9530    24.3660     2.4460     3.9300 
  258.1250    67.7550    10.4410     9.3840    10.8980    24.3520     2.4450     4.1090 
  258.2500    71.4650    10.4410     9.4350    10.4760    24.3440     2.4460     4.2890 
  258.3750    72.1180    10.4060     9.4410    10.4390    24.3420     2.4460     4.4420 
  258.5000    69.1270    10.3550     9.4150     9.9420    24.3420     2.4460     4.4870 
  258.6250    67.3390    10.3120     9.3810     9.2230    24.3420     2.4480     4.5040 
  258.7500    68.0500    10.2920     9.3640     9.4280    24.3400     2.4520     4.5420 
  258.8750    69.3610    10.2980     9.3720     9.9860    24.3330     2.4580     4.5350 
  259.0000    70.5700    10.3330     9.4100    10.1450    24.3210     2.4670     4.4650 
  259.1250    70.2660    10.4120     9.4970    10.5470    24.3190     2.4770     4.3570 
  259.2500    69.6150    10.5470     9.6410    11.1260    24.3070     2.4840     4.2620 
  259.3750    68.9100    10.7530     9.8460    12.1180    24.2910     2.4850     4.1840 
  259.5000    67.5890    11.0380    10.1190    12.9830    24.2760     2.4800     4.1490 
  259.6250    66.1430    11.3960    10.4700    14.1180    24.2470     2.4730     4.0310 
  259.7500    66.1220    11.7860    10.8670    14.8990    24.1960     2.4700     3.8620 
  259.8750    67.6800    12.1720    11.2770    15.2500    24.1540     2.4740     3.7250 
  260.0000    70.1790    12.5280    11.6720    15.3110    24.1260     2.4810     3.6000 
  260.1250    72.2690    12.8320    12.0210    15.1370    24.1120     2.4840     3.4460 
  260.2500    72.4080    13.0920    12.3200    14.8480    24.1710     2.4830     3.2690 
  260.3750    71.0100    13.3150    12.5730    14.0770    24.2970     2.4850     3.0640 
  260.5000    70.7580    13.5060    12.7900    13.5320    24.3300     2.4930     2.8000 
  260.6250    71.4510    13.6660    12.9740    14.0990    24.2460     2.5050     2.5740 
  260.7500    71.8070    13.8000    13.1360    14.4810    24.1670     2.5100     2.4030 
  260.8750    72.4680    13.9170    13.2900    14.7180    24.1660     2.5020     2.2270 
  261.0000    72.5750    14.0300    13.4480    15.1300    24.2160     2.4810     2.0410 
  261.1250    70.5840    14.1480    13.6170    17.4940    24.2860     2.4570     1.9130 
  261.2500    68.4160    14.2760    13.7990    20.3890    24.3610     2.4430     1.7880 
  261.3750    68.8100    14.4120    13.9980    21.1650    24.4210     2.4440     1.6540 
  261.5000    70.3700    14.5510    14.2120    19.5020    24.4270     2.4580     1.6120 
  261.6250    70.8840    14.6950    14.4310    19.1170    24.3770     2.4750     1.6530 
  261.7500    71.2400    14.8560    14.6580    19.3350    24.3840     2.4850     1.6850 
  261.8750    72.1460    15.0190    14.9050    18.6010    24.3760     2.4850     1.6540 
  262.0000    72.7200    15.2040    15.1710    16.7230    23.9770     2.4810     1.5960 
  262.1250    72.2040    15.6720    15.4330    15.5630    23.9460     2.4820     1.5410 
  262.2500    70.3890    16.4070    15.6580    16.0830    24.1820     2.4930     1.4770 
  262.3750    68.9750    17.0730    15.8100    17.2350    24.4240     2.5070     1.4310 
  262.5000    69.8840    17.3500    15.8670    17.8020    24.4750     2.5170     1.3040 
  262.6250    69.8840    17.2660    15.8350    17.6730    24.4150     2.5170     1.0960 
  262.7500    69.8840    17.1730    15.7870    17.3970    24.3490     2.5070     0.9430 
  262.8750    69.8840    17.1470    15.7880    17.3000    24.3160     2.4930     0.8560 
  263.0000    69.8840    17.2050    15.8860    17.5300    24.3240     2.4800     0.7970 
  263.1250    69.8840    17.3790    16.1290    17.9540    24.3740     2.4780     0.7720 
  263.2500    69.8840    17.6410    16.4900    18.0810    24.4090     2.4860     0.8000 
  263.3750    69.8840    17.9650    16.9400    19.2470    24.4400     2.5030     0.8520 
  263.5000    69.8840    18.3240    17.4440    22.4740    24.4780     2.5230     0.9710 
  263.6250    69.8840    18.6820    17.9630    24.3090    24.4680     2.5430     1.1770 
  263.7500    69.8840    18.9840    18.4420    25.7180    24.4430     2.5600     1.3460 
  263.8750    69.8840    19.1550    18.8000    26.9410    24.4300     2.5740     1.5240 
  264.0000    69.8840    19.1040    18.9210    27.9010    24.4500     2.5840     1.7620 
  264.1250    69.8840    18.7040    18.6310    27.6220    24.4860     2.5850     1.9260 
  264.2500    69.8840    18.0050    17.9590    30.8280    24.5600     2.5730     2.0050 
  264.3750    69.8840    17.0910    16.9890    33.7850    24.6510     2.5480     2.0850 
  264.5000    69.8840    16.1030    15.8850    32.2870    24.7120     2.5170     2.1820 
  264.6250    69.8840    15.2150    14.8620    23.6770    24.7780     2.4940     2.2600 
  264.7500    69.8840    14.5050    14.0360    18.2460    24.8730     2.4840     2.2850 
  264.8750    69.8840    13.9670    13.4200    13.4830    24.8930     2.4810     2.2460 
  265.0000    69.8840    13.5560    12.9690    10.0920    24.8580     2.4730     2.1780 
  265.1250    69.8840    13.2680    12.6640     9.0100    24.8440     2.4520     2.0990 
  265.2500    69.8840    13.1680    12.5350    10.0990    24.8720     2.4250     2.0110 
  265.3750    69.8840    13.4220    12.7200    12.2240    24.8560     2.4080     1.8330 
  265.5000    69.8840    14.2250    13.4000    15.0190    24.7220     2.4120     1.5330 
  265.6250    69.8840    15.7960    14.8450    22.0580    24.5800     2.4400     1.1970 
  265.7500    69.8840    17.8800    16.9320    35.0550    24.4900     2.4750     0.9030 
  265.8750    69.8840    20.0610    19.3540    42.3170    24.4160     2.5010     0.6440 
  266.0000    69.8840    21.7490    21.4710    39.5610    24.3690     2.5130     0.4340 
  266.1250    69.8840    22.2200    22.2740    33.4990    24.4850     2.5080     0.3040 
  266.2500    69.8840    21.5790    21.7140    28.5080    24.4880     2.5000     0.2040 
  266.3750    69.8840    20.2290    20.2920    23.8090    24.4320     2.5000     0.1940 
  266.5000    69.8840    18.7410    18.7050    20.5410    24.5260     2.5090     0.2980 
  266.6250    69.8840    17.6500    17.5210    19.5410    24.5600     2.5220     0.4980 
  266.7500    69.8840    17.0470    16.8250    20.0610    24.5360     2.5250     0.7230 
  266.8750    69.8840    16.8340    16.5330    20.9710    24.4580     2.5130     0.9570 
  267.0000    69.8840    16.8250    16.4780    21.0610    24.3920     2.4900     1.1480 
  267.1250    69.8840    16.8360    16.4790    19.7130    24.3140     2.4700     1.2820 
  267.2500    69.8840    16.7610    16.4120    18.0980    24.2480     2.4630     1.4540 
  267.3750    69.8840    16.5980    16.2590    16.7420    24.2990     2.4720     1.6890 
  267.5000    69.8840    16.3940    16.0580    16.8970    24.4690     2.4910     1.9630 
  267.6250    69.8840    16.2190    15.8760    17.0850    24.5510     2.5080     2.1740 
  267.7500    69.8840    16.1060    15.7540    17.5190    24.5840     2.5190     2.3380 
  267.8750    69.8840    16.0580    15.6940    17.9610    24.5930     2.5250     2.4870 
  268.0000    69.8840    16.0510    15.6750    18.5210    24.5970     2.5270     2.6760 
  268.1250    69.8840    16.0620    15.6740    19.6780    24.5980     2.5290     2.8770 
  268.2500    69.8840    16.0720    15.6750    20.6520    24.6010     2.5330     3.0270 
  268.3750    69.8840    16.0790    15.6760    21.3810    24.6080     2.5390     3.0780 
  268.5000    69.8840    16.0820    15.6760    22.1400    24.6150     2.5460     3.1020 
  268.6250    69.8840    16.0820    15.6760    22.1710    24.6200     2.5510     3.1240 
