~V
VERS. 2.00: Ver 2.00
~W
STRT.M 50.0000:
STOP.M 283.0000:
STEP.M 0.1250:
NULL. -999.2500:
UWI. F11066:
~C
DEPT.M :
GR.API :
RML.OHMM :
RI. :
RXO.OHMM :
CALI.CM :
DEN.GM/CC :
SP.MV :
~A
# ...
  128.7500    76.6480    11.4900     8.9080    14.0750    25.3520     2.5000    -7.5790 
  128.8750    72.6400    13.1520    10.4200    20.2210    25.5490     2.5100    -7.9580 
  129.0000    71.7340    13.6850    11.2510    19.0340    25.4180     2.4840    -8.3650 
  129.1250    71.5030    12.6800    10.8600    12.6800    25.1980     2.4090    -8.9050 
  129.2500    72.2940    11.1050     9.8390     9.3200    25.0610     2.3210    -9.4460 
  129.3750    73.6260     9.7590     8.7820     8.8510    24.7870     2.2550    -9.9820 
  129.5000    74.6740     9.0340     8.0450     9.4110    24.5090     2.2290   -10.4850 
  129.6250    76.1670     8.9980     7.7740     9.8920    24.3830     2.2350   -10.9400 
  129.7500    77.8890     9.2870     7.7940    10.0400    24.3560     2.2460   -11.3590 
  129.8750    79.0920     9.6420     7.9460    10.1050    24.3950     2.2510   -11.7130 
  130.0000    78.5280     9.8800     8.0790    10.7230    24.4340     2.2470   -12.0250 
  130.1250    76.3210     9.9010     8.0880    10.7460    24.4510     2.2400   -12.3110 
  130.2500    72.8380     9.7980     8.0210    10.3100    24.4960     2.2360   -12.5940 
  130.3750    69.6700     9.6780     7.9530     9.5350    24.5470     2.2320   -12.9040 
  130.5000    69.4980     9.6500     7.9600     8.3030    24.5700     2.2200   -13.2230 
  130.6250    69.7240     9.8110     8.1020     8.3350    24.5690     2.2030   -13.5600 
  130.7500    67.2180    10.1150     8.3530     9.4490    24.5720     2.1900   -13.9080 
  130.8750    63.7950    10.4740     8.6630    11.0130    24.5690     2.1830   -14.2660 
  131.0000    63.1290    10.7810     8.9580    11.9480    24.6220     2.1810   -14.6660 
  131.1250    64.5400    10.9390     9.1500    11.8850    24.7220     2.1870   -14.9780 
  131.2500    64.3020    10.9580     9.2160    11.7920    24.7590     2.1990   -15.2990 
  131.3750    64.4270    10.8790     9.1690    11.7540    24.6430     2.2040   -15.5920 
  131.5000    66.6140    10.7590     9.0530    11.6790    24.5360     2.1970   -15.8580 
  131.6250    67.6970    10.6520     8.9240    11.6050    24.4810     2.1850   -16.0830 
  131.7500    65.1270    10.5800     8.8280    11.5060    24.4050     2.1790   -16.2860 
  131.8750    61.9120    10.5450     8.7810    11.3200    24.3000     2.1770   -16.5040 
  132.0000    60.0680    10.5400     8.7820    11.0920    24.2270     2.1710   -16.6900 
  132.1250    59.8010    10.5570     8.8160    11.1930    24.3200     2.1580   -16.9270 
  132.2500    60.3620    10.5840     8.8560    11.4540    24.4630     2.1450   -17.1250 
  132.3750    61.3530    10.6160     8.8880    11.4670    24.5510     2.1380   -17.2990 
  132.5000    61.5820    10.6550     8.9100    11.5240    24.6870     2.1380   -17.4430 
  132.6250    61.6650    10.6970     8.9300    11.6180    24.9230     2.1430   -17.5780 
  132.7500    61.5210    10.7370     8.9480    11.7600    25.1340     2.1480   -17.6640 
  132.8750    60.5610    10.7590     8.9590    11.8670    25.0900     2.1530   -17.6860 
  133.0000    58.9870    10.7520     8.9550    11.9870    25.0190     2.1610   -17.6830 
  133.1250    58.2950    10.7050     8.9320    11.7830    24.9940     2.1680   -17.6410 
  133.2500    58.5500    10.6340     8.8920    11.6800    24.9650     2.1710   -17.5870 
  133.3750    60.3540    10.5540     8.8410    11.6780    24.9670     2.1670   -17.5000 
  133.5000    62.9790    10.4850     8.7870    11.5980    24.9590     2.1600   -17.4110 
  133.6250    63.2740    10.4530     8.7530    11.3570    24.9180     2.1590   -17.2920 
  133.7500    61.3510    10.4720     8.7550    11.2530    24.9100     2.1630   -17.1800 
  133.8750    60.2540    10.5420     8.7980    11.2060    24.9460     2.1650   -17.0490 
  134.0000    61.0970    10.6460     8.8770    11.2840    24.9950     2.1670   -16.8940 
  134.1250    60.5370    10.7500     8.9770    11.4220    25.2270     2.1750   -16.6900 
  134.2500    59.5720    10.8240     9.0630    11.5700    25.4830     2.1910   -16.5080 
  134.3750    60.8780    10.8540     9.1060    11.7310    25.3230     2.2060   -16.3300 
  134.5000    63.3750    10.8300     9.0940    11.7540    25.0210     2.2130   -16.1580 
  134.6250    64.4280    10.7420     9.0260    11.7340    24.7550     2.2060   -15.9920 
  134.7500    63.9540    10.6090     8.9260    11.4900    24.6650     2.1980   -15.8380 
  134.8750    63.8250    10.4580     8.8170    11.2770    24.6430     2.1910   -15.7260 
  135.0000    62.8820    10.3180     8.7170    11.2100    24.7030     2.1850   -15.5980 
  135.1250    60.1970    10.2220     8.6500    11.3610    24.6550     2.1790   -15.5060 
  135.2500    58.3360    10.1890     8.6300    11.5180    24.5790     2.1710   -15.3490 
  135.3750    58.3700    10.2440     8.6770    11.5780    24.4930     2.1650   -15.1920 
  135.5000    60.6500    10.4010     8.8000    11.2940    24.4620     2.1610   -15.0210 
  135.6250    61.6440    10.6580     8.9970    11.0560    24.5020     2.1570   -14.8430 
  135.7500    60.8940    10.9330     9.2180    10.9130    24.5300     2.1540   -14.6680 
  135.8750    60.9310    11.1380     9.4070    10.8960    24.4910     2.1570   -14.4740 
  136.0000    62.2260    11.2050     9.5100    10.9270    24.3470     2.1640   -14.2960 
  136.1250    62.5860    11.0900     9.4770    11.0250    24.2720     2.1710   -14.1230 
  136.2500    62.7040    10.8690     9.3510    11.1570    24.2850     2.1740   -13.9620 
  136.3750    64.3900    10.6170     9.1850    11.1880    24.3900     2.1780   -13.8140 
  136.5000    67.2360    10.4040     9.0340    11.4100    24.5100     2.1870   -13.6700 
  136.6250    68.3640    10.2840     8.9400    11.5700    24.5550     2.2000   -13.5390 
  136.7500    67.4800    10.2380     8.9000    11.7360    24.5720     2.2080   -13.4110 
  136.8750    66.7200    10.2350     8.8970    11.6810    24.5810     2.2080   -13.3070 
  137.0000    66.8700    10.2440     8.9150    11.6650    24.5810     2.2020   -13.2380 
  137.1250    65.7270    10.2470     8.9430    11.6780    24.5770     2.1930   -13.1460 
  137.2500    63.2260    10.2440     8.9730    11.8730    24.5690     2.1850   -13.0750 
  137.3750    62.8930    10.2410     9.0030    12.1640    24.5590     2.1790   -12.9990 
  137.5000    64.9240    10.2380     9.0280    12.1360    24.5610     2.1760   -12.9170 
  137.6250    63.4100    10.2300     9.0470    11.9280    24.5480     2.1750   -12.8180 
  137.7500    59.3920    10.1980     9.0490    11.8040    24.5160     2.1770   -12.6710 
  137.8750    59.2070    10.1130     9.0100    11.8710    24.4990     2.1830   -12.5050 
  138.0000    64.0440     9.9530     8.8990    11.8360    24.5060     2.1950   -12.2720 
  138.1250    69.1150     9.7160     8.7030    11.2370    24.5350     2.2130   -12.0440 
  138.2500    70.9580     9.4680     8.4770    10.7160    24.5570     2.2340   -11.7850 
  138.3750    69.8540     9.2760     8.2780     9.8300    24.5500     2.2560   -11.5120 
  138.5000    68.5670     9.1940     8.1510     8.9950    24.5040     2.2700   -11.2610 
  138.6250    69.1110     9.2480     8.1190     9.2440    24.4640     2.2680   -11.0470 
  138.7500    71.3930     9.3610     8.1360    10.3980    24.4320     2.2550   -10.8870 
  138.8750    73.0980     9.4480     8.1520    11.1560    24.4160     2.2390   -10.7270 
  139.0000    71.4120     9.4280     8.1200    10.6670    24.4140     2.2220   -10.6160 
  139.1250    67.7230     9.2880     8.0290     9.9880    24.4300     2.2150   -10.5070 
  139.2500    65.9360     9.2110     7.9780    10.0680    24.4590     2.2260   -10.4370 
  139.3750    66.8480     9.4690     8.1360    10.5130    24.4810     2.2570   -10.3720 
  139.5000    67.0470    10.3670     8.7100    11.0620    24.5360     2.3040   -10.3010 
  139.6250    64.9170    12.2620    10.0140    12.2000    24.5800     2.3730   -10.1930 
  139.7500    63.5170    14.8790    11.9880    15.6560    24.6680     2.4530   -10.0820 
  139.8750    61.9620    17.6070    14.3160    23.0430    24.8100     2.5200   -10.0310 
