~V
VERS. 2.00: Ver 2.00
~W
STRT.M 50.0000:
STOP.M 283.0000:
STEP.M 0.1250:
NULL. -999.2500:
UWI. F11066:
~C
DEPT.M :
GR.API :
RML.OHMM :
RI. :
RXO.OHMM :
CALI.CM :
DEN.GM/CC :
SP.MV :
~A
# ...
  263.7500    56.5210     9.5450     8.1210    10.2580    24.3880     2.4290     0.2570 
  263.8750    59.0680     9.3310     7.9480    10.1390    24.3980     2.3950     0.5350 
  264.0000    62.1010     9.1530     7.7990     9.7870    24.4050     2.3790     0.8020 
  264.1250    63.3690     9.0030     7.6720     9.1910    24.4750     2.3870     1.0470 
  264.2500    62.0440     8.8710     7.5640     9.0510    24.6910     2.4070     1.2520 
  264.3750    58.9120     8.7660     7.4850     9.2330    24.8550     2.4280     1.4080 
  264.5000    57.7150     8.7080     7.4500     9.2710    24.8840     2.4420     1.5380 
  264.6250    60.7850     8.7190     7.4740    10.0810    24.8980     2.4520     1.5900 
  264.7500    64.1240     8.7730     7.5330    11.0290    24.7830     2.4580     1.6170 
  264.8750    64.7660     8.8410     7.6040    10.7680    24.7030     2.4610     1.6210 
  265.0000    63.7490     8.8940     7.6780     9.6060    24.6840     2.4610     1.6400 
  265.1250    63.2670     8.9180     7.7560     9.0280    24.7280     2.4620     1.6670 
  265.2500    62.9440     8.9250     7.8340     8.9800    24.9120     2.4620     1.7090 
  265.3750    62.8110     8.9250     7.8880     8.9980    25.2490     2.4640     1.7560 
  265.5000    63.4140     8.9130     7.8880     9.0590    25.6330     2.4650     1.8150 
  265.6250    62.7620     8.8630     7.8000     9.7640    25.2910     2.4600     1.8590 
  265.7500    60.2570     8.7630     7.6410    10.5400    25.0540     2.4430     1.9540 
  265.8750    58.2300     8.6290     7.4440    10.3360    24.9670     2.4150     2.0680 
  266.0000    57.9470     8.4970     7.2520     9.5390    24.9340     2.3840     2.1850 
  266.1250    56.7350     8.4390     7.1340     9.2470    24.9030     2.3700     2.2360 
  266.2500    53.3480     8.5140     7.1420     9.3080    24.8980     2.3770     2.2790 
  266.3750    49.9940     8.7660     7.3300     9.2400    24.9030     2.4040     2.2840 
  266.5000    49.6700     9.2050     7.7170     8.8910    24.8730     2.4360     2.2930 
  266.6250    51.8270     9.8000     8.2950     8.3180    24.8650     2.4610     2.3320 
  266.7500    51.6650    10.4140     8.9320     8.0330    24.9300     2.4800     2.3340 
  266.8750    47.8940    10.8950     9.4860     8.2060    25.0900     2.4950     2.3690 
  267.0000    45.8980    11.1000     9.8050     9.2140    25.3150     2.5030     2.3580 
  267.1250    50.1000    10.9170     9.7440    10.9040    25.1400     2.4970     2.4440 
  267.2500    54.6440    10.4780     9.3960    11.5330    24.9720     2.4780     2.5340 
  267.3750    56.5860     9.9160     8.8750    11.7050    24.9560     2.4450     2.6740 
  267.5000    57.3050     9.3570     8.3090    11.9700    25.1250     2.4050     2.8200 
  267.6250    58.0170     8.9070     7.8200    12.4650    25.2990     2.3690     2.9320 
  267.7500    59.0080     8.5760     7.4480    11.8310    25.4280     2.3390     3.0720 
  267.8750    60.6010     8.3590     7.2030    10.4480    25.5310     2.3150     3.1250 
  268.0000    61.1320     8.2500     7.0740     9.0840    25.5650     2.2970     3.2020 
  268.1250    59.1060     8.2400     7.0490     8.4220    25.5430     2.2840     3.2230 
  268.2500    57.6980     8.2870     7.0750     8.3930    25.4990     2.2790     3.2380 
  268.3750    58.4130     8.3710     7.1330     8.3360    25.3030     2.2920     3.2430 
  268.5000    60.6620     8.4870     7.2200     8.3590    25.0820     2.3220     3.2120 
  268.6250    60.4310     8.6430     7.3510     8.4210    24.9570     2.3370     3.2240 
  268.7500    57.9600     8.8420     7.5240     8.2630    24.9530     2.3240     3.1680 
  268.8750    56.1590     9.0880     7.7390     8.0520    24.9130     2.3080     3.1400 
  269.0000    57.0160     9.3580     7.9870     8.1400    24.8740     2.3160     3.0450 
  269.1250    58.2000     9.5930     8.2370     8.4130    24.8510     2.3470     2.9640 
  269.2500    55.8600     9.7540     8.4530     8.4370    24.8540     2.3770     2.8580 
  269.3750    51.8100     9.8570     8.6230     8.1920    24.8560     2.3970     2.6970 
  269.5000    49.3890     9.9730     8.7790     8.1510    24.8400     2.4130     2.5430 
  269.6250    49.8440    10.2090     8.9940     8.6740    24.8310     2.4260     2.3990 
  269.7500    51.3830    10.5670     9.2910    10.0170    24.8760     2.4310     2.2670 
  269.8750    51.7250    10.9740     9.6220    12.1360    25.0780     2.4320     2.1530 
  270.0000    49.7850    11.2810     9.8710    13.7350    25.2360     2.4350     2.0890 
  270.1250    48.8240    11.2600     9.8370    14.5420    25.1670     2.4410     2.0530 
  270.2500    50.4160    10.8780     9.4910    15.0260    24.9190     2.4480     2.0880 
  270.3750    52.4960    10.2370     8.9180    15.0910    25.0050     2.4540     2.1770 
  270.5000    51.7610     9.5480     8.2830    14.9540    25.3940     2.4610     2.3190 
  270.6250    49.1020     9.0460     7.7720    12.9050    25.7500     2.4640     2.4420 
  270.7500    48.9950     8.7910     7.4510    11.6770    25.1520     2.4590     2.5890 
  270.8750    51.5880     8.7560     7.3220    11.0880    24.8150     2.4480     2.7230 
  271.0000    54.4680     8.8600     7.3390    10.3870    24.8160     2.4400     2.8960 
  271.1250    54.2510     9.0140     7.4420     9.4300    24.9180     2.4350     2.9980 
  271.2500    53.4020     9.1470     7.5650     8.9770    24.8870     2.4240     3.0970 
  271.3750    54.9630     9.2440     7.6900     9.2410    24.8630     2.4030     3.2050 
  271.5000    56.9840     9.3130     7.8130     9.5750    24.9010     2.3830     3.2060 
  271.6250    55.7580     9.3920     7.9490     9.7120    24.9890     2.3900     3.2310 
  271.7500    53.7360     9.5180     8.1160     9.2660    25.0000     2.4250     3.2530 
  271.8750    54.5310     9.6920     8.3160     8.9270    25.0140     2.4680     3.2350 
  272.0000    57.0450     9.8620     8.5160     9.2750    25.0760     2.4950     3.2040 
  272.1250    57.7460     9.9210     8.6290     9.5720    25.2160     2.4890     3.2460 
  272.2500    57.3270     9.8340     8.5980     9.8520    25.0130     2.4660     3.2240 
  272.3750    56.5370     9.6080     8.4040    10.0680    24.9170     2.4340     3.2200 
  272.5000    55.0320     9.2910     8.0820    10.0840    24.9130     2.3940     3.2990 
  272.6250    54.2680     8.9540     7.7090     9.2010    24.9030     2.3560     3.3060 
  272.7500    54.7410     8.6660     7.3800     8.4740    24.9130     2.3260     3.3130 
  272.8750    54.7410     8.4530     7.1440     8.1850    24.9000     2.2970     3.3980 
  273.0000    54.7410     8.3180     7.0130     8.2130    24.9470     2.2700     3.4680 
  273.1250    54.7410     8.2560     6.9810     8.4260    25.0390     2.2690     3.4960 
  273.2500    54.7410     8.2300     6.9910     8.5020    25.0550     2.2970     3.5250 
  273.3750    54.7410     8.2170     7.0090     8.2210    24.9580     2.3330     3.4430 
  273.5000    54.7410     8.2080     7.0170     7.9710    24.9190     2.3600     3.2950 
  273.6250    54.7410     8.2000     7.0090     8.0580    24.9780     2.3700     3.2350 
  273.7500    54.7410     8.1860     6.9860     7.9360    24.9410     2.3720     3.1900 
  273.8750    54.7410     8.1550     6.9450     8.2710    24.8880     2.3690     3.0810 
  274.0000    54.7410     8.1010     6.8810     8.6830    24.8550     2.3640     2.9270 
  274.1250    54.7410     8.0350     6.8050     8.4800    24.8580     2.3640     2.7800 
  274.2500    54.7410     7.9930     6.7470     8.1130    24.8600     2.3720     2.6630 
  274.3750    54.7410     8.0060     6.7350     7.9720    24.8920     2.3890     2.6010 
  274.5000    54.7410     8.0950     6.7990     7.9000    24.9080     2.4110     2.6190 
  274.6250    54.7410     8.2820     6.9670     8.0870    24.8160     2.4290     2.5780 
  274.7500    54.7410     8.5400     7.2100     8.3840    24.7280     2.4420     2.4600 
  274.8750    54.7410     8.8380     7.4910     8.8150    24.6890     2.4520     2.3830 
