~V
VERS. 2.00: Ver 2.00
~W
STRT.M 50.0000:
STOP.M 283.0000:
STEP.M 0.1250:
NULL. -999.2500:
UWI. F11066:
~C
DEPT.M :
GR.API :
RML.OHMM :
RI. :
RXO.OHMM :
CALI.CM :
DEN.GM/CC :
SP.MV :
~A
# ...
   61.2500    65.7150     7.8860     7.6280    12.5810    24.1810     2.1690   -19.3320 
   61.3750    62.5120     9.3440     8.9510    14.4440    24.2760     2.2000   -19.3480 
   61.5000    59.3970    11.3690    10.8680    20.3520    24.4520     2.2440   -19.3910 
   61.6250    60.5400    13.3510    12.8870    37.2050    24.7500     2.3080   -19.5040 
   61.7500    61.4970    14.1520    13.9770    49.0710    25.0020     2.3760   -19.6780 
   61.8750    59.3070    13.2430    13.5330    36.8410    24.7770     2.4060   -19.8660 
   62.0000    57.8750    11.2830    11.9220    20.0130    24.3990     2.3590   -20.0580 
   62.1250    59.3190     9.4310    10.0910    14.5810    24.2080     2.2590   -20.2580 
   62.2500    59.2760     8.1980     8.6730    12.9950    24.2030     2.1840   -20.4030 
   62.3750    56.6740     7.6040     7.7930    12.5680    24.2000     2.1530   -20.4660 
   62.5000    55.0120     7.5350     7.4060    12.4550    24.2070     2.1490   -20.4190 
   62.6250    59.1540     7.8690     7.4370    12.4560    24.2300     2.1510   -20.1450 
   62.7500    65.0080     8.3550     7.6730    12.5710    24.2450     2.1520   -19.6300 
   62.8750    67.9950     8.8500     8.0060    12.7140    24.2530     2.1500   -18.8900 
   63.0000    67.3200     9.2380     8.3490    12.7820    24.2770     2.1460   -17.9670 
   63.1250    65.9350     9.3440     8.5650    12.3920    24.3260     2.1440   -16.8110 
   63.2500    66.1570     9.0860     8.5380    11.6960    24.3780     2.1470   -15.4750 
   63.3750    67.4220     8.4530     8.1870    11.1830    24.4200     2.1520   -13.9370 
   63.5000    72.5530     7.5400     7.5160    10.6130    24.4590     2.1640   -12.1890 
   63.6250    82.5480     6.5400     6.6190     8.9850    24.5390     2.1900   -10.3030 
   63.7500    93.9910     5.6810     5.7140     6.8040    24.6610     2.2310    -8.4880 
   63.8750   103.3970     5.0780     4.9390     5.3590    24.8180     2.2800    -6.8690 
   64.0000   108.0820     4.7610     4.3750     4.9390    25.1930     2.3240    -5.4830 
   64.1250   109.6370     4.7120     4.0840     4.9050    25.5560     2.3490    -4.3950 
   64.2500   110.9180     4.7870     3.9920     5.0230    25.6060     2.3590    -3.5520 
   64.3750   111.2790     4.8960     4.0420     5.2770    25.1480     2.3610    -2.9970 
   64.5000   111.0630     4.9880     4.1720     5.5900    24.8760     2.3610    -2.7750 
   64.6250   111.3100     5.1280     4.3720     5.7690    25.0090     2.3620    -2.8630 
   64.7500   108.9820     5.4820     4.7080     5.9260    25.1410     2.3680    -3.0900 
   64.8750   101.6210     6.1850     5.2820     6.7270    25.0850     2.3790    -3.3800 
   65.0000    93.0960     7.2500     6.1520     8.8740    24.9670     2.3970    -3.6920 
   65.1250    90.5950     8.4960     7.2450    11.8290    24.8800     2.4200    -4.0380 
   65.2500    88.5380     9.4850     8.2200    14.8480    24.8950     2.4400    -4.4520 
   65.3750    84.8210     9.8540     8.7270    19.4820    24.9700     2.4550    -4.9490 
   65.5000    84.5110     9.5320     8.6140    16.8620    25.0450     2.4530    -5.5060 
   65.6250    88.5260     8.9100     8.0970    10.0280    24.9140     2.4050    -6.1720 
   65.7500    89.2540     8.5550     7.6550     8.1620    24.6240     2.3260    -6.8950 
   65.8750    84.9430     8.6320     7.4750     9.1490    24.4310     2.2580    -7.5780 
   66.0000    80.2400     9.0370     7.5550    10.4000    24.3240     2.2260    -8.1510 
   66.1250    80.1270     9.4370     7.7240    11.3960    24.2940     2.2310    -8.5370 
   66.2500    82.1250     9.4590     7.6980    12.2510    24.3130     2.2530    -8.7560 
   66.3750    85.6110     8.9770     7.3400    12.4140    24.3860     2.2850    -8.8190 
   66.5000    90.4110     8.1830     6.7310     9.1740    24.4880     2.3150    -8.7750 
   66.6250    95.0790     7.4360     6.1050     7.2820    24.5150     2.3230    -8.6070 
   66.7500    97.1850     6.9360     5.6370     6.6780    24.5150     2.3110    -8.3730 
   66.8750    96.2380     6.7370     5.3920     6.6390    24.5340     2.2910    -8.1750 
   67.0000    94.7030     6.8430     5.3920     6.8160    24.5180     2.2710    -8.0810 
   67.1250    94.2820     7.2750     5.6650     7.1670    24.4510     2.2550    -8.1280 
   67.2500    92.7090     7.9250     6.1290     8.0120    24.4150     2.2380    -8.2640 
   67.3750    87.6090     8.6810     6.6990     9.9520    24.3810     2.2190    -8.4420 
   67.5000    81.7970     9.3440     7.2390    13.6530    24.3520     2.1980    -8.5700 
   67.6250    80.4060     9.5700     7.4960    12.0550    24.2800     2.1800    -8.5830 
   67.7500    82.7650     9.2490     7.3550    10.1280    24.1910     2.1740    -8.4550 
   67.8750    87.5320     8.4740     6.8410     8.7880    24.1290     2.1840    -8.1400 
   68.0000    93.2370     7.5220     6.1340     7.6270    24.1240     2.2110    -7.6810 
   68.1250   100.0780     6.7730     5.4960     6.5580    24.1980     2.2500    -7.1520 
   68.2500   106.5110     6.3960     5.0750     5.7890    24.3640     2.2900    -6.5890 
   68.3750   110.1790     6.4070     4.9070     5.5960    24.5910     2.3200    -6.0450 
   68.5000   108.8570     6.7250     4.9610     6.0900    24.8970     2.3280    -5.6500 
   68.6250   101.8640     7.2020     5.1710     6.8660    25.1150     2.3110    -5.4280 
   68.7500    96.6400     7.5800     5.3890     6.9930    25.1970     2.2860    -5.3270 
   68.8750    96.3290     7.6720     5.4960     6.7730    25.2100     2.2680    -5.3740 
   69.0000    98.3000     7.4160     5.4280     6.9310    25.2740     2.2670    -5.5540 
   69.1250    98.9870     6.9900     5.2380     7.3700    25.2470     2.2840    -5.7930 
   69.2500    98.9520     6.8160     5.1450     7.2690    25.0770     2.3090    -6.0950 
   69.3750   101.6610     7.2430     5.3530     6.6870    25.0140     2.3360    -6.4890 
   69.5000   105.5330     8.4900     6.0220     6.6470    24.9920     2.3580    -6.9410 
   69.6250   103.1170    10.6760     7.3340     9.9350    25.0480     2.3810    -7.5030 
   69.7500    92.4780    13.1940     9.0600    19.5880    25.1170     2.4110    -8.2020 
   69.8750    79.6680    15.1550    10.6980    29.1890    25.1870     2.4390    -8.9750 
   70.0000    70.2620    15.6530    11.5320    25.2260    25.1570     2.4440    -9.7630 
   70.1250    64.9100    14.4770    11.1360    16.0280    24.7580     2.3930   -10.5760 
   70.2500    62.5470    12.9530    10.2610    11.8670    24.5210     2.3070   -11.3720 
   70.3750    64.1490    11.9740     9.5150    10.8600    24.4610     2.2240   -12.0660 
   70.5000    66.9010    11.8470     9.1940    10.7410    24.4970     2.1720   -12.6210 
   70.6250    68.0840    12.4090     9.3540    10.6090    24.5160     2.1570   -13.0240 
   70.7500    68.3080    13.0130     9.6740    10.4090    24.5320     2.1590   -13.3140 
   70.8750    68.4610    13.2520     9.8840    10.2710    24.5670     2.1660   -13.5680 
   71.0000    68.9970    13.0350     9.8510    10.2740    24.5950     2.1730   -13.7760 
   71.1250    69.9810    12.5920     9.6340    10.3020    24.5800     2.1800   -13.9960 
   71.2500    70.3170    12.2590     9.4260    10.4600    24.5010     2.1890   -14.1920 
   71.3750    70.9690    12.1270     9.3050    10.7410    24.3580     2.2000   -14.4060 
   71.5000    73.3430    12.1140     9.2570    11.1410    24.2020     2.2140   -14.6080 
   71.6250    73.9060    12.0310     9.1850    11.3450    24.1210     2.2320   -14.7840 
   71.7500    70.5880    11.7800     9.0160    11.1490    24.0850     2.2380   -14.9230 
   71.8750    66.5810    11.4040     8.7510    10.8440    24.0880     2.2210   -14.9930 
   72.0000    65.9380    11.0200     8.4500    10.7560    24.1150     2.1860   -15.0730 
   72.1250    69.4730    10.7590     8.1900    10.9220    24.1020     2.1570   -15.0630 
   72.2500    73.5590    10.6370     8.0120    11.0340    24.0360     2.1420   -15.0830 
   72.3750    74.6830    10.6190     7.9290    10.9300    23.9340     2.1360   -15.0900 
