~V
VERS. 2.00: Ver 2.00
~W
STRT.M 63.0000:
STOP.M 273.0000:
STEP.M 0.1250:
NULL. -999.2500:
UWI. F11030:
~C
DEPT.M :
DEN.GM/CC :
GR.API :
RML.OHMM :
RI. :
RXO.OHMM :
CALI.CM :
SP.MV :
~A
# ...
  209.2500     2.3940    79.3780     6.9710     5.3060     5.5690    24.9920   -18.8470 
  209.3750     2.3900    80.5170     7.4470     5.6230     5.9670    25.0250   -18.9940 
  209.5000     2.3820    80.4270     8.0570     6.0670     6.6600    25.0800   -19.1070 
  209.6250     2.3750    79.5700     8.7680     6.6450     7.9190    24.9590   -19.2400 
  209.7500     2.3680    78.4610     9.4490     7.2610     9.4780    24.7960   -19.2770 
  209.8750     2.3570    78.4500     9.9830     7.7990    10.0270    24.7590   -19.2930 
  210.0000     2.3430    80.4490    10.3060     8.1570     9.8240    24.8150   -19.3260 
  210.1250     2.3320    80.2570    10.4440     8.2980     9.5300    24.8390   -19.2330 
  210.2500     2.3280    77.5380    10.5750     8.3750     9.0410    24.8380   -19.1400 
  210.3750     2.3350    75.8110    10.8340     8.5320     9.2050    24.8550   -19.1320 
  210.5000     2.3510    76.6620    11.2690     8.8710     9.5430    24.9190   -19.0670 
  210.6250     2.3730    76.9600    11.7810     9.4050    10.7420    24.9480   -19.0150 
  210.7500     2.3920    75.8400    12.1400     9.9360    12.3060    24.9540   -19.0170 
  210.8750     2.4060    75.4070    12.1750    10.2530    13.2220    24.9590   -18.9740 
  211.0000     2.4080    77.1080    11.8430    10.2250    13.1720    24.9640   -18.9210 
  211.1250     2.3950    80.8810    11.2580     9.8580    12.3850    24.9950   -19.0440 
  211.2500     2.3740    82.1480    10.7000     9.4130    10.4520    25.0240   -19.2570 
  211.3750     2.3530    81.0020    10.3460     9.0800     9.4880    25.0240   -19.4590 
  211.5000     2.3420    80.4080    10.2610     8.9700     9.6660    24.9980   -19.6660 
  211.6250     2.3480    82.6250    10.4100     9.1080    10.7650    24.9870   -19.7620 
  211.7500     2.3680    85.6700    10.6100     9.3400    11.1860    24.9900   -19.8490 
  211.8750     2.3950    86.5440    10.7240     9.5290    10.6620    24.9980   -20.0250 
  212.0000     2.4200    85.4420    10.6560     9.5570    10.0280    25.0200   -20.1780 
  212.1250     2.4330    84.4000    10.3470     9.3220     9.7770    25.0330   -20.2060 
  212.2500     2.4330    84.9090     9.9210     8.8960     9.5620    25.0550   -20.2180 
  212.3750     2.4240    85.1240     9.5690     8.4190     9.4470    25.0650   -20.1950 
  212.5000     2.4120    82.2160     9.5800     8.1060     9.2240    25.0430   -20.1050 
  212.6250     2.4080    79.4390    10.5290     8.3340     9.3000    25.0310   -20.0130 
  212.7500     2.4180    78.5340    12.8340     9.4240     9.5330    25.0430   -19.8620 
  212.8750     2.4390    75.9380    17.0650    11.9530    12.6190    25.0440   -19.7260 
  213.0000     2.4570    70.8730    23.8120    16.7680    23.0160    25.0540   -19.7390 
  213.1250     2.4490    67.0730    33.7940    25.4340    47.7210    25.1620   -19.7170 
  213.2500     2.4070    65.8950    45.4390    37.3810    59.6010    25.3610   -19.5730 
  213.3750     2.3340    63.9580    56.0940    50.1380    64.5370    25.5510   -19.4680 
  213.5000     2.2480    60.7880    62.6940    59.2160    70.8650    25.6370   -19.3800 
  213.6250     2.1810    58.5010    63.1370    60.7630    70.0330    25.5960   -19.3700 
  213.7500     2.1480    57.0720    60.2940    58.0970    59.1310    25.4520   -19.4960 
  213.8750     2.1510    57.3330    57.0290    54.5670    47.6360    25.2610   -19.5530 
  214.0000     2.1770    60.7390    55.3030    52.2380    41.4570    25.2270   -19.4660 
  214.1250     2.2070    64.7670    56.1110    52.2260    43.0080    25.3460   -19.3910 
  214.2500     2.2280    64.9310    58.7930    54.1790    47.3850    25.4500   -19.3200 
  214.3750     2.2420    62.0610    62.7270    57.6580    57.1760    25.4650   -19.2280 
  214.5000     2.2530    60.5330    67.1560    61.9670    68.7990    25.4100   -19.2930 
  214.6250     2.2680    61.5970    71.2540    66.2470    68.6100    25.3220   -19.3480 
  214.7500     2.2840    62.8870    74.6040    69.9930    61.0470    25.2030   -19.2900 
  214.8750     2.2950    64.1690    77.0580    73.1110    62.1800    25.0980   -19.2920 
  215.0000     2.3000    66.0420    78.5310    75.5160    71.5110    25.0290   -19.3930 
  215.1250     2.3050    65.1720    78.7230    76.7580    78.9210    24.8870   -19.5840 
  215.2500     2.3160    61.8810    77.8470    76.7860    74.3200    24.6040   -19.9480 
  215.3750     2.3240    59.4430    76.2220    75.7470    71.0440    24.1960   -20.4270 
  215.5000     2.3160    60.1950    74.3600    74.1420    73.4470    23.9340   -20.8770 
  215.6250     2.2790    62.7020    72.8130    72.6420    70.0930    24.2140   -21.4000 
  215.7500     2.2280    63.9150    71.7170    71.5290    69.1560    24.4710   -21.8150 
  215.8750     2.1870    63.6400    70.9870    70.7140    70.8110    24.4220   -22.0590 
  216.0000     2.1720    62.7400    70.5430    70.0960    74.0970    24.2100   -22.2740 
  216.1250     2.1870    61.9170    70.5880    69.8460    72.2130    23.9870   -22.4250 
  216.2500     2.2080    62.6450    71.3940    70.2570    63.7460    23.8460   -22.3970 
  216.3750     2.2220    63.7180    73.2640    71.7080    58.0070    23.8910   -22.2340 
  216.5000     2.2240    63.4940    76.2670    74.4060    64.2150    23.9930   -21.9010 
  216.6250     2.2190    62.4740    80.1100    78.2070    70.9500    24.1080   -21.4800 
  216.7500     2.2160    63.4710    83.8290    82.0890    77.6660    24.2240   -21.2990 
  216.8750     2.2150    65.1940    86.6550    85.1200    77.1500    24.2890   -21.2820 
  217.0000     2.2150    65.1280    88.2110    86.7010    77.9050    24.3840   -21.2890 
  217.1250     2.2150    64.5750    88.6370    86.8410    79.5300    24.5170   -21.3870 
  217.2500     2.2160    66.2560    88.8540    86.6200    75.3960    24.6090   -21.4720 
  217.3750     2.2190    67.9540    89.4550    86.7480    71.2220    24.6400   -21.5070 
  217.5000     2.2260    66.1880    90.6640    87.5280    66.0560    24.6090   -21.6280 
  217.6250     2.2280    61.4170    92.2120    88.8780    57.0480    24.4970   -21.6800 
  217.7500     2.2220    59.2860    93.2280    90.0090    46.8220    24.3100   -21.7050 
  217.8750     2.2070    61.6630    92.8200    89.9190    43.4260    24.1190   -21.8050 
  218.0000     2.1880    65.4040    90.4220    87.7690    47.2140    24.0060   -21.8150 
  218.1250     2.1770    64.0980    86.0920    83.3030    49.1120    24.1110   -21.7500 
  218.2500     2.1780    60.5720    81.4140    78.0680    45.8750    24.2620   -21.8250 
  218.3750     2.1910    60.7240    77.8260    73.6520    43.8370    24.4520   -21.8940 
  218.5000     2.2120    64.8790    76.4190    71.3710    45.0020    24.6010   -21.9280 
  218.6250     2.2310    68.0170    77.9670    72.2180    51.9980    24.7450   -22.0540 
  218.7500     2.2320    67.7460    81.4320    75.2470    56.4440    24.8220   -22.0170 
  218.8750     2.2000    65.0590    85.5400    79.2700    57.4890    24.8120   -21.7510 
  219.0000     2.1320    62.2040    88.6660    82.7320    60.1560    25.0020   -21.5350 
  219.1250     2.0350    60.7660    88.8180    83.6640    72.4060    26.1180   -21.3660 
  219.2500     1.9400    60.8440    85.8620    81.7050    81.8840    28.0220   -21.1360 
  219.3750     1.8660    61.6340    80.3760    77.1890    80.1600    30.1120   -20.9760 
  219.5000     1.8190    62.9710    73.5240    71.0390    64.4120    31.2950   -20.7700 
  219.6250     1.7990    63.5700    66.5840    64.5410    50.2860    30.8820   -20.4960 
  219.7500     1.7970    61.7650    60.2280    58.6990    52.0590    29.5440   -20.3210 
  219.8750     1.8160    60.3660    54.3880    53.5860    52.2030    27.7640   -20.1810 
  220.0000     1.8580    61.7620    48.7420    48.7600    44.3800    26.0950   -19.9780 
  220.1250     1.9250    63.2810    43.1790    43.7870    35.6720    24.7300   -19.7140 
  220.2500     2.0090    64.0480    38.0120    38.9110    35.8420    23.7520   -19.3500 
  220.3750     2.1010    67.7830    33.6640    34.7080    32.0130    23.2510   -18.9510 
