~V
VERS. 2.00: Ver 2.00
~W
STRT.M 57.0000:
STOP.M 226.0000:
STEP.M 0.1250:
NULL. -999.2500:
UWI. F11011:
~C
DEPT.M :
GR.API :
RML.OHMM :
RI. :
RXO.OHMM :
CALI.CM :
SP.MV :
DEN.GM/CC :
~A
# ...
  214.5000    80.2500    14.8920    13.5940    14.7270    24.4490    -7.4220     2.4420 
  214.6250    80.2500    15.1180    13.7820    15.0820    24.3850    -7.5110     2.4490 
  214.7500    80.2500    15.2790    13.9090    16.1340    24.3730    -7.6520     2.4480 
  214.8750    80.2500    15.3980    13.9880    17.5450    24.4080    -7.8980     2.4390 
  215.0000    80.2500    15.5090    14.0510    18.5050    24.4300    -8.2720     2.4230 
  215.1250    80.2500    15.6560    14.1400    16.6850    24.4160    -8.6180     2.4160 
  215.2500    80.2500    15.8490    14.2710    15.3640    24.3970    -8.7860     2.4290 
  215.3750    80.2500    16.0770    14.4370    15.3580    24.3990    -8.6720     2.4620 
  215.5000    80.2500    16.3210    14.6230    15.2310    24.3720    -8.2590     2.5000 
  215.6250    80.2500    16.5570    14.8090    14.4710    24.2700    -7.6130     2.5210 
  215.7500    80.2500    16.7780    14.9840    13.3310    24.1530    -6.8780     2.5210 
  215.8750    80.2500    16.9930    15.1510    12.8350    24.1000    -6.1030     2.5060 
  216.0000    80.2500    17.2080    15.3210    12.7500    24.0390    -5.2400     2.4920 
  216.1250    80.2500    17.4240    15.4970    13.0690    23.9670    -4.3910     2.4900 
  216.2500    80.2500    17.6320    15.6690    13.6860    23.8970    -3.6480     2.4960 
  216.3750    80.2500    17.8250    15.8340    14.4600    23.8240    -3.0630     2.5040 
  216.5000    80.2500    18.0080    15.9930    14.3880    23.7410    -2.6950     2.5110 
  216.6250    80.2500    18.2020    16.1590    14.2340    23.7150    -2.5730     2.5170 
  216.7500    80.2500    18.4210    16.3480    14.3030    23.7350    -2.5270     2.5240 
  216.8750    80.2500    18.6550    16.5590    14.0770    23.8040    -2.5010     2.5310 
  217.0000    80.2500    18.8610    16.7560    13.9790    23.9030    -2.5240     2.5400 
  217.1250    80.2500    18.9530    16.8590    14.2960    23.9970    -2.5550     2.5480 
  217.2500    80.2500    18.8980    16.8280    14.9690    24.0650    -2.5960     2.5530 
  217.3750    80.2500    18.7110    16.6650    15.0070    24.1040    -2.6920     2.5530 
  217.5000    80.2500    18.4600    16.4290    14.8240    24.1160    -2.8470     2.5460 
  217.6250    80.2500    18.2610    16.2280    14.5840    24.1130    -2.9410     2.5310 
  217.7500    80.2500    18.1840    16.1310    14.1690    24.1150    -2.9230     2.5150 
  217.8750    80.2500    18.2310    16.1470    14.2510    24.1050    -2.8550     2.5050 
  218.0000    80.2500    18.3390    16.2320    14.9030    24.1450    -2.7740     2.5060 
  218.1250    80.2500    18.3780    16.2750    14.8990    24.2410    -2.7080     2.5170 
  218.2500    80.2500    18.2530    16.1760    13.5820    24.2400    -2.6230     2.5300 
  218.3750    80.2500    17.9360    15.8980    12.6670    24.2420    -2.4480     2.5380 
  218.5000    80.2500    17.4740    15.4740    11.9960    24.2750    -2.1550     2.5360 
  218.6250    80.2500    16.9690    14.9880    11.9820    24.2870    -1.7910     2.5240 
  218.7500    80.2500    16.5300    14.5450    12.5170    24.3000    -1.4360     2.5080 
  218.8750    80.2500    16.2010    14.1940    13.5180    24.2630    -1.1260     2.4920 
  219.0000    80.2500    15.9770    13.9380    14.7730    24.1830    -0.8360     2.4790 
  219.1250    80.2500    15.8200    13.7500    14.5400    24.1420    -0.5790     2.4720 
  219.2500    80.2500    15.6570    13.5750    13.2030    24.1390    -0.0850     2.4720 
  219.3750    80.2500    15.4300    13.3800    11.8500    24.1390     0.1380     2.4810 
  219.5000    80.2500    15.0820    13.1470    10.6520    24.1420     0.2680     2.4980 
  219.6250    80.2500    14.5400    12.8880    10.0490    24.1540     0.3340     2.5130 
  219.7500    80.2500    13.8490    12.6500    10.4100    24.1720     0.4290     2.5190 
  219.8750    80.2500    13.1050    12.4680    11.0150    24.1800     0.6060     2.5130 
  220.0000    80.2500    12.4530    12.3580    11.0300    24.1800     0.7820     2.4960 
  220.1250    80.2500    12.1010    12.3220    10.3900    24.1780     0.9330     2.4770 
  220.2500    80.2500    11.9080    12.3120     9.4970    24.1910     1.0750     2.4640 
  220.3750    80.2500    11.8260    12.3120     8.7350    24.2120     1.1540     2.4600 
  220.5000    80.2500    11.8130    12.3120     8.5250    24.2170     1.2170     2.4640 
  220.6250    80.2500    11.8150    12.3120     8.8160    24.2200     1.2550     2.4740 
  220.7500    80.2500    11.8160    12.3120     9.4560    24.2300     1.2400     2.4840 
  220.8750    80.2500    11.8150    12.3120    10.0960    24.2090     1.1590     2.4930 
  221.0000    80.2500    11.8150    12.3120    10.8900    24.1580     1.0690     2.5000 
  221.1250    80.2500    11.8150    12.3120    10.9150    24.1130     1.0080     2.5040 
  221.2500    80.2500    11.8150    12.3120     9.6670    24.0800     0.9370     2.5030 
  221.3750    80.2500    11.8150    12.3120     8.2850    23.9500     0.8860     2.4970 
  221.5000    80.2500    11.8150    12.3120     7.5640    23.6720     0.8710     2.4870 
  221.6250    80.2500    11.8150    12.3120     7.2970    23.2740     0.8460     2.4760 
  221.7500    80.2500    11.8150    12.3120     7.2990    22.6960     0.7520     2.4660 
  221.8750    80.2500    11.8150    12.3120     7.2920    21.7520     0.6550     2.4550 
  222.0000    80.2500    11.8150    12.3120     7.2940    20.7470     0.5450     2.4440 
  222.1250    80.2500    11.8150    12.3120     7.3550    19.8340     0.4000     2.4340 
  222.2500    80.2500    11.8150    12.3120     7.4980    19.0690     0.2840     2.4280 
  222.3750    80.2500    11.8150    12.3120     7.5070    18.6910     0.2150     2.4270 
  222.5000    80.2500    11.8150    12.3120     7.3620    18.9270     0.1330     2.4300 
  222.6250    80.2500    11.8150    12.3120     6.8880    19.1330     0.0650     2.4360 
  222.7500    80.2500    11.8150    12.3120     6.3210    19.2720     0.0670     2.4440 
  222.8750    80.2500    11.8150    12.3120     6.3720    19.3550     0.1000     2.4530 
  223.0000    80.2500    11.8150    12.3120     6.8080    19.3680     0.1000     2.4590 
  223.1250    80.2500    11.8150    12.3120     7.4150    19.2030     0.1000     2.4560 
  223.2500    80.2500    11.8150    12.3120     7.8820    18.9200  -999.2500     2.4380 
  223.3750    80.2500    11.8150    12.3120     7.7910    18.6180  -999.2500     2.4070 
  223.5000    80.2500    11.8150    12.3120     7.2650    18.3600  -999.2500     2.3650 
  223.6250    80.2500    11.8150    12.3120     6.5850    18.1270  -999.2500     2.3190 
  223.7500    80.2500    11.8150    12.3120     6.3020    17.9550  -999.2500     2.2770 
  223.8750    80.2500    11.8150    12.3120     6.2920    17.8810  -999.2500     2.2430 
  224.0000    80.2500    11.8150    12.3120     6.3490    17.9130  -999.2500     2.2170 
  224.1250    80.2500    11.8150    12.3120     5.9040    17.9720  -999.2500     2.1960 
  224.2500    80.2500    11.8150    12.3120     5.5160    18.0170  -999.2500     2.1790 
  224.3750    80.2500    11.8150    12.3120     5.5830    17.7170  -999.2500     2.1650 
  224.5000    80.2500    11.8150    12.3120     5.8680    17.1010  -999.2500     2.1550 
  224.6250    80.2500    11.8150    12.3120     6.1240    16.2790  -999.2500     2.1520 
  224.7500    80.2500    11.8150    12.3120     6.2560    15.7740  -999.2500     2.1530 
  224.8750    80.2500    11.8150    12.3120     6.2950    15.6290  -999.2500     2.1490 
  225.0000    80.2500    11.8150    12.3120     6.2930    15.6080  -999.2500     2.1430 
  225.1250    80.2500    11.8150    12.3120     6.2930    15.5960  -999.2500     2.1420 
  225.2500    80.2500    11.8150    12.3120     6.2960    15.5910  -999.2500  -999.2500 
  225.3750  -999.2500  -999.2500  -999.2500  -999.2500  -999.2500  -999.2500  -999.2500 
  225.5000  -999.2500  -999.2500  -999.2500  -999.2500  -999.2500  -999.2500  -999.2500 
  225.6250  -999.2500  -999.2500  -999.2500  -999.2500  -999.2500  -999.2500  -999.2500 
