~V
VERS. 2.00: Ver 2.00
~W
STRT.M 55.0000:
STOP.M 229.0000:
STEP.M 0.1250:
NULL. -999.2500:
UWI. F11013:
~C
DEPT.M :
DEN.GM/CC :
GR.API :
RML.OHMM :
RI. :
RXO.OHMM :
CALI.CM :
SP.MV :
~A
# ...
  190.0000     2.3750    68.4620    18.8650    17.1790    13.4430    24.2340    -6.4960 
  190.1250     2.3620    70.7540    20.1250    17.3850    14.7460    24.2430    -6.5450 
  190.2500     2.3390    73.0840    24.5370    20.0120    21.1170    24.2550    -6.6000 
  190.3750     2.3170    71.7160    32.9160    26.2330    31.8340    24.2540    -6.6620 
  190.5000     2.3050    68.7320    44.6740    36.2070    47.5220    24.2220    -6.7520 
  190.6250     2.2980    68.0400    58.8280    49.5110    69.8940    24.2290    -6.8370 
  190.7500     2.2870    68.7270    72.9700    63.8020    89.6160    24.3210    -6.9160 
  190.8750     2.2730    65.3440    83.0300    74.7240    88.8180    24.3620    -6.9960 
  191.0000     2.2610    59.9540    87.8750    80.7580    87.3750    24.3400    -7.0690 
  191.1250     2.2540    57.2780    88.1770    82.3650    88.4940    24.2780    -7.1320 
  191.2500     2.2510    60.3430    85.2160    80.6260    94.0320    24.2380    -7.1960 
  191.3750     2.2530    66.8950    79.6150    75.9960    92.7090    24.2250    -7.2680 
  191.5000     2.2570    70.6290    72.5510    69.6450    76.2490    24.2200    -7.3120 
  191.6250     2.2630    70.7280    64.9640    62.5510    61.1770    24.2130    -7.3610 
  191.7500     2.2720    68.6460    57.8030    55.7440    42.4920    24.1940    -7.4270 
  191.8750     2.2800    67.7460    51.9200    50.1260    25.5830    24.1920    -7.4990 
  192.0000     2.2830    69.3840    47.3850    45.8110    18.8160    24.1980    -7.5740 
  192.1250     2.2800    71.5910    44.0320    42.6650    25.7260    24.1940    -7.6760 
  192.2500     2.2730    72.0440    41.3660    40.2110    44.1320    24.2050    -7.8050 
  192.3750     2.2640    69.3570    38.9280    37.9840    45.5850    24.2100    -7.9390 
  192.5000     2.2600    67.3410    36.7010    35.9420    42.8170    24.1880    -8.1040 
  192.6250     2.2630    65.9570    35.1400    34.4590    44.3400    24.1560    -8.2640 
  192.7500     2.2750    65.3840    34.9700    34.0750    42.5470    24.1500    -8.4390 
  192.8750     2.2850    67.2220    37.5810    35.9110    35.5930    24.1460    -8.6400 
  193.0000     2.2850    68.8470    43.4530    40.6010    43.9010    24.1520    -8.8810 
  193.1250     2.2770    68.6190    53.0000    48.8520    67.4240    24.1520    -9.1170 
  193.2500     2.2680    67.0010    65.7580    60.8870    94.0030    24.1370    -9.3480 
  193.3750     2.2660    65.8640    81.9680    75.8960    99.0140    24.0940    -9.5730 
  193.5000     2.2650    63.7420    97.2460    90.0420   108.3930    24.0730    -9.7810 
  193.6250     2.2610    61.2930   107.7490    99.7680   115.8740    24.1060    -9.9920 
  193.7500     2.2560    62.0300   112.2050   103.8940   117.8050    24.1890   -10.1650 
  193.8750     2.2520    64.8910   112.1360   103.8290   115.5980    24.2910   -10.3190 
  194.0000     2.2500    64.2970   110.5840   102.3920   107.4810    24.3490   -10.4270 
  194.1250     2.2510    58.3910   108.4120   100.3820   104.9300    24.3770   -10.5120 
  194.2500     2.2530    51.0770   105.9910    98.1400   109.6250    24.3860   -10.5670 
  194.3750     2.2540    50.9690   103.4470    95.7840   110.6550    24.3810   -10.5980 
  194.5000     2.2540    56.6810   100.5860    93.1350   108.4770    24.3530   -10.6210 
  194.6250     2.2550    60.0500    96.9930    89.8080   106.4750    24.3080   -10.6440 
  194.7500     2.2580    58.2350    92.4450    85.5970   106.5980    24.2920   -10.6760 
  194.8750     2.2630    56.3000    87.4180    80.9430   101.7580    24.3340   -10.6830 
  195.0000     2.2690    58.9990    83.2320    77.0660    85.3430    24.3770   -10.7060 
  195.1250     2.2800    63.8630    81.1510    75.1400    63.2980    24.3800   -10.7190 
  195.2500     2.2990    67.1630    82.3320    76.2330    50.9250    24.3390   -10.7240 
  195.3750     2.3100    68.3890    88.2850    81.7450    55.7370    24.2440   -10.7360 
  195.5000     2.2980    66.4930    98.1930    90.9200    81.2190    24.2200   -10.7420 
  195.6250     2.2690    61.5440   110.7640   102.5600   116.7300    24.2540   -10.7060 
  195.7500     2.2440    56.0280   123.7540   114.5870   152.5070    24.2810   -10.6860 
  195.8750     2.2340    54.9400   134.1470   124.2110   155.1730    24.2220   -10.6600 
  196.0000     2.2310    57.2600   141.1160   130.6630   149.9310    24.1680   -10.6130 
  196.1250     2.2290    58.6390   145.2140   134.4580   137.7800    24.1360   -10.5880 
  196.2500     2.2260    56.8130   147.3570   136.4420   140.7980    24.1310   -10.5760 
  196.3750     2.2200    55.2810   147.3670   136.4510   167.9310    24.1650   -10.5650 
  196.5000     2.2150    56.1240   145.0550   134.3100   186.8070    24.1920   -10.5690 
  196.6250     2.2140    56.4720   140.4340   130.0310   176.0030    24.2170   -10.6050 
  196.7500     2.2140    54.8030   134.3080   124.3590   149.6230    24.2460   -10.6300 
  196.8750     2.2130    55.1890   128.1480   118.6560   133.5120    24.2840   -10.6800 
  197.0000     2.2120    58.6550   123.2530   114.1230   128.8260    24.2930   -10.7360 
  197.1250     2.2110    62.4840   120.1170   111.2200   125.6380    24.2680   -10.7880 
  197.2500     2.2100    63.1530   118.5970   109.8120   120.8790    24.2350   -10.8610 
  197.3750     2.2100    60.1640   118.3150   109.5510   119.6080    24.2040   -10.9260 
  197.5000     2.2110    57.0120   118.5720   109.7880   120.2530    24.1720   -11.0040 
  197.6250     2.2130    56.7520   118.9240   110.1150   117.9400    24.1540   -11.1130 
  197.7500     2.2170    59.7450   118.5740   109.7910   116.2630    24.1450   -11.2510 
  197.8750     2.2230    62.2000   115.6920   107.1220   129.5790    24.1240   -11.4000 
  198.0000     2.2320    62.6250   109.4830   101.3740   158.7030    24.1040   -11.5950 
  198.1250     2.2450    61.1150   100.2050    92.7820   164.4700    24.0570   -11.8180 
  198.2500     2.2570    58.7070    89.4670    82.8400   108.8980    23.9710   -12.0370 
  198.3750     2.2640    57.6420    79.8110    73.8990    62.7410    23.8110   -12.2990 
  198.5000     2.2630    59.0840    72.6720    67.2890    43.7610    23.5780   -12.5710 
  198.6250     2.2580    61.3700    68.4320    63.3630    39.4340    23.3870   -12.8510 
  198.7500     2.2510    62.6580    66.8610    61.9090    42.9980    23.4590   -13.1350 
  198.8750     2.2460    63.3560    67.5640    62.5590    46.8670    23.6890   -13.4490 
  199.0000     2.2590    63.0830    69.2100    64.0830    49.8990    23.8680   -13.7600 
  199.1250     2.3070    61.3180    71.0390    65.7770    51.9000    23.9540   -14.0710 
  199.2500     2.3850    60.0990    72.8740    67.4760    58.2200    23.9370   -14.4040 
  199.3750     2.4310    60.9070    75.4140    69.8280    70.6150    24.0920   -14.7740 
  199.5000     2.4010    63.0190    79.4850    73.5980    75.1570    24.0330   -15.1480 
  199.6250     2.3340    64.6110    85.6630    79.3170    69.2550    23.8650   -15.5260 
  199.7500     2.2850    63.8860    93.8450    86.8940    79.0780    23.7400   -15.9160 
  199.8750     2.2700    61.9380   102.8460    95.2280   108.7370    23.7010   -16.2760 
  200.0000     2.2690    61.5440   110.4740   102.2910   131.3610    23.6570   -16.6210 
  200.1250     2.2720    62.0730   115.2790   106.7400   121.8340    23.6240   -16.9380 
  200.2500     2.2740    59.5450   117.1070   108.4320    92.3880    23.6500   -17.2220 
  200.3750     2.2720    55.3800   117.2870   108.5990    73.2150    23.7120   -17.4170 
  200.5000     2.2660    55.7810   118.0540   109.3100    80.8850    23.7600   -17.5690 
  200.6250     2.2580    58.9220   120.1820   111.2800   102.9560    23.7820   -17.6530 
  200.7500     2.2470    59.6130   123.1170   113.9970   120.8580    23.7890   -17.6600 
  200.8750     2.2400    55.1500   125.0790   115.8140   129.4440    23.7980   -17.5780 
  201.0000     2.2390    53.2770   124.8420   115.5940   124.7970    23.8100   -17.4100 
  201.1250     2.2450    57.5250   122.4330   113.3640   108.3410    23.7950   -17.1870 
