~V
VERS. 2.00: Ver 2.00
~W
STRT.M 59.0000:
STOP.M 225.0000:
STEP.M 0.1250:
NULL. -999.2500:
UWI. F11010:
~C
DEPT.M :
GR.API :
RML.OHMM :
RI. :
RXO.OHMM :
CALI.CM :
SP.MV :
DEN.GM/CC :
~A
# ...
  171.5000    68.1080    28.6590    29.7730    28.7920    24.8190   -10.0850     2.6560 
  171.6250    62.5450    27.1590    28.6720    30.6540    24.6930   -10.0090     2.6640 
  171.7500    57.0900    23.2040    24.3540    30.3780    24.4750    -9.9120     2.6630 
  171.8750    55.5370    17.9490    18.5550    25.3190    24.3140    -9.7960     2.6500 
  172.0000    57.1080    12.7790    13.0930    18.6210    24.2300    -9.6670     2.6250 
  172.1250    56.5160     8.8270     9.0710     9.9580    24.2380    -9.4990     2.5910 
  172.2500    52.0960     6.0840     6.2740     5.3590    24.2490    -9.3250     2.5540 
  172.3750    45.5500     4.3270     4.4200     4.4000    24.2530    -9.2140     2.5150 
  172.5000    40.3510     3.2890     3.2550     3.7950    24.3090    -9.1840     2.4740 
  172.6250    40.5190     2.8360     2.6680     3.1420    24.4100    -9.2300     2.4280 
  172.7500    44.0830     2.7620     2.4540     2.6440    24.5280    -9.3510     2.3840 
  172.8750    48.0440     3.0030     2.5490     2.7100    24.5930    -9.5350     2.3460 
  173.0000    48.7630     3.4970     2.9050     3.5560    24.6300    -9.7720     2.3170 
  173.1250    46.5050     4.1600     3.4920     4.2390    24.6500   -10.0720     2.3030 
  173.2500    45.3330     4.8200     4.1550     4.6190    24.6740   -10.4090     2.3000 
  173.3750    47.7650     5.3600     4.7520     4.7850    24.7130   -10.7790     2.3080 
  173.5000    55.7030     5.7320     5.1790     5.0290    24.7800   -11.1960     2.3260 
  173.6250    67.0120     5.9760     5.4270     5.3160    24.8540   -11.7340     2.3550 
  173.7500    77.0840     6.2280     5.6270     5.6030    24.8440   -12.4270     2.3890 
  173.8750    84.0660     6.5770     5.8600     5.9850    24.6820   -13.3200     2.4240 
  174.0000    89.6800     7.0670     6.1690     6.3490    24.3930   -14.5070     2.4510 
  174.1250    95.2580     7.7170     6.5810     6.8500    24.2310   -16.0840     2.4590 
  174.2500    97.8670     8.4460     7.0480     7.5760    24.2520   -17.9190     2.4500 
  174.3750    97.3930     9.1710     7.5020     8.4780    24.4460   -19.8370     2.4290 
  174.5000    96.4450     9.8130     7.8720     8.7110    24.7050   -21.6510     2.4030 
  174.6250    95.4300    10.3090     8.1100     9.0060    24.9470   -23.0930     2.3820 
  174.7500    93.3990    10.7000     8.2620     9.2500    25.1120   -24.0450     2.3720 
  174.8750    90.2630    11.0290     8.3750     9.2710    25.1910   -24.4430     2.3730 
  175.0000    88.1040    11.3200     8.4870     9.2200    25.1990   -24.3550     2.3820 
  175.1250    87.2700    11.5290     8.5920    10.0650    25.1650   -23.8460     2.3960 
  175.2500    87.5440    11.5950     8.6340    10.6390    25.1450   -23.0590     2.4070 
  175.3750    89.0720    11.4820     8.5710    10.1890    25.1700   -22.1250     2.4120 
  175.5000    89.4640    11.2220     8.4100     9.4530    25.1990   -21.1750     2.4120 
  175.6250    89.6360    10.9350     8.2110     9.1870    25.2140   -20.3750     2.4020 
  175.7500    91.7690    10.7740     8.0800     8.9860    25.2360   -19.8460     2.3870 
  175.8750    94.4940    10.8270     8.0890     8.9710    25.2410   -19.6060     2.3720 
  176.0000    95.7060    11.1000     8.2580     8.9840    25.2420   -19.4960     2.3630 
  176.1250    97.8010    11.4980     8.5450     9.1980    25.2550   -19.3430     2.3670 
  176.2500   102.5070    11.7980     8.7980     9.5970    25.2680   -19.0850     2.3760 
  176.3750   104.9550    11.8100     8.8560     9.9550    25.2720   -18.6650     2.3810 
  176.5000   100.9720    11.4200     8.6010     9.7660    25.2590   -18.0200     2.3780 
  176.6250    93.9810    10.6230     8.0030     9.1850    25.2390   -17.0850     2.3670 
  176.7500    87.6970     9.6900     7.2780     8.0910    25.2170   -15.9530     2.3580 
  176.8750    80.2170     8.8470     6.6020     6.7110    25.1930   -14.7630     2.3580 
  177.0000    68.9540     8.2570     6.1000     5.9080    25.1500   -13.6640     2.3690 
  177.1250    57.3400     8.0170     5.8520     5.8320    25.0800   -12.7300     2.3880 
  177.2500    50.6190     8.0090     5.7870     5.9530    24.9750   -11.9270     2.4120 
  177.3750    48.3030     8.1270     5.8360     5.9800    24.8440   -11.2760     2.4310 
  177.5000    47.6000     8.2700     5.9300     5.8680    24.7700   -10.8430     2.4330 
  177.6250    46.7000     8.3570     6.0040     5.7020    24.8230   -10.6810     2.4050 
  177.7500    45.8940     8.3750     6.0350     5.6750    24.9330   -10.6500     2.3590 
  177.8750    44.0480     8.3350     6.0250     5.6650    24.9860   -10.6490     2.3150 
  178.0000    41.4630     8.2560     5.9860     5.7410    24.9900   -10.5820     2.2940 
  178.1250    41.7500     8.1540     5.9230     5.7540    25.0020   -10.3910     2.3060 
  178.2500    44.9260     8.0530     5.8540     5.7910    25.0060   -10.1410     2.3370 
  178.3750    47.4020     7.9710     5.7920     5.7490    24.9980    -9.8520     2.3710 
  178.5000    47.4830     7.9270     5.7510     5.6140    24.9690    -9.5430     2.3990 
  178.6250    46.9930     7.9380     5.7470     5.5940    24.9590    -9.3020     2.4130 
  178.7500    47.9460     7.9850     5.7680     5.7000    24.9900    -9.1680     2.4140 
  178.8750    49.0730     8.0460     5.8010     5.8600    25.0310    -9.0780     2.4020 
  179.0000    49.8910     8.0940     5.8290     5.9210    25.0570    -8.9230     2.3830 
  179.1250    51.2640     8.1070     5.8340     5.7400    25.0490    -8.6550     2.3710 
  179.2500    55.5300     8.0840     5.8150     5.4920    25.0210    -8.3740     2.3730 
  179.3750    62.9110     8.0360     5.7790     5.3650    24.9870    -8.1720     2.3880 
  179.5000    71.9130     7.9700     5.7340     5.3470    24.9560    -8.0800     2.4110 
  179.6250    79.5610     7.8910     5.6840     5.3830    24.9110    -8.1030     2.4330 
  179.7500    84.2860     7.8040     5.6320     5.4210    24.8920    -8.2700     2.4470 
  179.8750    85.4880     7.7170     5.5850     5.4360    24.8860    -8.5930     2.4480 
  180.0000    84.7560     7.6410     5.5520     5.5390    24.9020    -9.0340     2.4330 
  180.1250    84.7460     7.5950     5.5490     5.6700    24.9560    -9.4390     2.4070 
  180.2500    83.6280     7.5870     5.5810     5.7330    24.9930    -9.6710     2.3810 
  180.3750    79.0710     7.6170     5.6490     5.7220    24.9940    -9.7560     2.3640 
  180.5000    74.7360     7.6760     5.7470     5.8040    24.9900    -9.7720     2.3630 
  180.6250    75.9520     7.7470     5.8590     5.7140    24.9670    -9.7410     2.3760 
  180.7500    80.1940     7.8050     5.9630     5.6370    24.9570    -9.6770     2.3950 
  180.8750    84.0250     7.8280     6.0390     5.7310    24.9520    -9.6180     2.4120 
  181.0000    87.5010     7.7960     6.0710     5.9150    24.9530    -9.6740     2.4200 
  181.1250    91.4300     7.6810     6.0280     5.9310    24.9540   -10.0460     2.4190 
  181.2500    92.9550     7.4970     5.9140     5.8470    24.9520   -10.7060     2.4120 
  181.3750    91.6580     7.2750     5.7490     5.7700    24.9380   -11.4930     2.4030 
  181.5000    90.2150     7.0740     5.5780     5.5920    24.9150   -12.2210     2.3940 
  181.6250    89.6720     6.9910     5.4770     5.3560    24.9040   -12.7430     2.3870 
  181.7500    89.9080     7.0680     5.4890     5.2590    24.8840   -13.0860     2.3810 
  181.8750    91.4020     7.3100     5.6290     5.5560    24.8240   -13.3020     2.3760 
  182.0000    95.3490     7.6740     5.8760     6.3480    24.7760   -13.4100     2.3740 
  182.1250   101.3850     8.0760     6.1800     6.8700    24.7660   -13.4080     2.3700 
  182.2500   104.5030     8.4390     6.4740     7.1260    24.7910   -13.3470     2.3640 
  182.3750   103.2530     8.7570     6.7340     7.2380    24.8410   -13.2380     2.3570 
  182.5000    99.2300     9.0950     6.9820     7.2590    24.8610   -13.1420     2.3510 
  182.6250    95.8760     9.5920     7.3100     7.6060    24.8280   -13.1320     2.3500 
