~V
VERS. 2.00: Ver 2.00
~W
STRT.M 50.0000:
STOP.M 276.0000:
STEP.M 0.1250:
NULL. -999.2500:
UWI. F11044:
~C
DEPT.M :
SP.MV :
GR.API :
RML.OHMM :
RI. :
RXO.OHMM :
CALI.CM :
DEN.GM/CC :
~A
# ...
  117.5000   -11.7840    72.8450     9.0340     7.8560     9.3970    24.0040     2.1310 
  117.6250   -11.5330    75.5450     8.6930     7.6920     9.0820    24.0690     2.1510 
  117.7500   -11.2130    78.7900     8.2080     7.3400     8.6190    24.1440     2.1870 
  117.8750   -10.8390    82.9100     7.6570     6.8690     8.1810    24.2270     2.2290 
  118.0000   -10.5010    87.6460     7.1580     6.3950     7.3530    24.2990     2.2640 
  118.1250   -10.1800    92.3020     6.8620     6.0530     6.5140    24.3380     2.2790 
  118.2500    -9.8410    94.8720     6.7760     5.8750     6.2060    24.2650     2.2760 
  118.3750    -9.5970    93.3930     6.8380     5.8400     6.6280    23.9720     2.2650 
  118.5000    -9.4110    88.6050     6.9240     5.8840     7.6260    23.5190     2.2540 
  118.6250    -9.1460    86.7990     6.8760     5.9020     7.9260    23.2740     2.2530 
  118.7500    -8.9590    90.3580     6.6480     5.8220     7.5820    23.2310     2.2610 
  118.8750    -8.8390    94.5250     6.2750     5.6410     7.0700    23.3450     2.2760 
  119.0000    -8.6670    94.8260     5.8460     5.4080     6.7960    23.5190     2.2890 
  119.1250    -8.4510    94.2870     5.4920     5.2000     6.5930    23.5890     2.2940 
  119.2500    -8.2340    95.1480     5.2900     5.0620     6.4440    23.5700     2.2880 
  119.3750    -8.0180    95.7020     5.2590     5.0060     6.2580    23.4830     2.2720 
  119.5000    -7.8590    95.4320     5.3690     5.0210     6.2440    23.3630     2.2510 
  119.6250    -7.9250    97.1640     5.5630     5.0890     6.6070    23.3140     2.2310 
  119.7500    -8.1320    99.4660     5.7640     5.1820     6.7040    23.3990     2.2170 
  119.8750    -8.3000   100.5550     5.9360     5.2810     6.6750    23.5320     2.2120 
  120.0000    -8.4230   100.5550     6.0530     5.3690     6.8400    23.5530     2.2180 
  120.1250    -8.5820   100.3820     6.0750     5.4150     6.7510    23.4780     2.2320 
  120.2500    -8.6380    98.5410     5.9900     5.3980     6.6390    23.4500     2.2450 
  120.3750    -8.5500    94.6250     5.7980     5.3000     6.7880    23.5520     2.2530 
  120.5000    -8.4110    92.3250     5.5250     5.1200     6.7250    23.8680     2.2570 
  120.6250    -8.1030    98.1360     5.2290     4.8780     6.5220    24.4000     2.2640 
  120.7500    -7.6920   108.0510     4.9850     4.6310     6.0300    24.8090     2.2790 
  120.8750    -7.3400   112.8040     4.8360     4.4120     5.5220    24.9590     2.3030 
  121.0000    -7.0060   108.8170     4.7840     4.2400     5.2490    24.9750     2.3310 
  121.1250    -6.6780   100.1350     4.7920     4.1310     5.3090    24.9490     2.3560 
  121.2500    -6.4930    95.2790     4.7980     4.0750     5.4160    24.8920     2.3730 
  121.3750    -6.4050    95.9750     4.7940     4.0760     5.2540    24.8190     2.3770 
  121.5000    -6.4160    97.9860     4.8250     4.1450     5.1370    24.7190     2.3670 
  121.6250    -6.6680    96.1660     4.9940     4.3020     5.2460    24.5780     2.3430 
  121.7500    -7.0000    90.5570     5.3250     4.5340     5.7250    24.4310     2.3160 
  121.8750    -7.3850    83.5950     5.7840     4.8260     6.3490    24.2620     2.2930 
  122.0000    -7.9230    79.2560     6.2890     5.1620     6.8520    24.0670     2.2770 
  122.1250    -8.5610    79.3400     6.7460     5.5200     7.2460    23.9020     2.2670 
  122.2500    -9.1480    80.2330     7.1320     5.8830     7.3150    23.7960     2.2580 
  122.3750    -9.7540    78.3490     7.4740     6.2510     7.3360    23.7100     2.2480 
  122.5000   -10.3470    73.5380     7.8020     6.6250     7.6780    23.6170     2.2370 
  122.6250   -10.7740    70.1750     8.0920     6.9780     8.3120    23.5290     2.2290 
  122.7500   -11.0850    70.4590     8.2820     7.2630     8.7090    23.4710     2.2250 
  122.8750   -11.2950    74.5270     8.3130     7.4340     8.8060    23.4480     2.2200 
  123.0000   -11.3150    80.6300     8.1630     7.4710     8.6520    23.4720     2.2140 
  123.1250   -11.1260    82.6580     7.8500     7.3820     8.3010    23.5240     2.2070 
  123.2500   -10.9280    80.1880     7.4860     7.2290     7.8220    23.5860     2.2020 
  123.3750   -10.6760    76.4580     7.1560     7.0340     7.4210    23.5760     2.2040 
  123.5000   -10.2640    76.0040     6.9020     6.7910     7.4120    23.4530     2.2140 
  123.6250    -9.8520    80.4810     6.6960     6.4680     7.6120    23.3570     2.2300 
  123.7500    -9.4820    84.3130     6.4560     6.0690     7.4600    23.3860     2.2500 
  123.8750    -9.1160    85.3130     6.1560     5.6310     7.2520    23.5790     2.2730 
  124.0000    -8.8920    84.5730     5.8500     5.2340     6.8990    23.9310     2.2960 
  124.1250    -8.8400    85.4840     5.7030     5.0050     6.4200    24.3300     2.3120 
  124.2500    -8.8880    86.7440     5.8200     4.9970     5.8810    24.5720     2.3130 
  124.3750    -9.1140    86.0060     6.2280     5.2380     5.9860    24.4840     2.2970 
  124.5000    -9.4690    82.9790     6.8660     5.7120     7.5430    24.1260     2.2670 
  124.6250    -9.8120    77.6980     7.6000     6.3570     9.0400    23.9140     2.2360 
  124.7500   -10.2030    72.6930     8.2390     6.9980     9.6670    23.9890     2.2120 
  124.8750   -10.5840    70.5500     8.6440     7.4910     9.5630    24.1930     2.2000 
  125.0000   -10.8410    71.4820     8.7410     7.7310     9.4870    24.3230     2.1970 
  125.1250   -11.0270    72.6180     8.5250     7.6570     9.5210    24.3290     2.1990 
  125.2500   -11.1260    71.9080     8.2030     7.4070     9.6200    24.2350     2.2030 
  125.3750   -11.0330    70.2380     7.9700     7.1270     9.6210    24.0860     2.2070 
  125.5000   -10.8990    68.9350     8.0180     6.9810     9.4560    23.9190     2.2190 
  125.6250   -10.8410    68.8080     8.5550     7.1830     9.3650    23.7840     2.2510 
  125.7500   -10.7160    69.9580     9.5180     7.7820    10.1650    23.7380     2.3060 
  125.8750   -10.5430    71.6700    10.7570     8.7610    14.0260    23.8290     2.3760 
  126.0000   -10.4050    72.8830    11.9840     9.9690    25.2120    24.0680     2.4410 
  126.1250   -10.3520    69.9880    12.7370    11.0160    38.1440    24.3140     2.4730 
  126.2500   -10.3090    65.6440    12.8260    11.5090    33.9410    24.4290     2.4690 
  126.3750   -10.3230    64.8920    12.2830    11.3170    21.1360    24.4020     2.4360 
  126.5000   -10.4110    67.7030    11.3500    10.6150    14.2310    24.3550     2.3900 
  126.6250   -10.4310    68.2250    10.3750     9.7360    13.1690    24.2540     2.3430 
  126.7500   -10.5070    66.0310     9.6220     8.9760    12.0510    24.0090     2.2990 
  126.8750   -10.6950    63.8400     9.1830     8.4450     9.9930    23.7020     2.2620 
  127.0000   -10.8600    63.0210     9.0610     8.1770     8.4440    23.4330     2.2370 
  127.1250   -10.9480    62.6550     9.2460     8.2000     8.4000    23.2850     2.2370 
  127.2500   -11.0650    62.4230     9.6080     8.4340     9.1100    23.2400     2.2610 
  127.3750   -11.1150    62.7020    10.0330     8.8080    10.2880    23.2860     2.3000 
  127.5000   -11.0910    64.2170    10.3860     9.1930    11.4600    23.3710     2.3400 
  127.6250   -11.0250    66.4260    10.4910     9.3840    11.7110    23.4420     2.3570 
  127.7500   -10.8630    66.8820    10.3420     9.3140    12.0210    23.5080     2.3500 
  127.8750   -10.6440    66.6660    10.0370     9.0470    12.0890    23.5620     2.3250 
  128.0000   -10.3860    67.6780     9.7880     8.7610    11.6610    23.6160     2.3030 
  128.1250    -9.9820    68.1010     9.9440     8.7560    10.9160    23.7640     2.3120 
  128.2500    -9.4980    64.7690    10.6590     9.2300    11.8020    24.0300     2.3600 
  128.3750    -9.1140    59.8570    12.1210    10.3310    14.8130    24.3490     2.4410 
  128.5000    -8.7510    58.5060    14.3260    12.1020    19.6470    24.6820     2.5340 
  128.6250    -8.4760    61.5890    16.6400    14.3420    27.4740    24.8250     2.6030 
