~V
VERS. 2.00: Ver 2.00
~W
STRT.M 55.0000:
STOP.M 249.0000:
STEP.M 0.1250:
NULL. -999.2500:
UWI. F11017:
~C
DEPT.M :
GR.API :
RML.OHMM :
RI. :
RXO.OHMM :
CALI.CM :
DEN.GM/CC :
SP.MV :
~A
# ...
  212.5000    55.0490   126.6010   122.8200   116.0970    24.5260     2.2000   -14.4780 
  212.6250    58.4050   125.6670   120.7620   110.4240    24.4440     2.2100   -14.5090 
  212.7500    58.1540   127.5890   121.4890   105.8280    24.3680     2.2220   -14.5430 
  212.8750    57.0850   132.7470   125.3500   103.2610    24.3380     2.2330   -14.5910 
  213.0000    57.7930   141.3570   132.5830   104.5230    24.3360     2.2370   -14.6610 
  213.1250    58.7780   153.0510   143.0180   108.2420    24.3400     2.2290   -14.7560 
  213.2500    58.4450   165.0330   154.1240   118.7180    24.3410     2.2090   -14.8650 
  213.3750    58.1260   174.3800   163.1810   140.3070    24.3690     2.1860   -14.9820 
  213.5000    59.4580   178.7160   167.8460   180.0920    24.3950     2.1670   -15.0960 
  213.6250    60.8700   177.2020   166.9750   247.7180    24.3820     2.1640   -15.2070 
  213.7500    60.2400   174.0490   164.0360   234.2340    24.3240     2.1750   -15.3120 
  213.8750    56.4970   173.5710   162.8530   153.7590    24.2690     2.1940   -15.4060 
  214.0000    51.9680   178.7760   166.4770   119.7940    24.2520     2.2110   -15.4810 
  214.1250    51.8350   190.4320   176.1700   149.7960    24.2510     2.2160   -15.5310 
  214.2500    54.5580   204.1330   188.2150   179.9810    24.2550     2.2090   -15.5560 
  214.3750    55.9290   215.4200   198.6290   212.6130    24.2830     2.1960   -15.5600 
  214.5000    54.1970   220.4790   203.9410   245.2100    24.3610     2.1830   -15.5630 
  214.6250    51.2750   217.2340   202.1250   254.8540    24.4750     2.1760   -15.5810 
  214.7500    49.3930   210.1630   196.7500   213.8090    24.5500     2.1780   -15.6190 
  214.8750    49.0550   203.2700   191.2520   180.4180    24.5730     2.1860   -15.6770 
  215.0000    50.7830   198.6320   187.7070   171.9460    24.5810     2.1970   -15.7400 
  215.1250    52.5290   195.4830   185.8150   176.0280    24.5910     2.2070   -15.7950 
  215.2500    52.2540   190.4830   182.6340   186.3010    24.5900     2.2130   -15.8210 
  215.3750    51.2300   180.5320   175.1690   190.9230    24.5790     2.2160   -15.7990 
  215.5000    50.9210   163.8370   161.3480   185.2190    24.5770     2.2170   -15.7170 
  215.6250    50.9480   140.7990   140.7160   175.4590    24.5900     2.2190   -15.5590 
  215.7500    50.9100   116.5900   117.7550   155.4210    24.5950     2.2240   -15.3430 
  215.8750    51.7580    95.1850    96.4310   116.3240    24.5840     2.2340   -15.0930 
  216.0000    53.7850    78.8050    79.5060    76.4050    24.5690     2.2490   -14.8490 
  216.1250    54.9290    68.6110    68.6620    56.1520    24.5670     2.2640   -14.6360 
  216.2500    54.2330    62.9340    62.3750    50.3520    24.5610     2.2730   -14.4630 
  216.3750    53.3500    60.9820    59.7830    49.0840    24.5320     2.2730   -14.3310 
  216.5000    53.5580    62.1550    60.2310    48.7030    24.5000     2.2670   -14.2360 
  216.6250    54.2980    66.4480    63.7010    49.1480    24.5200     2.2590   -14.1810 
  216.7500    54.4860    73.0400    69.4050    53.1070    24.5640     2.2550   -14.1490 
  216.8750    55.4180    80.8930    76.8590    61.3320    24.5810     2.2530   -14.1130 
  217.0000    56.4130    89.3260    85.2420    72.7480    24.5760     2.2500   -14.0570 
  217.1250    55.1740    96.4770    93.2160    85.8060    24.5920     2.2430   -13.9860 
  217.2500    53.0860   101.4590    99.7000    97.3440    24.6280     2.2370   -13.9200 
  217.3750    52.0460   105.7890   104.4030   106.4180    24.6600     2.2320   -13.8760 
  217.5000    51.9700   110.5580   107.8970   110.6100    24.6680     2.2290   -13.8620 
  217.6250    50.9660   115.6740   111.4350   105.4810    24.6600     2.2260   -13.8700 
  217.7500    48.4400   121.8210   115.8950   100.6830    24.6670     2.2200   -13.8920 
  217.8750    46.8950   128.5860   121.1050   106.6880    24.6830     2.2130   -13.9400 
  218.0000    48.1050   134.6400   126.0150   125.8930    24.6690     2.2050   -14.0090 
  218.1250    50.7730   137.6740   128.6530   146.3860    24.6130     2.2000   -14.1050 
  218.2500    51.3600   137.0360   128.2610   150.6870    24.5690     2.1980   -14.2100 
  218.3750    48.6100   133.2140   125.0680   141.1150    24.5740     2.2000   -14.3090 
  218.5000    45.8560   127.7700   120.2740   128.2340    24.5990     2.2050   -14.3950 
  218.6250    47.1790   122.3660   115.3310   110.0160    24.6250     2.2100   -14.4570 
  218.7500    50.1290   117.2260   110.6800    96.2340    24.6810     2.2160   -14.4930 
  218.8750    51.6150   111.3680   105.6070    88.8790    24.7760     2.2250   -14.5050 
  219.0000    51.5990   103.7080    99.1400    90.0040    24.8160     2.2400   -14.4880 
  219.1250    53.1830    93.9190    90.8450   100.9680    24.6340     2.2590   -14.4230 
  219.2500    54.0090    83.9580    82.2530   107.2410    24.3970     2.2750   -14.3190 
  219.3750    52.3930    75.9330    75.1480    94.8870    24.3710     2.2820   -14.1790 
  219.5000    50.7870    71.2290    70.7790    71.6510    24.4850     2.2830   -14.0030 
  219.6250    50.8510    69.7800    69.1010    59.5760    24.5280     2.2940   -13.8040 
  219.7500    50.8900    68.5530    67.4140    63.4920    24.4880     2.3270   -13.6040 
  219.8750    50.6300    64.6570    63.0510    75.3010    24.4470     2.3840   -13.4030 
  220.0000    50.7470    56.0880    54.1090    90.1480    24.3990     2.4510   -13.2200 
  220.1250    51.1920    42.8970    40.8270    98.8080    24.2890     2.4990   -13.0900 
  220.2500    53.1910    29.5250    27.8770    75.6490    24.1580     2.5070   -13.0330 
  220.3750    60.8120    19.1980    18.2580    32.6160    24.0010     2.4770   -13.0750 
  220.5000    73.5020    12.8630    12.4200    10.6710    23.8280     2.4280   -13.2270 
  220.6250    84.9400    10.1000     9.7140     6.0910    23.7180     2.3880   -13.4850 
  220.7500    91.0880     9.1280     8.5960     5.2680    23.6830     2.3720   -13.8010 
  220.8750    89.6350     9.1390     8.4330     5.8300    23.6890     2.3770   -14.1560 
  221.0000    80.9350     9.5790     8.7890     6.8250    23.7390     2.3950   -14.5200 
  221.1250    70.9420    10.0280     9.2960     7.6290    23.8680     2.4120   -14.8620 
  221.2500    66.9490    10.2450     9.6530     7.4910    24.0440     2.4220   -15.1680 
  221.3750    69.1920    10.1960     9.7600     7.2300    24.1660     2.4240   -15.4240 
  221.5000    73.7140     9.9730     9.6600     7.2720    24.2060     2.4200   -15.6190 
  221.6250    77.3570     9.7270     9.4680     7.3920    24.2020     2.4130   -15.7660 
  221.7500    77.5530     9.5650     9.2990     7.5140    24.2030     2.4040   -15.8860 
  221.8750    75.1430     9.5080     9.1790     7.7020    24.2000     2.3930   -15.9900 
  222.0000    74.5650     9.5340     9.0920     7.9020    24.1820     2.3820   -16.0990 
  222.1250    76.5710     9.5990     9.0020     7.9760    24.1740     2.3730   -16.2260 
  222.2500    78.3990     9.6540     8.8850     7.9980    24.1980     2.3660   -16.3650 
  222.3750    80.8270     9.6740     8.7350     7.9830    24.2100     2.3610   -16.5250 
  222.5000    84.8810     9.6610     8.5670     7.9690    24.1940     2.3590   -16.7140 
  222.6250    89.4460     9.6660     8.4300     7.9690    24.1550     2.3590   -16.9390 
  222.7500    92.6960     9.7700     8.3870     7.9250    24.1300     2.3610   -17.1970 
  222.8750    94.3780    10.0500     8.4990     7.8900    24.1120     2.3630   -17.4870 
  223.0000    94.4690    10.5580     8.8100     7.9640    24.0790     2.3620   -17.7840 
  223.1250    92.2640    11.2360     9.3650     8.4330    24.0100     2.3570   -18.0540 
  223.2500    88.4990    12.0560    10.1000     9.4220    23.9230     2.3490   -18.2770 
  223.3750    85.4070    12.9020    10.9570    10.9550    23.9010     2.3410   -18.4360 
  223.5000    82.4890    13.5630    11.8710    12.3580    23.9720     2.3360   -18.5300 
  223.6250    77.9400    14.4160    12.7750    13.1110    24.0940     2.3360   -18.5440 
