~V
VERS. 2.00: Ver 2.00
~W
STRT.M 59.0000:
STOP.M 291.0000:
STEP.M 0.1250:
NULL. -999.2500:
UWI. F11077:
~C
DEPT.M :
DEN.GM/CC :
GR.API :
RML.OHMM :
RI. :
RXO.OHMM :
CALI.CM :
SP.MV :
~A
# ...
   70.2500     2.1770    66.9420     7.8240     7.3840     7.2110    25.9220    -8.7100 
   70.3750     2.1620    64.7080     7.9150     7.4250     7.1380    25.7420    -9.1490 
   70.5000     2.1470    62.4360     8.0130     7.4580     7.1390    25.4940    -9.5430 
   70.6250     2.1430    60.7000     8.0850     7.4700     7.2390    25.3810    -9.8610 
   70.7500     2.1500    59.5550     8.1120     7.4560     7.3280    25.5140   -10.0940 
   70.8750     2.1630    58.5430     8.1070     7.4220     7.3020    25.7930   -10.2620 
   71.0000     2.1730    58.4670     8.1100     7.3870     7.1040    26.0230   -10.3680 
   71.1250     2.1770    60.5280     8.1490     7.3640     6.9060    26.1210   -10.3950 
   71.2500     2.1780    63.5170     8.2350     7.3620     7.0260    26.0990   -10.3450 
   71.3750     2.1790    66.1960     8.3520     7.3780     7.4080    25.9990   -10.2420 
   71.5000     2.1830    68.4440     8.4650     7.3990     7.6120    25.8870   -10.1300 
   71.6250     2.1880    69.4860     8.5440     7.4120     7.6140    25.8210   -10.0430 
   71.7500     2.1920    67.2390     8.5640     7.4040     7.6150    25.8170    -9.9660 
   71.8750     2.1940    61.9620     8.5160     7.3720     7.6720    25.8570    -9.8260 
   72.0000     2.1940    58.2590     8.4410     7.3320     7.6110    25.9120    -9.5720 
   72.1250     2.1890    58.4680     8.4230     7.3360     7.4500    25.9630    -9.1820 
   72.2500     2.1800    61.6570     8.6060     7.4830     7.4200    25.9700    -8.6250 
   72.3750     2.1710    64.6220     9.0890     7.8540     7.6830    25.9270    -7.8890 
   72.5000     2.1750    64.8620     9.8000     8.4050     8.3970    25.8780    -7.0050 
   72.6250     2.2050    64.4380    10.5380     8.9880    10.0450    25.8260    -6.0280 
   72.7500     2.2600    68.4270    10.9530     9.3390    12.4740    25.7410    -5.0650 
   72.8750     2.3230    77.7480    10.7760     9.2430    13.0350    25.6260    -4.2030 
   73.0000     2.3690    86.0470    10.1140     8.7440    10.2260    25.5440    -3.4590 
   73.1250     2.3790    90.0890     9.2810     8.0520     7.2570    25.5170    -2.8630 
   73.2500     2.3570    92.2340     8.6180     7.4270     6.3970    25.5010    -2.4480 
   73.3750     2.3250    93.8930     8.2960     7.0370     6.6000    25.4700    -2.2300 
   73.5000     2.3010    94.9930     8.2580     6.8950     6.8230    25.4250    -2.1930 
   73.6250     2.2910    97.4210     8.3760     6.9380     6.6840    25.3870    -2.2660 
   73.7500     2.2900   101.2470     8.4870     7.0540     6.4890    25.3830    -2.3260 
   73.8750     2.2880   101.8010     8.4980     7.1430     6.5240    25.4240    -2.3580 
   74.0000     2.2830    97.4300     8.4440     7.1840     6.6800    25.5150    -2.4140 
   74.1250     2.2760    94.2780     8.4030     7.2160     6.8970    25.6530    -2.4760 
   74.2500     2.2710    96.3800     8.4350     7.2830     7.0180    25.7900    -2.5030 
   74.3750     2.2710    99.1580     8.5340     7.3880     6.9540    25.8670    -2.4210 
   74.5000     2.2750    97.4270     8.6270     7.4850     7.1110    25.8600    -2.1440 
   74.6250     2.2780    93.6930     8.6250     7.5100     7.5710    25.7960    -1.6980 
   74.7500     2.2790    93.3670     8.4490     7.3920     7.9310    25.7480    -1.1730 
   74.8750     2.2780    97.1860     8.1100     7.1270     7.5820    25.7620    -0.6150 
   75.0000     2.2760   101.5570     7.7400     6.8050     6.7150    25.8480    -0.0450 
   75.1250     2.2770   103.9110     7.4740     6.5220     6.1120    25.9560     0.5110 
   75.2500     2.2820   102.7840     7.3930     6.3500     5.9310    26.0430     1.0130 
   75.3750     2.2920    98.6180     7.4770     6.2970     6.0880    26.0860     1.3830 
   75.5000     2.3040    94.3870     7.6170     6.3020     6.5470    26.0940     1.5810 
   75.6250     2.3170    92.8160     7.7200     6.3050     7.1590    26.0960     1.6380 
   75.7500     2.3290    94.3320     7.7170     6.2530     7.3650    26.0890     1.5790 
   75.8750     2.3410    96.8890     7.6010     6.1310     6.9730    26.0350     1.4620 
   76.0000     2.3500    98.5030     7.4100     5.9580     6.7780    25.9280     1.3370 
   76.1250     2.3550    99.8210     7.1870     5.7660     7.2850    25.8080     1.1570 
   76.2500     2.3510   101.6730     7.0570     5.6380     7.5290    25.7400     0.8850 
   76.3750     2.3390   103.5170     7.2340     5.7100     6.9410    25.7890     0.4740 
   76.5000     2.3290   104.5600     7.9000     6.0990     6.7680    26.0100    -0.1690 
   76.6250     2.3390   103.8940     9.1240     6.8730     7.5150    26.3420    -1.0670 
   76.7500     2.3790    99.8240    10.7600     8.0070    10.5440    26.5430    -2.1290 
   76.8750     2.4380    92.3470    12.3310     9.2530    17.8450    26.5070    -3.2640 
   77.0000     2.4850    85.6190    13.1860    10.1440    25.0880    26.3950    -4.3670 
   77.1250     2.4850    82.4840    12.9760    10.3270    21.7570    26.3790    -5.3640 
   77.2500     2.4270    81.4610    11.9350     9.8380    12.6400    26.4320    -6.2420 
   77.3750     2.3390    80.0060    10.7580     9.1050     8.9260    26.5090    -6.9360 
   77.5000     2.2570    79.2470    10.0450     8.5780     7.9620    26.5820    -7.3140 
   77.6250     2.2160    81.9970     9.9600     8.4250     7.9660    26.5930    -7.3020 
   77.7500     2.2280    86.9050    10.3680     8.6220     8.3090    26.4490    -6.8990 
   77.8750     2.2700    89.8880    10.8940     8.9430     8.8800    26.1420    -6.1440 
   78.0000     2.3130    90.2510    11.1140     9.0650     9.1130    25.8680    -5.1510 
   78.1250     2.3330    90.1710    10.8190     8.7970     8.6640    25.7290    -3.9860 
   78.2500     2.3220    90.7720     9.9930     8.1090     7.7900    25.7290    -2.7050 
   78.3750     2.2990    93.3680     8.8240     7.1570     6.7320    25.7730    -1.4300 
   78.5000     2.2850   101.6970     7.6400     6.2040     5.8200    25.8170    -0.3030 
   78.6250     2.2890   114.9030     6.7320     5.4570     5.3450    25.8820     0.5490 
   78.7500     2.3100   123.9380     6.4190     5.1150     5.2710    25.9470     0.9890 
   78.8750     2.3400   122.8010     6.9480     5.3250     5.3920    25.9870     0.9780 
   79.0000     2.3820   116.3050     8.3450     6.1300     6.2770    26.0100     0.5610 
   79.1250     2.4360   110.3620    10.4980     7.5430     9.5130    25.9890    -0.2010 
   79.2500     2.4930   103.9800    12.8860     9.3490    16.7370    25.8680    -1.1550 
   79.3750     2.5290    93.9950    14.5590    10.9110    22.0320    25.6490    -2.1320 
   79.5000     2.5260    83.5130    14.7690    11.5000    17.6770    25.4440    -3.0460 
   79.6250     2.4790    78.9570    13.5740    10.9630    11.3130    25.3240    -3.8440 
   79.7500     2.4060    81.1460    11.7790     9.8070     8.7750    25.2930    -4.4690 
   79.8750     2.3360    83.8060    10.2640     8.6900     8.3000    25.3050    -4.9050 
   80.0000     2.2870    84.0790     9.3880     7.9480     8.0780    25.3150    -5.1210 
   80.1250     2.2630    84.8120     9.0840     7.6060     7.8110    25.3180    -5.1190 
   80.2500     2.2570    88.2560     9.1490     7.5830     7.7080    25.3150    -4.9820 
   80.3750     2.2580    93.4660     9.3800     7.7530     7.7370    25.2940    -4.7120 
   80.5000     2.2550    96.8850     9.6210     7.9790     7.7230    25.2510    -4.2430 
   80.6250     2.2420    94.3830     9.7780     8.1610     7.7290    25.2010    -3.5340 
   80.7500     2.2210    86.4170     9.7530     8.1990     7.7440    25.1920    -2.5710 
   80.8750     2.2050    81.9630     9.5130     8.0530     7.6950    25.2750    -1.4450 
   81.0000     2.2090    87.8980     9.1410     7.7770     7.5930    25.4680    -0.3330 
   81.1250     2.2430    99.6460     8.7450     7.4450     7.0770    25.7410     0.7120 
   81.2500     2.3000   107.8360     8.4500     7.1410     6.3150    25.9280     1.6600 
   81.3750     2.3570   109.5240     8.3170     6.9210     6.1410    25.8820     2.4260 
