~V
VERS. 2.00: Ver 2.00
~W
STRT.M 52.0000:
STOP.M 278.0000:
STEP.M 0.1250:
NULL. -999.2500:
UWI. F11035:
~C
DEPT.M :
DEN.GM/CC :
GR.API :
RML.OHMM :
RI. :
RXO.OHMM :
CALI.CM :
SP.MV :
~A
# ...
  265.7500     2.4360    69.7880    16.5590    16.6670    31.2030    24.9820    -7.8350 
  265.8750     2.4480    71.6080    16.5110    16.7000    29.5210    25.0380    -7.7790 
  266.0000     2.4590    74.6270    16.5510    16.7290    26.6170    25.0290    -7.7110 
  266.1250     2.4750    76.5020    16.6310    16.7180    24.4970    24.9970    -7.6420 
  266.2500     2.4960    76.4980    16.6650    16.6580    23.5150    24.9240    -7.4820 
  266.3750     2.5170    73.6070    16.5990    16.5460    22.6220    24.7830    -7.3130 
  266.5000     2.5320    69.6030    16.4220    16.3870    22.2910    24.6720    -7.2090 
  266.6250     2.5360    68.1560    16.1620    16.1910    21.3300    24.6740    -7.1250 
  266.7500     2.5320    68.8330    15.8850    15.9850    20.0260    24.7270    -7.0510 
  266.8750     2.5230    69.6510    15.6240    15.7710    18.3570    24.8250    -6.9960 
  267.0000     2.5080    70.0990    15.3960    15.5500    17.1600    24.9390    -6.9250 
  267.1250     2.4820    70.9160    15.2230    15.3240    16.8700    24.9740    -6.8130 
  267.2500     2.4530    71.0160    15.1280    15.1230    17.2040    24.9450    -6.7480 
  267.3750     2.4300    69.7630    15.1400    14.9910    16.3390    24.8260    -6.7250 
  267.5000     2.4250    67.8580    15.2650    14.9740    15.2090    24.6770    -6.6400 
  267.6250     2.4410    65.8650    15.4680    15.1070    18.3080    24.6550    -6.5410 
  267.7500     2.4660    65.8650    15.6650    15.3180    22.8090    24.6850    -6.5350 
  267.8750     2.4890    65.8650    15.8130    15.5410    22.7930    24.6620    -6.5530 
  268.0000     2.5030    65.8650    15.9160    15.7300    20.9850    24.5330    -6.5920 
  268.1250     2.5040    65.8650    16.0340    15.8840    21.2580    24.3920    -6.6860 
  268.2500     2.5010    65.8650    16.2360    16.0580    20.8440    24.3000    -6.7080 
  268.3750     2.4970    65.8650    16.5510    16.3060    19.4210    24.1830    -6.6420 
  268.5000     2.4980    65.8650    16.9490    16.6510    19.2850    24.0780    -6.5880 
  268.6250     2.5040    65.8650    17.3300    17.0610    19.7530    24.1010    -6.5760 
  268.7500     2.5110    65.8650    17.5880    17.4280    20.2930    24.2340    -6.5300 
  268.8750     2.5120    65.8650    17.6600    17.6550    20.2620    24.3620    -6.4700 
  269.0000     2.5070    65.8650    17.5430    17.6750    19.3600    24.4100    -6.4220 
  269.1250     2.4950    65.8650    17.2650    17.4580    18.8220    24.5030    -6.4500 
  269.2500     2.4840    65.8650    16.9140    17.1060    18.9720    24.5570    -6.5820 
  269.3750     2.4800    65.8650    16.5320    16.6760    19.0950    24.5950    -6.8020 
  269.5000     2.4850    65.8650    16.1420    16.2070    19.4100    24.5950    -7.1460 
  269.6250     2.4910    65.8650    15.7820    15.7540    20.0860    24.5880    -7.5140 
  269.7500     2.4870    65.8650    15.5010    15.3890    20.1150    24.5710    -7.9000 
  269.8750     2.4670    65.8650    15.3510    15.1820    19.1510    24.5470    -8.3190 
  270.0000     2.4370    65.8650    15.3690    15.1760    17.9000    24.4980    -8.7170 
  270.1250     2.4160    65.8650    15.5900    15.4170    18.0250    24.5270    -8.9790 
  270.2500     2.4160    65.8650    15.9540    15.8450    20.1480    24.5480    -9.1940 
  270.3750     2.4350    65.8650    16.4110    16.4060    23.4110    24.5750    -9.3810 
  270.5000     2.4610    65.8650    16.9070    17.0330    26.4500    24.6120    -9.4850 
  270.6250     2.4830    65.8650    17.3910    17.6500    27.4580    24.6300    -9.4970 
  270.7500     2.5010    65.8650    17.8240    18.2040    27.0420    24.6240    -9.4390 
  270.8750     2.5190    65.8650    18.1630    18.6590    25.2660    24.6400    -9.2770 
  271.0000     2.5380    65.8650    18.3400    18.9640    24.8120    24.6450    -9.0760 
  271.1250     2.5480    65.8650    18.2100    18.9650    24.9250    24.6370    -8.9750 
  271.2500     2.5410    65.8650    17.7530    18.5860    23.6700    24.5810    -8.9150 
  271.3750     2.5140    65.8650    16.9920    17.8130    20.9160    24.5240    -8.8590 
  271.5000     2.4750    65.8650    16.0410    16.7560    18.0380    24.5120    -8.7790 
  271.6250     2.4380    65.8650    15.1010    15.6360    15.1470    24.5030    -8.6890 
  271.7500     2.4120    65.8650    14.3680    14.6920    14.4060    24.5090    -8.6270 
  271.8750     2.3990    65.8650    13.9570    14.0660    15.1070    24.5060    -8.6170 
  272.0000     2.3990    65.8650    13.9160    13.8310    15.6900    24.4640    -8.6060 
  272.1250     2.4180    65.8650    14.2780    14.0730    16.3890    24.4600    -8.5010 
  272.2500     2.4490    65.8650    14.9000    14.6890    17.3360    24.5020    -8.3740 
  272.3750     2.4890    65.8650    15.6660    15.5820    18.9450    24.5400    -8.2370 
  272.5000     2.5260    65.8650    16.4460    16.5890    21.9190    24.5240    -8.0980 
  272.6250     2.5480    65.8650    17.0950    17.4780    23.6280    24.4650    -8.0170 
  272.7500     2.5560    65.8650    17.5580    18.1000    23.8980    24.4540    -7.9530 
  272.8750     2.5580    65.8650    17.8240    18.4250    23.7230    24.4910    -7.8970 
  273.0000     2.5590    65.8650    17.9290    18.5270    23.5380    24.5330    -7.8260 
  273.1250     2.5650    65.8650    17.9240    18.5230    23.1170    24.5320    -7.7950 
  273.2500     2.5660    65.8650    17.8890    18.5140    23.6450    24.5010    -7.7930 
  273.3750     2.5540    65.8650    17.8560    18.5150    25.6970    24.5180    -7.7710 
  273.5000     2.5270    65.8650    17.8360    18.5180    27.6200    24.5430    -7.7280 
  273.6250     2.4920    65.8650    17.8310    18.5180    27.1870    24.5380    -7.6540 
  273.7500     2.4640    65.8650    17.8300    18.5180    25.6730    24.5250    -7.5640 
  273.8750     2.4550    65.8650    17.8310    18.5180    24.7640    24.5380    -7.4700 
  274.0000     2.4630    65.8650    17.8310    18.5180    25.3720    24.5360    -7.4380 
  274.1250     2.4850    65.8650    17.8310    18.5180    26.1370    24.4930    -7.4440 
  274.2500     2.5120    65.8650    17.8310    18.5180    25.4380    24.4570    -7.4670 
  274.3750     2.5410    65.8650    17.8310    18.5180    22.9660    24.4700    -7.5260 
  274.5000     2.5690    65.8650    17.8310    18.5180    24.2400    24.5070    -7.6260 
  274.6250     2.5930    65.8650    17.8310    18.5180    26.6790    24.5050    -7.7750 
  274.7500     2.6080    65.8650    17.8310    18.5180    26.4380    24.4900    -7.9200 
  274.8750     2.6130    65.8650    17.8310    18.5180    25.3790    24.4660    -8.0330 
  275.0000     2.6050    65.8650    17.8310    18.5180    26.9270    24.4730    -8.0830 
  275.1250     2.5910    65.8650    17.8310    18.5180    28.3120    24.4980    -8.0710 
  275.2500     2.5730    65.8650    17.8310    18.5180    29.4440    24.5250    -7.9620 
  275.3750     2.5500    65.8650    17.8310    18.5180    29.1830    24.5400    -7.8870 
  275.5000     2.5330    65.8650    17.8310    18.5180    27.9460    24.5580    -7.8360 
  275.6250     2.5250    65.8650    17.8310    18.5180    26.2940    24.5290    -7.7350 
  275.7500     2.5290    65.8650    17.8310    18.5180    23.8830    24.4800    -7.7430 
  275.8750     2.5420    65.8650    17.8310    18.5180    20.6600    24.4290    -7.8450 
  276.0000     2.5540    65.8650    17.8310    18.5180    19.9090    24.4220    -7.9500 
  276.1250     2.5500    65.8650    17.8310    18.5180    20.0320    24.4120    -8.0440 
  276.2500     2.5140    65.8650    17.8310    18.5180    21.2200    24.4170    -8.2090 
  276.3750     2.4370    65.8650    17.8310    18.5180    20.3430    24.3500    -8.3560 
  276.5000     2.3380    65.8650    17.8310    18.5180    19.1450    24.1570    -8.5180 
  276.6250     2.2380    65.8650    17.8310    18.5180    17.1450    23.5810    -8.6820 
  276.7500     2.1590    65.8650    17.8310    18.5180    14.0970    22.3010    -8.6910 
  276.8750     2.1160    65.8650    17.8310    18.5180    10.9500    20.5210    -8.6990 
