~V
VERS. 2.00: Ver 2.00
~W
STRT.M 52.0000:
STOP.M 278.0000:
STEP.M 0.1250:
NULL. -999.2500:
UWI. F11035:
~C
DEPT.M :
DEN.GM/CC :
GR.API :
RML.OHMM :
RI. :
RXO.OHMM :
CALI.CM :
SP.MV :
~A
# ...
  209.5000     2.1950    73.5200    59.2980    52.8890    61.3680    24.6470    -7.3700 
  209.6250     2.1860    72.5360    62.4260    55.6920    59.1180    24.6480    -7.5170 
  209.7500     2.1820    70.0380    66.0800    58.8740    66.4880    24.6540    -7.6890 
  209.8750     2.1790    67.3950    70.5790    62.9000    78.0600    24.6890    -7.8600 
  210.0000     2.1750    67.6700    75.8520    67.8880    89.2450    24.7340    -8.0260 
  210.1250     2.1760    69.7560    81.3120    73.3910    99.9740    24.7810    -8.0960 
  210.2500     2.1810    71.0450    86.1130    78.4480   102.8840    24.8200    -8.1110 
  210.3750     2.1890    70.8700    89.7990    82.4830   103.0830    24.8670    -8.0930 
  210.5000     2.1970    70.1720    92.4070    85.4380   104.5800    24.9030    -8.0590 
  210.6250     2.2020    69.1020    94.4930    87.8440   109.4980    24.8420    -8.0660 
  210.7500     2.2030    66.0200    96.9450    90.7260   121.9430    24.8390    -8.0790 
  210.8750     2.1970    61.8450   100.9640    94.8120   135.0560    24.9240    -8.0920 
  211.0000     2.1860    60.1010   107.3650   100.3860   136.2690    24.9920    -8.1540 
  211.1250     2.1740    62.2140   114.8990   107.0000   145.9220    25.0140    -8.2580 
  211.2500     2.1680    63.9240   119.9770   112.7550   136.3940    25.0020    -8.4600 
  211.3750     2.1720    64.0090   120.0420   115.3130   139.0940    24.9650    -8.6960 
  211.5000     2.1840    64.3800   114.4350   112.7080   161.5710    24.9110    -8.9530 
  211.6250     2.1980    66.4600   103.8530   104.1330   170.1390    24.8400    -9.1980 
  211.7500     2.2060    67.8470    91.7830    92.9270   138.9740    24.8670    -9.4490 
  211.8750     2.2090    67.5350    80.9040    81.9130   104.3490    24.8850    -9.6910 
  212.0000     2.2080    66.3790    72.9660    73.2260    76.8760    24.8260    -9.8890 
  212.1250     2.2070    65.7210    69.4060    68.7280    66.8500    24.7800   -10.1350 
  212.2500     2.2050    65.2260    69.7130    68.2620    68.4570    24.7630   -10.2510 
  212.3750     2.2010    64.1650    75.2690    71.8720    75.8290    24.7540   -10.3430 
  212.5000     2.1950    63.6260    84.1010    79.4330    87.1180    24.7810   -10.3700 
  212.6250     2.1870    64.1920    96.8670    90.7470   119.0950    24.8830   -10.4320 
  212.7500     2.1740    64.4870   110.6350   103.3700   184.8390    24.9790   -10.5550 
  212.8750     2.1550    63.5220   121.8900   114.7040   220.6520    25.0380   -10.7350 
  213.0000     2.1450    61.4980   128.3460   122.2590   193.2350    25.0760   -10.8890 
  213.1250     2.1760    61.7660   129.1220   123.8880   188.9310    25.0700   -10.9630 
  213.2500     2.2510    64.7310   126.4530   121.2780   192.1660    25.0440   -11.0740 
  213.3750     2.3470    66.8650   122.4430   116.7050   183.7990    24.9950   -11.1940 
  213.5000     2.4200    64.1350   119.4680   112.8480   149.7430    24.8450   -11.3700 
  213.6250     2.4220    58.9060   119.9580   112.4580   163.3620    24.7030   -11.5140 
  213.7500     2.3680    57.2630   124.1240   116.0760   190.2430    24.7830   -11.5860 
  213.8750     2.2920    57.9180   131.2240   123.4440   188.4970    24.9820   -11.6260 
  214.0000     2.2290    57.0390   139.1130   132.7150   206.1520    25.0940   -11.6770 
  214.1250     2.1970    56.3970   143.6510   139.5690   228.2990    25.1310   -11.7950 
  214.2500     2.1840    60.0400   142.3360   140.4410   243.4830    25.1210   -12.0240 
  214.3750     2.1770    65.4080   134.9580   134.3490   186.2020    25.0610   -12.2720 
  214.5000     2.1730    66.4880   123.7380   123.3260   127.5770    24.9940   -12.5450 
  214.6250     2.1730    63.2460   112.4120   111.4530    99.2630    24.9490   -12.7600 
  214.7500     2.1780    61.3190   103.7630   102.2200    92.6210    24.8670   -12.9630 
  214.8750     2.1840    63.2760    98.5540    96.7180    85.4390    24.7860   -13.0910 
  215.0000     2.1900    66.5710    96.3300    94.6560    76.2440    24.7170   -13.2130 
  215.1250     2.1940    67.2880    96.0070    95.0710    87.2920    24.6560   -13.3220 
  215.2500     2.1930    67.5200    95.7270    95.8950   102.5980    24.5730   -13.3630 
  215.3750     2.1880    67.6480    94.3520    95.7940   108.1080    24.4920   -13.4230 
  215.5000     2.1800    66.0770    91.2940    93.9430   104.2970    24.4560   -13.3950 
  215.6250     2.1750    63.4120    86.4600    89.9210    86.5610    24.4650   -13.3880 
  215.7500     2.1760    64.8960    80.8960    84.6970    73.7490    24.5060   -13.3620 
  215.8750     2.1820    70.4660    75.4620    79.1830    67.4170    24.5500   -13.4250 
  216.0000     2.1890    74.4960    70.8480    74.1970    65.9920    24.5730   -13.4720 
  216.1250     2.1920    74.0340    67.6850    70.4860    64.6850    24.5630   -13.4630 
  216.2500     2.1890    71.0060    65.8730    68.1000    65.0800    24.5260   -13.3700 
  216.3750     2.1850    68.3120    65.3250    67.0320    68.1930    24.4900   -13.2260 
  216.5000     2.1820    67.8680    65.8350    67.1650    69.5510    24.5000   -13.1070 
  216.6250     2.1850    68.1160    67.1720    68.3860    66.3100    24.5820   -13.0390 
  216.7500     2.1910    67.0580    68.8120    70.1120    63.2350    24.6370   -12.9960 
  216.8750     2.1940    66.9860    70.4600    71.9230    67.5470    24.6430   -12.9290 
  217.0000     2.1930    70.5170    71.9510    73.5110    75.8630    24.6710   -12.8780 
  217.1250     2.1860    73.6060    73.2850    74.7340    82.2410    24.7480   -12.8600 
  217.2500     2.1790    72.2490    74.6590    75.8240    86.4910    24.7940   -12.8700 
  217.3750     2.1760    70.3030    76.2660    77.0720    88.2520    24.8110   -12.8890 
  217.5000     2.1790    70.6560    78.2430    78.7340    87.3910    24.8160   -12.8930 
  217.6250     2.1850    70.0160    80.6460    80.9770    88.3130    24.8140   -12.8850 
  217.7500     2.1910    66.8490    83.1940    83.5030    92.4440    24.8090   -12.8840 
  217.8750     2.1950    64.5340    85.5460    85.9060    96.3020    24.7910   -12.8270 
  218.0000     2.1970    64.9380    87.3400    87.7400    99.2360    24.7910   -12.8140 
  218.1250     2.2000    65.2310    88.2340    88.5830   103.5460    24.8210   -12.8170 
  218.2500     2.2050    64.0340    88.4830    88.6900   103.9720    24.8660   -12.9080 
  218.3750     2.2110    63.1350    88.4620    88.4620   101.9770    24.9020   -12.9850 
  218.5000     2.2180    64.0770    88.6070    88.3790    99.3720    24.8830   -13.1400 
  218.6250     2.2220    66.5320    89.3430    88.9150    98.2000    24.8210   -13.3140 
  218.7500     2.2260    67.6710    90.6730    90.1040   100.4810    24.7590   -13.4980 
  218.8750     2.2350    67.7000    92.4930    91.8520   107.1950    24.7210   -13.7710 
  219.0000     2.2540    69.1730    94.6120    93.9200   111.1400    24.6970   -14.0070 
  219.1250     2.2830    70.8130    96.8390    95.9590   112.3580    24.6610   -14.2520 
  219.2500     2.3070    68.8780    99.0530    97.7570   116.7680    24.6180   -14.4250 
  219.3750     2.3120    64.9550   101.2830    99.3570   121.1550    24.6060   -14.6310 
  219.5000     2.2900    63.0990   103.6210   100.9310   118.8000    24.6190   -14.7870 
  219.6250     2.2440    64.7850   106.1450   102.6350   112.4990    24.6920   -14.9680 
  219.7500     2.1950    66.3690   108.7540   104.3900   112.2760    24.7550   -15.1400 
  219.8750     2.1600    65.4680   111.3200   106.0370   119.9270    24.8130   -15.2650 
  220.0000     2.1460    62.3690   113.7830   107.4970   127.2000    24.8400   -15.3560 
  220.1250     2.1510    60.7870   116.3040   108.8940   122.4090    24.7940   -15.4450 
  220.2500     2.1640    62.2740   119.2740   110.6090   115.5220    24.7360   -15.5530 
  220.3750     2.1780    64.3110   123.1430   113.1470   113.4960    24.6820   -15.6980 
  220.5000     2.1880    64.9840   128.4630   117.0300   117.5370    24.6700   -15.9180 
  220.6250     2.1970    66.4170   135.0900   122.6940   131.0310    24.6930   -16.1690 
