~V
VERS. 2.00: Ver 2.00
~W
STRT.M 57.0000:
STOP.M 278.0000:
STEP.M 0.1250:
NULL. -999.2500:
UWI. F11043:
~C
DEPT.M :
SP.MV :
GR.API :
RML.OHMM :
RI. :
RXO.OHMM :
CALI.CM :
DEN.GM/CC :
~A
# ...
  270.7500    -7.1640    71.8350    16.3840    15.6490    19.7740    23.5780     2.4270 
  270.8750    -7.1760    71.8350    16.3850    15.6530    20.1440    23.5370     2.4530 
  271.0000    -7.2230    71.8350    16.3860    15.6570    20.0060    23.5250     2.4700 
  271.1250    -7.2850    71.8350    16.3860    15.6590    18.8020    23.5270     2.4850 
  271.2500    -7.3330    71.8350    16.3800    15.6560    18.1100    23.4980     2.5010 
  271.3750    -7.3810    71.8350    16.3740    15.6480    18.4140    23.4380     2.5120 
  271.5000    -7.4440    71.8350    16.3700    15.6390    19.8850    23.4150     2.5170 
  271.6250    -7.4880    71.8350    16.3710    15.6320    20.8200    23.3910     2.5200 
  271.7500    -7.5080    71.8350    16.3760    15.6280    21.7500    23.3550     2.5260 
  271.8750    -7.5450    71.8350    16.3830    15.6270    21.7820    23.3120     2.5340 
  272.0000    -7.6110    71.8350    16.3910    15.6290    20.4030    23.2660     2.5400 
  272.1250    -7.6440    71.8350    16.3980    15.6350    19.8960    23.2230     2.5430 
  272.2500    -7.6840    71.8350    16.4060    15.6440    20.0140    23.2210     2.5440 
  272.3750    -8.0360    71.8350    16.4130    15.6550    20.1040    23.2240     2.5430 
  272.5000   -10.1930    71.8350    16.4180    15.6640    19.4070    23.1870     2.5350 
  272.6250  -999.2500    71.8350    16.4240    15.6670    18.4340    23.1000     2.5240 
  272.7500  -999.2500    71.8350    16.4320    15.6650    17.1850    22.9580     2.5130 
  272.8750  -999.2500    71.8350    16.4470    15.6610    16.5880    22.7900     2.5070 
  273.0000  -999.2500    71.8350    16.4740    15.6630    15.3560    22.5850     2.5090 
  273.1250  -999.2500    71.8350    16.5170    15.6720    13.5770    22.0470     2.5180 
  273.2500  -999.2500    71.8350    16.5790    15.6820    11.1020    21.1440     2.5280 
  273.3750  -999.2500    71.8350    16.6580    15.6840     9.3070    20.1610     2.5380 
  273.5000  -999.2500    71.8350    16.7440    15.6760     8.5720    19.6370     2.5450 
  273.6250  -999.2500    71.8350    16.8110    15.6620     8.4730    19.5340     2.5480 
  273.7500  -999.2500    71.8350    16.8450    15.6530     8.4810    19.5360     2.5480 
  273.8750  -999.2500    71.8350    16.8440    15.6520     8.4880    19.5350     2.5480 
  274.0000  -999.2500    71.8350    16.8410    15.6530     8.4730    19.5350     2.5480 
  274.1250  -999.2500    71.8350    16.8410    15.6530     8.4560    19.5360     2.5510 
  274.2500  -999.2500    71.8350    16.8410    15.6530     8.4470    19.5390     2.5530 
  274.3750  -999.2500    71.8350    16.8410    15.6530     8.4500    19.5360     2.5460 
  274.5000  -999.2500    71.8350    16.8410    15.6530     8.4510    19.5350     2.5340 
  274.6250  -999.2500    71.8350    16.8410    15.6530     8.4500    19.5350     2.5140 
  274.7500  -999.2500    71.8350    16.8410    15.6530     8.4490    19.5360     2.4800 
  274.8750  -999.2500    71.8350    16.8410    15.6530     8.4490    19.5350     2.4460 
  275.0000  -999.2500    71.8350    16.8410    15.6530     8.4520    19.5350     2.3900 
  275.1250  -999.2500    71.8350    16.8410    15.6530     8.4570    19.5360     2.3390 
  275.2500  -999.2500    71.8350    16.8410    15.6530     8.4610    19.5340     2.2940 
  275.3750  -999.2500    71.8350    16.8410    15.6530     8.4570    19.5330     2.2920 
  275.5000  -999.2500    71.8350    16.8410    15.6530     8.4570    19.5330  -999.2500 
  275.6250  -999.2500    71.8350    16.8410    15.6530     8.4590    19.5330  -999.2500 
  275.7500  -999.2500    71.8350    16.8410    15.6530     8.4640    19.5330  -999.2500 
  275.8750  -999.2500    71.8350    16.8410    15.6530     8.4610    19.5330  -999.2500 
  276.0000  -999.2500    71.8350    16.8410    15.6530     8.4540    19.5330  -999.2500 
  276.1250  -999.2500    71.8350    16.8410    15.6530     8.4510    19.5330  -999.2500 
  276.2500  -999.2500    71.8350    16.8410    15.6530     8.4500    19.5330  -999.2500 
  276.3750  -999.2500    71.8350    16.8410    15.6530     8.4520    19.5330  -999.2500 
  276.5000  -999.2500    71.8350    16.8410    15.6530     8.4570    19.5330  -999.2500 
  276.6250  -999.2500    71.8350    16.8410    15.6530     8.4640    19.5330  -999.2500 
  276.7500  -999.2500    71.8350    16.8410    15.6530     8.4550    19.5330  -999.2500 
  276.8750  -999.2500    71.8350    16.8410    15.6530     8.4480    19.5330  -999.2500 
  277.0000  -999.2500    71.8350    16.8410    15.6530     8.4500    19.5330  -999.2500 
  277.1250  -999.2500    71.8350    16.8410    15.6530     8.4600    19.5330  -999.2500 
  277.2500  -999.2500    71.8350    16.8410    15.6530     8.4630    19.5330  -999.2500 
  277.3750  -999.2500    71.8350    16.8410    15.6530     8.4580    19.5330  -999.2500 
  277.5000  -999.2500    71.8350    16.8410    15.6530     8.4560    19.5330  -999.2500 
  277.6250  -999.2500    71.8350    16.8410    15.6530     8.4550    19.5330  -999.2500 
  277.7500  -999.2500    71.8350    16.8410    15.6530     8.4530    19.5330  -999.2500 
  277.8750  -999.2500    71.8350    16.8410    15.6530     8.4490    19.5330  -999.2500 
  278.0000  -999.2500    71.8350    16.8410    15.6530     8.4480    19.5330  -999.2500 
