~V
VERS. 2.00: Ver 2.00
~W
STRT.M 58.0000:
STOP.M 271.0000:
STEP.M 0.1250:
NULL. -999.2500:
UWI. F11072:
~C
DEPT.M :
DEN.GM/CC :
GR.API :
RML.OHMM :
RI. :
RXO.OHMM :
CALI.CM :
SP.MV :
~A
   58.0000     2.6920    48.3140    -0.0190     0.1460     0.3880    22.9570    77.6430 
   58.1250     2.6350    52.2410     0.0140     0.1630     0.4630    22.8660    69.6230 
   58.2500     2.5440    60.2270     0.1110     0.2350     0.7470    22.7200    60.3590 
   58.3750     2.4360    69.3550     0.3100     0.4110     1.3360    22.5390    50.3440 
   58.5000     2.3290    75.9540     0.6660     0.7590     3.3630    22.5240    40.0970 
   58.6250     2.2430    77.2090     1.2540     1.3810     4.7230    22.8450    30.1790 
   58.7500     2.1770    74.1640     2.0150     2.2410     5.9410    23.2610    21.0450 
   58.8750     2.1300    70.1570     2.8420     3.2540     6.5540    23.7090    13.0720 
   59.0000     2.0950    67.4820     3.5700     4.2670     6.8960    24.2350     6.5000 
   59.1250     2.0670    64.9590     4.0310     5.0800     7.1370    24.7520     1.5910 
   59.2500     2.0480    61.1630     4.3190     5.6800     7.2800    25.0510    -2.0880 
   59.3750     2.0440    60.3300     4.5520     6.1270     7.2860    25.0640    -4.8490 
   59.5000     2.0610    62.0210     4.7850     6.4730     7.1000    24.8450    -6.9890 
   59.6250     2.0950    58.5400     5.0090     6.7200     6.9330    24.4260    -8.6420 
   59.7500     2.1290    52.8380     5.1960     6.8820     7.0750    24.0370    -9.9960 
   59.8750     2.1480    52.4560     5.3340     6.9680     7.5140    23.7620   -11.1200 
   60.0000     2.1430    57.3220     5.4200     6.9960     8.1890    23.6850   -12.0420 
   60.1250     2.1080    57.4330     5.4620     6.9880     8.5910    23.7530   -12.7560 
   60.2500     2.0590    52.8080     5.4860     6.9750     8.7960    23.8490   -13.3230 
   60.3750     2.0140    49.6930     5.5080     6.9700     8.8970    24.0230   -13.7480 
   60.5000     1.9900    50.8190     5.5450     6.9790     9.0890    24.4290   -14.0470 
   60.6250     2.0050    54.5320     5.6040     7.0000     9.0900    25.1080   -14.2020 
   60.7500     2.0490    57.6770     5.6700     7.0240     9.1140    25.6180   -14.2440 
   60.8750     2.1070    59.0560     5.7290     7.0400     9.3480    25.6330   -14.2150 
   61.0000     2.1610    59.3350     5.7670     7.0450     9.7890    25.2410   -14.1690 
   61.1250     2.1940    61.2840     5.7750     7.0380     9.9220    24.8400   -14.1440 
   61.2500     2.2100    63.0900     5.7610     7.0320     9.7860    24.6460   -14.1580 
   61.3750     2.2110    62.1210     5.7300     7.0320     9.5490    24.6210   -14.2360 
   61.5000     2.2020    58.6680     5.6840     7.0410     9.6040    24.5430   -14.3830 
   61.6250     2.1850    55.7710     5.6230     7.0530    10.3190    24.3360   -14.6080 
   61.7500     2.1600    53.5840     5.5610     7.0590    11.0490    24.1770   -14.9040 
   61.8750     2.1280    53.4590     5.5220     7.0600    10.5760    24.2120   -15.2340 
   62.0000     2.0940    55.6270     5.5380     7.0590     9.8800    24.5670   -15.5810 
   62.1250     2.0620    55.5750     5.6440     7.0690     9.3830    25.1970   -15.9370 
   62.2500     2.0320    51.7430     5.8150     7.0910     8.9950    25.7690   -16.2950 
   62.3750     2.0030    48.7930     6.0110     7.1180     8.6070    26.2060   -16.6440 
   62.5000     1.9740    49.9980     6.1780     7.1340     8.2880    26.6290   -16.9620 
   62.6250     1.9540    53.4720     6.2590     7.1100     8.0000    26.9450   -17.2380 
   62.7500     1.9520    54.4980     6.2550     7.0380     7.8790    27.0530   -17.4670 
   62.8750     1.9770    52.7550     6.1870     6.9220     8.0380    26.8460   -17.6520 
   63.0000     2.0290    50.7740     6.0880     6.7830     8.3210    26.2890   -17.8010 
   63.1250     2.0980    50.6250     6.0020     6.6580     8.5710    25.2940   -17.9300 
   63.2500     2.1630    51.8460     5.9610     6.5760     8.5550    24.1400   -18.0590 
   63.3750     2.2110    53.5760     5.9780     6.5510     8.2360    23.2690   -18.2100 
   63.5000     2.2360    55.8260     6.0490     6.5810     7.8640    22.9650   -18.4010 
   63.6250     2.2360    57.9380     6.1620     6.6550     7.6160    23.1510   -18.6200 
   63.7500     2.2170    58.8860     6.2910     6.7410     7.5340    23.5760   -18.8680 
   63.8750     2.1790    57.1840     6.4200     6.8190     7.5050    24.1690   -19.1480 
   64.0000     2.1270    54.5550     6.5310     6.8690     7.4290    24.7160   -19.4310 
   64.1250     2.0700    56.2590     6.5930     6.8700     7.4550    24.9900   -19.6710 
   64.2500     2.0250    58.4780     6.5920     6.8250     7.6550    25.3560   -19.8560 
   64.3750     2.0020    55.3740     6.5330     6.7380     7.8490    26.0200   -19.9670 
   64.5000     2.0050    48.7350     6.4430     6.6310     7.8120    26.8460   -19.9920 
   64.6250     2.0270    47.6890     6.3810     6.5300     7.6840    27.3430   -19.9210 
   64.7500     2.0470    52.2310     6.3850     6.4580     7.6370    27.2960   -19.7740 
   64.8750     2.0550    56.5380     6.4640     6.4230     7.7570    26.6840   -19.5640 
   65.0000     2.0530    57.4700     6.5940     6.4190     8.0280    25.8260   -19.3220 
   65.1250     2.0520    57.3830     6.7300     6.4350     8.2400    25.2190   -19.0620 
   65.2500     2.0620    58.2040     6.8380     6.4490     8.1940    24.6870   -18.8030 
   65.3750     2.0850    58.5410     6.9130     6.4560     8.2690    24.0680   -18.5520 
   65.5000     2.1140    56.6180     6.9700     6.4540     8.6490    23.5020   -18.3280 
   65.6250     2.1390    54.3480     7.0330     6.4470     8.9560    23.1970   -18.1660 
   65.7500     2.1550    54.5120     7.1160     6.4450     9.0860    23.0800   -18.0510 
   65.8750     2.1620    55.1650     7.2180     6.4550     9.0460    23.0650   -17.9670 
   66.0000     2.1610    55.2990     7.3300     6.4810     8.9200    23.1210   -17.8910 
   66.1250     2.1570    56.6130     7.4380     6.5210     8.8050    23.3540   -17.7930 
   66.2500     2.1510    58.8220     7.5270     6.5580     8.6930    23.8380   -17.6390 
   66.3750     2.1390    60.7060     7.5780     6.5710     8.5690    24.5920   -17.4000 
   66.5000     2.1160    59.6530     7.5730     6.5410     8.4250    25.5340   -17.0530 
   66.6250     2.0840    57.0100     7.4870     6.4430     8.3470    26.3940   -16.5690 
   66.7500     2.0550    56.5420     7.3360     6.2950     8.3290    27.0350   -15.9720 
   66.8750     2.0400    57.4280     7.1510     6.1240     8.2770    27.4660   -15.2910 
   67.0000     2.0430    57.4440     6.9770     5.9680     8.0010    27.6020   -14.5570 
   67.1250     2.0620    56.6260     6.8830     5.8760     7.3190    27.2560   -13.7880 
   67.2500     2.0850    57.6510     6.8900     5.8610     6.7770    26.4770   -13.0010 
   67.3750     2.1070    59.8120     6.9900     5.9170     6.9400    25.6220   -12.2050 
   67.5000     2.1240    61.7530     7.1460     6.0230     7.3380    25.1120   -11.4010 
   67.6250     2.1350    65.3700     7.2960     6.1450     7.5870    24.8130   -10.5970 
   67.7500     2.1420    69.2960     7.4060     6.2490     7.6860    24.4760    -9.8150 
   67.8750     2.1470    71.5620     7.4730     6.3280     7.8600    24.2240    -9.0630 
   68.0000     2.1530    73.1130     7.5160     6.3830     7.7870    24.1770    -8.3540 
   68.1250     2.1610    76.4910     7.5540     6.4110     7.6240    24.2240    -7.7260 
   68.2500     2.1680    79.7630     7.5820     6.4160     7.7740    24.2230    -7.1910 
   68.3750     2.1710    80.9760     7.5730     6.3880     8.4260    24.1640    -6.7550 
   68.5000     2.1720    81.9180     7.4880     6.3180     9.2660    24.0390    -6.4190 
   68.6250     2.1780    83.6740     7.2900     6.1960     8.1190    23.8500    -6.1820 
   68.7500     2.1940    85.3380     7.0200     6.0360     7.3120    23.7030    -6.0010 
   68.8750     2.2150    87.1000     6.7240     5.8540     6.9980    23.7150    -5.8490 
   69.0000     2.2360    89.1110     6.4450     5.6670     6.8620    23.8910    -5.7090 
   69.1250     2.2520    87.5640     6.2190     5.4970     6.4170    24.1750    -5.5750 
