~V
VERS. 2.00: Ver 2.00
~W
STRT.M 51.0000:
STOP.M 240.0000:
STEP.M 0.1250:
NULL. -999.2500:
UWI. F11016:
~C
DEPT.M :
GR.API :
RML.OHMM :
RI. :
RXO.OHMM :
CALI.CM :
DEN.GM/CC :
SP.MV :
~A
# ...
  107.2500    54.5730     8.1550     7.2350     8.8870    22.1710     2.2000   -21.5230 
  107.3750    56.0680     7.9390     7.0190     8.8170    22.1720     2.1930   -21.5540 
  107.5000    58.7580     7.6720     6.7770     8.6600    22.1720     2.1840   -21.5360 
  107.6250    60.1040     7.4000     6.5470     8.5190    22.1720     2.1790   -21.4790 
  107.7500    60.8960     7.2330     6.3940     8.4720    22.1720     2.1800   -21.3740 
  107.8750    62.8160     7.3910     6.4600     8.5540    22.1780     2.1890   -21.2010 
  108.0000    64.5310     8.0540     6.8740     8.8690    22.2160     2.2090   -20.9780 
  108.1250    64.1810     9.2660     7.7010     9.6940    22.3170     2.2390   -20.7390 
  108.2500    62.4990    10.8950     8.9030    11.3720    22.4740     2.2760   -20.5130 
  108.3750    60.4260    12.5340    10.2500    14.6540    22.6500     2.3100   -20.3530 
  108.5000    58.5540    13.6370    11.3440    20.1710    22.8170     2.3320   -20.2800 
  108.6250    58.6410    13.7940    11.8000    25.5350    22.9150     2.3360   -20.2890 
  108.7500    60.9800    12.9380    11.4460    24.0630    22.9450     2.3240   -20.3800 
  108.8750    61.9770    11.4180    10.4380    17.8030    23.0150     2.3020   -20.5670 
  109.0000    59.7740     9.8530     9.2370    13.2120    23.1060     2.2780   -20.8220 
  109.1250    57.2350     8.6650     8.2120    10.9600    23.1420     2.2580   -21.1220 
  109.2500    57.1590     7.9390     7.4820     9.8120    23.1220     2.2410   -21.4220 
  109.3750    58.3740     7.5950     7.0430     9.2600    23.0610     2.2270   -21.6690 
  109.5000    58.4410     7.4630     6.8000     8.8880    22.9640     2.2170   -21.8500 
  109.6250    57.3660     7.4180     6.6660     8.5970    22.8870     2.2090   -21.9650 
  109.7500    56.8770     7.4150     6.5990     8.5470    22.8690     2.2060   -22.0080 
  109.8750    58.0360     7.4320     6.5790     8.6480    22.8990     2.2070   -22.0010 
  110.0000    59.9610     7.4550     6.5920     8.7180    22.9460     2.2080   -21.9480 
  110.1250    61.0720     7.4750     6.6240     8.6630    22.9830     2.2080   -21.8460 
  110.2500    60.4330     7.4870     6.6640     8.6110    23.0290     2.2040   -21.7190 
  110.3750    58.8080     7.4980     6.7030     8.7310    23.1350     2.1960   -21.5720 
  110.5000    57.9160     7.5180     6.7370     8.9500    23.2890     2.1850   -21.4020 
  110.6250    57.4310     7.5560     6.7680     9.1500    23.4200     2.1730   -21.2130 
  110.7500    55.9430     7.6140     6.7990     9.2970    23.4770     2.1620   -21.0140 
  110.8750    54.7400     7.6870     6.8300     9.4210    23.4760     2.1560   -20.7920 
  111.0000    55.3970     7.7590     6.8550     9.5140    23.4600     2.1550   -20.5560 
  111.1250    56.8140     7.8130     6.8680     9.5170    23.4410     2.1600   -20.3310 
  111.2500    57.6910     7.8360     6.8630     9.4480    23.3820     2.1700   -20.1290 
  111.3750    59.0940     7.8220     6.8400     9.3430    23.2630     2.1800   -19.9490 
  111.5000    60.6910     7.7840     6.8060     9.2230    23.1260     2.1900   -19.7950 
  111.6250    60.7890     7.7440     6.7720     9.1190    23.0440     2.1980   -19.6810 
  111.7500    59.6000     7.7240     6.7470     9.0300    23.0240     2.2040   -19.6100 
  111.8750    59.0200     7.7360     6.7380     8.9300    22.9950     2.2080   -19.5950 
  112.0000    59.6000     7.7750     6.7430     8.8580    22.9260     2.2110   -19.6300 
  112.1250    61.0250     7.8220     6.7550     8.8380    22.8740     2.2130   -19.6860 
  112.2500    62.7520     7.8620     6.7650     8.8450    22.8780     2.2120   -19.7440 
  112.3750    63.7420     7.8750     6.7610     8.8570    22.9010     2.2080   -19.8120 
  112.5000    64.0640     7.8570     6.7390     8.8820    22.9110     2.2030   -19.8760 
  112.6250    64.8810     7.8210     6.7080     8.9410    22.9100     2.1980   -19.9160 
  112.7500    65.4880     7.7940     6.6830     9.0290    22.9000     2.1950   -19.9210 
  112.8750    63.7160     7.8120     6.6870     9.0840    22.8790     2.1950   -19.8820 
  113.0000    60.9740     7.8920     6.7340     9.1100    22.8770     2.1970   -19.8140 
  113.1250    60.1790     8.0120     6.8210     9.1870    22.9160     2.2010   -19.7280 
  113.2500    61.2840     8.1290     6.9270     9.3750    22.9740     2.2070   -19.6300 
  113.3750    62.1660     8.1890     7.0210     9.5190    23.0210     2.2140   -19.5350 
  113.5000    61.8970     8.1720     7.0780     9.4930    23.0440     2.2230   -19.4470 
  113.6250    61.1740     8.0980     7.0930     9.3980    23.0490     2.2340   -19.3750 
  113.7500    61.4950     7.9940     7.0720     9.2910    23.0510     2.2440   -19.3330 
  113.8750    63.0440     7.8870     7.0240     9.0110    23.0580     2.2500   -19.3130 
  114.0000    64.6010     7.7830     6.9560     8.7030    23.0770     2.2470   -19.3110 
  114.1250    65.5520     7.6750     6.8670     8.5560    23.1000     2.2360   -19.3280 
  114.2500    66.0680     7.5550     6.7550     8.4190    23.1190     2.2190   -19.3570 
  114.3750    64.4970     7.4230     6.6210     8.2480    23.1370     2.2000   -19.3630 
  114.5000    60.5840     7.2890     6.4760     8.1260    23.1610     2.1860   -19.3350 
  114.6250    58.2170     7.1600     6.3320     8.0790    23.1800     2.1770   -19.2660 
  114.7500    59.3750     7.0320     6.1890     8.0460    23.1820     2.1760   -19.1380 
  114.8750    61.8250     6.8930     6.0480     7.9420    23.1630     2.1800   -18.9450 
  115.0000    64.3370     6.7370     5.9090     7.7830    23.1310     2.1880   -18.6830 
  115.1250    67.2200     6.5780     5.7830     7.5970    23.1030     2.1980   -18.3590 
  115.2500    69.6990     6.4550     5.6930     7.3540    23.0760     2.2060   -17.9880 
  115.3750    70.6370     6.4340     5.6850     7.1010    23.0360     2.2110   -17.6090 
  115.5000    72.4870     6.5680     5.7940     6.9310    22.9600     2.2140   -17.2420 
  115.6250    76.2120     6.8780     6.0360     7.0260    22.8490     2.2130   -16.8980 
  115.7500    78.3050     7.3520     6.4130     7.6770    22.7570     2.2120   -16.5900 
  115.8750    75.8590     7.9190     6.8870     8.9570    22.7310     2.2100   -16.3390 
  116.0000    71.3060     8.4450     7.3620    10.8630    22.7560     2.2060   -16.1560 
  116.1250    68.3890     8.7870     7.7220    13.5120    22.7890     2.2000   -16.0380 
  116.2500    67.0510     8.8530     7.8790    16.3510    22.7960     2.1940   -15.9870 
  116.3750    66.2570     8.6150     7.7800    16.4860    22.7870     2.1890   -15.9900 
  116.5000    66.3960     8.1900     7.4880    13.1620    22.7810     2.1850   -16.0350 
  116.6250    67.4350     7.7490     7.1260     9.7920    22.7790     2.1810   -16.1130 
  116.7500    68.6510     7.4200     6.8010     8.3410    22.7590     2.1770   -16.2250 
  116.8750    70.1890     7.2880     6.5940     8.2340    22.6890     2.1720   -16.3540 
  117.0000    71.7600     7.3280     6.5180     8.6960    22.5670     2.1670   -16.4530 
  117.1250    71.4270     7.4610     6.5350     9.2620    22.4560     2.1630   -16.4960 
  117.2500    69.3620     7.6090     6.5970     9.0700    22.3970     2.1620   -16.4660 
  117.3750    68.1820     7.6970     6.6570     8.5300    22.3900     2.1650   -16.3340 
  117.5000    68.4920     7.7110     6.6960     8.2800    22.4350     2.1720   -16.1010 
  117.6250    68.9650     7.7170     6.7450     8.2880    22.5470     2.1850   -15.7810 
  117.7500    69.3620     7.8320     6.8750     8.3810    22.7180     2.2050   -15.3730 
  117.8750    69.4130     8.2190     7.1970     8.6310    22.8780     2.2390   -14.9080 
  118.0000    67.1010     8.9110     7.7490     9.2170    23.0070     2.2870   -14.4540 
  118.1250    62.4620     9.7800     8.4660    10.4890    23.1770     2.3450   -14.0720 
  118.2500    58.2910    10.5850     9.1890    12.9420    23.4430     2.3990   -13.7990 
  118.3750    55.9570    10.9740     9.6490    16.1760    23.6690     2.4300   -13.6990 
