~V
VERS. 2.00: Ver 2.00
~W
STRT.M 51.0000:
STOP.M 240.0000:
STEP.M 0.1250:
NULL. -999.2500:
UWI. F11016:
~C
DEPT.M :
GR.API :
RML.OHMM :
RI. :
RXO.OHMM :
CALI.CM :
DEN.GM/CC :
SP.MV :
~A
# ...
  219.7500    70.8990     7.1290     6.6110     7.6940    23.6960     2.3640    -6.4480 
  219.8750    68.6960     6.7410     6.1470     6.4730    23.6680     2.3620    -6.0290 
  220.0000    65.2360     6.5020     5.8370     5.5370    23.6480     2.3660    -5.5400 
  220.1250    60.9400     6.4090     5.6680     5.1670    23.6440     2.3750    -5.0170 
  220.2500    58.3750     6.4380     5.6230     5.2120    23.6490     2.3860    -4.4690 
  220.3750    58.8100     6.5450     5.6780     5.4310    23.6560     2.3960    -3.9010 
  220.5000    59.3930     6.6840     5.7900     5.7550    23.6510     2.4050    -3.3590 
  220.6250    57.6130     6.8270     5.9190     6.0440    23.6430     2.4130    -2.8610 
  220.7500    55.3250     6.9560     6.0430     6.1860    23.6390     2.4190    -2.4080 
  220.8750    55.7420     7.0620     6.1490     6.2250    23.6390     2.4230    -2.0360 
  221.0000    58.5200     7.1350     6.2340     6.2800    23.6370     2.4230    -1.7560 
  221.1250    60.8600     7.1620     6.3060     6.3400    23.6310     2.4210    -1.5620 
  221.2500    61.8630     7.1650     6.3660     6.2890    23.6170     2.4180    -1.4600 
  221.3750    62.3190     7.1750     6.4190     6.1490    23.6200     2.4140    -1.4440 
  221.5000    61.2580     7.1970     6.4660     6.0170    23.6430     2.4120    -1.4870 
  221.6250    58.6020     7.2300     6.5070     5.9670    23.6770     2.4130    -1.5570 
  221.7500    57.6500     7.2540     6.5400     5.9110    23.7110     2.4160    -1.6240 
  221.8750    59.7580     7.2640     6.5600     5.8740    23.7200     2.4210    -1.6840 
  222.0000    61.4560     7.2740     6.5670     5.9430    23.7130     2.4260    -1.7340 
  222.1250    61.0590     7.2940     6.5650     6.0600    23.7050     2.4300    -1.7590 
  222.2500    60.8230     7.3220     6.5670     6.0530    23.6970     2.4340    -1.7880 
  222.3750    62.3000     7.3730     6.5890     5.9490    23.6800     2.4340    -1.8330 
  222.5000    63.9170     7.4400     6.6440     5.9750    23.6710     2.4320    -1.8650 
  222.6250    64.1080     7.5350     6.7300     6.3160    23.6830     2.4250    -1.8960 
  222.7500    62.9180     7.6870     6.8400     6.8760    23.7350     2.4140    -1.9530 
  222.8750    60.4280     7.8560     6.9570     7.3770    23.7830     2.4030    -2.0170 
  223.0000    58.0020     7.9990     7.0670     7.7680    23.8080     2.3910    -2.0870 
  223.1250    56.9990     8.1030     7.1670     8.0330    23.8410     2.3830    -2.1750 
  223.2500    56.9270     8.1700     7.2630     8.1960    23.8890     2.3820    -2.2530 
  223.3750    57.3760     8.2110     7.3610     8.4370    23.9030     2.3870    -2.3260 
  223.5000    59.1500     8.2480     7.4620     8.7600    23.8710     2.3960    -2.4200 
  223.6250    62.1620     8.2950     7.5570     8.9440    23.8330     2.4040    -2.5140 
  223.7500    64.1510     8.3530     7.6310     8.7650    23.8130     2.4080    -2.5910 
  223.8750    64.0820     8.3960     7.6650     8.5220    23.8060     2.4040    -2.6800 
  224.0000    64.4750     8.3880     7.6490     8.7050    23.8360     2.3980    -2.7660 
  224.1250    66.7750     8.3100     7.5820     9.2810    23.9030     2.3920    -2.8140 
  224.2500    69.9160     8.1630     7.4750     9.7310    23.9820     2.3910    -2.8470 
  224.3750    72.5840     7.9790     7.3440     9.5800    24.0390     2.3930    -2.8480 
  224.5000    73.6670     7.8070     7.2220     9.3580    23.9910     2.4000    -2.8120 
  224.6250    72.2660     7.7050     7.1390     8.8630    23.8640     2.4100    -2.7820 
  224.7500    69.4640     7.7140     7.1260     8.0520    23.7430     2.4230    -2.7550 
  224.8750    67.7000     7.8610     7.2090     7.6140    23.6980     2.4400    -2.7160 
  225.0000    66.3830     8.1100     7.3810     7.7400    23.7310     2.4570    -2.6950 
  225.1250    64.0790     8.3800     7.5990     7.9150    23.7730     2.4680    -2.7060 
  225.2500    61.3540     8.5830     7.8030     7.8400    23.7630     2.4700    -2.7310 
  225.3750    59.0510     8.6320     7.9140     7.7310    23.6620     2.4620    -2.7850 
  225.5000    57.4760     8.5120     7.8860     7.7320    23.5410     2.4490    -2.8640 
  225.6250    57.0210     8.2680     7.7260     7.6680    23.4620     2.4370    -2.9220 
  225.7500    57.6610     7.9650     7.4750     7.4890    23.4260     2.4310    -2.9630 
  225.8750    58.2810     7.6780     7.2010     7.2900    23.4350     2.4300    -3.0010 
  226.0000    58.5740     7.4560     6.9690     7.1190    23.4670     2.4320    -3.0380 
  226.1250    59.0980     7.3160     6.8130     6.8880    23.4900     2.4330    -3.0900 
  226.2500    59.4420     7.2570     6.7410     6.6650    23.5020     2.4310    -3.1570 
  226.3750    59.4040     7.2770     6.7600     6.5860    23.5100     2.4230    -3.2230 
  226.5000    59.3710     7.3710     6.8630     6.6730    23.5260     2.4110    -3.3100 
  226.6250    58.6650     7.5450     7.0460     6.9200    23.5500     2.3980    -3.4370 
  226.7500    57.0740     7.7980     7.3030     7.1890    23.5780     2.3890    -3.5730 
  226.8750    56.1850     8.1100     7.6150     7.6650    23.6120     2.3870    -3.7040 
  227.0000    56.7470     8.4320     7.9380     8.9780    23.6480     2.3940    -3.8260 
  227.1250    57.1210     8.7100     8.2240    11.3390    23.6810     2.4060    -3.9450 
  227.2500    55.8280     8.9020     8.4340    12.9310    23.7130     2.4190    -4.0760 
  227.3750    54.3160     8.9760     8.5410    12.0700    23.7070     2.4280    -4.2040 
  227.5000    54.8610     8.9450     8.5560    10.5920    23.6550     2.4300    -4.2910 
  227.6250    57.2210     8.8460     8.5060    10.0610    23.5950     2.4270    -4.3530 
  227.7500    59.1180     8.7090     8.4120    10.0070    23.5810     2.4210    -4.4350 
  227.8750    59.0800     8.5670     8.2920     9.8660    23.6370     2.4170    -4.5250 
  228.0000    57.8960     8.4410     8.1650     9.7540    23.7100     2.4170    -4.6230 
  228.1250    57.1300     8.3490     8.0530     9.7680    23.7420     2.4210    -4.7370 
  228.2500    57.8750     8.3010     7.9740     9.7680    23.7180     2.4270    -4.8500 
  228.3750    59.9920     8.3030     7.9510     9.7240    23.6710     2.4310    -4.9790 
  228.5000    61.4250     8.3340     7.9830     9.8120    23.6410     2.4320    -5.1620 
  228.6250    60.4990     8.3660     8.0540    10.1710    23.6320     2.4320    -5.3890 
  228.7500    58.4070     8.3770     8.1390    10.6740    23.6430     2.4320    -5.6480 
  228.8750    57.6460     8.3520     8.2120    10.8420    23.6790     2.4330    -5.9750 
  229.0000    58.2690     8.3030     8.2540    10.5090    23.7370     2.4340    -6.3640 
  229.1250    58.6930     8.2500     8.2640    10.0560    23.7750     2.4330    -6.8020 
  229.2500    58.1250     8.2090     8.2540     9.8670    23.7810     2.4290    -7.3110 
  229.3750    57.7070     8.1900     8.2350     9.7470    23.7760     2.4220    -7.9100 
  229.5000    58.5650     8.1910     8.2140     9.4870    23.7750     2.4140    -8.5490 
  229.6250    60.2590     8.1980     8.1890     9.2390    23.7810     2.4080    -9.1850 
  229.7500    61.2140     8.1990     8.1590     9.1800    23.7860     2.4050    -9.7960 
  229.8750    61.3540     8.1870     8.1260     9.5150    23.7610     2.4080   -10.3000 
  230.0000    61.3540     8.1660     8.1010     9.8900    23.7000     2.4150   -10.6620 
  230.1250    61.3540     8.1530     8.0940     9.9590    23.6480     2.4260   -10.9110 
  230.2500    61.3540     8.1630     8.1100     9.9230    23.6160     2.4360   -11.0680 
  230.3750    61.3540     8.2090     8.1490    10.0330    23.5810     2.4450   -11.1480 
  230.5000    61.3540     8.2800     8.2000    10.2360    23.5700     2.4500   -11.1950 
  230.6250    61.3540     8.3500     8.2490    10.2080    23.6100     2.4530   -11.2530 
  230.7500    61.3540     8.4000     8.2860    10.0190    23.6640     2.4550   -11.3480 
  230.8750    61.3540     8.4190     8.3050     9.8950    23.6920     2.4550   -11.5340 
