~V
VERS. 2.00: Ver 2.00
~W
STRT.M 52.0000:
STOP.M 235.0000:
STEP.M 0.1250:
NULL. -999.2500:
UWI. F11014:
~C
DEPT.M :
DEN.GM/CC :
GR.API :
RML.OHMM :
RI. :
RXO.OHMM :
CALI.CM :
SP.MV :
~A
# ...
  108.2500     2.1610    62.8690     9.8670     7.2980     8.8490    23.7670   -14.5010 
  108.3750     2.1510    62.2290     9.7630     7.2260     8.8970    23.7330   -14.2860 
  108.5000     2.1460    63.0070     9.6040     7.1180     8.8800    23.8490   -14.0560 
  108.6250     2.1460    63.6800     9.4750     7.0290     8.8340    23.9910   -13.7920 
  108.7500     2.1440    63.2880     9.4580     7.0120     8.7870    24.0980   -13.4900 
  108.8750     2.1380    62.7610     9.6490     7.1270     8.7630    24.1430   -13.1510 
  109.0000     2.1340    63.3640    10.0720     7.4040     8.7220    24.1290   -12.7580 
  109.1250     2.1380    64.8410    10.6720     7.8340     8.6770    24.0700   -12.2930 
  109.2500     2.1490    65.5970    11.3290     8.3670     8.7060    24.0040   -11.7630 
  109.3750     2.1570    64.5890    11.8560     8.8830     8.7630    23.9390   -11.1900 
  109.5000     2.1580    63.8070    12.1670     9.2860     8.7860    23.8400   -10.5730 
  109.6250     2.1630    64.3520    12.3390     9.5750     8.7710    23.7360    -9.8870 
  109.7500     2.1810    64.0990    12.4810     9.8100     8.7650    23.6910    -9.1450 
  109.8750     2.2160    62.1910    12.5490     9.9710     8.9130    23.7400    -8.4090 
  110.0000     2.2640    61.6080    12.3130     9.9030     9.7580    23.8720    -7.6880 
  110.1250     2.3200    65.7280    11.5340     9.4140    11.7150    24.0370    -6.9540 
  110.2500     2.3820    73.9630    10.1710     8.4370    13.9470    24.1800    -6.2090 
  110.3750     2.4340    82.7590     8.4780     7.1310    11.3620    24.2610    -5.5050 
  110.5000     2.4530    89.9490     6.8840     5.8150     7.2140    24.2960    -4.8760 
  110.6250     2.4330    95.0650     5.6790     4.7330     5.3900    24.2920    -4.3390 
  110.7500     2.3980    98.0550     4.9350     3.9720     4.9620    24.2370    -3.9090 
  110.8750     2.3740    98.0620     4.6440     3.5650     4.8530    24.1840    -3.5980 
  111.0000     2.3630    95.6240     4.6940     3.4620     4.7920    24.1650    -3.4060 
  111.1250     2.3510    93.1330     4.9640     3.5850     4.9880    24.1610    -3.3490 
  111.2500     2.3320    91.6260     5.3780     3.8770     5.4690    24.1390    -3.4270 
  111.3750     2.3060    91.0570     5.8840     4.2910     5.8580    24.0670    -3.5890 
  111.5000     2.2810    89.8520     6.4030     4.7590     6.2470    23.9750    -3.7870 
  111.6250     2.2610    85.4280     6.8250     5.1900     6.9220    23.9110    -3.9880 
  111.7500     2.2450    78.0420     7.0380     5.4840     7.5320    23.9100    -4.1590 
  111.8750     2.2340    73.5230     6.9590     5.5440     7.5990    23.9870    -4.2870 
  112.0000     2.2300    75.4420     6.6480     5.3850     7.1570    24.0860    -4.3880 
  112.1250     2.2350    79.3820     6.2480     5.1050     6.4980    24.1690    -4.4250 
  112.2500     2.2450    80.0140     5.9080     4.8200     6.0040    24.2580    -4.3660 
  112.3750     2.2520    78.3930     5.7850     4.6620     5.8640    24.3430    -4.2880 
  112.5000     2.2490    77.5990     5.9330     4.6930     5.9190    24.4140    -4.2580 
  112.6250     2.2340    77.6760     6.2960     4.8910     6.0060    24.4420    -4.2430 
  112.7500     2.2130    77.6710     6.7380     5.1730     6.2350    24.4100    -4.2160 
  112.8750     2.2000    76.7800     7.0150     5.3780     6.7590    24.3880    -4.1990 
  113.0000     2.2010    75.6220     6.9330     5.3540     7.1370    24.4110    -4.1960 
  113.1250     2.2160    76.2370     6.4700     5.0600     6.8520    24.4530    -4.1870 
  113.2500     2.2460    79.9970     5.7810     4.5730     5.8470    24.4880    -4.1740 
  113.3750     2.2840    84.8780     5.1430     4.0640     4.9080    24.4950    -4.1620 
  113.5000     2.3160    88.1900     4.7660     3.6890     4.4340    24.4730    -4.1420 
  113.6250     2.3280    89.7100     4.7100     3.5220     4.3530    24.4270    -4.1480 
  113.7500     2.3180    89.6190     4.9340     3.5650     4.7650    24.3740    -4.2190 
  113.8750     2.2930    86.6810     5.3260     3.7760     5.7000    24.3560    -4.3710 
  114.0000     2.2620    81.1440     5.7260     4.0570     6.5850    24.3920    -4.6100 
  114.1250     2.2360    76.2860     6.0330     4.3260     6.9130    24.4560    -4.9240 
  114.2500     2.2260    75.1890     6.2800     4.5740     6.8590    24.5010    -5.2780 
  114.3750     2.2360    76.5640     6.6770     4.9030     6.9860    24.5160    -5.6650 
  114.5000     2.2570    75.7080     7.4490     5.4600     7.5110    24.5560    -6.0870 
  114.6250     2.2790    71.4080     8.6940     6.3450     8.9900    24.6480    -6.4940 
  114.7500     2.2950    68.5640    10.3010     7.5440    13.1620    24.7260    -6.8270 
  114.8750     2.3110    70.8170    11.8370     8.8070    22.5580    24.6940    -7.0780 
  115.0000     2.3310    73.8930    12.7300     9.7010    27.6430    24.5670    -7.3030 
  115.1250     2.3570    73.1320    12.6680     9.8980    21.2930    24.3960    -7.5450 
  115.2500     2.3690    69.9600    11.8230     9.4200    13.1730    24.2630    -7.7740 
  115.3750     2.3440    68.0450    10.7310     8.6020     9.7120    24.1980    -7.9410 
  115.5000     2.3000    67.4500     9.8780     7.8260     8.9350    24.1300    -8.0850 
  115.6250     2.2750    67.1650     9.4320     7.2820     8.8140    24.0480    -8.2490 
  115.7500     2.2770    67.0050     9.3250     6.9850     8.8340    24.0220    -8.4010 
  115.8750     2.2780    67.0380     9.3860     6.8750     8.8830    24.0730    -8.4970 
  116.0000     2.2600    67.5780     9.4590     6.8550     8.8710    24.1230    -8.5630 
  116.1250     2.2310    68.3870     9.5190     6.8840     8.7740    24.0970    -8.6410 
  116.2500     2.2030    68.1450     9.6500     6.9900     8.6450    23.9580    -8.7100 
  116.3750     2.1760    65.5390     9.9720     7.2320     8.6270    23.7820    -8.7410 
  116.5000     2.1520    62.6160    10.4780     7.6080     8.7360    23.6080    -8.7450 
  116.6250     2.1390    62.0120    11.0330     8.0420     8.9270    23.4680    -8.7310 
  116.7500     2.1390    63.9430    11.4470     8.4090     9.1670    23.4230    -8.6990 
  116.8750     2.1480    66.0170    11.5020     8.5480     9.4320    23.5300    -8.6580 
  117.0000     2.1590    66.2250    11.1770     8.4100     9.5270    23.7680    -8.6010 
  117.1250     2.1710    65.5500    10.6400     8.0820     9.3520    24.0050    -8.5020 
  117.2500     2.1790    64.9030    10.1150     7.7070     8.9770    24.1390    -8.3700 
  117.3750     2.1840    63.5510     9.8090     7.4370     8.6960    24.1930    -8.2380 
  117.5000     2.1870    61.6620     9.7670     7.3290     8.6720    24.2390    -8.1040 
  117.6250     2.1880    60.8560     9.8920     7.3490     8.7290    24.2740    -7.9720 
  117.7500     2.1880    61.9510    10.0350     7.4180     8.6900    24.2640    -7.8450 
  117.8750     2.1910    64.1200    10.0240     7.4310     8.5680    24.2360    -7.6690 
  118.0000     2.1970    66.9620     9.7950     7.3280     8.5270    24.2350    -7.4320 
  118.1250     2.2020    69.1390     9.4010     7.1140     8.5800    24.2670    -7.2030 
  118.2500     2.2040    69.4050     8.9450     6.8360     8.5620    24.3050    -7.0140 
  118.3750     2.2040    68.2840     8.5370     6.5600     8.4150    24.3170    -6.7750 
  118.5000     2.2060    66.7720     8.2360     6.3350     8.3630    24.2900    -6.4810 
  118.6250     2.2090    65.3610     8.0560     6.1860     8.4940    24.2360    -6.2120 
  118.7500     2.2110    64.2150     7.9990     6.1260     8.5190    24.1840    -5.9870 
  118.8750     2.2110    63.7590     8.0760     6.1670     8.2900    24.1430    -5.7730 
  119.0000     2.2060    64.4800     8.2630     6.2950     8.1330    24.0960    -5.5630 
  119.1250     2.1960    66.9710     8.4940     6.4610     8.1910    24.0540    -5.3650 
  119.2500     2.1770    69.9520     8.6650     6.5920     8.4030    24.0820    -5.1650 
  119.3750     2.1590    71.0590     8.6250     6.5830     8.7040    24.2200    -4.9700 
