~V
VERS. 2.00: Ver 2.00
~W
STRT.M 50.0000:
STOP.M 275.0000:
STEP.M 0.1250:
NULL. -999.2500:
UWI. F11033:
~C
DEPT.M :
DEN.GM/CC :
GR.API :
RML.OHMM :
RI. :
RXO.OHMM :
CALI.CM :
SP.MV :
~A
# ...
   83.7500     2.3340    51.0730    22.4470    15.2430    43.9210    24.6900   -22.4980 
   83.8750     2.2240    51.3750    22.0910    15.9910    35.5690    24.6550   -22.5940 
   84.0000     2.1500    53.7410    18.5340    14.4170    21.0290    24.7500   -22.6990 
   84.1250     2.1270    55.5960    14.5360    11.9870    12.5480    25.0000   -22.8070 
   84.2500     2.1260    56.1470    11.8790    10.0850     9.8660    25.2120   -22.9280 
   84.3750     2.1320    55.6520    10.6990     8.9920     9.4400    25.3430   -23.0390 
   84.5000     2.1440    55.2590    10.6450     8.6230     9.7570    25.4300   -23.1020 
   84.6250     2.1640    55.3730    11.2530     8.7900    10.3060    25.4350   -23.1250 
   84.7500     2.1870    56.1430    11.8440     9.0770    11.3790    25.3730   -23.1050 
   84.8750     2.2040    57.5290    12.0290     9.1900    12.7820    25.2680   -23.0440 
   85.0000     2.2090    60.9560    11.6660     8.9570    13.4050    25.1670   -22.9490 
   85.1250     2.2040    66.2680    10.8520     8.3710     9.8650    25.1020   -22.8450 
   85.2500     2.1940    72.6880     9.9500     7.6810     7.3440    25.0090   -22.7200 
   85.3750     2.1840    78.2880     9.1650     7.0580     6.3710    24.8780   -22.6090 
   85.5000     2.1770    80.9820     8.5970     6.5990     6.2140    24.8400   -22.5340 
   85.6250     2.1750    80.1750     8.3050     6.3560     5.9440    24.9680   -22.4850 
   85.7500     2.1770    77.7340     8.2080     6.2590     5.6070    25.1200   -22.4580 
   85.8750     2.1880    75.7040     8.2360     6.2480     6.1110    25.0840   -22.4400 
   86.0000     2.2050    73.9870     8.3130     6.2770     6.8260    24.8430   -22.4180 
   86.1250     2.2100    73.8190     8.4300     6.3560     6.6290    24.5730   -22.3710 
   86.2500     2.1960    75.9470     8.6480     6.5190     6.2770    24.4210   -22.3050 
   86.3750     2.1700    78.5960     9.0120     6.7820     6.4770    24.4490   -22.2120 
   86.5000     2.1490    79.4500     9.4990     7.1150     7.0910    24.6010   -22.1130 
   86.6250     2.1450    77.3430     9.9830     7.4250     8.1200    24.7550   -21.9970 
   86.7500     2.1550    75.6890    10.2730     7.6060     9.1880    24.8700   -21.8900 
   86.8750     2.1720    76.1700    10.2230     7.5850     9.1150    24.9380   -21.8520 
   87.0000     2.1860    77.7090     9.8250     7.3630     7.1080    24.9660   -21.9120 
   87.1250     2.1960    78.1610     9.2240     7.0100     6.2840    24.9700   -22.0470 
   87.2500     2.2070    78.5840     8.6470     6.6440     6.3670    24.9740   -22.2290 
   87.3750     2.2200    79.2840     8.1890     6.3240     6.4790    24.9980   -22.4520 
   87.5000     2.2270    81.0880     7.8790     6.0810     5.9060    25.0510   -22.6680 
   87.6250     2.2250    83.5310     7.7220     5.9390     5.3230    25.0950   -22.9110 
   87.7500     2.2190    85.0850     7.6640     5.8780     5.1520    25.0970   -23.1780 
   87.8750     2.2140    84.0440     7.7030     5.8930     5.4230    25.0690   -23.4270 
   88.0000     2.2140    82.6830     7.8370     5.9720     5.9790    25.0420   -23.6330 
   88.1250     2.2190    83.3640     8.0240     6.0870     5.9710    25.0240   -23.8220 
   88.2500     2.2270    83.0980     8.1750     6.1840     5.8160    25.0200   -23.9960 
   88.3750     2.2350    82.7040     8.2240     6.2220     5.7270    25.0300   -24.1650 
   88.5000     2.2390    86.4210     8.1290     6.1730     5.7340    25.0370   -24.3710 
   88.6250     2.2350    89.5400     7.8990     6.0310     5.7440    25.0370   -24.6090 
   88.7500     2.2270    87.5690     7.6680     5.8660     5.7300    25.0360   -24.8630 
   88.8750     2.2150    85.0820     7.5560     5.7510     5.6990    25.0210   -25.1480 
   89.0000     2.2030    87.5180     7.6470     5.7430     5.6380    24.9680   -25.4580 
   89.1250     2.1910    88.1040     7.9850     5.8790     5.9890    24.8260   -25.7920 
   89.2500     2.1730    81.3290     8.4430     6.1000     7.0990    24.5540   -26.1570 
   89.3750     2.1430    72.3560     8.8690     6.3280     8.5890    24.2900   -26.5260 
   89.5000     2.1110    66.8270     9.1220     6.4830     8.0750    24.2060   -26.8740 
   89.6250     2.0920    64.9250     9.1380     6.5230     7.7770    24.2790   -27.1410 
   89.7500     2.0800    63.9450     9.0410     6.5050     7.8740    24.3410   -27.2980 
   89.8750     2.0700    63.7990     8.9380     6.4800     8.1030    24.3780   -27.3040 
   90.0000     2.0640    65.1890     8.9060     6.4910     8.1990    24.4110   -27.1790 
   90.1250     2.0700    65.2230     8.9680     6.5540     8.0950    24.4640   -26.9190 
   90.2500     2.0830    62.3110     9.0400     6.6220     7.9280    24.5120   -26.5810 
   90.3750     2.0990    59.1880     9.0290     6.6460     7.6700    24.5500   -26.1920 
   90.5000     2.1160    59.1260     8.8760     6.5890     7.7560    24.6110   -25.7630 
   90.6250     2.1350    62.8970     8.5590     6.4310     8.1630    24.6880   -25.3300 
   90.7500     2.1610    67.0030     8.1870     6.2230     8.2750    24.7500   -24.9180 
   90.8750     2.1860    69.6640     7.8750     6.0240     7.4150    24.8030   -24.5700 
   91.0000     2.1970    72.4350     7.7270     5.8970     6.0520    24.8470   -24.3220 
   91.1250     2.1930    76.1630     7.8180     5.9010     5.8030    24.8800   -24.2020 
   91.2500     2.1910    77.7530     8.0680     6.0150     6.2380    24.8830   -24.1240 
   91.3750     2.2010    75.2210     8.3670     6.1920     6.8000    24.8570   -24.0650 
   91.5000     2.2220    70.9990     8.5760     6.3530     6.9700    24.8160   -24.0290 
   91.6250     2.2480    69.6740     8.5450     6.3900     6.8700    24.8140   -24.0220 
   91.7500     2.2670    71.5170     8.3030     6.2910     6.6980    24.8770   -24.0750 
   91.8750     2.2730    75.5110     7.9590     6.0950     6.1290    24.9620   -24.2200 
   92.0000     2.2670    80.5320     7.6520     5.8780     5.4910    25.0230   -24.4200 
   92.1250     2.2540    83.7120     7.4950     5.7160     5.3080    25.0420   -24.6250 
   92.2500     2.2430    82.9820     7.4800     5.6320     5.4150    25.0460   -24.8750 
   92.3750     2.2400    79.7900     7.5710     5.6350     5.5680    25.0430   -25.1890 
   92.5000     2.2460    76.8230     7.7280     5.7200     5.6970    25.0320   -25.5680 
   92.6250     2.2530    76.3600     7.9310     5.8800     5.7800    25.0080   -26.0040 
   92.7500     2.2470    75.7380     8.1620     6.0770     5.8560    24.9990   -26.4250 
   92.8750     2.2330    73.3680     8.4040     6.2810     5.9840    25.0140   -26.7780 
   93.0000     2.2200    72.3810     8.6010     6.4560     6.4300    25.0060   -27.0570 
   93.1250     2.2180    75.0030     8.6760     6.5630     6.7370    24.9420   -27.2860 
   93.2500     2.2200    77.3370     8.6840     6.6240     6.9620    24.8590   -27.5150 
   93.3750     2.2220    76.0430     8.7360     6.6940     7.1370    24.8160   -27.7300 
   93.5000     2.2190    74.2060     8.9520     6.8420     7.1540    24.7950   -27.9110 
   93.6250     2.2120    77.3530     9.3990     7.1270     7.5010    24.8150   -28.0640 
   93.7500     2.1980    80.4530     9.9320     7.4950     8.0820    24.8420   -28.2230 
   93.8750     2.1830    78.7710    10.3620     7.8330     9.1740    24.8980   -28.3810 
   94.0000     2.1790    73.2030    10.4960     7.9980    10.0310    24.9780   -28.5400 
   94.1250     2.1980    68.7390    10.1780     7.8340     9.8540    25.0430   -28.7080 
   94.2500     2.2250    67.9630     9.5620     7.4130     8.7700    25.1110   -28.8360 
   94.3750     2.2460    70.3830     8.8120     6.8470     7.3300    25.2010   -28.9460 
   94.5000     2.2550    73.9830     8.1040     6.2740     6.2250    25.2870   -29.0040 
   94.6250     2.2580    75.1950     7.6560     5.8620     5.8760    25.2920   -28.9860 
   94.7500     2.2550    74.4070     7.6110     5.7120     5.9290    25.1800   -28.9640 
   94.8750     2.2450    72.1280     8.0990     5.9140     6.3780    24.9380   -28.9840 
