~V
VERS. 2.00: Ver 2.00
~W
STRT.M 50.0000:
STOP.M 257.0000:
STEP.M 0.1250:
NULL. -999.2500:
UWI. F11021:
~C
DEPT.M :
GR.API :
RML.OHMM :
RI. :
RXO.OHMM :
CALI.CM :
SP.MV :
DEN.GM/CC :
~A
# ...
  218.7500    71.4290    79.3190    74.1510    52.7860    25.2170    -5.0850     2.2280 
  218.8750    72.6880    73.3920    68.6070    41.3430    25.1060    -4.9900     2.2750 
  219.0000    72.5520    73.0150    68.2550    53.8360    24.9900    -4.8800     2.3030 
  219.1250    70.5230    78.5510    73.4320    83.4790    24.9830    -4.8320     2.3050 
  219.2500    68.0790    87.6860    81.9770   104.4840    25.0210    -4.9350     2.2950 
  219.3750    66.2690    97.6870    91.3300   100.2370    25.0490    -5.1950     2.2840 
  219.5000    65.2690   104.5850    97.7820    84.9700    25.0510    -5.4170     2.2740 
  219.6250    65.1450   103.3590    96.6360   124.7610    25.0510    -5.4340     2.2620 
  219.7500    66.2370    94.7950    88.6250   148.1380    25.0630    -5.3750     2.2490 
  219.8750    68.7210    82.0520    76.7060   129.8770    25.0940    -5.3750     2.2430 
  220.0000    71.9980    69.4350    64.9060   102.4020    25.0460    -5.4480     2.2500 
  220.1250    74.9670    61.0750    57.0870    68.9070    24.9360    -5.5810     2.2660 
  220.2500    76.7280    57.6280    53.8630    56.9760    24.9600    -5.7130     2.2760 
  220.3750    76.7940    58.8000    54.9590    60.6290    25.0900    -5.7960     2.2710 
  220.5000    75.3350    63.6210    59.4690    65.8580    25.1740    -5.8320     2.2520 
  220.6250    73.3150    70.6980    66.0880    69.1430    25.1830    -5.9190     2.2320 
  220.7500    71.9930    77.7360    72.6700    73.3120    25.1780    -6.0550     2.2190 
  220.8750    71.6860    83.4610    78.0250    75.8420    25.1790    -6.2090     2.2140 
  221.0000    71.9420    87.5470    81.8460    74.3270    25.1760    -6.3570     2.2150 
  221.1250    72.1830    90.5060    84.6140    72.6560    25.1520    -6.4410     2.2200 
  221.2500    72.6500    93.4470    87.3640    75.6160    25.0950    -6.4490     2.2270 
  221.3750    73.6320    96.8570    90.5540    81.1040    24.9910    -6.4570     2.2370 
  221.5000    74.3380   100.6670    94.1170    79.1650    24.7860    -6.5160     2.2470 
  221.6250    73.0540   103.7570    97.0080    76.9300    24.4540    -6.5830     2.2490 
  221.7500    70.2520   104.3850    97.5950    79.8460    24.3330    -6.5860     2.2420 
  221.8750    67.7480   100.9990    94.4280    96.3630    24.5720    -6.5070     2.2260 
  222.0000    67.4270    93.2250    87.1570   163.9200    24.8920    -6.3630     2.2090 
  222.1250    69.9440    82.3490    76.9850   151.7140    24.9830    -6.1910     2.2030 
  222.2500    72.9770    71.8570    67.1710    81.9840    24.9350    -6.0280     2.2110 
  222.3750    74.4770    64.1620    59.9740    46.7710    24.9360    -5.8550     2.2300 
  222.5000    73.7810    60.6660    56.6950    38.0780    24.9600    -5.6920     2.2510 
  222.6250    71.5200    62.3260    58.2980    41.1270    24.9680    -5.5070     2.2640 
  222.7500    68.6820    67.8250    63.3200    53.3910    24.9830    -5.3290     2.2660 
  222.8750    65.8500    75.8280    70.1670    78.4770    25.0220    -5.1960     2.2600 
  223.0000    64.3040    83.8310    76.6140   105.3490    25.0680    -5.1550     2.2510 
  223.1250    65.5060    88.3140    80.0300   115.7090    25.0810    -5.2160     2.2470 
  223.2500    67.8300    88.9950    80.2960    99.0990    25.0800    -5.2620     2.2520 
  223.3750    69.2730    87.4730    78.5070    77.8990    25.0460    -5.2570     2.2670 
  223.5000    69.4960    85.5920    76.1560    70.3740    24.9700    -5.2280     2.2930 
  223.6250    69.9660    83.8730    74.0320    68.5560    24.8000    -5.2270     2.3300 
  223.7500    70.8540    81.5510    71.6720    65.5570    24.7600    -5.2620     2.3680 
  223.8750    71.0780    77.9730    68.4900    62.3510    24.8070    -5.3060     2.3970 
  224.0000    70.7420    73.4290    64.5590    66.4780    24.8060    -5.2710     2.4090 
  224.1250    71.4950    69.5460    61.0520    68.2690    24.7250    -5.0970     2.4100 
  224.2500    73.0440    67.9720    59.3930    52.2710    24.7360    -4.8500     2.4180 
  224.3750    73.5760    69.3180    60.3530    43.7600    24.7510    -4.5750     2.4440 
  224.5000    72.0300    72.5010    63.3620    58.0050    24.6640    -4.3250     2.4780 
  224.6250    69.3050    73.4760    65.1920   106.3650    24.6310    -4.0990     2.4990 
  224.7500    67.8100    68.3100    61.9330   116.4750    24.7140    -3.8180     2.4960 
  224.8750    69.0720    56.1510    52.2400    74.0920    24.7980    -3.4190     2.4750 
  225.0000    72.7230    40.0600    38.4430    39.8000    24.8010    -2.9090     2.4490 
  225.1250    75.5760    25.6410    25.4890    24.3260    24.7080    -2.3320     2.4290 
  225.2500    75.0220    15.7100    16.2630    12.4220    24.6330    -1.7340     2.4110 
  225.3750    71.3300    10.0460    10.7470     6.9470    24.5880    -1.1590     2.3920 
  225.5000    66.1990     7.2980     7.8370     5.5880    24.5310    -0.6810     2.3740 
  225.6250    60.9800     6.3640     6.6380     5.8370    24.4530    -0.3500     2.3670 
  225.7500    56.8240     6.1900     6.2460     5.9990    24.4860    -0.2480     2.3720 
  225.8750    55.2360     6.4120     6.3500     5.9610    24.6310    -0.5580     2.3880 
  226.0000    56.7010     6.7900     6.7250     5.9520    24.8100    -1.2240     2.4050 
  226.1250    58.9810     7.1090     7.1530     6.0740    24.7930    -1.8190     2.4150 
  226.2500    59.1690     7.2280     7.4380     6.2280    24.6190    -2.0820     2.4130 
  226.3750    57.4160     7.0840     7.4670     6.1970    24.4260    -2.1570     2.3960 
  226.5000    55.6210     6.6800     7.2020     6.0440    24.2390    -2.0910     2.3710 
  226.6250    55.3570     6.0890     6.6710     5.6410    24.1030    -1.9140     2.3420 
  226.7500    56.8070     5.5040     6.0630     5.2140    24.0040    -1.6940     2.3160 
  226.8750    60.5710     5.0790     5.5350     4.7510    23.9530    -1.3510     2.2940 
  227.0000    66.6570     4.9270     5.2150     4.7830    23.9470    -1.0530     2.2750 
  227.1250    73.1270     5.1570     5.2260     5.4720    23.9430    -1.2720     2.2630 
  227.2500    77.7080     5.6900     5.5270     6.5750    23.9210    -2.0600     2.2650 
  227.3750    80.1290     6.4310     6.0530     7.1990    23.9230    -3.1330     2.2830 
  227.5000    81.0570     7.2190     6.6870     7.3490    23.9030    -4.2390     2.3150 
  227.6250    81.1920     7.8370     7.2460     7.6330    23.9020    -5.3150     2.3480 
  227.7500    81.9010     8.1950     7.6080     7.4360    24.0160    -6.2690     2.3720 
  227.8750    84.2120     8.3160     7.7490     7.4530    24.2180    -7.1040     2.3870 
  228.0000    87.7430     8.3000     7.7280     7.6660    24.4190    -7.6880     2.3970 
  228.1250    90.9500     8.2660     7.6340     7.9350    24.7170    -8.0100     2.4050 
  228.2500    93.9080     8.2810     7.5530     8.1550    24.8700    -8.1880     2.4100 
  228.3750    97.7000     8.3500     7.5070     8.3900    24.8910    -8.2480     2.4070 
  228.5000   102.1800     8.4530     7.4920     8.4490    24.8500    -8.3230     2.3950 
  228.6250   105.8170     8.5770     7.4970     8.3780    24.7670    -8.4330     2.3810 
  228.7500   108.4310     8.7270     7.5180     8.3800    24.6970    -8.5550     2.3720 
  228.8750   110.7070     8.9540     7.5830     8.4730    24.6320    -8.6900     2.3730 
  229.0000   113.2420     9.3390     7.7490     8.3580    24.5610    -8.8420     2.3830 
  229.1250   117.1170    10.0430     8.1380     8.3170    24.4340    -9.0320     2.3980 
  229.2500   121.7020    11.1200     8.8040     8.7220    24.2050    -9.3720     2.4110 
  229.3750   123.0890    12.6050     9.7990    10.1080    23.8950    -9.8780     2.4180 
  229.5000   116.7750    14.4600    11.1360    12.9330    23.7260   -10.4960     2.4190 
  229.6250   103.7740    16.5610    12.7850    15.5170    23.8240   -11.1360     2.4160 
  229.7500    93.1390    18.6350    14.5350    17.0280    24.0780   -11.7070     2.4120 
  229.8750    88.9230    20.4690    16.1960    19.3150    24.4000   -12.1720     2.4070 
