~V
VERS. 2.00: Ver 2.00
~W
STRT.M 55.0000:
STOP.M 280.0000:
STEP.M 0.1250:
NULL. -999.2500:
UWI. F11032:
~C
DEPT.M :
DEN.GM/CC :
GR.API :
RML.OHMM :
RI. :
RXO.OHMM :
CALI.CM :
SP.MV :
~A
# ...
  223.7500     2.1710    64.6830    80.9460    75.3910    72.7550    24.3960   -21.7960 
  223.8750     2.1680    60.8610    79.9340    73.6660    67.6380    24.3860   -21.8510 
  224.0000     2.1650    58.3270    80.2010    72.9960    63.2580    24.3300   -21.9230 
  224.1250     2.1660    58.7610    82.1060    73.7350    61.4350    24.2680   -21.9380 
  224.2500     2.1690    60.4050    85.5270    75.8410    62.2390    24.2570   -21.9370 
  224.3750     2.1720    60.5590    90.6500    79.5040    66.5590    24.2550   -21.9640 
  224.5000     2.1750    57.2880    97.6940    84.9400    75.3450    24.2550   -21.9820 
  224.6250     2.1770    51.9240   106.9690    92.5300    80.9530    24.2550   -22.0030 
  224.7500     2.1770    50.3550   117.5240   101.5630    83.5690    24.2640   -22.0180 
  224.8750     2.1740    53.1220   127.9860   111.0270    93.2510    24.3300   -22.0000 
  225.0000     2.1670    56.3350   136.5170   119.4170   123.0450    24.6850   -21.9430 
  225.1250     2.1510    57.4860   141.5260   125.0510   125.2120    25.2470   -21.8040 
  225.2500     2.1300    57.5170   144.7110   128.8230   116.3570    25.3210   -21.5950 
  225.3750     2.1060    57.9770   147.9180   132.4390   109.9390    24.8750   -21.3350 
  225.5000     2.0880    58.7110   150.3480   136.0620   107.6060    24.3380   -21.0080 
  225.6250     2.0940    58.6800   143.0750   133.1260   112.7300    24.1200   -20.6710 
  225.7500     2.1400    57.1520   119.3190   115.8640   130.7250    23.9070   -20.3320 
  225.8750     2.2300    53.4250    83.8220    84.9590   151.7290    23.7500   -19.9560 
  226.0000     2.3520    50.1790    50.2860    52.2830   116.8500    23.6980   -19.5650 
  226.1250     2.4690    49.4540    29.0030    30.1860    45.7140    23.6730   -19.2680 
  226.2500     2.5360    49.2320    17.0770    17.6090    17.3300    23.6350   -19.0090 
  226.3750     2.5350    48.4470    11.0950    11.2050     8.6140    23.6480   -18.7850 
  226.5000     2.4870    47.6490     8.4090     8.1430     6.5990    23.7480   -18.6720 
  226.6250     2.4270    49.6040     7.5940     6.9490     6.3480    23.8410   -18.6130 
  226.7500     2.3810    52.8710     7.5190     6.5950     6.3760    23.8610   -18.5910 
  226.8750     2.3540    56.0560     7.7640     6.7250     6.6050    23.8790   -18.6470 
  227.0000     2.3420    56.6100     8.0630     7.0760     6.8430    23.9800   -18.8040 
  227.1250     2.3410    52.2040     8.2890     7.4720     7.0800    23.9970   -19.0080 
  227.2500     2.3460    46.3140     8.4840     7.8450     7.3020    23.9990   -19.2760 
  227.3750     2.3540    43.1260     8.6870     8.2000     7.4330    23.9840   -19.6080 
  227.5000     2.3620    43.9960     8.8790     8.5260     7.5630    23.8810   -19.9130 
  227.6250     2.3670    44.2510     8.9390     8.7290     7.9940    23.8610   -20.1270 
  227.7500     2.3680    43.2440     8.7770     8.6970     8.4060    23.8730   -20.2810 
  227.8750     2.3630    44.1600     8.3690     8.3570     8.1210    23.9220   -20.3980 
  228.0000     2.3510    48.3220     7.7920     7.7630     7.2230    23.9110   -20.4540 
  228.1250     2.3310    55.4000     7.2210     7.0840     6.1620    23.7730   -20.5040 
  228.2500     2.3100    64.4730     6.8010     6.5110     5.3130    23.5800   -20.6240 
  228.3750     2.2920    74.5050     6.5750     6.1200     5.1150    23.2620   -20.7620 
  228.5000     2.2850    80.7850     6.4980     5.9040     5.4040    23.2650   -20.9280 
  228.6250     2.2930    76.3900     6.4730     5.8010     5.7220    23.5410   -21.2080 
  228.7500     2.3080    65.7670     6.4100     5.7110     5.7310    23.8950   -21.5070 
  228.8750     2.3230    58.2150     6.3160     5.6040     5.8100    24.4320   -21.8010 
  229.0000     2.3300    58.4850     6.2610     5.5100     5.8690    24.7430   -22.1710 
  229.1250     2.3260    63.7350     6.3700     5.5310     5.5850    24.8170   -22.5590 
  229.2500     2.3190    68.5390     6.6770     5.7230     5.4770    24.8760   -22.8750 
  229.3750     2.3150    71.4660     7.1650     6.0970     6.0430    24.9070   -23.1630 
  229.5000     2.3200    72.1700     7.7530     6.6000     7.1070    24.9470   -23.4020 
  229.6250     2.3370    69.6700     8.2900     7.1120     7.6910    24.9510   -23.4970 
  229.7500     2.3570    67.9720     8.6570     7.5040     7.8320    24.9640   -23.5680 
  229.8750     2.3730    69.7860     8.8170     7.7160     7.7660    25.0070   -23.6490 
  230.0000     2.3800    73.9620     8.8250     7.7640     7.7200    25.0080   -23.6740 
  230.1250     2.3760    80.5770     8.7920     7.7170     7.8500    24.9420   -23.6750 
  230.2500     2.3670    90.0780     8.8090     7.6720     8.0070    24.8160   -23.6940 
  230.3750     2.3580   100.7300     8.8800     7.6530     8.0950    24.7950   -23.7230 
  230.5000     2.3500   108.0610     8.9570     7.6340     8.0880    24.7770   -23.7880 
  230.6250     2.3450   108.1710     8.9770     7.5540     8.0990    24.6840   -23.9610 
  230.7500     2.3420   104.6470     8.9440     7.4110     8.1720    24.4890   -24.2170 
  230.8750     2.3410   101.6940     8.9390     7.2740     8.4290    24.4080   -24.4910 
  231.0000     2.3420   102.7070     9.1140     7.2600     8.6580    24.3870   -24.6890 
  231.1250     2.3430   107.3940     9.7740     7.5640     8.5580    24.3400   -24.8170 
  231.2500     2.3410   107.1840    11.1120     8.3040     9.4130    24.3340   -24.9410 
  231.3750     2.3370    98.3000    13.3260     9.6300    11.7100    24.3420   -25.0520 
  231.5000     2.3320    86.2920    16.5070    11.6750    15.4940    24.3850   -25.1820 
  231.6250     2.3260    77.7390    20.5970    14.5790    19.1190    24.5930   -25.3690 
  231.7500     2.3210    71.5820    24.8680    17.9450    23.4780    24.7210   -25.5250 
  231.8750     2.3170    66.9460    28.5150    21.2010    27.7850    24.8300   -25.6500 
  232.0000     2.3120    66.0810    30.8520    23.6760    30.4890    24.8730   -25.8450 
  232.1250     2.3050    70.7120    31.5540    24.8330    31.2580    24.8800   -26.0750 
  232.2500     2.2950    74.6390    31.4540    25.1180    29.9300    24.8800   -26.2220 
  232.3750     2.2830    73.1470    31.2330    25.0290    28.8860    24.8800   -26.3100 
  232.5000     2.2700    66.4700    31.3900    25.0270    28.1350    24.8800   -26.3490 
  232.6250     2.2590    62.3940    32.2720    25.5010    28.3850    24.8800   -26.2490 
  232.7500     2.2500    64.8970    33.7160    26.4520    29.2280    24.8800   -26.0950 
  232.8750     2.2450    67.7920    35.4650    27.7420    30.8050    24.8800   -25.9360 
  233.0000     2.2430    66.4460    37.1950    29.1470    32.2560    24.8800   -25.7180 
  233.1250     2.2440    65.2490    38.5670    30.4250    34.1770    24.8800   -25.4360 
  233.2500     2.2450    66.4580    39.5580    31.4850    36.1200    24.8800   -25.1680 
  233.3750     2.2460    66.1850    40.3170    32.3620    36.7260    24.8800   -24.8870 
  233.5000     2.2470    62.9380    41.0890    33.1940    34.7860    24.8800   -24.5630 
  233.6250     2.2480    61.1090    42.0710    34.1420    34.5090    24.8800   -24.3090 
  233.7500     2.2510    61.1370    43.1390    35.1630    36.5760    24.8800   -24.1280 
  233.8750     2.2520    61.1390    44.0340    36.0840    39.0460    24.8740   -23.9570 
  234.0000     2.2510    60.6950    44.4900    36.6920    40.7790    24.8540   -23.8100 
  234.1250     2.2460    60.0050    44.3220    36.7940    41.2450    24.7370   -23.7670 
  234.2500     2.2400    59.8320    43.8700    36.5930    39.7680    24.7140   -23.7450 
  234.3750     2.2340    61.6700    43.5800    36.4020    38.2780    24.7060   -23.7640 
  234.5000     2.2300    65.9450    43.8880    36.5700    38.0230    24.7050   -23.8440 
  234.6250     2.2290    68.1950    45.2240    37.4930    38.1900    24.7050   -23.9350 
  234.7500     2.2320    65.9730    47.4560    39.1810    38.6920    24.7050   -24.0420 
  234.8750     2.2380    63.2820    50.3630    41.5480    40.2940    24.7050   -24.1760 
