~V
VERS. 2.00: Ver 2.00
~W
STRT.M 55.0000:
STOP.M 281.0000:
STEP.M 0.1250:
NULL. -999.2500:
UWI. F11051:
~C
DEPT.M :
SP.MV :
GR.API :
RML.OHMM :
RI. :
RXO.OHMM :
CALI.CM :
DEN.GM/CC :
~A
# ...
  145.0000   -14.6530    48.5390    19.6710    15.8670    15.4590    24.2420     2.4720 
  145.1250   -14.6270    47.1860    19.4200    15.6830    14.8750    24.1840     2.4770 
  145.2500   -14.6060    44.3420    19.3350    15.6480    15.0030    24.2130     2.4810 
  145.3750   -14.5990    43.3290    19.3800    15.6930    15.4460    24.2120     2.4850 
  145.5000   -14.6070    45.4510    19.4700    15.7450    16.1150    24.1350     2.4890 
  145.6250   -14.6500    47.4790    19.5220    15.7430    17.1330    24.0700     2.4900 
  145.7500   -14.7000    47.0440    19.5480    15.6930    17.1710    24.0550     2.4890 
  145.8750   -14.7670    46.0290    19.5750    15.6250    16.8280    24.0690     2.4880 
  146.0000   -14.8470    46.4210    19.5960    15.5630    16.1040    24.0970     2.4900 
  146.1250   -14.9110    47.8530    19.5510    15.5000    16.0800    24.1120     2.4950 
  146.2500   -14.9920    50.2650    19.3770    15.3820    16.4360    24.1260     2.5020 
  146.3750   -15.0410    53.3300    19.0200    15.1470    16.6820    24.1590     2.5080 
  146.5000   -15.0940    56.6120    18.4670    14.7600    15.7960    24.1690     2.5100 
  146.6250   -15.1220    58.1130    17.7790    14.2270    15.4170    24.1090     2.5030 
  146.7500   -15.1320    57.5110    17.0980    13.6530    14.6200    23.9790     2.4880 
  146.8750   -15.1370    56.1810    16.5130    13.1180    13.6480    23.8660     2.4710 
  147.0000   -15.1210    56.3600    16.0420    12.6760    12.8770    23.9200     2.4630 
  147.1250   -15.1380    57.8570    15.6380    12.3380    13.1450    24.0370     2.4760 
  147.2500   -15.1490    58.9610    15.2230    12.0310    14.1530    24.0920     2.4990 
  147.3750   -15.1790    58.1280    14.7750    11.6950    14.5360    24.0750     2.5140 
  147.5000   -15.2080    55.8100    14.3140    11.3080    13.1490    24.0260     2.5090 
  147.6250   -15.2470    53.9810    13.8970    10.9070    12.2190    24.0170     2.4820 
  147.7500   -15.3040    54.5590    13.5840    10.5840    11.5040    24.0590     2.4520 
  147.8750   -15.3610    57.0460    13.4570    10.4260    11.0650    24.0740     2.4300 
  148.0000   -15.4300    59.5740    13.5940    10.4920    11.2750    24.0480     2.4190 
  148.1250   -15.4920    61.8600    14.0480    10.8030    12.5600    23.9690     2.4150 
  148.2500   -15.5480    62.9790    14.5970    11.2050    13.8810    23.9370     2.4150 
  148.3750   -15.6030    62.5140    14.9240    11.5000    13.7840    23.9290     2.4180 
  148.5000   -15.6340    61.7780    14.6960    11.4490    13.6780    23.9130     2.4220 
  148.6250   -15.6700    63.0460    13.6200    10.7920    12.9110    23.8330     2.4230 
  148.7500   -15.6630    65.6230    11.9910     9.6840    11.3470    23.7030     2.4170 
  148.8750   -15.6380    68.1320    10.1730     8.3580     9.1280    23.5120     2.4070 
  149.0000   -15.5880    70.8560     8.5160     7.0640     7.0570    23.3320     2.4010 
  149.1250   -15.4850    73.9690     7.2930     6.0140     5.7050    23.3840     2.4020 
  149.2500   -15.3630    79.0600     6.4640     5.2310     5.2750    23.6320     2.3980 
  149.3750   -15.2000    84.7570     5.9580     4.7000     5.0740    23.9060     2.3770 
  149.5000   -15.0470    87.6580     5.6660     4.3760     4.6790    24.1120     2.3420 
  149.6250   -14.8750    85.8340     5.5000     4.2270     4.3450    24.1830     2.3020 
  149.7500   -14.7250    83.7140     5.3940     4.1740     4.1570    24.1950     2.2680 
  149.8750   -14.6060    82.5950     5.3610     4.1820     4.1360    24.1950     2.2530 
  150.0000   -14.4940    80.8370     5.4160     4.2220     4.2610    24.2040     2.2540 
  150.1250   -14.4320    80.6450     5.5320     4.2720     4.4950    24.2210     2.2650 
  150.2500   -14.3910    84.2080     5.6110     4.3050     4.6500    24.2530     2.2780 
  150.3750   -14.3780    87.9060     5.5880     4.3000     4.6580    24.2720     2.2930 
  150.5000   -14.3680    88.1160     5.4640     4.2520     4.5250    24.2720     2.3040 
  150.6250   -14.3520    86.2310     5.3210     4.1620     4.4120    24.2630     2.3050 
  150.7500   -14.3480    87.1430     5.2420     4.0640     4.3290    24.2600     2.3030 
  150.8750   -14.3350    91.2350     5.2530     3.9790     4.2880    24.2760     2.3080 
  151.0000   -14.3340    94.9010     5.3380     3.9290     4.2760    24.2910     2.3180 
  151.1250   -14.3330    96.6330     5.4730     3.9280     4.3260    24.2990     2.3220 
  151.2500   -14.3200    97.1890     5.6320     3.9630     4.4250    24.2990     2.3170 
  151.3750   -14.3110    97.0140     5.8040     4.0210     4.5120    24.2840     2.3030 
  151.5000   -14.2930    94.6620     5.9680     4.0850     4.5790    24.2960     2.2890 
  151.6250   -14.3180    92.6320     6.0690     4.1340     4.6330    24.3470     2.2860 
  151.7500   -14.3280    94.6200     6.0960     4.1560     4.6500    24.4000     2.2980 
  151.8750   -14.3420    96.3960     6.0630     4.1520     4.6540    24.4000     2.3150 
  152.0000   -14.3510    93.9010     5.9950     4.1300     4.7460    24.3670     2.3220 
  152.1250   -14.3540    88.4880     5.8990     4.1010     4.8000    24.3820     2.3080 
  152.2500   -14.3820    87.0190     5.7710     4.0740     4.6700    24.3190     2.2800 
  152.3750   -14.4060    91.0760     5.6230     4.0540     4.5850    24.2850     2.2540 
  152.5000   -14.4570    95.7770     5.4820     4.0430     4.6100    24.2760     2.2420 
  152.6250   -14.4910    97.3540     5.4100     4.0440     4.6590    24.2750     2.2530 
  152.7500   -14.5310    95.1080     5.4450     4.0580     4.6850    24.2790     2.2750 
  152.8750   -14.5620    91.3640     5.5890     4.0840     4.6730    24.3040     2.2940 
  153.0000   -14.5870    87.5900     5.7910     4.1190     4.6760    24.3450     2.3070 
  153.1250   -14.6140    84.4660     5.9580     4.1530     4.7110    24.3380     2.3240 
  153.2500   -14.6100    83.5700     6.0260     4.1720     4.7980    24.3050     2.3470 
  153.3750   -14.6190    84.9820     5.9750     4.1630     4.8940    24.2840     2.3740 
  153.5000   -14.6320    86.2710     5.8250     4.1200     4.9080    24.2910     2.3960 
  153.6250   -14.6210    86.5230     5.6490     4.0400     4.7560    24.3030     2.4010 
  153.7500   -14.6030    85.1280     5.5150     3.9470     4.5590    24.3230     2.3890 
  153.8750   -14.5760    82.8850     5.4380     3.8630     4.4100    24.3370     2.3670 
  154.0000   -14.5670    81.7820     5.4090     3.8100     4.3240    24.3420     2.3450 
  154.1250   -14.5540    82.5570     5.4350     3.8130     4.3090    24.3250     2.3320 
  154.2500   -14.5810    85.3390     5.5060     3.8720     4.3530    24.3240     2.3280 
  154.3750   -14.6030    87.8690     5.6160     3.9760     4.4740    24.3300     2.3290 
  154.5000   -14.6060    88.6920     5.7540     4.0970     4.6520    24.3160     2.3320 
  154.6250   -14.6450    87.5820     5.8870     4.1960     4.7480    24.3170     2.3410 
  154.7500   -14.6780    85.1640     5.9660     4.2420     4.8500    24.3110     2.3550 
  154.8750   -14.7290    84.4500     5.9390     4.2190     4.8180    24.2940     2.3660 
  155.0000   -14.7550    85.9210     5.7480     4.1330     4.5910    24.2830     2.3610 
  155.1250   -14.7920    87.8620     5.3470     4.0020     4.4400    24.2760     2.3380 
  155.2500   -14.8270    88.8270     4.8700     3.8660     4.3200    24.2720     2.3060 
  155.3750   -14.8380    88.0610     4.4510     3.7460     4.1750    24.2740     2.2820 
  155.5000   -14.8550    85.9350     4.2000     3.6520     4.0560    24.2770     2.2810 
  155.6250   -14.8740    84.3170     4.1600     3.5890     4.0040    24.2700     2.3120 
  155.7500   -14.8930    84.3370     4.2210     3.5430     3.9750    24.2710     2.3530 
  155.8750   -14.9210    84.4850     4.2940     3.5100     3.9360    24.3230     2.3820 
  156.0000   -14.9610    82.7900     4.3460     3.4960     3.8470    24.4380     2.3900 
  156.1250   -15.0030    80.6990     4.4210     3.5210     3.7650    24.4360     2.3800 
