~V
VERS. 2.00: Ver 2.00
~W
STRT.M 55.0000:
STOP.M 249.0000:
STEP.M 0.1250:
NULL. -999.2500:
UWI. F11017:
~C
DEPT.M :
GR.API :
RML.OHMM :
RI. :
RXO.OHMM :
CALI.CM :
DEN.GM/CC :
SP.MV :
~A
# ...
   66.2500    57.0890     7.9560     6.8540     8.0980    24.5120     2.1690   -30.8020 
   66.3750    59.0170     8.0380     6.8290     7.9730    24.4570     2.1580   -30.6780 
   66.5000    60.6750     8.1270     6.8350     7.8780    24.3940     2.1520   -30.5540 
   66.6250    62.9060     8.1960     6.8530     7.8430    24.2750     2.1480   -30.4210 
   66.7500    64.6280     8.2330     6.8640     7.9800    24.1100     2.1460   -30.2680 
   66.8750    62.8730     8.2440     6.8680     8.1480    23.9240     2.1430   -30.0930 
   67.0000    58.5600     8.2530     6.8710     8.2740    23.7210     2.1400   -29.9190 
   67.1250    56.3380     8.2920     6.8920     8.3480    23.6050     2.1410   -29.7510 
   67.2500    57.7700     8.3600     6.9270     8.4480    23.5750     2.1510   -29.5660 
   67.3750    59.7140     8.4320     6.9590     8.5840    23.5780     2.1740   -29.3550 
   67.5000    59.6350     8.4680     6.9610     8.6270    23.5920     2.2070   -29.1170 
   67.6250    57.6540     8.4250     6.9030     8.4840    23.6100     2.2390   -28.8670 
   67.7500    55.4620     8.3210     6.7950     8.4060    23.5940     2.2550   -28.6220 
   67.8750    55.4050     8.1970     6.6600     8.4420    23.5530     2.2490   -28.3800 
   68.0000    58.4600     8.1020     6.5330     8.3820    23.5020     2.2290   -28.1230 
   68.1250    62.1280     8.0710     6.4500     8.5400    23.4190     2.2110   -27.8540 
   68.2500    61.8130     8.0840     6.4150     8.8600    23.3080     2.2040   -27.5850 
   68.3750    59.4570     8.1140     6.4180     9.0890    23.2320     2.2070   -27.3070 
   68.5000    59.4820     8.1400     6.4430     8.9550    23.2260     2.2110   -27.0170 
   68.6250    62.4140     8.1500     6.4700     8.6740    23.3040     2.2050   -26.6970 
   68.7500    63.8740     8.1470     6.4890     8.3200    23.4490     2.1890   -26.3680 
   68.8750    63.0400     8.1320     6.5000     7.9240    23.6180     2.1660   -26.0650 
   69.0000    61.9510     8.1030     6.5040     7.7460    23.7170     2.1420   -25.8180 
   69.1250    61.9220     8.0600     6.4980     7.9600    23.6400     2.1290   -25.6420 
   69.2500    63.0600     8.0240     6.4890     8.0370    23.4460     2.1300   -25.5220 
   69.3750    64.1260     8.0200     6.4840     7.9360    23.2000     2.1430   -25.4680 
   69.5000    64.3270     8.0720     6.4970     7.7930    22.9270     2.1650   -25.4830 
   69.6250    66.2640     8.2000     6.5500     7.7370    22.7060     2.1830   -25.5850 
   69.7500    69.7710     8.3790     6.6440     7.8580    22.6300     2.1910   -25.7490 
   69.8750    71.0160     8.5770     6.7690     8.0810    22.7600     2.1860   -25.9600 
   70.0000    66.5770     8.7510     6.9030     8.3100    23.0420     2.1740   -26.1960 
   70.1250    61.0820     8.8430     7.0030     8.4010    23.2510     2.1600   -26.4260 
   70.2500    59.6340     8.8390     7.0440     8.3950    23.2150     2.1530   -26.6310 
   70.3750    59.8840     8.7550     7.0240     8.2690    23.0190     2.1530   -26.7820 
   70.5000    60.6420     8.6470     6.9690     8.2080    22.9410     2.1590   -26.8700 
   70.6250    61.7120     8.6110     6.9390     8.1810    23.0400     2.1670   -26.8900 
   70.7500    61.0780     8.6920     6.9750     8.2190    23.1410     2.1750   -26.8630 
   70.8750    58.3970     8.8770     7.0820     8.2730    23.1790     2.1840   -26.7870 
   71.0000    56.0030     9.0970     7.2280     8.3960    23.1330     2.1930   -26.6580 
   71.1250    57.3750     9.2360     7.3430     8.7130    23.0860     2.2010   -26.4730 
   71.2500    58.9450     9.2290     7.3720     9.1480    23.0830     2.2060   -26.2720 
   71.3750    60.2370     9.0660     7.2980     9.2620    23.1690     2.2090   -26.0870 
   71.5000    62.5830     8.7960     7.1380     8.7740    23.2770     2.2070   -25.9390 
   71.6250    63.4770     8.5010     6.9400     8.2590    23.2880     2.2020   -25.8390 
   71.7500    60.8780     8.2650     6.7630     8.0640    23.1420     2.1940   -25.7500 
   71.8750    57.0240     8.1230     6.6370     8.3020    22.9300     2.1840   -25.6480 
   72.0000    55.5050     8.0690     6.5680     8.5360    22.7960     2.1740   -25.5180 
   72.1250    55.7560     8.0680     6.5470     8.7040    22.8020     2.1670   -25.3460 
   72.2500    56.1760     8.0670     6.5420     8.8430    22.9070     2.1650   -25.1360 
   72.3750    58.4460     8.0480     6.5370     8.9030    23.0520     2.1700   -24.8910 
   72.5000    61.6900     8.0160     6.5270     8.8620    23.2160     2.1790   -24.6110 
   72.6250    62.0290     7.9860     6.5160     8.6110    23.4480     2.1900   -24.2790 
   72.7500    61.5690     7.9630     6.5070     8.2860    23.7570     2.1990   -23.9140 
   72.8750    63.1720     7.9350     6.4970     8.0710    24.0850     2.2030   -23.5450 
   73.0000    67.4160     7.8880     6.4790     8.0840    24.3570     2.2000   -23.2010 
   73.1250    72.2030     7.8200     6.4440     8.1990    24.5140     2.1910   -22.9280 
   73.2500    74.4430     7.7550     6.4020     8.3440    24.5980     2.1800   -22.7180 
   73.3750    72.4610     7.7160     6.3650     8.4650    24.6210     2.1730   -22.5630 
   73.5000    67.3070     7.7180     6.3440     8.4560    24.5520     2.1750   -22.4340 
   73.6250    64.3130     7.7590     6.3480     8.4510    24.3750     2.1840   -22.3040 
   73.7500    63.2090     7.8170     6.3710     8.5850    24.2490     2.1910   -22.1410 
   73.8750    60.8210     7.8830     6.4140     8.7710    24.1430     2.1920   -21.9160 
   74.0000    57.3280     7.9580     6.4780     8.7630    23.9730     2.1860   -21.6120 
   74.1250    57.4960     8.0720     6.5770     8.5730    23.7330     2.1810   -21.1710 
   74.2500    60.5010     8.2580     6.7220     8.6610    23.5310     2.1840   -20.5920 
   74.3750    62.0060     8.5350     6.9200     9.0880    23.4060     2.1970   -19.8710 
   74.5000    62.0930     8.8730     7.1560     9.5230    23.4100     2.2240   -19.0300 
   74.6250    65.6300     9.1670     7.3710     9.9050    23.6330     2.2660   -18.1240 
   74.7500    71.9900     9.2940     7.4900    10.3970    23.8500     2.3090   -17.2690 
   74.8750    77.0290     9.1730     7.4600    11.0340    23.9530     2.3420   -16.5270 
   75.0000    79.4760     8.8110     7.2740    10.7430    23.9280     2.3500   -15.9170 
   75.1250    79.7890     8.3290     6.9940     8.5390    23.8170     2.3270   -15.4800 
   75.2500    76.9200     7.9350     6.7540     6.9270    23.7230     2.2930   -15.1800 
   75.3750    72.8550     7.7420     6.6330     6.3150    23.6670     2.2630   -14.9760 
   75.5000    69.6100     7.7510     6.6430     6.2720    23.6070     2.2490   -14.8320 
   75.6250    68.0750     7.8550     6.7210     6.4430    23.5320     2.2550   -14.7010 
   75.7500    67.7890     7.8780     6.7480     6.9340    23.5030     2.2710   -14.5350 
   75.8750    70.9940     7.7350     6.6520     7.2690    23.5120     2.2910   -14.3150 
   76.0000    79.7210     7.4330     6.4220     7.0370    23.5280     2.3090   -14.0560 
   76.1250    88.5500     7.0530     6.1030     6.0200    23.5510     2.3230   -13.7950 
   76.2500    91.2400     6.7080     5.7790     5.1230    23.5510     2.3340   -13.5630 
   76.3750    89.4340     6.4450     5.4910     4.8110    23.4150     2.3440   -13.4030 
   76.5000    86.4540     6.2790     5.2580     4.8480    23.1350     2.3530   -13.3700 
   76.6250    86.2120     6.2470     5.1230     4.9570    23.0120     2.3580   -13.5350 
   76.7500    86.9240     6.3900     5.1200     4.9640    23.1960     2.3600   -13.8670 
   76.8750    86.8190     6.7880     5.3090     5.0370    23.4070     2.3610   -14.3450 
   77.0000    84.7230     7.5010     5.7380     5.3760    23.3900     2.3630   -14.9350 
   77.1250    78.7280     8.5360     6.4410     6.3390    23.1800     2.3610   -15.5820 
   77.2500    71.2490     9.6560     7.2750     7.8580    23.0700     2.3480   -16.2530 
   77.3750    64.1550    10.5970     8.0730    10.1830    23.1780     2.3190   -16.9260 
