~V
VERS. 2.00: Ver 2.00
~W
STRT.M 7.0000:
STOP.M 259.0000:
STEP.M 0.1250:
NULL. -999.2500:
UWI. F11018:
~C
DEPT.M :
DEN.GM/CC :
SP.MV :
GR.API :
RML.OHMM :
RI. :
RXO.OHMM :
CALI.CM :
~A
# ...
  142.0000     2.4740    -4.7740    61.4430    15.6950    15.0930    13.5980    25.0040 
  142.1250     2.4570    -4.6470    59.6270    15.0840    14.4600    12.7840    25.2450 
  142.2500     2.4320    -4.5660    59.6560    14.6430    13.9690    12.7720    25.6110 
  142.3750     2.4090    -4.4840    60.7920    14.3950    13.6480    13.3240    25.9380 
  142.5000     2.4130    -4.4870    59.8520    14.3820    13.5400    13.8960    25.7800 
  142.6250     2.4430    -4.5600    57.8970    14.5580    13.6040    14.1310    25.5240 
  142.7500     2.4750    -4.6420    57.4240    14.9020    13.8110    14.3370    25.4320 
  142.8750     2.4900    -4.7340    57.9490    15.3830    14.1270    15.2180    25.3970 
  143.0000     2.4870    -4.8940    56.8340    15.9470    14.4990    16.3530    25.3180 
  143.1250     2.4860    -5.0540    55.7730    16.4970    14.8530    17.0210    25.2070 
  143.2500     2.4940    -5.2040    55.4830    16.9530    15.1380    17.9670    25.0180 
  143.3750     2.5090    -5.4160    55.3240    17.2770    15.3230    19.6030    24.6400 
  143.5000     2.5220    -5.6160    54.8720    17.4760    15.4090    20.3830    24.1000 
  143.6250     2.5250    -5.7790    55.8700    17.6380    15.4630    19.7370    23.6990 
  143.7500     2.5220    -5.9470    59.5880    17.8250    15.5290    19.1530    23.7280 
  143.8750     2.5220    -6.0870    63.6580    18.0740    15.6410    19.1220    24.1300 
  144.0000     2.5260    -6.1780    64.7480    18.4390    15.8590    19.4670    24.5430 
  144.1250     2.5320    -6.2540    65.3250    18.9340    16.2170    20.1830    24.7000 
  144.2500     2.5380    -6.2840    66.5750    19.5320    16.7210    20.7570    24.7310 
  144.3750     2.5440    -6.2200    66.0410    20.1010    17.2880    21.2830    24.7660 
  144.5000     2.5470    -6.1360    61.5320    20.3070    17.6620    22.3410    24.7590 
  144.6250     2.5400    -6.0550    59.7280    19.9170    17.6020    23.2330    24.7850 
  144.7500     2.5210    -5.9280    63.7420    18.8330    16.9660    23.1710    24.8880 
  144.8750     2.4970    -5.7980    67.9540    17.1280    15.7600    20.6480    25.0860 
  145.0000     2.4790    -5.6790    67.1920    14.9710    14.0590    16.3180    25.3230 
  145.1250     2.4690    -5.5500    65.7510    12.7050    12.1450    13.6260    25.4980 
  145.2500     2.4590    -5.4030    66.4610    10.5460    10.2110    12.6350    25.5620 
  145.3750     2.4390    -5.2900    69.5520     8.6570     8.4270    11.7300    25.5400 
  145.5000     2.3980    -5.2180    74.9830     7.2130     6.9740     9.4610    25.4550 
  145.6250     2.3560    -5.1130    81.8320     6.1820     5.8710     6.9040    25.3550 
  145.7500     2.3310    -5.0260    87.8730     5.5340     5.1170     5.4900    25.1060 
  145.8750     2.3270    -4.9900    91.2840     5.2050     4.6740     5.0690    24.5880 
  146.0000     2.3340    -4.9170    92.8890     5.1240     4.5080     5.1380    23.9970 
  146.1250     2.3350    -4.8280    93.6920     5.1410     4.4840     5.3000    23.8310 
  146.2500     2.3320    -4.8030    93.1980     5.1740     4.5170     5.4230    24.1150 
  146.3750     2.3320    -4.8060    91.3880     5.1800     4.5480     5.4170    24.5880 
  146.5000     2.3430    -4.7800    90.7320     5.1510     4.5470     5.2830    24.8200 
  146.6250     2.3590    -4.8210    92.0640     5.1110     4.5280     5.1990    24.8300 
  146.7500     2.3710    -4.8980    94.8140     5.0680     4.5050     5.2250    24.8000 
  146.8750     2.3760    -4.9330    96.9290     5.0290     4.4840     5.3080    24.7860 
  147.0000     2.3770    -5.0090    96.9890     5.0090     4.4610     5.3960    24.7820 
  147.1250     2.3800    -5.1250    95.5680     5.0130     4.4290     5.4480    24.7640 
  147.2500     2.3830    -5.2000    94.3520     5.0310     4.3840     5.4760    24.7480 
  147.3750     2.3820    -5.2740    94.7070     5.0500     4.3260     5.4790    24.7410 
  147.5000     2.3740    -5.3460    93.7480     5.0580     4.2620     5.4030    24.7410 
  147.6250     2.3620    -5.3320    90.9120     5.0490     4.2050     5.3140    24.7410 
  147.7500     2.3480    -5.2950    89.4630     5.0280     4.1560     5.2400    24.7380 
  147.8750     2.3370    -5.2850    90.9530     5.0010     4.1150     5.2130    24.7340 
  148.0000     2.3270    -5.2270    93.5810     4.9800     4.0850     5.1770    24.7290 
  148.1250     2.3200    -5.1540    93.7160     4.9730     4.0680     5.1580    24.7360 
  148.2500     2.3130    -5.1170    92.2560     4.9890     4.0660     5.1360    24.7400 
  148.3750     2.3080    -5.0590    92.8120     5.0210     4.0770     5.1200    24.7410 
  148.5000     2.3050    -5.0000    96.2630     5.0540     4.0930     5.2070    24.7410 
  148.6250     2.3100    -4.9820    98.3870     5.0770     4.1060     5.3120    24.7410 
  148.7500     2.3240    -4.9820    98.3040     5.0850     4.1120     5.3560    24.7410 
  148.8750     2.3420    -4.9840    98.1460     5.0680     4.1130     5.3240    24.7410 
  149.0000     2.3530    -5.0250   100.3890     5.0060     4.1150     5.3490    24.7330 
  149.1250     2.3530    -5.0940   100.7050     4.9180     4.1210     5.4270    24.7130 
  149.2500     2.3500    -5.1440    98.0770     4.8460     4.1370     5.4810    24.6910 
  149.3750     2.3530    -5.1970    95.3210     4.8430     4.1610     5.4430    24.6810 
  149.5000     2.3630    -5.3100    94.6760     4.9460     4.1920     5.4820    24.6740 
  149.6250     2.3730    -5.4280    95.1800     5.0970     4.2200     5.5570    24.6560 
  149.7500     2.3780    -5.5520    95.8030     5.2320     4.2390     5.6420    24.6200 
  149.8750     2.3770    -5.7150    96.0050     5.3050     4.2430     5.6860    24.5700 
  150.0000     2.3750    -5.8720    94.9350     5.3040     4.2270     5.6490    24.4780 
  150.1250     2.3720    -6.0070    92.4370     5.2730     4.1980     5.5430    24.3690 
  150.2500     2.3660    -6.1750    90.2410     5.2470     4.1720     5.3350    24.1970 
  150.3750     2.3560    -6.3490    89.6020     5.2520     4.1630     5.1190    23.9430 
  150.5000     2.3460    -6.4230    90.5390     5.2970     4.1860     5.0920    23.7590 
  150.6250     2.3380    -6.4820    91.5350     5.3590     4.2280     5.2030    23.7320 
  150.7500     2.3320    -6.5050    92.3610     5.4020     4.2700     5.4830    23.8810 
  150.8750     2.3270    -6.4390    92.7510     5.3920     4.2870     5.8100    24.2130 
  151.0000     2.3270    -6.3580    93.3700     5.3290     4.2670     5.7520    24.5430 
  151.1250     2.3320    -6.3130    92.1740     5.2770     4.2390     5.4680    24.7140 
  151.2500     2.3420    -6.2600    88.7690     5.3040     4.2440     5.3840    24.7530 
  151.3750     2.3510    -6.2120    86.3790     5.4550     4.3220     5.6130    24.7700 
  151.5000     2.3590    -6.2640    89.8690     5.7580     4.5170     6.1100    24.8110 
  151.6250     2.3640    -6.3640    95.3740     6.1290     4.7940     6.6700    24.8410 
  151.7500     2.3620    -6.4740    97.1700     6.4600     5.0890     6.9660    24.8490 
  151.8750     2.3470    -6.6140    94.1770     6.6380     5.3100     6.9860    24.8130 
  152.0000     2.3230    -6.8090    91.3600     6.5770     5.3570     7.0500    24.6910 
  152.1250     2.3050    -6.9580    92.4090     6.3810     5.2680     6.8120    24.5060 
  152.2500     2.3010    -7.0760    95.2950     6.1760     5.1220     6.2720    24.3270 
  152.3750     2.3080    -7.1930    97.8900     6.0590     5.0090     5.7870    24.1560 
  152.5000     2.3150    -7.2710    97.8510     6.0660     4.9880     6.1990    24.0990 
  152.6250     2.3140    -7.2930    95.9590     6.1220     5.0300     6.8820    24.3130 
  152.7500     2.3130    -7.2840    93.9930     6.1610     5.0900     7.2190    24.5650 
  152.8750     2.3190    -7.2770    93.0200     6.1510     5.1360     6.7980    24.6090 
  153.0000     2.3350    -7.2190    95.0840     6.0980     5.1590     6.2020    24.5130 
  153.1250     2.3490    -7.1430    97.1940     6.0400     5.1750     5.7680    24.4250 
