~V
VERS. 2.00: Ver 2.00
~W
STRT.M 47.0000:
STOP.M 270.0000:
STEP.M 0.1250:
NULL. -999.2500:
UWI. F11075:
~C
DEPT.M :
GR.API :
RML.OHMM :
RI. :
RXO.OHMM :
CALI.CM :
DEN.GM/CC :
SP.MV :
~A
# ...
  215.7500    65.0350    78.6420    72.4550    86.4840    25.3300     2.2450   -17.1400 
  215.8750    63.5400    83.0110    76.3330    99.3350    25.4370     2.2320   -17.2530 
  216.0000    62.4050    85.7110    78.7250   106.3760    25.5170     2.2240   -17.3560 
  216.1250    60.9920    85.9680    78.6930   109.0260    25.5250     2.2240   -17.4640 
  216.2500    61.0490    84.3400    76.6650   103.8670    25.5020     2.2290   -17.5800 
  216.3750    62.2690    82.8660    74.6520    93.9210    25.4730     2.2380   -17.6930 
  216.5000    62.1320    83.6790    74.9050    81.6460    25.4670     2.2450   -17.7960 
  216.6250    60.6960    87.7160    78.4680    81.9330    25.4710     2.2510   -17.8990 
  216.7500    59.1480    94.5210    85.0750    95.8400    25.4730     2.2570   -18.0130 
  216.8750    57.9260   101.8240    92.7850   125.4620    25.4710     2.2610   -18.1100 
  217.0000    56.2840   106.3700    98.1720   155.1700    25.4570     2.2650   -18.2030 
  217.1250    55.6580   106.3190    99.0240   158.9440    25.4120     2.2660   -18.2910 
  217.2500    56.2720   101.8340    95.2640   129.7350    25.3440     2.2640   -18.3870 
  217.3750    56.6010    94.7360    88.7570   103.7830    25.3000     2.2590   -18.4690 
  217.5000    57.3830    87.8010    82.3510    95.2650    25.2900     2.2520   -18.5630 
  217.6250    58.9950    82.1730    77.1670    95.1980    25.2910     2.2460   -18.6290 
  217.7500    59.7940    78.1120    73.4520    96.1090    25.2550     2.2430   -18.6870 
  217.8750    59.5070    75.5970    71.0740    92.9280    25.1460     2.2440   -18.7440 
  218.0000    59.9210    74.1250    69.4500    83.6840    25.0230     2.2480   -18.7900 
  218.1250    61.3550    73.5900    68.5150    76.8710    24.9220     2.2520   -18.8360 
  218.2500    62.0710    73.9710    68.4360    75.6290    24.8650     2.2530   -18.8780 
  218.3750    61.9620    75.3280    69.5420    76.1760    24.8380     2.2500   -18.9150 
  218.5000    63.4770    77.2760    71.5550    79.6050    24.8210     2.2420   -18.9340 
  218.6250    65.9960    79.4620    74.0990    87.1280    24.8160     2.2320   -18.9740 
  218.7500    67.2920    81.4730    76.6050    98.3810    24.8450     2.2220   -19.0330 
  218.8750    66.5610    82.7880    78.3520   103.7880    24.9100     2.2180   -19.1150 
  219.0000    65.2890    83.2240    79.0560   102.6870    24.9670     2.2180   -19.2120 
  219.1250    64.0350    82.6860    78.6150    97.2430    24.9850     2.2220   -19.3100 
  219.2500    62.4070    81.1770    77.0960    93.3810    25.0030     2.2260   -19.4000 
  219.3750    60.3830    78.5590    74.5410    87.9970    25.0320     2.2310   -19.5020 
  219.5000    58.4020    74.9730    71.2160    86.9340    25.1200     2.2390   -19.6310 
  219.6250    57.1460    70.4870    67.1380    86.8330    25.2040     2.2550   -19.7700 
  219.7500    59.1570    65.4480    62.4850    84.3300    25.2340     2.2760   -19.9050 
  219.8750    63.2530    60.7290    57.8830    76.1930    25.2130     2.2970   -20.0080 
  220.0000    65.0560    57.2490    54.1990    64.9060    25.1880     2.3090   -20.0890 
  220.1250    64.2760    55.5830    52.0440    57.2200    25.1580     2.3090   -20.1530 
  220.2500    62.6960    55.8320    51.6290    62.0050    25.1340     2.2990   -20.2210 
  220.3750    60.9610    57.7100    52.8580    81.9870    25.1440     2.2890   -20.2980 
  220.5000    59.4440    60.0370    54.7250   102.1050    25.1740     2.2870   -20.3640 
  220.6250    59.8960    61.9790    56.4380    99.9700    25.2160     2.2940   -20.4030 
  220.7500    61.3730    63.0950    57.4540    81.7840    25.2440     2.3060   -20.4120 
  220.8750    60.7390    63.5770    57.7370    71.6350    25.2440     2.3170   -20.4580 
  221.0000    59.3950    64.4200    58.0880    80.5860    25.2220     2.3190   -20.5260 
  221.1250    59.3160    66.4200    59.2270    96.7080    25.1870     2.3140   -20.6100 
  221.2500    60.7580    69.3050    61.5820   106.3380    25.1420     2.3020   -20.6830 
  221.3750    61.7570    72.3570    65.2870   106.3590    25.0920     2.2860   -20.7220 
  221.5000    61.4500    75.6900    69.6360   105.6290    25.0580     2.2710   -20.7420 
  221.6250    60.0480    79.7360    74.0410   107.9830    25.0690     2.2570   -20.7630 
  221.7500    58.8700    84.1000    78.0410   115.4900    25.1070     2.2470   -20.7940 
  221.8750    59.9760    87.4590    81.1400   123.8990    25.1300     2.2420   -20.7830 
  222.0000    61.1610    89.3690    83.1100   128.0200    25.1320     2.2400   -20.7320 
  222.1250    59.6120    89.5880    83.5820   130.1800    25.1200     2.2410   -20.6590 
  222.2500    55.9250    87.7450    82.2590   129.4190    25.1130     2.2420   -20.5820 
  222.3750    53.6320    83.2590    78.7040   118.7160    25.0890     2.2420   -20.5070 
  222.5000    55.4230    76.7010    73.3080   106.1990    25.0640     2.2410   -20.4320 
  222.6250    59.3470    68.6610    66.3990    95.8940    25.0410     2.2430   -20.3410 
  222.7500    61.9510    60.0030    58.6000    90.9530    25.0150     2.2490   -20.2530 
  222.8750    61.7810    51.8290    50.8700    83.8680    24.9740     2.2590   -20.1450 
  223.0000    62.1080    44.8240    44.0440    67.7420    24.9090     2.2690   -20.0230 
  223.1250    64.2830    39.2860    38.5310    53.5130    24.8920     2.2760   -19.8890 
  223.2500    66.1360    35.2270    34.4100    46.0350    24.9070     2.2790   -19.7410 
  223.3750    67.8040    32.6290    31.6680    43.2000    24.8980     2.2800   -19.5760 
  223.5000    69.0870    30.9370    29.7650    41.1480    24.8660     2.2830   -19.3900 
  223.6250    68.9690    29.8150    28.4160    38.6030    24.8400     2.2840   -19.1810 
  223.7500    67.8230    28.9740    27.4040    37.0340    24.8190     2.2830   -18.9060 
  223.8750    67.5940    28.2730    26.6680    36.9910    24.8410     2.2780   -18.6040 
  224.0000    66.9020    27.7910    26.2530    36.9550    24.8430     2.2790   -18.2620 
  224.1250    64.3850    27.8240    26.3910    36.4880    24.8410     2.2960   -17.8700 
  224.2500    62.2010    28.7300    27.3610    36.4080    24.8420     2.3370   -17.4060 
  224.3750    63.1060    30.9030    29.4600    38.2900    24.8430     2.4000   -16.8510 
  224.5000    64.8490    33.8240    32.1800    45.1130    24.8840     2.4600   -16.2300 
  224.6250    65.8610    36.5190    34.6000    59.3920    24.9980     2.4980   -15.5710 
  224.7500    66.0470    37.6940    35.4390    66.6480    25.1630     2.5060   -14.9160 
  224.8750    67.1260    36.1000    33.4380    41.3080    25.2460     2.4930   -14.2930 
  225.0000    69.3310    32.6160    29.6520    20.0180    25.2490     2.4790   -13.7520 
  225.1250    72.0330    28.4430    25.4230    11.6430    25.2230     2.4730   -13.2920 
  225.2500    75.8110    24.4230    21.7640    10.1320    25.2040     2.4720   -12.9170 
  225.3750    81.3940    20.9910    19.1800    11.4050    25.1800     2.4670   -12.6440 
  225.5000    86.6030    18.3790    17.4230    13.1690    25.1250     2.4550   -12.4520 
  225.6250    89.9150    16.9250    16.3750    14.4760    25.0820     2.4410   -12.3150 
  225.7500    91.6500    16.7450    16.0500    14.9370    25.1030     2.4390   -12.2140 
  225.8750    91.5630    17.8780    16.7180    15.0200    25.1970     2.4650   -12.1010 
  226.0000    88.7300    19.8670    18.2250    16.6160    25.3120     2.5150   -11.9290 
  226.1250    82.9630    22.0220    20.1190    21.4370    25.4150     2.5760   -11.6970 
  226.2500    75.0990    23.1890    21.3950    33.9420    25.4680     2.6220   -11.4310 
  226.3750    70.6280    22.0730    20.5750    42.5900    25.4750     2.6260   -11.1640 
  226.5000    73.3420    19.2570    18.0380    37.1610    25.4670     2.5920   -10.9080 
  226.6250    80.8950    15.8950    14.9300    20.0230    25.4780     2.5390   -10.6630 
  226.7500    87.5740    13.1290    12.2650    11.7940    25.5250     2.4880   -10.4360 
  226.8750    88.9330    11.6980    10.6090    10.6390    25.5830     2.4600   -10.2620 
