~V
VERS. 2.00: Ver 2.00
~W
STRT.M 51.0000:
STOP.M 277.0000:
STEP.M 0.1250:
NULL. -999.2500:
UWI. F11053:
~C
DEPT.M :
GR.API :
RML.OHMM :
RI. :
RXO.OHMM :
CALI.CM :
DEN.GM/CC :
SP.MV :
~A
# ...
   96.0000    61.1610    15.0610    12.8420    19.5530    25.2040     2.4140   -14.3460 
   96.1250    68.3520    15.2050    12.9450    12.6620    25.0850     2.4610   -14.2670 
   96.2500    77.7460    15.2740    12.9690    11.3260    24.9800     2.4960   -14.1960 
   96.3750    84.5880    15.1860    12.8630    12.3150    24.9260     2.5240   -14.1300 
   96.5000    86.1200    14.8380    12.5570    13.1100    24.8810     2.5430   -14.0710 
   96.6250    84.7680    14.2670    12.0510    12.1810    24.7950     2.5460   -14.0110 
   96.7500    82.9740    13.5790    11.4020    11.0630    24.7100     2.5180   -13.9380 
   96.8750    82.8150    12.8940    10.7230    10.6850    24.6710     2.4570   -13.8850 
   97.0000    83.9220    12.3160    10.1410    10.6980    24.6910     2.3790   -13.8870 
   97.1250    83.3120    11.8690     9.7070    10.5850    24.7750     2.3120   -13.9260 
   97.2500    80.0510    11.5540     9.4560    10.3440    24.9090     2.2690   -13.9760 
   97.3750    76.9920    11.3670     9.3860    10.1120    25.0040     2.2520   -14.0160 
   97.5000    76.6610    11.2990     9.4470    10.0050    25.0070     2.2550   -14.0470 
   97.6250    76.0720    11.2970     9.5300     9.9720    24.9420     2.2710   -14.0690 
   97.7500    73.0640    11.3170     9.5750    10.0230    24.8600     2.2860   -14.1050 
   97.8750    70.1070    11.3360     9.5710    10.2130    24.8090     2.2920   -14.1370 
   98.0000    69.8740    11.3350     9.5180    10.5580    24.8110     2.2800   -14.1550 
   98.1250    69.8300    11.3050     9.4350    10.7190    24.8620     2.2550   -14.1440 
   98.2500    67.2900    11.2380     9.3320    10.6640    24.9330     2.2270   -14.1340 
   98.3750    64.3930    11.1340     9.2240    10.4550    24.9790     2.2030   -14.1250 
   98.5000    63.2290    10.9990     9.1240    10.1760    24.9920     2.1920   -14.1610 
   98.6250    62.2780    10.8450     9.0380    10.0630    24.9920     2.1890   -14.2110 
   98.7500    62.0600    10.6790     8.9610     9.9840    24.9940     2.1910   -14.2770 
   98.8750    64.4120    10.5210     8.8900     9.8940    25.0020     2.1940   -14.3500 
   99.0000    66.8060    10.4190     8.8260     9.8010    25.0220     2.1920   -14.4360 
   99.1250    66.6100    10.4050     8.7690     9.6730    25.0420     2.1870   -14.5440 
   99.2500    65.7130    10.4780     8.7160     9.6780    25.0520     2.1800   -14.6360 
   99.3750    65.3150    10.5890     8.6640     9.8180    25.0430     2.1720   -14.7180 
   99.5000    64.1020    10.6440     8.6040     9.7410    25.0050     2.1680   -14.7770 
   99.6250    63.1540    10.5890     8.5370     9.4720    24.9410     2.1660   -14.8500 
   99.7500    63.8490    10.4320     8.4650     9.2890    24.8950     2.1640   -14.9430 
   99.8750    65.3540    10.2370     8.3930     9.2160    24.8900     2.1620   -15.0590 
  100.0000    66.4270    10.0920     8.3270     9.2130    24.9100     2.1570   -15.1770 
  100.1250    68.6980    10.0400     8.2780     9.2530    24.9330     2.1510   -15.3030 
  100.2500    71.8380    10.0700     8.2580     9.4290    24.9560     2.1500   -15.4580 
  100.3750    73.1920    10.1400     8.2710     9.7770    24.9750     2.1560   -15.6370 
  100.5000    71.8570    10.1880     8.3090     9.9580    24.9950     2.1720   -15.8190 
  100.6250    70.0980    10.1810     8.3390    10.3220    25.0460     2.1940   -15.9730 
  100.7500    69.2540    10.1100     8.3290    11.2900    25.1210     2.2120   -16.0810 
  100.8750    70.0090     9.9790     8.2580    12.6110    25.2160     2.2230   -16.1510 
  101.0000    71.9610     9.8070     8.1320    11.0370    25.3320     2.2240   -16.2130 
  101.1250    73.7120     9.6410     7.9980     9.6090    25.4780     2.2180   -16.2730 
  101.2500    74.3810     9.5290     7.8960     8.9890    25.6350     2.2110   -16.3460 
  101.3750    74.3920     9.4920     7.8420     8.8800    25.7350     2.2060   -16.4130 
  101.5000    74.4950     9.5040     7.8290     8.6070    25.7640     2.2040   -16.4880 
  101.6250    75.9700     9.4900     7.8210     8.0010    25.7450     2.2080   -16.6050 
  101.7500    79.5180     9.4110     7.7850     7.7000    25.6630     2.2150   -16.7690 
  101.8750    82.5370     9.2850     7.7100     7.7200    25.4930     2.2240   -16.9580 
  102.0000    81.6300     9.1880     7.6190     8.1890    25.3010     2.2290   -17.1700 
  102.1250    78.3560     9.1650     7.5460     8.5170    25.1740     2.2270   -17.3810 
  102.2500    74.9270     9.2080     7.5220     8.7070    25.1260     2.2180   -17.5750 
  102.3750    72.6790     9.2840     7.5590     8.8660    25.1170     2.2060   -17.7380 
  102.5000    71.8780     9.3830     7.6660     8.9790    25.1180     2.1940   -17.8750 
  102.6250    71.8350     9.5180     7.8110     9.0580    25.1190     2.1860   -17.9720 
  102.7500    71.3670     9.6910     7.9580     9.1490    25.1190     2.1820   -18.0410 
  102.8750    70.7360     9.8720     8.0730     9.3500    25.1190     2.1810   -18.0780 
  103.0000    70.9990     9.9980     8.1160     9.4490    25.1200     2.1840   -18.0790 
  103.1250    71.0870    10.0300     8.0850     9.3630    25.1200     2.1890   -18.0530 
  103.2500    70.0470     9.9700     7.9940     9.1680    25.1190     2.1910   -18.0230 
  103.3750    67.7080     9.8430     7.8710     8.9810    25.1200     2.1880   -17.9790 
  103.5000    65.0260     9.6780     7.7510     8.9390    25.1220     2.1810   -17.9360 
  103.6250    63.7020     9.5050     7.6610     8.9250    25.1280     2.1720   -17.8980 
  103.7500    63.8200     9.3510     7.6050     8.9500    25.1430     2.1650   -17.8750 
  103.8750    64.6590     9.2460     7.5800     9.0280    25.1640     2.1620   -17.8810 
  104.0000    65.7710     9.2170     7.5740     9.0800    25.1770     2.1620   -17.9060 
  104.1250    66.5800     9.2450     7.5750     9.0750    25.1810     2.1620   -17.9450 
  104.2500    67.1870     9.2980     7.5810     9.0300    25.1820     2.1600   -17.9910 
  104.3750    68.3790     9.3530     7.5990     9.0390    25.1800     2.1580   -18.0840 
  104.5000    69.8430     9.3900     7.6250     9.0750    25.1640     2.1540   -18.1800 
  104.6250    69.6960     9.3860     7.6330     9.0920    25.1260     2.1510   -18.2740 
  104.7500    68.4150     9.3200     7.5960     9.1350    25.0840     2.1540   -18.3510 
  104.8750    68.3050     9.1870     7.4940     9.2670    25.0600     2.1650   -18.4090 
  105.0000    70.8520     9.0240     7.3360     9.2270    25.0540     2.1810   -18.4160 
  105.1250    74.3450     8.9090     7.1740     8.8700    25.0540     2.1970   -18.4110 
  105.2500    76.1550     8.8920     7.0640     8.3580    25.0540     2.2080   -18.3980 
  105.3750    75.2730     8.9740     7.0430     8.4950    25.0540     2.2120   -18.3770 
  105.5000    73.7970     9.1040     7.1230     8.7520    25.0560     2.2080   -18.3710 
  105.6250    72.8810     9.2200     7.2690     8.9650    25.0670     2.2030   -18.3800 
  105.7500    70.9580     9.3050     7.4470     9.0610    25.0920     2.1970   -18.3980 
  105.8750    68.3400     9.3850     7.6250     9.0170    25.1120     2.1900   -18.4110 
  106.0000    67.3470     9.4870     7.7810     8.9250    25.1210     2.1810   -18.4620 
  106.1250    67.3550     9.5670     7.8810     8.8700    25.1220     2.1710   -18.5200 
  106.2500    67.3560     9.5130     7.8690     8.8320    25.1220     2.1650   -18.5650 
  106.3750    69.3380     9.2060     7.6780     8.7400    25.1220     2.1670   -18.5950 
  106.5000    75.0930     8.5660     7.2480     8.6730    25.1340     2.1860   -18.5910 
  106.6250    83.0210     7.7360     6.6620     8.4240    25.1890     2.2210   -18.5580 
  106.7500    91.1040     6.9210     6.0530     7.5080    25.2960     2.2700   -18.5250 
  106.8750    96.8080     6.3060     5.5650     5.9740    25.3770     2.3180   -18.5210 
  107.0000    98.7700     6.0690     5.3510     5.2580    25.3370     2.3470   -18.5390 
  107.1250    98.6510     6.2080     5.4270     5.2350    25.2230     2.3500   -18.5930 
