~V
VERS. 2.00: Ver 2.00
~W
STRT.M 52.0000:
STOP.M 271.0000:
STEP.M 0.1250:
NULL. -999.2500:
UWI. F11069:
~C
DEPT.M :
GR.API :
RML.OHMM :
RI. :
RXO.OHMM :
CALI.CM :
DEN.GM/CC :
SP.MV :
~A
# ...
  243.2500    82.2440    14.3310    16.2180    15.1700    23.2090     2.4220    -5.0720 
  243.3750    86.8030     8.4280     9.8970     7.0820    23.2570     2.4200    -4.7580 
  243.5000    88.2850     6.0390     7.0410     5.6680    23.4410     2.4230    -4.4510 
  243.6250    89.6620     5.5200     6.0650     6.4590    23.7250     2.4250    -4.0870 
  243.7500    91.9570     5.7020     5.9010     7.3410    24.0060     2.4210    -3.7040 
  243.8750    93.6150     6.1700     6.1930     7.6420    24.1890     2.4120    -3.3910 
  244.0000    93.8120     6.5850     6.6300     7.4080    24.2880     2.4040    -3.1430 
  244.1250    94.6040     6.7180     6.9270     7.1460    24.3880     2.4020    -2.9980 
  244.2500    98.0950     6.6350     7.0140     7.0660    24.4750     2.4070    -2.8540 
  244.3750   103.5650     6.4690     6.9400     7.2750    24.5210     2.4150    -2.6810 
  244.5000   110.5510     6.3440     6.7830     7.3070    24.5090     2.4210    -2.5430 
  244.6250   116.4630     6.3110     6.6200     7.0920    24.4940     2.4200    -2.4930 
  244.7500   120.2850     6.3200     6.5170     6.8650    24.5000     2.4150    -2.5320 
  244.8750   122.6480     6.3210     6.5060     6.9510    24.5560     2.4080    -2.6050 
  245.0000   122.2790     6.3020     6.5820     7.2330    24.5830     2.4020    -2.6630 
  245.1250   119.9330     6.2930     6.6930     7.8030    24.5730     2.4010    -2.6930 
  245.2500   116.9930     6.3360     6.7640     8.2670    24.5270     2.4060    -2.7500 
  245.3750   114.5540     6.4410     6.7660     8.5140    24.4750     2.4150    -2.8160 
  245.5000   113.1400     6.5850     6.7160     8.1720    24.4660     2.4220    -2.8320 
  245.6250   113.2770     6.7300     6.6640     7.7560    24.5110     2.4230    -2.8310 
  245.7500   114.9840     6.8500     6.6500     7.5580    24.5390     2.4160    -2.8190 
  245.8750   115.5610     6.9390     6.6760     7.8120    24.5530     2.4090    -2.8060 
  246.0000   115.0970     7.0110     6.7080     7.9840    24.5160     2.4070    -2.8160 
  246.1250   115.6940     7.1040     6.7120     7.9350    24.4670     2.4180    -2.8390 
  246.2500   114.5910     7.2550     6.7040     7.6830    24.4260     2.4360    -2.8620 
  246.3750   111.2390     7.4720     6.7230     7.7740    24.4320     2.4500    -2.8530 
  246.5000   107.5660     7.7120     6.7900     8.2630    24.4600     2.4490    -2.8380 
  246.6250   106.9700     7.8570     6.8810     9.3570    24.4760     2.4280    -2.7930 
  246.7500   106.5480     7.8080     6.9160    10.0870    24.4800     2.4010    -2.6900 
  246.8750   104.4270     7.5260     6.8300    10.5680    24.5010     2.3810    -2.5390 
  247.0000   101.6750     7.0490     6.5990     8.3340    24.5520     2.3760    -2.3250 
  247.1250    98.9210     6.4910     6.2390     6.8220    24.5550     2.3860    -2.0880 
  247.2500    99.2870     6.0010     5.8410     6.3160    24.5490     2.3980    -1.8780 
  247.3750   101.9030     5.6460     5.4670     6.4700    24.5580     2.4050    -1.7420 
  247.5000   102.0150     5.4260     5.1570     6.0550    24.5660     2.4050    -1.6600 
  247.6250    98.1750     5.2940     4.9340     5.5870    24.5520     2.4000    -1.6040 
  247.7500    97.4220     5.1880     4.7710     5.2350    24.5250     2.3950    -1.5760 
  247.8750   103.1350     5.1110     4.6510     5.0520    24.5210     2.3930    -1.5760 
  248.0000   110.1810     5.0960     4.5690     5.0810    24.5080     2.4000    -1.6330 
  248.1250   111.3510     5.1760     4.5390     5.1780    24.4960     2.4180    -1.6850 
  248.2500   108.7010     5.3030     4.5690     5.3160    24.4540     2.4390    -1.7280 
  248.3750   105.6590     5.4270     4.6680     5.4750    24.3700     2.4540    -1.7520 
  248.5000   102.4760     5.5280     4.8320     5.6960    24.2740     2.4510    -1.7310 
  248.6250    96.6690     5.6370     5.0580     5.8730    24.2760     2.4280    -1.7030 
  248.7500    91.6130     5.7870     5.3130     6.0690    24.2200     2.3970    -1.6740 
  248.8750    90.4220     5.9580     5.5670     6.4410    24.1920     2.3710    -1.6490 
  249.0000    91.3100     6.0740     5.7690     7.1040    24.2900     2.3560    -1.5730 
  249.1250    89.5310     6.0300     5.8320     7.6280    24.4430     2.3540    -1.4860 
  249.2500    86.6190     5.8630     5.7390     7.4400    24.5630     2.3530    -1.3880 
  249.3750    86.1260     5.6810     5.5320     6.8060    24.6340     2.3500    -1.2900 
  249.5000    86.6350     5.6300     5.3190     6.1890    24.6600     2.3410    -1.2410 
  249.6250    84.2020     5.8840     5.2720     6.0490    24.6960     2.3330    -1.1510 
  249.7500    80.7210     6.4290     5.4620     6.7800    24.7230     2.3300    -1.0170 
  249.8750    79.4680     7.1800     5.8850     8.1010    24.7260     2.3340    -0.8670 
  250.0000    82.1610     7.9540     6.4430     8.3700    24.6780     2.3420    -0.7450 
  250.1250    86.0330     8.4430     6.9200     8.0800    24.6020     2.3480    -0.6250 
  250.2500    87.8530     8.4800     7.1150     8.5020    24.5420     2.3480    -0.4860 
  250.3750    87.7000     8.0410     6.9380     9.0240    24.5330     2.3410    -0.3100 
  250.5000    88.1250     7.2700     6.4500     8.3300    24.5330     2.3320    -0.0960 
  250.6250    91.8920     6.4480     5.8240     6.8110    24.6170     2.3230     0.0380 
  250.7500    94.4670     5.8440     5.2850     5.7140    24.7000     2.3190     0.0840 
  250.8750    92.9500     5.5970     4.9520     4.8910    24.7350     2.3200     0.0850 
  251.0000    88.5250     5.7600     4.8900     4.7420    24.7570     2.3280     0.0730 
  251.1250    83.1110     6.3820     5.1880     5.6450    24.7680     2.3390     0.0230 
  251.2500    80.0270     7.3040     5.7970     7.1250    24.7550     2.3470    -0.0800 
  251.3750    80.7170     8.3770     6.6680     8.9070    24.7530     2.3500    -0.2060 
  251.5000    81.9430     9.4110     7.6870    10.3340    24.7410     2.3460    -0.3030 
  251.6250    78.9220    10.1640     8.6480    11.3970    24.7030     2.3370    -0.3050 
  251.7500    74.7680    10.5720     9.3600    12.6730    24.6770     2.3290    -0.2920 
  251.8750    72.7330    10.6670     9.7390    13.8600    24.6920     2.3230    -0.2880 
  252.0000    73.4320    10.5590     9.8220    13.3580    24.7040     2.3220    -0.2870 
  252.1250    76.5870    10.3790     9.7230    12.4570    24.7050     2.3230    -0.2800 
  252.2500    80.7700    10.2410     9.6120    12.2210    24.6890     2.3230    -0.2380 
  252.3750    81.2880    10.1970     9.5740    12.2970    24.6930     2.3230    -0.2040 
  252.5000    76.7410    10.2760     9.6500    12.4500    24.7560     2.3230    -0.2270 
  252.6250    73.1510    10.5000     9.8660    12.4240    24.7970     2.3290    -0.3320 
  252.7500    73.5110    10.7850    10.1720    12.6790    24.8120     2.3400    -0.4180 
  252.8750    75.7470    11.0070    10.4940    13.0110    24.8070     2.3500    -0.4340 
  253.0000    76.5390    11.0030    10.6910    14.2430    24.7950     2.3490    -0.4390 
  253.1250    76.4470    10.5720    10.5090    14.5360    24.7650     2.3300    -0.4110 
  253.2500    78.3400     9.7870     9.9160    13.0740    24.7260     2.3030    -0.3520 
  253.3750    82.6750     8.8070     9.0280    10.8230    24.6750     2.2800    -0.3020 
  253.5000    87.6100     7.8610     8.0770     7.9830    24.6630     2.2710    -0.2380 
  253.6250    90.7500     7.1890     7.3410     6.1810    24.7830     2.2740    -0.1480 
  253.7500    90.7390     6.8130     6.9030     5.4780    24.8400     2.2820    -0.0660 
  253.8750    87.8190     6.6760     6.7430     5.9750    24.6480     2.2930    -0.0330 
  254.0000    83.8630     6.6910     6.7720     6.9310    24.3690     2.3060    -0.0310 
  254.1250    82.5000     6.8430     6.8890     7.8020    24.3330     2.3190    -0.1070 
  254.2500    82.5900     7.2000     7.0700     7.7450    24.4010     2.3270    -0.2490 
  254.3750    82.0710     7.9510     7.4400     7.2160    24.4000     2.3300    -0.4070 
