~V
VERS. 2.00: Ver 2.00
~W
STRT.M 54.0000:
STOP.M 281.0000:
STEP.M 0.1250:
NULL. -999.2500:
UWI. F11055:
~C
DEPT.M :
SP.MV :
GR.API :
RML.OHMM :
RI. :
RXO.OHMM :
CALI.CM :
DEN.GM/CC :
~A
# ...
  121.5000    -0.4250    90.4480     5.9320     4.6280     5.2610    24.2640     2.3090 
  121.6250    -0.6300    90.0470     6.0860     4.7540     5.1200    24.2690     2.2940 
  121.7500    -0.7680    91.1770     6.3460     4.9680     5.0260    24.2790     2.2810 
  121.8750    -0.9470    91.5590     6.7220     5.2830     5.2710    24.2830     2.2740 
  122.0000    -1.1110    90.6430     7.1510     5.6580     5.9580    24.2720     2.2730 
  122.1250    -1.2180    89.6160     7.4500     5.9620     7.0410    24.2640     2.2830 
  122.2500    -1.2680    89.3930     7.4740     6.0620     7.3850    24.2630     2.2950 
  122.3750    -1.2760    90.7360     7.1720     5.8940     6.7370    24.2630     2.3080 
  122.5000    -1.2420    94.4460     6.6280     5.5020     5.5950    24.2610     2.3180 
  122.6250    -1.1250    98.7610     6.0270     5.0150     4.7920    24.2640     2.3240 
  122.7500    -1.0510   100.7310     5.5430     4.5870     4.3880    24.2720     2.3220 
  122.8750    -0.9130   100.2760     5.2420     4.2900     4.2760    24.2780     2.3130 
  123.0000    -0.8290    97.6010     5.1310     4.1480     4.1100    24.2700     2.3060 
  123.1250    -0.7670    93.9580     5.2120     4.1710     4.1190    24.2660     2.3060 
  123.2500    -0.7450    91.7390     5.4160     4.3010     4.3000    24.2700     2.3160 
  123.3750    -0.7600    90.2750     5.6900     4.4980     4.6390    24.2730     2.3280 
  123.5000    -0.7770    88.6440     5.9770     4.7190     4.7450    24.2510     2.3360 
  123.6250    -0.8630    85.8660     6.2200     4.9210     4.9790    24.1920     2.3360 
  123.7500    -0.9030    82.5500     6.4140     5.0930     5.5140    24.1380     2.3340 
  123.8750    -0.9940    79.0990     6.6010     5.2550     5.7770    24.1260     2.3350 
  124.0000    -1.0420    77.0560     6.8560     5.4590     5.7950    24.1390     2.3380 
  124.1250    -1.1020    77.1420     7.2530     5.7710     5.8490    24.1370     2.3420 
  124.2500    -1.1650    76.3620     7.7640     6.1880     6.3170    24.1310     2.3560 
  124.3750    -1.2290    73.5070     8.3820     6.7150     6.8130    24.1370     2.3840 
  124.5000    -1.3130    69.5230     9.1620     7.3870     7.3430    24.1380     2.4160 
  124.6250    -1.3410    68.3380    10.2690     8.3220     7.9340    24.1450     2.4320 
  124.7500    -1.4270    69.4460    11.7350     9.5480     8.7950    24.1880     2.4360 
  124.8750    -1.4820    69.8520    13.4940    11.0470    11.3760    24.2400     2.4420 
  125.0000    -1.5720    66.4740    15.2540    12.6460    18.6600    24.2630     2.4520 
  125.1250    -1.6320    60.7700    16.2710    13.8030    28.7620    24.2640     2.4260 
  125.2500    -1.6890    55.9820    16.0910    14.0530    23.7870    24.2630     2.3480 
  125.3750    -1.7470    53.3380    14.7980    13.3360    14.2950    24.2630     2.2470 
  125.5000    -1.7820    53.3880    13.0110    12.0480     9.9790    24.2640     2.1670 
  125.6250    -1.8820    55.0380    11.5240    10.7700     8.9950    24.2660     2.1310 
  125.7500    -1.9090    57.9770    10.6490     9.8500     8.8610    24.2600     2.1210 
  125.8750    -1.9580    62.1690    10.3340     9.3500     8.8180    24.2520     2.1220 
  126.0000    -2.0050    65.2110    10.3560     9.1850     8.6960    24.2490     2.1270 
  126.1250    -2.0560    64.5220    10.4700     9.2090     8.7750    24.2590     2.1290 
  126.2500    -2.1220    62.4380    10.5280     9.2570     8.7640    24.2660     2.1280 
  126.3750    -2.1520    63.5650    10.5090     9.2720     8.6810    24.2670     2.1270 
  126.5000    -2.2390    67.0150    10.4280     9.2390     8.7330    24.2680     2.1330 
  126.6250    -2.2290    67.1910    10.3170     9.1740     8.6880    24.2700     2.1500 
  126.7500    -2.2830    63.7670    10.2290     9.1140     8.6020    24.2680     2.1710 
  126.8750    -2.3420    61.1580    10.1910     9.0770     8.6730    24.2650     2.1870 
  127.0000    -2.3580    61.3730    10.2070     9.0640     8.9730    24.2640     2.1920 
  127.1250    -2.4130    62.1990    10.2550     9.0670     9.2620    24.2670     2.1880 
  127.2500    -2.4450    63.1670    10.2960     9.0690     9.3570    24.2670     2.1810 
  127.3750    -2.4990    64.8610    10.3200     9.0580     9.3370    24.2680     2.1760 
  127.5000    -2.4760    64.8340    10.3260     9.0310     9.3140    24.2660     2.1760 
  127.6250    -2.5340    62.7170    10.3120     8.9900     9.4180    24.2650     2.1840 
  127.7500    -2.5390    61.0350    10.2620     8.9360     9.6130    24.2660     2.1960 
  127.8750    -2.5350    60.5210    10.1540     8.8640     9.7420    24.2690     2.2060 
  128.0000    -2.5650    61.1000     9.9860     8.7660     9.7730    24.2700     2.2110 
  128.1250    -2.5420    63.9560     9.7840     8.6330     9.6550    24.2680     2.2110 
  128.2500    -2.5690    67.4310     9.6160     8.4880     9.4770    24.2610     2.2120 
  128.3750    -2.5590    68.4870     9.5540     8.3730     9.2100    24.2410     2.2170 
  128.5000    -2.6340    67.4180     9.6540     8.3500     9.2620    24.2030     2.2270 
  128.6250    -2.6490    67.4200     9.9560     8.5070     9.3720    24.2340     2.2430 
  128.7500    -2.6750    68.4140    10.3710     8.8260     9.6490    24.2570     2.2680 
  128.8750    -2.7340    68.1390    10.8010     9.2490     9.8660    24.2540     2.3030 
  129.0000    -2.7280    66.7170    11.1330     9.6640     9.8100    24.2170     2.3330 
  129.1250    -2.7720    64.4690    11.2420     9.9030     9.5050    24.1580     2.3300 
  129.2500    -2.7720    63.5950    11.1430     9.9130     9.2310    24.1620     2.2910 
  129.3750    -2.7910    65.3360    10.8810     9.7220     9.1520    24.1900     2.2420 
  129.5000    -2.7680    67.2870    10.5280     9.4060     9.3340    24.1870     2.2140 
  129.6250    -2.7300    66.2530    10.1670     9.0550     9.6740    24.1520     2.2110 
  129.7500    -2.7320    64.9810     9.8600     8.7370     9.7570    24.1630     2.2160 
  129.8750    -2.6930    66.7780     9.6320     8.4750     9.5060    24.1760     2.2240 
  130.0000    -2.7460    70.6840     9.4830     8.2750     9.2210    24.1530     2.2320 
  130.1250    -2.7280    71.8420     9.4090     8.1420     9.1270    24.1610     2.2350 
  130.2500    -2.7350    70.3990     9.3770     8.0600     9.1140    24.1950     2.2330 
  130.3750    -2.7460    67.4810     9.3660     8.0150     8.8700    24.2050     2.2310 
  130.5000    -2.7730    64.3790     9.3670     7.9950     8.4560    24.1920     2.2300 
  130.6250    -2.8670    63.2650     9.3910     8.0040     8.1590    24.2400     2.2260 
  130.7500    -2.8870    63.3030     9.4540     8.0440     7.8770    24.2730     2.2200 
  130.8750    -2.9530    63.8610     9.5660     8.1140     7.8160    24.2840     2.2120 
  131.0000    -2.9770    64.3930     9.7060     8.1990     8.0150    24.2750     2.2080 
  131.1250    -3.0220    63.8160     9.8150     8.2690     8.4310    24.2780     2.2120 
  131.2500    -3.0700    63.4610     9.8460     8.2990     8.5940    24.2890     2.2220 
  131.3750    -3.0900    65.6300     9.7870     8.2810     8.3090    24.2890     2.2320 
  131.5000    -3.1320    70.4700     9.6500     8.2120     7.6770    24.2760     2.2360 
  131.6250    -3.1220    73.6350     9.4720     8.0950     7.4770    24.2720     2.2360 
  131.7500    -3.1550    72.3250     9.3160     7.9660     7.5540    24.2820     2.2340 
  131.8750    -3.1650    69.0220     9.2320     7.8710     8.0340    24.2920     2.2320 
  132.0000    -3.1590    67.6960     9.2590     7.8650     8.5060    24.2900     2.2290 
  132.1250    -3.1870    68.9500     9.4490     8.0130     8.4800    24.3000     2.2240 
  132.2500    -3.1700    69.7690     9.7720     8.2950     8.7370    24.3460     2.2140 
  132.3750    -3.1890    68.8210    10.1580     8.6620     9.6780    24.3970     2.2020 
  132.5000    -3.1190    65.8770    10.4850     9.0190    10.4460    24.4050     2.1940 
  132.6250    -3.0890    62.9550    10.5690     9.2120    10.2940    24.3850     2.1910 
