~V
VERS. 2.00: Ver 2.00
~W
STRT.M 45.0000:
STOP.M 277.0000:
STEP.M 0.1250:
NULL. -999.2500:
UWI. F11056:
~C
DEPT.M :
GR.API :
RML.OHMM :
RI. :
RXO.OHMM :
CALI.CM :
DEN.GM/CC :
SP.MV :
~A
# ...
  123.7500    90.3200     6.2980     5.4990     6.6740    25.4260     2.3790    -4.2920 
  123.8750    84.1210     6.6880     5.8590     8.1470    25.4070     2.4120    -4.4430 
  124.0000    80.7120     6.9340     6.0930     8.6710    25.3720     2.4280    -4.6060 
  124.1250    80.0300     7.0780     6.2260     7.8300    25.3190     2.4220    -4.7900 
  124.2500    80.9560     7.2060     6.3330     7.0240    25.2690     2.3960    -4.9790 
  124.3750    82.1460     7.3970     6.4870     7.6180    25.2390     2.3620    -5.1800 
  124.5000    78.2440     7.6830     6.7230     9.6120    25.2660     2.3280    -5.4200 
  124.6250    70.5260     7.9780     6.9790    10.0690    25.3490     2.2970    -5.6360 
  124.7500    64.8330     8.1800     7.1760     8.9830    25.4380     2.2730    -5.7940 
  124.8750    66.6190     8.2280     7.2460     8.0280    25.5240     2.2570    -5.9360 
  125.0000    72.8720     8.1320     7.1770     7.7630    25.5650     2.2500    -6.1050 
  125.1250    75.0730     8.0200     7.0840     7.7650    25.5210     2.2480    -6.1860 
  125.2500    73.9570     7.9800     7.0660     7.8520    25.3930     2.2470    -6.2040 
  125.3750    74.3400     8.0360     7.1660     7.8680    25.2380     2.2520    -6.2320 
  125.5000    76.1870     8.1390     7.3440     7.8830    25.1920     2.2710    -6.1860 
  125.6250    75.9000     8.1830     7.4840     8.1720    25.1970     2.3020    -6.0780 
  125.7500    75.2240     8.1010     7.5010     8.5720    25.2060     2.3350    -5.9780 
  125.8750    79.0330     7.8850     7.3560     8.3780    25.2380     2.3590    -5.8690 
  126.0000    87.2360     7.5950     7.0850     7.2760    25.3600     2.3610    -5.7600 
  126.1250    92.2740     7.3510     6.8180     7.0480    25.3480     2.3510    -5.7210 
  126.2500    90.4850     7.2230     6.6360     7.2130    25.2450     2.3380    -5.7000 
  126.3750    84.8160     7.2390     6.5790     7.3980    25.1590     2.3310    -5.6580 
  126.5000    81.7130     7.3790     6.6530     7.4270    25.1900     2.3330    -5.6980 
  126.6250    82.5770     7.5360     6.7690     7.5040    25.3170     2.3380    -5.8240 
  126.7500    84.0240     7.6170     6.8440     7.6330    25.4590     2.3410    -5.9670 
  126.8750    83.3800     7.5590     6.8140     7.7340    25.5490     2.3420    -6.1530 
  127.0000    79.6960     7.3630     6.6540     7.7770    25.5320     2.3390    -6.3810 
  127.1250    77.1130     7.1700     6.4750     7.6740    25.4700     2.3330    -6.5670 
  127.2500    76.5310     7.1430     6.4360     7.5910    25.4130     2.3230    -6.7300 
  127.3750    76.2070     7.4580     6.7350     7.6100    25.3840     2.3180    -6.9200 
  127.5000    76.1870     8.4260     7.6640     7.9060    25.4180     2.3390    -7.1110 
  127.6250    77.0640    10.1180     9.2460     9.7890    25.4770     2.3930    -7.3190 
  127.7500    75.7610    12.3690    11.3570    15.6860    25.5030     2.4690    -7.5640 
  127.8750    69.6760    14.5080    13.4750    26.6230    25.5120     2.5380    -7.8390 
  128.0000    63.6200    15.3500    14.4810    28.4070    25.4910     2.5550    -8.1350 
  128.1250    63.4400    14.7550    14.0750    21.4650    25.4860     2.5140    -8.4400 
  128.2500    66.7970    13.2990    12.7530    14.2380    25.5130     2.4290    -8.7450 
  128.3750    68.5910    11.7980    11.2840    11.2840    25.6060     2.3270    -9.0350 
  128.5000    66.7290    10.8370    10.2390    11.0940    25.7990     2.2380    -9.2530 
  128.6250    64.4540    10.3720     9.6560    11.7820    25.9330     2.1750    -9.3400 
  128.7500    63.9040    10.2610     9.4300    12.1500    25.8980     2.1420    -9.3920 
  128.8750    65.0470    10.3440     9.4140    11.1510    25.7410     2.1330    -9.4220 
  129.0000    66.0320    10.4820     9.4810    10.5140    25.5910     2.1400    -9.3450 
  129.1250    65.7720    10.5890     9.5470    10.2930    25.4920     2.1490    -9.2800 
  129.2500    65.4700    10.6420     9.6010    10.4760    25.5140     2.1530    -9.2560 
  129.3750    66.7270    10.6400     9.6460    10.7170    25.7750     2.1520    -9.2170 
  129.5000    66.4890    10.5960     9.6780    10.8290    26.2270     2.1490    -9.2150 
  129.6250    62.6020    10.5540     9.6990    10.7390    26.4520     2.1500    -9.3130 
  129.7500    58.5680    10.5460     9.7210    10.6090    26.4480     2.1520    -9.4020 
  129.8750    57.8040    10.5770     9.7550    10.4950    26.3900     2.1540    -9.4520 
  130.0000    58.7300    10.5810     9.7750    10.4100    26.3280     2.1500    -9.4820 
  130.1250    57.5180    10.4550     9.7040    10.3500    26.2450     2.1430    -9.4760 
  130.2500    56.3030    10.1240     9.4580    10.1980    26.1740     2.1440    -9.4340 
  130.3750    58.3080     9.5790     8.9990     9.9150    26.1130     2.1620    -9.3310 
  130.5000    65.7450     8.8880     8.3560     8.9450    25.7940     2.2050    -9.1940 
  130.6250    73.2680     8.2170     7.6870     7.5540    25.4690     2.2570    -9.0690 
  130.7500    76.5110     7.6920     7.1250     6.7560    25.3090     2.3010    -9.0020 
  130.8750    76.5900     7.3950     6.7690     6.7450    25.3380     2.3230    -8.9750 
  131.0000    76.0300     7.4110     6.7150     7.0860    25.5230     2.3180    -9.0020 
  131.1250    74.7680     7.6770     6.9100     7.1850    25.6850     2.3000    -9.0900 
  131.2500    72.4910     8.1260     7.2990     7.6550    25.7370     2.2810    -9.2140 
  131.3750    71.8090     8.6470     7.7820     8.6310    25.7370     2.2680    -9.4100 
  131.5000    73.2930     9.0970     8.2220     9.2830    25.7390     2.2600    -9.6880 
  131.6250    73.6470     9.4010     8.5390     9.4700    25.7490     2.2550    -9.9240 
  131.7500    73.3120     9.5610     8.7210     9.5360    25.7730     2.2510   -10.0780 
  131.8750    73.8540     9.6250     8.8000     9.6590    25.7990     2.2500   -10.2440 
  132.0000    75.0760     9.6390     8.8180     9.6340    25.8350     2.2570   -10.4220 
  132.1250    75.0410     9.6250     8.8030     9.7130    25.9080     2.2690   -10.5430 
  132.2500    73.7910     9.5710     8.7480     9.7890    26.0300     2.2800   -10.6640 
  132.3750    70.6950     9.4730     8.6460     9.7070    26.1630     2.2820   -10.8120 
  132.5000    67.5920     9.3550     8.5200     9.5440    26.2570     2.2670   -10.8680 
  132.6250    66.5970     9.2700     8.4230     9.3720    26.2480     2.2430   -10.9020 
  132.7500    67.2260     9.2590     8.3990     9.1670    26.0620     2.2190   -11.0230 
  132.8750    67.7830     9.3340     8.4680     9.2550    25.7680     2.2020   -11.1680 
  133.0000    67.3830     9.4820     8.6240     9.7100    25.5560     2.1900   -11.2760 
  133.1250    67.0930     9.6380     8.7970     9.8210    25.4850     2.1780   -11.3920 
  133.2500    65.6260     9.7520     8.9290     9.6470    25.4640     2.1660   -11.4900 
  133.3750    63.1840     9.7970     8.9870     9.3500    25.4210     2.1590   -11.5370 
  133.5000    64.2930     9.7740     8.9740     8.9700    25.2530     2.1640   -11.5500 
  133.6250    69.0850     9.7380     8.9510     8.6170    24.9640     2.1770   -11.5490 
  133.7500    74.3660     9.7360     8.9680     8.4720    24.6420     2.1860   -11.5160 
  133.8750    74.9810     9.7920     9.0490     8.9230    24.5120     2.1860   -11.4580 
  134.0000    69.4150     9.8780     9.1620     9.5490    24.6610     2.1810   -11.3930 
  134.1250    63.2810     9.9010     9.2180     9.4900    24.8430     2.1840   -11.2980 
  134.2500    61.0450     9.7710     9.1320     9.1380    24.8430     2.2020   -11.1760 
  134.3750    65.4930     9.4360     8.8490     9.0060    24.6460     2.2330   -11.0470 
  134.5000    74.6710     8.9030     8.3540     8.5080    24.2940     2.2640   -10.9110 
  134.6250    82.6790     8.3180     7.7730     7.8510    24.0060     2.2860   -10.7850 
  134.7500    86.8360     7.7950     7.2200     7.6390    23.8650     2.3010   -10.6670 
  134.8750    88.5240     7.4140     6.7860     7.7760    23.7860     2.3130   -10.5100 
