~V
VERS. 2.00: Ver 2.00
~W
STRT.M 53.0000:
STOP.M 287.0000:
STEP.M 0.1250:
NULL. -999.2500:
UWI. F11059:
~C
DEPT.M :
GR.API :
RML.OHMM :
RI. :
RXO.OHMM :
CALI.CM :
DEN.GM/CC :
SP.MV :
~A
# ...
  109.2500    82.0130     8.1520     6.6250     8.0060    24.2680     2.2770   -12.0320 
  109.3750    82.7800     8.0980     6.6080     8.0890    24.1430     2.2790   -12.0710 
  109.5000    84.0900     8.1100     6.6020     8.1860    24.0910     2.2700   -12.1140 
  109.6250    85.5080     8.1220     6.6220     7.8030    24.1130     2.2540   -12.1870 
  109.7500    84.7820     8.0930     6.6860     7.3310    24.1560     2.2390   -12.3030 
  109.8750    81.0300     8.0480     6.8210     7.5450    24.1740     2.2290   -12.4570 
  110.0000    76.0630     8.0800     7.0290     8.4490    24.1780     2.2230   -12.6340 
  110.1250    72.1330     8.2510     7.3040     9.2980    24.1850     2.2190   -12.8270 
  110.2500    70.9740     8.5520     7.6170     9.6600    24.1950     2.2140   -13.0330 
  110.3750    70.9300     8.8890     7.9050     9.8090    24.2240     2.2060   -13.2450 
  110.5000    69.8130     9.1560     8.1090     9.9590    24.2330     2.2000   -13.4720 
  110.6250    67.3810     9.3250     8.2000    10.0960    24.2320     2.1970   -13.6910 
  110.7500    65.5180     9.4280     8.1850    10.0860    24.2260     2.2020   -13.8910 
  110.8750    66.7940     9.5140     8.0990    10.2060    24.2130     2.2090   -14.1000 
  111.0000    68.8340     9.6020     7.9970    10.4000    24.1890     2.2120   -14.3040 
  111.1250    68.1050     9.6650     7.9090    10.7180    24.1720     2.2090   -14.4800 
  111.2500    65.0780     9.6770     7.8490    10.9010    24.1960     2.1980   -14.6210 
  111.3750    64.4540     9.6230     7.8220    10.5720    24.2760     2.1850   -14.7250 
  111.5000    65.5790     9.5420     7.8120    10.1570    24.3440     2.1740   -14.7950 
  111.6250    64.6670     9.4680     7.8210    10.1990    24.3500     2.1640   -14.8510 
  111.7500    62.8880     9.4340     7.8530    10.5720    24.3160     2.1580   -14.8920 
  111.8750    63.7040     9.4630     7.9140    10.4980    24.3230     2.1550   -14.9130 
  112.0000    65.9070     9.5280     7.9920    10.0780    24.3450     2.1540   -14.9100 
  112.1250    67.2710     9.5970     8.0780    10.0250    24.3270     2.1500   -14.9000 
  112.2500    67.9310     9.6520     8.1690    10.3870    24.3020     2.1400   -14.8900 
  112.3750    67.6240     9.7100     8.2610    11.0110    24.3150     2.1400   -14.8820 
  112.5000    66.0080     9.8030     8.3510    10.9850    24.3630     2.1640   -14.8840 
  112.6250    65.0840     9.9340     8.4210    10.5960    24.3960     2.2170   -14.8850 
  112.7500    65.4540    10.0690     8.4470    10.4860    24.3980     2.2820   -14.8970 
  112.8750    66.4920    10.1230     8.3880    10.6220    24.4310     2.3200   -14.9280 
  113.0000    66.3980    10.0560     8.2510    10.7640    24.5500     2.3160   -14.9890 
  113.1250    64.5950     9.8810     8.0680    10.6860    24.7270     2.2770   -15.0710 
  113.2500    61.9100     9.6550     7.8910    10.3940    24.8940     2.2280   -15.1680 
  113.3750    60.6430     9.4660     7.7890    10.2970    24.9310     2.1970   -15.2770 
  113.5000    62.3470     9.3720     7.7920    10.5370    24.8410     2.1890   -15.3770 
  113.6250    64.4850     9.3900     7.8880    10.8350    24.6620     2.1930   -15.4840 
  113.7500    65.0680     9.4940     8.0230    10.9740    24.5060     2.2020   -15.5860 
  113.8750    64.3780     9.6120     8.1080    10.9680    24.4520     2.2050   -15.6390 
  114.0000    65.3830     9.6560     8.1100    10.9380    24.4410     2.2030   -15.6330 
  114.1250    69.2760     9.5900     8.0460    10.7960    24.4360     2.1990   -15.5770 
  114.2500    72.8190     9.4300     7.9670    10.4360    24.4300     2.1970   -15.4860 
  114.3750    71.4210     9.2600     7.9360    10.1520    24.4280     2.2020   -15.3920 
  114.5000    68.4610     9.1760     7.9640    10.3610    24.4220     2.2110   -15.3140 
  114.6250    68.3710     9.2160     8.0280    10.9430    24.4070     2.2210   -15.2420 
  114.7500    70.8060     9.3500     8.0920    10.9440    24.3950     2.2270   -15.1710 
  114.8750    72.3490     9.5050     8.1210    10.7190    24.3860     2.2250   -15.1140 
  115.0000    72.9480     9.6070     8.1140    10.6820    24.3800     2.2170   -15.0770 
  115.1250    72.1820     9.6380     8.0870    10.8730    24.3780     2.2060   -15.0690 
  115.2500    69.3170     9.6170     8.0670    11.1560    24.3760     2.1980   -15.0710 
  115.3750    68.3820     9.5810     8.0810    11.0680    24.3750     2.1950   -15.0440 
  115.5000    72.0650     9.5570     8.1200    10.8120    24.3640     2.1950   -14.9820 
  115.6250    76.9760     9.5430     8.1590    10.7580    24.3450     2.1980   -14.8840 
  115.7500    78.4550     9.5240     8.1570    10.7770    24.3330     2.2030   -14.7560 
  115.8750    75.5550     9.4760     8.0750    10.7300    24.3150     2.2130   -14.6290 
  116.0000    71.6450     9.4010     7.9400    10.5770    24.2730     2.2250   -14.5210 
  116.1250    70.7240     9.3240     7.8000    10.4350    24.2040     2.2380   -14.4130 
  116.2500    72.9540     9.2860     7.7170    10.3590    24.1630     2.2500   -14.3240 
  116.3750    74.4660     9.3390     7.7580    10.3530    24.1590     2.2560   -14.2680 
  116.5000    73.9350     9.4680     7.9080    10.2010    24.1740     2.2520   -14.2300 
  116.6250    73.3490     9.6280     8.1330    10.0930    24.2030     2.2380   -14.2300 
  116.7500    73.6350     9.7600     8.3680    10.2610    24.2500     2.2180   -14.2830 
  116.8750    72.4950     9.8180     8.5290    10.1520    24.2680     2.1980   -14.3560 
  117.0000    69.9710     9.8260     8.5870     9.7050    24.2750     2.1800   -14.4140 
  117.1250    67.9000     9.8230     8.5570     9.5600    24.2730     2.1670   -14.4500 
  117.2500    67.4350     9.8330     8.4750     9.9520    24.2530     2.1610   -14.4560 
  117.3750    69.2050     9.8400     8.3750    10.4850    24.1960     2.1680   -14.4610 
  117.5000    71.0190     9.8100     8.2900    10.6740    24.1520     2.1880   -14.4800 
  117.6250    71.6290     9.7390     8.2320    10.2650    24.1320     2.2150   -14.5060 
  117.7500    73.0250     9.6720     8.2140    10.2180    24.1290     2.2420   -14.5230 
  117.8750    75.6640     9.6930     8.2630    10.1050    24.1300     2.2570   -14.5510 
  118.0000    75.4830     9.8190     8.3810    10.2380    24.1470     2.2580   -14.5950 
  118.1250    72.0640    10.0100     8.5530    10.6190    24.1990     2.2470   -14.6600 
  118.2500    69.3080    10.1810     8.7380    11.5980    24.2790     2.2310   -14.7550 
  118.3750    70.6010    10.2210     8.8690    10.9760    24.3290     2.2150   -14.8520 
  118.5000    72.9600    10.1140     8.9130    10.6140    24.3450     2.2050   -14.9340 
  118.6250    74.6240     9.8930     8.8620    10.3740    24.3600     2.1990   -15.0020 
  118.7500    75.9700     9.6440     8.7370    10.3160    24.3730     2.1980   -15.0650 
  118.8750    76.7130     9.4870     8.5760    10.3650    24.3820     2.1970   -15.1130 
  119.0000    76.3690     9.4680     8.4230    10.5280    24.3860     2.1950   -15.1470 
  119.1250    75.3030     9.5610     8.3020    10.5720    24.3860     2.1930   -15.1660 
  119.2500    73.6250     9.6840     8.2200    10.4650    24.3830     2.1920   -15.1700 
  119.3750    72.1140     9.7360     8.1840    10.3040    24.3770     2.1910   -15.1740 
  119.5000    71.2040     9.6970     8.1840    10.1970    24.3880     2.1910   -15.1930 
  119.6250    72.7870     9.6100     8.2130    10.1750    24.4210     2.1920   -15.2270 
  119.7500    77.0830     9.5430     8.2660    10.3210    24.4590     2.1920   -15.2460 
  119.8750    79.1770     9.5680     8.3590    10.4390    24.4810     2.1900   -15.2350 
  120.0000    77.0690     9.7090     8.5380    10.8400    24.4930     2.1920   -15.2300 
  120.1250    73.3800     9.9920     8.8680    11.2270    24.5140     2.2090   -15.2390 
  120.2500    71.1890    10.4430     9.4000    11.6060    24.5580     2.2500   -15.2430 
  120.3750    69.8080    11.0910    10.1240    12.0570    24.5720     2.3100   -15.2450 
