~V
VERS. 2.00: Ver 2.00
~W
STRT.M 57.0000:
STOP.M 283.0000:
STEP.M 0.1250:
NULL. -999.2500:
UWI. F11039:
~C
DEPT.M :
SP.MV :
GR.API :
RML.OHMM :
RI. :
RXO.OHMM :
CALI.CM :
DEN.GM/CC :
~A
# ...
  214.5000    -4.8330    59.3620    60.5190    55.1180    57.8080    24.3100     2.2380 
  214.6250    -5.0020    58.1660    61.7300    56.7170    54.8440    24.2030     2.2390 
  214.7500    -5.1540    56.4530    62.3950    57.8480    51.9030    24.1120     2.2350 
  214.8750    -5.2870    55.6920    62.6930    58.5750    51.3840    24.0720     2.2280 
  215.0000    -5.4140    56.0930    62.9650    59.1810    52.3440    24.1330     2.2230 
  215.1250    -5.5510    57.0910    63.3660    59.8160    53.9740    24.1920     2.2210 
  215.2500    -5.6990    57.3590    63.9170    60.5190    55.3400    24.1890     2.2220 
  215.3750    -5.8980    56.6750    64.5110    61.2120    53.6750    24.1300     2.2230 
  215.5000    -6.1000    57.9140    64.9660    61.7670    50.6920    24.0560     2.2220 
  215.6250    -6.3060    61.8100    65.1390    62.0770    48.4680    23.9730     2.2190 
  215.7500    -6.5370    65.2800    64.9770    62.0990    47.0610    23.9100     2.2160 
  215.8750    -6.7770    65.1960    64.5480    61.8750    44.8590    23.8650     2.2140 
  216.0000    -6.9900    63.0800    64.1400    61.6310    42.1830    23.8290     2.2130 
  216.1250    -7.1790    62.3200    64.0230    61.5930    38.5920    23.8190     2.2100 
  216.2500    -7.3450    63.0660    64.4650    62.0080    36.6210    23.8440     2.2070 
  216.3750    -7.4790    64.0410    65.8980    63.2920    38.0590    23.9030     2.2050 
  216.5000    -7.6260    63.6660    68.4800    65.6260    41.2960    23.9840     2.2060 
  216.6250    -7.7600    61.8700    72.6890    69.2800    45.3010    24.0720     2.2090 
  216.7500    -7.8780    60.1580    78.6880    74.4620    48.5620    24.1460     2.2120 
  216.8750    -7.9790    58.6750    87.0130    81.4700    52.4000    24.2330     2.2140 
  217.0000    -8.0890    58.0090    96.9610    89.7070    59.8310    24.3620     2.2150 
  217.1250    -8.2220    58.2900   107.0700    98.4650    71.6400    24.5070     2.2130 
  217.2500    -8.3800    57.6350   116.0620   106.7660    86.1840    24.6120     2.2090 
  217.3750    -8.5280    54.5250   123.0290   113.3130   106.7430    24.7040     2.2020 
  217.5000    -8.6590    50.6730   127.8240   117.9110   129.7990    24.8190     2.1950 
  217.6250    -8.7710    48.7280   130.9650   120.9460   140.4640    24.9230     2.1890 
  217.7500    -8.8640    48.9330   133.5610   123.3650   136.6110    24.9700     2.1860 
  217.8750    -8.9410    51.5340   136.9880   126.4530   133.7400    24.9850     2.1860 
  218.0000    -9.0180    53.9570   141.6890   130.7940   138.6530    25.0100     2.1890 
  218.1250    -9.0710    54.0000   147.3380   136.2700   150.3990    25.0380     2.1920 
  218.2500    -9.0980    52.4340   152.9690   142.1520   164.7770    25.0550     2.1970 
  218.3750    -9.1030    52.2130   156.7380   146.9090   174.0300    25.0740     2.2030 
  218.5000    -9.0900    52.7000   157.4150   149.2520   183.7900    25.1050     2.2090 
  218.6250    -9.0670    52.0300   155.3190   148.3160   186.0850    25.0960     2.2150 
  218.7500    -9.0330    50.9570   150.1160   143.8880   175.6610    25.0450     2.2200 
  218.8750    -8.9710    53.9720   143.4470   136.1980   162.4310    24.9770     2.2200 
  219.0000    -8.8930    60.4030   137.1560   127.1960   152.1540    24.9280     2.2160 
  219.1250    -8.7930    64.2810   129.4670   118.5170   142.4690    24.9050     2.2090 
  219.2500    -8.6680    61.9330   121.4140   111.6490   127.4080    24.8900     2.2040 
  219.3750    -8.5250    56.1910   117.3880   108.1340   111.6120    24.8680     2.2030 
  219.5000    -8.3820    53.2770   116.6900   107.6650   104.8880    24.8490     2.2070 
  219.6250    -8.2260    54.0010   118.2680   109.4930   108.2780    24.8420     2.2130 
  219.7500    -8.0540    55.5400   120.4060   112.1670   115.9330    24.8410     2.2190 
  219.8750    -7.9000    56.1820   120.6890   113.4870   124.8570    24.8410     2.2230 
  220.0000    -7.7400    56.0170   117.9690   112.1430   128.4900    24.8370     2.2250 
  220.1250    -7.5850    56.1450   112.2800   107.9030   121.0970    24.8250     2.2250 
  220.2500    -7.4580    56.8320   104.7910   101.6230   106.1840    24.8150     2.2230 
  220.3750    -7.3600    57.2220    97.3500    94.9080    93.5580    24.8370     2.2190 
  220.5000    -7.2810    57.0280    91.2290    89.1630    93.4000    24.9430     2.2160 
  220.6250    -7.2300    56.1970    86.7410    84.8400   101.2890    25.0420     2.2120 
  220.7500    -7.2270    55.7240    83.7550    81.9120   105.9330    25.0640     2.2090 
  220.8750    -7.2400    58.5420    82.2090    80.3570    95.4200    24.9740     2.2060 
  221.0000    -7.2890    61.1750    81.7350    79.8170    86.8700    24.8950     2.2050 
  221.1250    -7.3800    60.2730    82.2760    80.2280    82.6320    24.8540     2.2050 
  221.2500    -7.4920    58.1640    83.6940    81.4720    80.8600    24.8430     2.2040 
  221.3750    -7.6190    57.3420    85.5220    83.1690    82.5250    24.8440     2.2040 
  221.5000    -7.7700    56.5050    86.8190    84.4550    86.1240    24.8440     2.2040 
  221.6250    -7.9400    54.8420    86.8080    84.5800    90.5050    24.8440     2.2040 
  221.7500    -8.1100    53.5950    85.0890    83.1050    94.2370    24.8460     2.2050 
  221.8750    -8.2830    54.9960    81.7310    79.9860    92.7740    24.8540     2.2050 
  222.0000    -8.4250    58.1500    77.9060    76.2770    83.6940    24.8590     2.2030 
  222.1250    -8.5400    61.4540    74.5650    72.8760    74.0270    24.8520     2.1980 
  222.2500    -8.6190    62.6240    72.3850    70.4650    67.6090    24.8290     2.1900 
  222.3750    -8.6800    60.3680    71.8700    69.5690    65.0690    24.8220     2.1840 
  222.5000    -8.7360    58.0740    72.6180    69.8780    65.6540    24.8020     2.1810 
  222.6250    -8.7770    55.5900    74.2630    71.0900    68.1000    24.7230     2.1820 
  222.7500    -8.8220    53.6150    76.3840    72.8330    70.8180    24.5870     2.1870 
  222.8750    -8.8510    54.1810    78.5840    74.7460    73.3180    24.4600     2.1920 
  223.0000    -8.8750    54.6220    80.6340    76.5610    76.5150    24.4680     2.1960 
  223.1250    -8.8840    54.4430    82.5990    78.2720    78.1740    24.6200     2.1970 
  223.2500    -8.9280    55.0150    84.7820    80.0930    79.5060    24.7920     2.1950 
  223.3750    -8.9740    57.3760    87.8430    82.5610    80.7900    24.8480     2.1940 
  223.5000    -8.9870    58.7130    92.1130    86.0150    79.8270    24.7830     2.1960 
  223.6250    -9.0040    57.1690    97.6390    90.5620    81.9080    24.6490     2.2000 
  223.7500    -8.9970    55.5190   103.9720    95.8840    89.5640    24.5360     2.2050 
  223.8750    -9.0150    56.7890   109.9730   101.0670   112.0250    24.5470     2.2070 
  224.0000    -9.0740    58.8880   114.4190   105.0140   130.2370    24.6510     2.2050 
  224.1250    -9.1280    58.1590   116.5730   107.0110   127.0220    24.8120     2.1990 
  224.2500    -9.1510    54.7560   116.4480   106.9590   120.0700    24.9610     2.1910 
  224.3750    -9.1940    53.8120   114.8340   105.3840   119.6940    25.0110     2.1840 
  224.5000    -9.2920    55.5930   113.4080   103.7220   123.3460    24.9860     2.1800 
  224.6250    -9.4000    56.2570   113.2470   102.9560   122.2270    24.9480     2.1800 
  224.7500    -9.5500    53.6680   114.9190   103.6670   106.5230    24.9240     2.1820 
  224.8750    -9.7130    50.9420   118.6610   106.1560   106.5950    24.9580     2.1810 
  225.0000    -9.8680    51.7490   123.4750   109.6500   114.2550    25.0180     2.1750 
  225.1250   -10.0230    55.7900   128.2430   113.2680   128.0570    25.0800     2.1610 
  225.2500   -10.1740    58.0590   131.5210   115.8420   143.4250    25.1250     2.1460 
  225.3750   -10.3380    55.6680   131.1940   115.6110   153.5580    25.1710     2.1430 
  225.5000   -10.4860    54.0680   127.0910   112.2760   156.9750    25.1750     2.1610 
  225.6250   -10.6260    55.1580   120.0500   106.3720   145.2310    25.0880     2.1990 
