~V
VERS. 2.00: Ver 2.00
~W
STRT.M 62.0000:
STOP.M 218.0000:
STEP.M 0.1250:
NULL. -999.2500:
UWI. F11008:
~C
DEPT.M :
DEN.GM/CC :
GR.API :
RML.OHMM :
RI. :
RXO.OHMM :
CALI.CM :
SP.MV :
~A
# ...
  107.0000     2.2140    82.7800     9.3890     8.3660    10.9520    24.6180   -26.4040 
  107.1250     2.2140    87.7000     9.2380     8.2580     9.6510    24.1310   -26.6010 
  107.2500     2.2110    91.2970     9.0220     8.0590     8.9090    23.8530   -26.8410 
  107.3750     2.2090    89.6280     8.8110     7.8380     8.7890    23.7690   -27.1580 
  107.5000     2.2060    85.6970     8.6620     7.6610     9.0070    23.7700   -27.5640 
  107.6250     2.1990    83.2440     8.6130     7.5770     8.9870    23.7560   -27.9940 
  107.7500     2.1890    81.0890     8.6330     7.5680     8.7200    23.6850   -28.3910 
  107.8750     2.1790    79.1710     8.6870     7.6040     8.5390    23.6400   -28.7380 
  108.0000     2.1730    78.9200     8.7370     7.6500     8.4720    23.6920   -29.0290 
  108.1250     2.1700    78.1740     8.7410     7.6690     8.9030    23.8240   -29.2550 
  108.2500     2.1690    75.0530     8.6930     7.6460     9.4880    23.9080   -29.4130 
  108.3750     2.1640    71.7990     8.6110     7.5900     9.5780    23.9240   -29.5260 
  108.5000     2.1540    71.3180     8.5340     7.5260     9.2220    23.8610   -29.6520 
  108.6250     2.1430    73.2940     8.5150     7.4980     8.8200    23.7470   -29.7720 
  108.7500     2.1350    75.2320     8.5670     7.5250     8.4740    23.6920   -29.8160 
  108.8750     2.1310    75.8030     8.6760     7.6030     8.1120    23.7620   -29.7640 
  109.0000     2.1320    74.6580     8.8050     7.7050     7.9870    23.9370   -29.7000 
  109.1250     2.1380    73.8680     8.9040     7.7870     8.6850    24.0310   -29.7030 
  109.2500     2.1490    75.1960     8.9510     7.8250     9.1940    23.9350   -29.7490 
  109.3750     2.1660    76.4880     8.9480     7.8220     9.1160    23.7620   -29.7720 
  109.5000     2.1860    76.4550     8.9210     7.8000     9.1670    23.6480   -29.7800 
  109.6250     2.2010    76.0590     8.9080     7.7950     9.2320    23.5160   -29.8680 
  109.7500     2.2070    76.3200     8.9300     7.8230     9.4160    23.3450   -30.0210 
  109.8750     2.2060    76.0880     8.9850     7.8800     9.6440    23.2210   -30.2100 
  110.0000     2.2020    75.5500     9.0510     7.9470     9.8220    23.1540   -30.4270 
  110.1250     2.1990    77.0100     9.0930     7.9900     9.8230    23.1240   -30.6780 
  110.2500     2.1970    80.2170     9.0930     7.9910     9.5840    23.0940   -30.9120 
  110.3750     2.1950    81.8890     9.0450     7.9460     9.4320    23.0750   -31.0720 
  110.5000     2.1930    79.2700     8.9530     7.8570     9.2370    23.1040   -31.1710 
  110.6250     2.1920    75.9450     8.8160     7.7310     9.1740    23.2210   -31.2450 
  110.7500     2.1900    75.7300     8.6490     7.5820     9.0660    23.3880   -31.2990 
  110.8750     2.1830    77.0760     8.4620     7.4140     8.9060    23.5930   -31.3270 
  111.0000     2.1690    76.4630     8.2900     7.2420     8.7850    23.7960   -31.2990 
  111.1250     2.1510    75.6240     8.2420     7.1270     8.6670    23.9030   -31.1650 
  111.2500     2.1410    77.1970     8.4480     7.1640     8.4940    23.9130   -30.9760 
  111.3750     2.1570    78.6950     9.0480     7.4860     8.2880    23.9520   -30.7500 
  111.5000     2.2100    77.6740    10.1260     8.2280     9.2520    24.1000   -30.4270 
  111.6250     2.3050    74.9060    11.6330     9.5290    13.9430    24.3670   -30.0190 
  111.7500     2.4090    72.1290    13.1320    11.1160    20.4480    24.6900   -29.6550 
  111.8750     2.4870    70.4300    14.1480    12.5320    24.6160    25.0200   -29.3450 
  112.0000     2.5100    72.3670    14.2940    13.2220    30.8860    25.1510   -29.0660 
  112.1250     2.4640    77.1960    13.3650    12.7070    28.8850    24.9820   -28.8610 
  112.2500     2.3840    78.5750    11.8880    11.4250    19.6360    24.6990   -28.7670 
  112.3750     2.3010    77.7540    10.3490     9.9030    13.0390    24.5060   -28.8140 
  112.5000     2.2370    80.4360     9.1240     8.5830    10.7200    24.4090   -29.0050 
  112.6250     2.2010    87.1860     8.4380     7.7380     9.5420    24.3700   -29.2840 
  112.7500     2.1830    90.0550     8.1320     7.2780     7.6160    24.3070   -29.6000 
  112.8750     2.1750    86.8320     8.0510     7.0970     7.2130    24.2100   -29.9800 
  113.0000     2.1740    82.9510     8.0540     7.0720     7.3700    24.0870   -30.3780 
  113.1250     2.1770    82.7200     8.0580     7.1060     7.5830    23.9980   -30.6630 
  113.2500     2.1830    83.5450     8.0720     7.1510    10.8570    23.9270   -30.8480 
  113.3750     2.1870    82.2790     8.1650     7.2400    12.1940    23.9070   -30.9730 
  113.5000     2.1860    78.7130     8.4140     7.4380    10.4810    23.8910   -31.0000 
  113.6250     2.1800    77.4700     8.8650     7.8340     8.6890    23.8770   -30.7880 
  113.7500     2.1760    78.9900     9.3750     8.3630     8.1500    23.9940   -30.3080 
  113.8750     2.1860    79.4120     9.7300     8.8480     8.2280    24.2860   -29.5480 
  114.0000     2.2210    78.0300     9.6870     9.0160     8.8520    24.5430   -28.5220 
  114.1250     2.2700    78.8170     9.0260     8.5410     9.2770    24.5480   -27.2800 
  114.2500     2.2980    84.2590     7.9620     7.5720     8.7330    24.5320   -25.9310 
  114.3750     2.2770    91.8650     6.7930     6.4020     7.3110    24.6310   -24.5870 
  114.5000     2.2040    96.0540     5.8490     5.3710     5.2420    24.8980   -23.4260 
  114.6250     2.1150    94.1450     5.4560     4.7930     4.4390    25.0340   -22.7360 
  114.7500     2.0590    88.8180     5.5960     4.6840     4.5690    24.7910   -22.5070 
  114.8750     2.0560    83.3200     6.1830     5.0220     5.9410    24.1670   -22.6900 
  115.0000     2.0970    80.3740     7.0430     5.7160     7.8970    23.5840   -23.2670 
  115.1250     2.1510    79.4320     7.9240     6.5990     8.9520    23.4540   -24.1870 
  115.2500     2.1940    79.0190     8.5940     7.3900     9.1360    23.6550   -25.2780 
  115.3750     2.2200    77.4910     8.9540     7.9150     8.7630    23.9500   -26.4060 
  115.5000     2.2320    75.4480     9.0270     8.1230     8.4170    24.0280   -27.4730 
  115.6250     2.2340    74.4840     8.9240     8.0760     8.6670    23.8830   -28.3390 
  115.7500     2.2310    74.8990     8.8170     7.9610     8.9720    23.7180   -28.9590 
  115.8750     2.2260    75.7900     8.7840     7.8700     9.1040    23.6490   -29.3400 
  116.0000     2.2190    77.4360     8.8440     7.8410     9.0550    23.6690   -29.5600 
  116.1250     2.2080    80.4350     8.9770     7.8760     8.9430    23.7700   -29.7130 
  116.2500     2.1950    83.7620     9.1260     7.9410     8.9330    23.9180   -29.7610 
  116.3750     2.1880    84.9730     9.2550     8.0120     8.9110    24.0790   -29.6820 
  116.5000     2.1910    83.2420     9.3380     8.0690     8.7380    24.2350   -29.4620 
  116.6250     2.2060    80.4960     9.3570     8.0900     8.3860    24.3170   -29.0870 
  116.7500     2.2240    78.1400     9.3290     8.0730     8.3940    24.3260   -28.6170 
  116.8750     2.2350    76.0340     9.2730     8.0200     9.0450    24.3190   -28.0740 
  117.0000     2.2370    74.3790     9.2100     7.9460     9.7670    24.3230   -27.4970 
  117.1250     2.2320    72.6420     9.1600     7.8710    10.1020    24.3220   -26.9320 
  117.2500     2.2280    71.9070     9.1270     7.8100    10.1490    24.2960   -26.4230 
  117.3750     2.2270    73.7320     9.1110     7.7680     9.9470    24.2390   -25.9820 
  117.5000     2.2270    77.4600     9.1100     7.7470    10.0090    24.1830   -25.6110 
  117.6250     2.2240    78.5810     9.1250     7.7490    10.0390    24.1230   -25.3670 
  117.7500     2.2200    76.2540     9.1540     7.7720     9.8970    24.0690   -25.2540 
  117.8750     2.2170    73.8420     9.1900     7.8130     9.7820    24.0580   -25.2230 
  118.0000     2.2170    74.4310     9.2160     7.8570     9.9120    24.0860   -25.1960 
  118.1250     2.2210    76.0160     9.2030     7.8690    10.0800    24.1630   -25.1550 
