~V
VERS. 2.00: Ver 2.00
~W
STRT.M 55.0000:
STOP.M 286.0000:
STEP.M 0.1250:
NULL. -999.2500:
UWI. F11067:
~C
DEPT.M :
GR.API :
RML.OHMM :
RI. :
RXO.OHMM :
CALI.CM :
DEN.GM/CC :
SP.MV :
~A
# ...
  156.2500    52.4190    17.2340    16.3620    17.3380    24.2610     2.5700    -0.5290 
  156.3750    47.8870    17.5710    16.6320    16.5890    24.2340     2.5770    -0.5500 
  156.5000    45.7290    17.8500    16.8160    15.6290    24.1900     2.5760    -0.5760 
  156.6250    47.8730    17.9920    16.7840    16.0840    24.1230     2.5700    -0.6510 
  156.7500    51.9680    17.9490    16.4930    16.3600    24.1620     2.5630    -0.7160 
  156.8750    55.4670    17.5390    15.9590    15.9150    24.2020     2.5560    -0.7800 
  157.0000    57.7040    16.6320    15.2550    14.9610    24.2390     2.5530    -0.8640 
  157.1250    59.6160    15.4370    14.5150    14.3290    24.2910     2.5530    -0.9290 
  157.2500    61.4090    14.4810    13.9270    14.7720    24.3090     2.5530    -1.0070 
  157.3750    63.3960    13.9780    13.6390    15.5240    24.3140     2.5500    -1.0930 
  157.5000    66.0850    13.8850    13.7340    14.9580    24.3130     2.5420    -1.1880 
  157.6250    68.4100    14.1930    14.2610    14.2470    24.3140     2.5330    -1.2640 
  157.7500    70.8010    14.7810    15.0040    15.4190    24.3140     2.5280    -1.3540 
  157.8750    74.8130    15.4390    15.6750    18.2430    24.3060     2.5280    -1.4370 
  158.0000    78.6580    15.8690    15.8880    19.9950    24.2900     2.5250    -1.5390 
  158.1250    78.9980    15.6550    15.2160    18.6270    24.2490     2.5080    -1.6660 
  158.2500    79.3840    14.7650    13.8520    16.1240    24.1840     2.4690    -1.7790 
  158.3750    81.1900    13.3580    12.1630    14.1630    24.0660     2.4130    -1.9050 
  158.5000    82.6500    11.7730    10.5680    12.5940    23.9450     2.3550    -2.0000 
  158.6250    81.2650    10.4290     9.4080    10.2280    23.8660     2.3230    -2.0280 
  158.7500    79.2550     9.4810     8.6370     9.0050    23.9340     2.3280    -1.9970 
  158.8750    78.4960     8.8810     8.1230     8.8510    24.0790     2.3650    -1.9250 
  159.0000    78.6610     8.4650     7.6940    10.6440    24.2070     2.4140    -1.7750 
  159.1250    80.6050     8.0470     7.2170    11.3300    24.4120     2.4470    -1.5580 
  159.2500    84.8480     7.5610     6.7220     9.1760    24.6540     2.4540    -1.3090 
  159.3750    89.1330     7.0930     6.3340     6.9440    24.8080     2.4420    -1.0260 
  159.5000    90.7660     6.7960     6.1750     6.2150    24.8640     2.4290    -0.7530 
  159.6250    87.8770     6.8490     6.3360     6.6940    24.9130     2.4300    -0.5130 
  159.7500    84.1090     7.1780     6.6880     7.6470    24.9560     2.4420    -0.3150 
  159.8750    83.3210     7.6110     7.0320     8.3390    24.9400     2.4540    -0.1440 
  160.0000    87.3900     7.8940     7.1210     8.3510    24.8600     2.4550     0.0130 
  160.1250    94.4050     7.7530     6.7690     7.4790    24.8330     2.4370     0.1380 
  160.2500    98.4200     7.2550     6.1860     6.3490    24.8240     2.4090     0.2310 
  160.3750    97.6610     6.5940     5.5870     6.0380    24.8130     2.3810     0.3170 
  160.5000    95.1360     5.9910     5.1220     6.1530    24.7840     2.3590     0.3940 
  160.6250    93.0400     5.6290     4.8630     6.0660    24.7650     2.3470     0.4230 
  160.7500    92.0580     5.4790     4.7410     5.9580    24.7700     2.3380     0.4610 
  160.8750    91.2990     5.4700     4.6930     6.0100    24.7760     2.3310     0.4990 
  161.0000    91.1070     5.5220     4.6720     6.3170    24.7760     2.3230     0.5100 
  161.1250    92.6860     5.5740     4.6600     6.7230    24.7710     2.3140     0.5040 
  161.2500    94.7240     5.6130     4.6660     6.6090    24.7680     2.3070     0.4990 
  161.3750    95.2100     5.6510     4.6920     6.1610    24.7670     2.3040     0.4870 
  161.5000    93.5870     5.7040     4.7350     5.8290    24.7620     2.3080     0.4700 
  161.6250    92.2190     5.7800     4.7790     5.8620    24.7580     2.3190     0.4850 
  161.7500    91.7090     5.8630     4.8090     5.9580    24.7540     2.3310     0.4770 
  161.8750    92.0580     5.9390     4.8120     6.0750    24.7580     2.3370     0.4490 
  162.0000    94.7800     5.9930     4.7840     6.1460    24.7580     2.3360     0.4300 
  162.1250    99.9840     6.0100     4.7230     6.0270    24.7410     2.3280     0.4220 
  162.2500   104.8160     5.9960     4.6500     5.6830    24.7290     2.3210     0.4000 
  162.3750   106.5380     5.9560     4.5760     5.3610    24.7170     2.3180     0.3860 
  162.5000   103.4950     5.8970     4.5120     5.2230    24.7090     2.3220     0.3900 
  162.6250    97.0980     5.8370     4.4690     5.1190    24.7000     2.3300     0.3610 
  162.7500    91.8620     5.7960     4.4500     5.0760    24.6930     2.3350     0.3470 
  162.8750    89.1610     5.7890     4.4520     5.0930    24.7010     2.3380     0.3460 
  163.0000    87.7330     5.8170     4.4680     5.1880    24.7140     2.3380     0.3220 
  163.1250    89.0180     5.8520     4.4770     5.2920    24.7180     2.3370     0.3070 
  163.2500    94.2920     5.8550     4.4600     5.2960    24.7180     2.3390     0.3020 
  163.3750   101.5360     5.8000     4.4080     5.2300    24.7190     2.3440     0.2900 
  163.5000   107.1830     5.6940     4.3290     5.0330    24.7170     2.3530     0.2640 
  163.6250   107.2620     5.5760     4.2480     4.9270    24.7160     2.3660     0.2580 
  163.7500   104.4030     5.4970     4.1930     4.8710    24.7160     2.3790     0.2440 
  163.8750   101.0640     5.4750     4.1750     4.8860    24.7130     2.3890     0.2220 
  164.0000    99.6790     5.5080     4.1930     4.8590    24.7120     2.3940     0.2050 
  164.1250    99.6950     5.5720     4.2330     4.7430    24.7130     2.3960     0.1680 
  164.2500    99.9410     5.6330     4.2710     4.6530    24.7150     2.3970     0.1490 
  164.3750   100.3510     5.6700     4.2840     4.6920    24.7170     2.3990     0.1360 
  164.5000   101.3930     5.6700     4.2600     4.8390    24.7210     2.4010     0.1200 
  164.6250   102.3070     5.6150     4.1870     4.8640    24.7190     2.3980     0.1160 
  164.7500   103.4530     5.5150     4.0890     4.7820    24.7140     2.3900     0.1220 
  164.8750   105.1330     5.3840     3.9870     4.6620    24.7130     2.3800     0.1220 
  165.0000   108.2470     5.2440     3.9060     4.5220    24.7070     2.3720     0.1250 
  165.1250   111.7540     5.1260     3.8620     4.3830    24.6910     2.3690     0.1520 
  165.2500   114.6290     5.0480     3.8520     4.3520    24.6740     2.3700     0.1600 
  165.3750   116.9770     5.0220     3.8690     4.4440    24.6700     2.3720     0.1620 
  165.5000   118.5430     5.0450     3.9010     4.5400    24.6700     2.3720     0.1680 
  165.6250   118.5960     5.0940     3.9300     4.5350    24.6680     2.3670     0.1620 
  165.7500   117.3240     5.1300     3.9390     4.4440    24.6600     2.3590     0.1610 
  165.8750   114.0160     5.1270     3.9200     4.6040    24.6300     2.3490     0.1670 
  166.0000   110.4040     5.0750     3.8750     4.7660    24.5930     2.3380     0.1640 
  166.1250   107.8470     4.9810     3.8110     4.6930    24.5480     2.3310     0.1610 
  166.2500   105.3920     4.8750     3.7370     4.4640    24.5690     2.3290     0.1620 
  166.3750   102.7940     4.7730     3.6560     4.2700    24.6370     2.3320     0.1500 
  166.5000   100.6070     4.6820     3.5730     4.1450    24.6910     2.3400     0.1610 
  166.6250   101.0060     4.6090     3.5010     4.0800    24.7110     2.3460     0.1600 
  166.7500   101.8090     4.5560     3.4520     4.0590    24.7100     2.3460     0.1320 
  166.8750    99.9410     4.5380     3.4480     4.0990    24.7110     2.3360     0.1030 
  167.0000    97.4190     4.5820     3.5180     4.0830    24.7100     2.3180     0.0660 
  167.1250    97.6520     4.7400     3.6960     4.1180    24.7110     2.2950     0.0100 
  167.2500    96.8080     4.9960     3.9390     4.3290    24.7110     2.2750    -0.0690 
  167.3750    91.8450     5.2960     4.1760     5.0110    24.7090     2.2610    -0.1470 
