~V
VERS. 2.00: Ver 2.00
~W
STRT.M 50.0000:
STOP.M 270.0000:
STEP.M 0.1250:
NULL. -999.2500:
UWI. F11070:
~C
DEPT.M :
DEN.GM/CC :
GR.API :
RML.OHMM :
RI. :
RXO.OHMM :
CALI.CM :
SP.MV :
~A
   50.0000     2.1690  -999.2500  -999.2500  -999.2500  -999.2500  -999.2500     1.1720 
   50.1250     2.1810  -999.2500  -999.2500  -999.2500  -999.2500  -999.2500     1.4010 
   50.2500     2.1890  -999.2500  -999.2500  -999.2500  -999.2500  -999.2500     1.6210 
   50.3750     2.2130  -999.2500  -999.2500  -999.2500  -999.2500  -999.2500     1.7680 
   50.5000     2.2340    35.3430    32.8010     6.7010    66.7880    25.5860     1.9780 
   50.6250     2.2310    35.3430    32.8010     6.7010    66.7880    25.5860     2.1740 
   50.7500     2.2070    36.6490    33.6080     6.7090   102.6100    25.5780     2.2350 
   50.8750     2.1760    39.4270    37.6550     6.9290   205.8020    25.5570     2.3050 
   51.0000     2.1480    41.3320    44.7730     7.7020   169.3710    25.5520     2.4790 
   51.1250     2.1290    44.1360    40.5530     2.4480    90.1980    25.5520     2.5770 
   51.2500     2.1200    46.3350     6.3750     1.6700   103.4800    25.5530     2.6350 
   51.3750     2.1220    45.8750     1.5780     1.3720    41.2130    25.5560     2.7480 
   51.5000     2.1330    44.0360     0.7930     1.2900     5.6530    25.5770     2.7660 
   51.6250     2.1440    43.5120     0.6390     1.2400     0.7980    25.6020     2.6960 
   51.7500     2.1520    44.0640     0.6100     1.1830     0.5950    25.6020     2.7110 
   51.8750     2.1530    44.9770     0.6030     1.1040     0.5580    25.5720     2.7130 
   52.0000     2.1520    47.3610     0.6000     1.0120     0.5500    25.5520     2.5960 
   52.1250     2.1530    51.1930     0.5820     0.9590     0.5460    25.5520     2.5800 
   52.2500     2.1530    53.0870     0.5730     0.9230     0.5580    25.5520     2.5990 
   52.3750     2.1520    52.0220     0.5850     0.8610     0.4980    25.5530     2.5990 
   52.5000     2.1500    48.6010     0.6370     0.8300     0.4510    25.5540     2.7420 
   52.6250     2.1470    45.3290     0.6670     0.7880     0.3780    25.5560     3.0030 
   52.7500     2.1430    43.0920     0.6270     0.7510     0.3620    25.5540     3.2180 
   52.8750     2.1460    42.3730     0.6060     0.6730     0.3590    25.5560     3.4470 
   53.0000     2.1570    42.4850     0.5800     0.6280     0.3610    25.5600     3.8050 
   53.1250     2.1690    42.7030     0.5530     0.6070     0.4000    25.5620     4.1530 
   53.2500     2.1800    42.9110     0.5160     0.6040     0.5630    25.5570     4.4360 
   53.3750     2.1990    42.2220     0.4580     0.6020     0.8470    25.5540     4.7520 
   53.5000     2.2260    40.8680     0.4380     0.5990     0.8280    25.5530     5.0010 
   53.6250     2.2510    40.8750     0.4830     0.6170     0.6340    25.5530     5.1570 
   53.7500     2.2720    42.7280     0.5590     0.6810     0.4270    25.5570     5.3700 
   53.8750     2.2920    44.2830     0.6190     0.7140     0.3460    25.5660     5.5430 
   54.0000     2.3060    44.5880     0.6740     0.7380     0.3070    25.5730     5.5870 
   54.1250     2.2940    44.4100     0.6890     0.8050     0.3160    25.5830     5.6090 
   54.2500     2.2600    45.0550     0.7120     0.8550     0.3400    25.5850     5.6730 
   54.3750     2.2270    46.2570     0.7670     0.8740     0.3590    25.5790     5.6550 
   54.5000     2.2150    46.7030     0.7940     0.8660     0.3910    25.5760     5.6300 
   54.6250     2.2180    45.9570     0.7800     0.7200     0.4630    25.5760     5.6900 
   54.7500     2.2130    45.1770     0.6060     0.6470     0.5050    25.5770     5.6880 
   54.8750     2.1970    44.4550     0.4300     0.5860     0.5260    25.5780     5.6910 
   55.0000     2.1780    42.4010     0.3330     0.5330     0.5740    25.5810     5.7830 
   55.1250     2.1700    39.2610     0.3650     0.4770     0.6390    25.5840     5.8050 
   55.2500     2.1760    38.3610     0.4210     0.4360     0.6400    25.5900     5.7250 
   55.3750     2.2010    41.8910     0.3650     0.4060     0.5910    25.6010     5.6550 
   55.5000     2.2380    49.0660     0.2790     0.3270     0.4260    25.6210     5.4840 
   55.6250     2.2760    54.7570     0.2860     0.3090     0.3910    25.6280     5.0530 
   55.7500     2.3120    56.2310     0.3070     0.3130     0.3430    25.6080     4.4900 
   55.8750     2.3520    55.4060     0.3480     0.3160     0.2840    25.6020     3.8400 
   56.0000     2.4020    53.7760     0.3580     0.3240     0.2510    25.6040     2.9700 
   56.1250     2.4500    51.6600     0.2950     0.2990     0.2440    25.5840     1.8710 
   56.2500     2.4860    48.8280     0.2720     0.2800     0.2390    25.5540     0.6780 
   56.3750     2.5040    44.5700     0.2650     0.2530     0.2260    25.4680    -0.7760 
   56.5000     2.4950    40.1080     0.2590     0.2460     0.2100    25.3110    -2.4740 
   56.6250     2.4540    37.8980     0.2470     0.2200     0.2070    24.9510    -4.4040 
   56.7500     2.4090    38.0680     0.2210     0.2160     0.2050    24.5270    -6.6920 
   56.8750     2.3860    38.0180     0.2080     0.2120     0.2040    24.2270    -9.3910 
   57.0000     2.3890    38.6910     0.2030     0.2100     0.2210    24.3360   -12.3430 
   57.1250     2.3930    42.5600     0.2810     0.1800     0.2520    25.3840   -15.4410 
   57.2500     2.3280    47.4020     0.7790     0.1420     1.7750    26.9510   -18.6660 
   57.3750     2.1760    52.6550     1.3300     0.3040     4.2490    28.0700   -21.7910 
   57.5000     2.0300    57.3540     1.8450     0.6660     6.2020    28.0560   -24.7210 
   57.6250     1.9830    59.5240     2.8710     1.3870     7.5570    26.9180   -27.4140 
   57.7500     2.0200    60.2560     4.1810     2.4320     8.5160    25.8950   -29.6950 
   57.8750     2.0960    62.0360     5.3620     3.6450     8.8130    25.3810   -31.5180 
   58.0000     2.1570    65.2590     6.1330     4.7960     8.8980    25.3490   -33.0340 
   58.1250     2.1740    67.9770     6.6250     5.7070     9.4010    25.5180   -34.2190 
   58.2500     2.1630    68.9650     7.1320     6.4220    11.8330    25.3120   -35.1030 
   58.3750     2.1320    68.4440     7.6810     6.9610    19.6320    25.0230   -35.8760 
   58.5000     2.0940    68.1160     8.1380     7.3010    28.0020    24.8420   -36.6100 
   58.6250     2.0730    69.5130     8.3080     7.3770    20.2800    24.5040   -37.1870 
   58.7500     2.0790    70.9610     8.2450     7.2780    11.7840    24.1520   -37.6960 
   58.8750     2.1030    70.9200     8.0920     7.1130     9.0900    24.0890   -38.2330 
   59.0000     2.1310    69.7380     7.9880     6.9800     8.5970    24.3450   -38.7340 
   59.1250     2.1520    69.6730     8.0110     6.9360     8.8260    24.7020   -39.1650 
   59.2500     2.1670    69.0430     8.1100     6.9470     9.3540    24.8770   -39.6580 
   59.3750     2.1790    66.1500     8.2280     6.9580     9.6520    24.9410   -40.1010 
   59.5000     2.1840    62.2780     8.3140     6.9170     9.4900    25.0500   -40.4610 
   59.6250     2.1770    61.3140     8.3190     6.8010     9.1540    25.3450   -40.8890 
   59.7500     2.1600    62.6410     8.2400     6.6470     8.9600    25.6620   -41.3360 
   59.8750     2.1400    62.9230     8.0890     6.4980     8.9140    25.9530   -41.6920 
   60.0000     2.1230    62.4130     7.9050     6.3870     8.9090    26.3230   -42.0050 
   60.1250     2.1120    64.1930     7.7550     6.3390     8.9240    26.7090   -42.3950 
   60.2500     2.1070    66.2300     7.6720     6.3380     8.9600    26.7430   -42.6880 
   60.3750     2.1140    66.4230     7.6560     6.3680     9.1030    26.5070   -42.9670 
   60.5000     2.1350    65.2140     7.6940     6.4140     9.3020    26.2960   -43.3230 
   60.6250     2.1590    65.8270     7.7810     6.4770     9.4180    26.2960   -43.5850 
   60.7500     2.1750    68.6150     7.8940     6.5530     9.6060    26.4270   -43.8110 
   60.8750     2.1790    71.4930     8.0100     6.6300    10.0460    26.6170   -44.1010 
   61.0000     2.1730    71.0510     8.0970     6.6900    10.4120    26.9000   -44.3910 
   61.1250     2.1620    67.1450     8.1230     6.7120    10.5410    27.0790   -44.5310 
