~V
VERS. 2.00: Ver 2.00
~W
STRT.M 7.0000:
STOP.M 259.0000:
STEP.M 0.1250:
NULL. -999.2500:
UWI. F11018:
~C
DEPT.M :
DEN.GM/CC :
SP.MV :
GR.API :
RML.OHMM :
RI. :
RXO.OHMM :
CALI.CM :
~A
# ...
   52.0000     2.0550   110.5880    39.2400     0.2780     0.1600    -0.1600    25.3250 
   52.1250     2.0650   110.6630    38.1440     0.4280     0.1910     0.0500    25.3270 
   52.2500     2.0710   110.6920    37.5380     0.4890     0.2020     0.3920    25.3280 
   52.3750     2.0750   110.7430    38.1750     0.5690     0.2200     2.3410    25.3250 
   52.5000     2.0760   110.9020    41.5160     0.5830     0.2300     3.0110    25.3190 
   52.6250     2.0760   111.1580    43.3800     0.5240     0.2240     1.3340    25.3150 
   52.7500     2.0770   111.4970    42.4620     0.4270     0.2070     0.4340    25.3190 
   52.8750     2.0770   111.8730    40.6110     0.3370     0.1870    -0.2170    25.3250 
   53.0000     2.0760   112.2420    38.7120     0.2900     0.1800    -0.2170    25.3280 
   53.1250     2.0750   112.5970    37.3960     0.2840     0.1870     0.0520    25.3280 
   53.2500     2.0750   112.8960    37.3630     0.3020     0.1970     1.1630    25.3260 
   53.3750     2.0730   113.0880    39.0360     0.3200     0.1980     1.8730    25.3200 
   53.5000     2.0700   113.0930    40.7550     0.3180     0.1840     0.5640    25.3140 
   53.6250     2.0740   112.9060    40.1600     0.2970     0.1630    -0.3190    25.3140 
   53.7500     2.0830   112.4990    39.4830     0.2710     0.1470    -0.8870    25.3180 
   53.8750     2.0900   111.9110    39.6590     0.2430     0.1420    -0.9240    25.3250 
   54.0000     2.0860   111.2650    39.9360     0.2060     0.1490    -0.8060    25.3250 
   54.1250     2.0770   110.6490    39.8870     0.1610     0.1600    -0.1990    25.3210 
   54.2500     2.0690   110.0740    39.5080     0.1160     0.1710     0.7920    25.3170 
   54.3750     2.0620   109.5440    39.6630     0.0810     0.1790     4.6860    25.3180 
   54.5000     2.0550   109.0730    39.8540     0.0670     0.1850     7.7590    25.3140 
   54.6250     2.0460   108.6840    38.6490     0.0720     0.1910     3.9750    25.3140 
   54.7500     2.0410   108.3910    37.6670     0.0910     0.1960     0.5930    25.3170 
   54.8750     2.0440   108.1600    39.3800     0.1150     0.1990    -0.4910    25.3210 
   55.0000     2.0560   107.8850    42.3050     0.1330     0.1980    -0.6400    25.3220 
   55.1250     2.0660   107.4950    42.2230     0.1330     0.1940    -0.9010    25.3180 
   55.2500     2.0720   107.0180    39.5160     0.1150     0.1900    -1.0070    25.3170 
   55.3750     2.0760   106.4760    38.3700     0.0900     0.1880    -0.5740    25.3180 
   55.5000     2.0790   105.8910    38.9800     0.0790     0.1880     1.5820    25.3180 
   55.6250     2.0820   105.2960    38.1190     0.0840     0.1890     2.3200    25.3170 
   55.7500     2.0860   104.7470    36.2940     0.1010     0.1910     0.7460    25.3090 
   55.8750     2.0910   104.3100    34.6190     0.1180     0.1920    -0.1020    25.2910 
   56.0000     2.0980   104.0530    34.6130     0.1270     0.1940    -0.0060    25.2720 
   56.1250     2.1050   103.9480    37.0700     0.1420     0.1980     0.1020    25.2650 
   56.2500     2.1090   103.9480    41.0060     0.1700     0.2030    -0.3150    25.2660 
   56.3750     2.1090   104.0310    43.8920     0.2030     0.2070    -0.8140    25.2670 
   56.5000     2.1080   104.1440    43.4300     0.2150     0.2110    -0.7560    25.2680 
   56.6250     2.1080   104.2050    41.7600     0.1880     0.2140    -0.2900    25.2660 
   56.7500     2.1050   104.1660    40.1570     0.1300     0.2180     0.0310    25.2560 
   56.8750     2.0960   104.0260    39.6420     0.0680     0.2230     0.3870    25.2320 
   57.0000     2.0870   103.7650    40.3160     0.0340     0.2270     2.3230    25.2070 
   57.1250     2.0830   103.3850    40.7890     0.0260     0.2290     9.6090    25.1970 
   57.2500     2.0810   102.9090    39.4440     0.0280     0.2280     8.0600    25.1940 
   57.3750     2.0820   102.3480    37.9820     0.0300     0.2220     1.5360    25.1940 
   57.5000     2.0860   101.7700    38.3190     0.0360     0.2130     0.1110    25.1960 
   57.6250     2.0920   101.2190    37.4620     0.0520     0.2030     0.2970    25.1970 
   57.7500     2.0980   100.6960    35.3480     0.0810     0.1950     0.3060    25.1940 
   57.8750     2.1030   100.1760    33.9710     0.1120     0.1920     0.2030    25.1910 
   58.0000     2.1030    99.6610    34.5020     0.1320     0.1990     2.6390    25.1900 
   58.1250     2.1030    99.1700    35.5920     0.1370     0.2130     2.5870    25.1920 
   58.2500     2.1060    98.6470    36.4910     0.1310     0.2250    -0.0550    25.1950 
   58.3750     2.1130    98.0040    38.1830     0.1170     0.2260    -0.9060    25.1970 
   58.5000     2.1200    97.0940    41.5340     0.0990     0.2060    -0.4540    25.1950 
   58.6250     2.1280    95.8900    45.5270     0.0800     0.1740     2.1670    25.1880 
   58.7500     2.1430    94.2930    47.8450     0.0620     0.1440     4.2570    25.1810 
   58.8750     2.1700    92.1400    45.9120     0.0440     0.1260     1.4340    25.1810 
   59.0000     2.2180    89.0640    41.1970     0.0290     0.1230    -0.4680    25.1710 
   59.1250     2.2890    84.8890    39.3040     0.0170     0.1180    -0.7070    25.1550 
   59.2500     2.3810    79.2820    40.0330     0.0110     0.1020    -0.6080    25.1360 
   59.3750     2.4830    72.0540    40.9180     0.0170     0.0750    -0.3750    25.0370 
   59.5000     2.5730    62.8320    42.0090     0.0390     0.0560     0.7360    24.6050 
   59.6250     2.5910    52.0170    44.4620     0.0780     0.0720     2.4500    23.8920 
   59.7500     2.4710    40.1810    48.5780     0.1600     0.1630     4.7020    23.4120 
   59.8750     2.2730    28.0980    54.8810     0.3450     0.3940     6.5430    23.5980 
   60.0000     2.1390    16.5170    60.5540     0.8390     0.9260     8.1260    24.1670 
   60.1250     2.1070     5.8750    61.9570     1.8770     1.8490     9.7070    24.4000 
   60.2500     2.1490    -3.3150    61.5650     3.3940     3.1220    11.0130    24.0660 
   60.3750     2.2090   -10.7070    64.7290     4.5010     4.3690    11.3820    23.6440 
   60.5000     2.2580   -15.7840    73.3700     4.6690     5.0580    10.7970    23.4950 
   60.6250     2.3060   -18.9010    80.7930     4.5850     5.3050     9.4120    23.4650 
   60.7500     2.3560   -20.5480    84.7500     4.5070     5.3540     7.4170    23.4400 
   60.8750     2.3970   -21.4000    86.0880     4.5000     5.3660     6.0460    23.3860 
   61.0000     2.4200   -21.8910    87.7130     4.6070     5.4270     6.6990    23.4600 
   61.1250     2.4170   -22.2320    91.8480     4.8150     5.5640     7.6860    23.7810 
   61.2500     2.3810   -22.5650    95.0830     5.0740     5.7670     7.0330    24.2630 
   61.3750     2.3250   -22.9550    96.0560     5.3130     6.0080     5.9530    24.5480 
   61.5000     2.2820   -23.3710    96.2430     5.4480     6.2250     6.2910    24.5920 
   61.6250     2.2660   -23.7780    94.8920     5.4560     6.3450     7.4820    24.5930 
   61.7500     2.2750   -24.1120    92.1820     5.3440     6.3230     8.1280    24.6320 
   61.8750     2.2970   -24.3460    92.3800     5.1560     6.1590     7.4950    24.7070 
   62.0000     2.3230   -24.5070    98.1470     4.9660     5.9070     5.8510    24.7450 
   62.1250     2.3410   -24.6590   101.6760     4.8470     5.6750     4.7090    24.7550 
   62.2500     2.3420   -24.7890   100.5040     4.8310     5.5310     4.4800    24.7280 
   62.3750     2.3270   -24.9060   100.1610     4.9060     5.4970     4.9560    24.6400 
   62.5000     2.3080   -25.0600   103.3580     5.0150     5.5370     5.6720    24.4800 
   62.6250     2.2970   -25.3150   104.9200     5.0980     5.5820     5.7410    24.3720 
   62.7500     2.2890   -25.7160   103.2210     5.1780     5.6350     5.2060    24.3180 
   62.8750     2.2820   -26.2420   100.4020     5.3410     5.7740     4.9550    24.2830 
   63.0000     2.2800   -26.7850    98.4490     5.7320     6.1500     5.0870    24.2720 
   63.1250     2.2880   -27.2670    96.6320     6.3590     6.7750     5.6380    24.2930 
