~V
VERS. 2.00: Ver 2.00
~W
STRT.M 51.0000:
STOP.M 252.0000:
STEP.M 0.1250:
NULL. -999.2500:
UWI. F11020:
~C
DEPT.M :
DEN.GM/CC :
GR.API :
RML.OHMM :
RI. :
RXO.OHMM :
CALI.CM :
SP.MV :
~A
   51.0000  -999.2500  -999.2500  -999.2500  -999.2500  -999.2500  -999.2500   117.7240 
   51.1250  -999.2500  -999.2500  -999.2500  -999.2500  -999.2500  -999.2500   117.3960 
   51.2500  -999.2500  -999.2500  -999.2500  -999.2500  -999.2500  -999.2500   117.2010 
   51.3750  -999.2500  -999.2500  -999.2500  -999.2500  -999.2500  -999.2500   117.0590 
   51.5000  -999.2500  -999.2500  -999.2500  -999.2500  -999.2500  -999.2500   116.9220 
   51.6250  -999.2500  -999.2500  -999.2500  -999.2500  -999.2500  -999.2500   116.7730 
   51.7500  -999.2500  -999.2500  -999.2500  -999.2500  -999.2500  -999.2500   116.6220 
   51.8750  -999.2500  -999.2500  -999.2500  -999.2500  -999.2500  -999.2500   116.4720 
   52.0000  -999.2500  -999.2500  -999.2500  -999.2500  -999.2500  -999.2500   116.3080 
   52.1250  -999.2500  -999.2500  -999.2500  -999.2500  -999.2500  -999.2500   116.1140 
   52.2500  -999.2500  -999.2500  -999.2500  -999.2500  -999.2500  -999.2500   115.9090 
   52.3750  -999.2500  -999.2500  -999.2500  -999.2500  -999.2500  -999.2500   115.7450 
   52.5000  -999.2500  -999.2500  -999.2500  -999.2500  -999.2500  -999.2500   115.6720 
   52.6250  -999.2500  -999.2500  -999.2500  -999.2500  -999.2500  -999.2500   115.7180 
   52.7500  -999.2500    34.3900     0.6150     0.9080     0.1000    25.7880   115.8560 
   52.8750  -999.2500    34.3900     0.6150     0.9080     0.1000    25.7880   116.0290 
   53.0000     2.2000    34.3110     0.7080     0.9060     0.0970    25.7880   116.2310 
   53.1250     2.2000    33.7500     1.1970     0.8950     0.0810    25.7880   116.4850 
   53.2500     2.1940    32.4990     1.7350     0.8800     0.0560    25.7880   116.8050 
   53.3750     2.1680    31.3030     1.9690     0.8670     0.0320    25.7900   117.1910 
   53.5000     2.1560    31.0300     1.7890     0.8570     0.0210    25.7900   117.6430 
   53.6250     2.1630    32.7460     1.3390     0.8540     0.0220    25.7910   118.1330 
   53.7500     2.1650    36.2270     0.9310     0.8520     0.0290    25.7910   118.6640 
   53.8750     2.1390    38.5280     0.7320     0.8440     0.0340    25.7910   119.2360 
   54.0000     2.0890    38.4600     0.6730     0.8240     0.0460    25.7930   119.8120 
   54.1250     2.0420    36.9950     0.6010     0.7920     0.0490    25.7950   120.3440 
   54.2500     2.0240    35.7060     0.4400     0.7480     0.0450    25.7960   120.7900 
   54.3750     2.0270    36.0600     0.2590     0.7000     0.0340    25.7970   121.1270 
   54.5000     2.0400    37.9570     0.1290     0.6550     0.0320    25.7980   121.3340 
   54.6250     2.0520    39.2480     0.0750     0.6250     0.0330    25.7980   121.4150 
   54.7500     2.0640    38.0400     0.0780     0.6230     0.0340    25.7970   121.3930 
   54.8750     2.0750    36.3080     0.0870     0.6410     0.0350    25.7960   121.3160 
   55.0000     2.0860    35.6680     0.0990     0.6560     0.0360    25.7960   121.2470 
   55.1250     2.0930    35.8950     0.1170     0.6560     0.0350    25.7960   121.1870 
   55.2500     2.1000    36.2010     0.1380     0.6420     0.0370    25.7960   121.0930 
   55.3750     2.1090    36.7160     0.1630     0.6280     0.0370    25.7960   120.9220 
   55.5000     2.1190    37.8500     0.1960     0.6320     0.0370    25.7960   120.6610 
   55.6250     2.1200    38.5160     0.2310     0.6600     0.0400    25.7940   120.3200 
   55.7500     2.1100    37.9640     0.2520     0.7020     0.0410    25.7920   119.9230 
   55.8750     2.0880    36.5580     0.2390     0.7320     0.0330    25.7910   119.4750 
   56.0000     2.0610    34.4980     0.1930     0.7450     0.0260    25.7910   118.9480 
   56.1250     2.0350    33.4720     0.1500     0.7450     0.0200    25.7900   118.3360 
   56.2500     2.0190    35.1220     0.1700     0.7460     0.0220    25.7890   117.6280 
   56.3750     2.0080    37.0970     0.2470     0.7570     0.0220    25.7890   116.8410 
   56.5000     2.0030    36.2320     0.3370     0.7780     0.0150    25.7900   115.9840 
   56.6250     2.0050    33.3580     0.3830     0.8010     0.0110    25.7910   115.0590 
   56.7500     2.0170    32.7230     0.3610     0.8170     0.0100    25.7910   114.0530 
   56.8750     2.0350    34.3950     0.3360     0.8260     0.0130    25.7910   112.9850 
   57.0000     2.0530    36.3190     0.3900     0.8310     0.0170    25.7930   111.8560 
   57.1250     2.0730    38.1500     0.5510     0.8320     0.0230    25.7920   110.6730 
   57.2500     2.1000    40.4080     0.7480     0.8280     0.0260    25.7910   109.4870 
   57.3750     2.1340    42.6460     0.8510     0.8220     0.0220    25.7910   108.3640 
   57.5000     2.1660    43.6240     0.7940     0.8230     0.0160    25.7910   107.3260 
   57.6250     2.1910    42.5800     0.6140     0.8440     0.0180    25.7900   106.3560 
   57.7500     2.2100    42.0580     0.4360     0.8840     0.0220    25.7880   105.4160 
   57.8750     2.2280    43.8900     0.3510     0.9340     0.0230    25.7860   104.4410 
   58.0000     2.2300    45.9420     0.3370     0.9730     0.0190    25.7850   103.4070 
   58.1250     2.1990    45.3420     0.3350     0.9810     0.0180    25.7840   102.2880 
   58.2500     2.1330    43.2050     0.3160     0.9530     0.0350    25.7820   101.0310 
   58.3750     2.0680    42.5120     0.3070     0.9160     0.0670    25.7830    99.6070 
   58.5000     2.0290    43.1980     0.3400     0.8960     0.0990    25.7860    98.0100 
   58.6250     2.0240    43.7050     0.4220     0.9030     0.1130    25.7870    96.2670 
   58.7500     2.0460    43.8770     0.5360     0.9280     0.0700    25.7880    94.4000 
   58.8750     2.0770    44.0280     0.6530     0.9530     0.0500    25.7860    92.4370 
   59.0000     2.1110    43.7700     0.7550     0.9670     0.0280    25.7790    90.3880 
   59.1250     2.1570    42.1620     0.8200     0.9700     0.0140    25.7620    88.2450 
   59.2500     2.2200    40.1790     0.8040     0.9640     0.0450    25.7390    85.9530 
   59.3750     2.2800    41.2330     0.7030     0.9380     0.1160    25.7190    83.4600 
   59.5000     2.3270    46.8160     0.5540     0.8750     0.1730    25.7110    80.6740 
   59.6250     2.3760    53.6130     0.4320     0.7770     0.1930    25.7080    77.4360 
   59.7500     2.4500    56.9540     0.3630     0.6910     0.1700    25.7030    73.4920 
   59.8750     2.5390    57.2110     0.3250     0.6510     0.1870    25.6920    68.6930 
   60.0000     2.6180    56.4640     0.3130     0.6430     0.1480    25.6670    62.8390 
   60.1250     2.6520    56.6600     0.3320     0.6480     0.2110    25.6150    55.7410 
   60.2500     2.5890    59.1870     0.3840     0.6620     0.6620    25.5360    47.3660 
   60.3750     2.4320    64.0520     0.4550     0.7200     1.6920    25.4690    38.3240 
   60.5000     2.2270    70.8600     0.5420     0.8830     3.1350    25.5630    29.2010 
   60.6250     2.0390    77.2020     0.6970     1.2360     4.1200    26.1220    20.4950 
   60.7500     1.9180    81.1490     1.0650     1.8510     4.2870    27.4840    12.6330 
   60.8750     1.8700    82.5800     1.7060     2.6370     4.2010    29.1230     5.7930 
   61.0000     1.8910    82.3570     2.4590     3.4700     4.1640    29.7280     0.1420 
   61.1250     1.9750    82.4590     3.0960     4.2560     4.2210    28.6500    -4.1220 
   61.2500     2.0980    84.3240     3.5700     4.9770     4.7810    26.6890    -6.8820 
   61.3750     2.2060    86.6210     4.0050     5.6450     5.8590    25.5030    -8.6740 
   61.5000     2.2660    86.4360     4.4980     6.2100     6.6590    24.9920    -9.9620 
   61.6250     2.2830    83.8260     5.1120     6.6180     6.4470    24.8170   -11.0810 
   61.7500     2.2790    82.8050     5.8070     6.8750     6.0780    24.7770   -12.1990 
   61.8750     2.2680    84.2560     6.4390     7.0760     6.2040    24.7740   -13.3230 
   62.0000     2.2520    84.9700     6.9460     7.2740     6.6810    24.7970   -14.3850 
   62.1250     2.2470    82.8570     7.3750     7.4810     6.8520    24.8540   -15.3450 
