~V
VERS. 2.00: Ver 2.00
~W
STRT.M 51.0000:
STOP.M 277.0000:
STEP.M 0.1250:
NULL. -999.2500:
UWI. F11053:
~C
DEPT.M :
GR.API :
RML.OHMM :
RI. :
RXO.OHMM :
CALI.CM :
DEN.GM/CC :
SP.MV :
~A
# ...
   84.7500    67.1580    11.8920     9.1910    10.1670    25.6210     2.2570   -18.7650 
   84.8750    64.0370    12.0110     9.2070    10.4180    25.5930     2.2310   -18.7370 
   85.0000    63.6710    12.0620     9.1680    10.2680    25.5820     2.2090   -18.6760 
   85.1250    66.5460    11.9340     9.0380    10.0020    25.5800     2.1940   -18.5870 
   85.2500    69.1950    11.5570     8.7700     9.9010    25.5770     2.1850   -18.4830 
   85.3750    68.9390    10.9840     8.3680     9.9290    25.5750     2.1830   -18.3590 
   85.5000    69.3510    10.3930     7.9160     9.9640    25.5760     2.1920   -18.2150 
   85.6250    72.7900     9.9790     7.5540     9.6640    25.5780     2.2080   -18.0670 
   85.7500    76.3130     9.8610     7.3810     8.9630    25.5760     2.2230   -17.9470 
   85.8750    75.7840    10.0800     7.4480     8.6570    25.5740     2.2350   -17.8910 
   86.0000    70.8160    10.6160     7.7530     9.2910    25.5760     2.2440   -17.8970 
   86.1250    66.0180    11.2650     8.1750     9.9800    25.5860     2.2520   -17.9320 
   86.2500    62.9760    11.8010     8.5720    10.4010    25.6070     2.2560   -17.9790 
   86.3750    61.3160    12.0540     8.8230    10.4960    25.6260     2.2530   -18.0390 
   86.5000    61.4540    11.9660     8.8520    10.4600    25.6370     2.2360   -18.1140 
   86.6250    62.6060    11.6920     8.7300    10.3530    25.6450     2.2120   -18.2060 
   86.7500    63.6200    11.3800     8.5490    10.3360    25.6660     2.1890   -18.2860 
   86.8750    64.0270    11.1170     8.3800    10.3560    25.7180     2.1700   -18.3110 
   87.0000    63.5970    10.9510     8.2680    10.3930    25.7880     2.1590   -18.2660 
   87.1250    62.5300    10.8720     8.2050    10.4500    25.8620     2.1520   -18.1750 
   87.2500    60.6670    10.8530     8.1670    10.3610    25.9230     2.1490   -18.0760 
   87.3750    59.4580    10.8580     8.1320    10.0810    25.9580     2.1490   -17.9870 
   87.5000    60.7590    10.8380     8.0950     9.8230    25.9670     2.1470   -17.9040 
   87.6250    63.3800    10.7840     8.0620     9.6880    25.9540     2.1410   -17.8190 
   87.7500    65.1520    10.7180     8.0440     9.6450    25.9120     2.1340   -17.7300 
   87.8750    65.0410    10.6760     8.0460     9.7020    25.8430     2.1280   -17.6660 
   88.0000    64.9870    10.6790     8.0610     9.7690    25.7740     2.1300   -17.6280 
   88.1250    65.6800    10.7040     8.0790     9.7730    25.7130     2.1390   -17.6130 
   88.2500    65.9090    10.7280     8.0960     9.7360    25.6650     2.1500   -17.5910 
   88.3750    64.8840    10.7390     8.1180     9.7250    25.6260     2.1580   -17.5440 
   88.5000    63.0490    10.7440     8.1420     9.7460    25.5680     2.1610   -17.4720 
   88.6250    61.4880    10.7540     8.1650     9.7680    25.5060     2.1590   -17.3870 
   88.7500    61.8080    10.7720     8.1780     9.8240    25.4560     2.1570   -17.3070 
   88.8750    64.6150    10.7880     8.1780    10.2210    25.4090     2.1570   -17.2060 
   89.0000    67.2280    10.7740     8.1650    11.1390    25.3400     2.1580   -17.1100 
   89.1250    67.1720    10.7150     8.1440    11.7210    25.2600     2.1600   -17.0180 
   89.2500    65.0990    10.6270     8.1160    11.1890    25.2100     2.1630   -16.9520 
   89.3750    63.2530    10.5690     8.0990    10.4730    25.1920     2.1650   -16.8940 
   89.5000    62.7080    10.6400     8.1470    10.1850    25.1880     2.1660   -16.8440 
   89.6250    62.6180    10.8820     8.3020    10.1540    25.1770     2.1680   -16.7730 
   89.7500    62.7260    11.2670     8.5590    10.2580    25.1520     2.1700   -16.6860 
   89.8750    62.8230    11.6970     8.8600    10.5290    25.1320     2.1740   -16.5770 
   90.0000    62.7660    11.9830     9.0650    10.9980    25.1220     2.1770   -16.4490 
   90.1250    62.7040    11.9950     9.0690    11.4470    25.1190     2.1780   -16.3020 
   90.2500    63.4850    11.7070     8.8550    11.5080    25.1200     2.1810   -16.1470 
   90.3750    65.9680    11.2060     8.5010    11.0070    25.1210     2.1920   -15.9780 
   90.5000    70.5730    10.6660     8.1430    10.5930    25.1220     2.2130   -15.8130 
   90.6250    75.1550    10.2530     7.8790    10.4290    25.1220     2.2360   -15.6690 
   90.7500    76.6870    10.0380     7.7430    10.2960    25.1220     2.2510   -15.5490 
   90.8750    74.0720     9.9940     7.7170    10.1010    25.1220     2.2510   -15.4720 
   91.0000    71.1050    10.0170     7.7460     9.6790    25.1220     2.2410   -15.4150 
   91.1250    70.8440     9.9890     7.7690     9.2260    25.1220     2.2260   -15.3680 
   91.2500    72.8170     9.8700     7.7540     9.0230    25.1220     2.2130   -15.3100 
   91.3750    74.7740     9.6960     7.7060     8.9360    25.1220     2.2020   -15.2760 
   91.5000    74.5340     9.5540     7.6570     8.9080    25.1200     2.1900   -15.2450 
   91.6250    72.9930     9.4970     7.6460     8.7020    25.1100     2.1770   -15.2110 
   91.7500    72.9120     9.5230     7.6860     8.6430    25.0750     2.1640   -15.1400 
   91.8750    75.3430     9.5960     7.7660     8.8890    25.0190     2.1580   -15.0490 
   92.0000    75.9320     9.6540     7.8520     9.3110    24.9620     2.1590   -14.9480 
   92.1250    73.8740     9.6500     7.9010     9.5300    24.9340     2.1670   -14.8640 
   92.2500    73.5920     9.5770     7.8930     9.3990    24.9270     2.1780   -14.7890 
   92.3750    75.5040     9.4700     7.8320     9.0140    24.9260     2.1860   -14.7260 
   92.5000    75.5460     9.3840     7.7480     9.0420    24.9440     2.1920   -14.6980 
   92.6250    73.1380     9.3410     7.6720     9.3150    24.9970     2.1950   -14.6860 
   92.7500    70.5920     9.3110     7.6090     9.4290    25.0630     2.1980   -14.6800 
   92.8750    69.0300     9.2500     7.5440     9.0120    25.0980     2.1980   -14.6750 
   93.0000    69.5610     9.1360     7.4580     8.5620    25.0870     2.1960   -14.6700 
   93.1250    72.1200     9.0100     7.3610     8.3350    25.0670     2.1950   -14.6400 
   93.2500    75.7830     8.9250     7.2810     8.2830    25.0570     2.1990   -14.6010 
   93.3750    79.8280     8.9120     7.2550     8.1250    25.0570     2.2090   -14.5500 
   93.5000    82.0200     8.9770     7.3100     8.1840    25.0630     2.2200   -14.4890 
   93.6250    80.4590     9.0920     7.4290     8.7340    25.0820     2.2260   -14.4430 
   93.7500    76.1250     9.2310     7.5730     9.2650    25.1090     2.2250   -14.4270 
   93.8750    72.0560     9.3650     7.7010     9.1270    25.1360     2.2170   -14.4410 
   94.0000    69.5980     9.4640     7.7830     8.7300    25.1660     2.2090   -14.4660 
   94.1250    68.2700     9.5190     7.8230     8.6280    25.1790     2.2010   -14.5010 
   94.2500    69.4190     9.5410     7.8390     8.7270    25.1730     2.1930   -14.5520 
   94.3750    73.1810     9.5450     7.8440     8.9730    25.1430     2.1850   -14.6090 
   94.5000    75.9760     9.5380     7.8320     9.6320    25.1020     2.1830   -14.6580 
   94.6250    75.6980     9.5300     7.8080    10.3190    25.0510     2.1860   -14.6750 
   94.7500    73.7460     9.5580     7.8090    10.3350    25.0200     2.1930   -14.6810 
   94.8750    71.9690     9.6950     7.8930     9.9740    25.0370     2.2000   -14.6700 
   95.0000    70.5370    10.0660     8.1720     9.9810    25.0840     2.2120   -14.6530 
   95.1250    69.7320    10.7030     8.6900    11.2700    25.1100     2.2300   -14.6320 
   95.2500    70.0930    11.5590     9.4340    14.4300    25.1080     2.2580   -14.5880 
   95.3750    70.1910    12.5150    10.3030    17.8960    25.0850     2.2920   -14.5580 
   95.5000    67.8700    13.3940    11.1420    17.7670    25.0770     2.3160   -14.5190 
   95.6250    64.0270    14.0870    11.8420    24.8990    25.1140     2.3250   -14.4990 
   95.7500    60.4530    14.5650    12.3530    37.9110    25.1990     2.3360   -14.4680 
   95.8750    58.7050    14.8660    12.6690    34.0610    25.2530     2.3660   -14.4220 
