~V
VERS. 2.00: Ver 2.00
~W
STRT.M 50.0000:
STOP.M 283.0000:
STEP.M 0.1250:
NULL. -999.2500:
UWI. F11066:
~C
DEPT.M :
GR.API :
RML.OHMM :
RI. :
RXO.OHMM :
CALI.CM :
DEN.GM/CC :
SP.MV :
~A
# ...
   95.0000    88.2900     8.2770     5.9260     7.3520    24.5970     2.2490    -4.6320 
   95.1250    89.7320     8.1440     5.8280     7.0910    24.6530     2.2520    -4.2690 
   95.2500    91.5260     8.0070     5.7110     7.0970    24.8380     2.2510    -3.9130 
   95.3750    91.5390     7.8890     5.5880     7.0330    25.0180     2.2440    -3.5790 
   95.5000    90.3780     7.8020     5.4750     6.8360    25.0970     2.2280    -3.2790 
   95.6250    87.6400     7.7480     5.3800     6.6890    25.1080     2.2100    -3.0240 
   95.7500    82.8180     7.6880     5.2900     6.6200    25.1140     2.1970    -2.8250 
   95.8750    79.3920     7.5720     5.1840     6.5980    25.1100     2.1930    -2.6530 
   96.0000    80.0220     7.3600     5.0540     6.6090    25.1030     2.1950    -2.5540 
   96.1250    81.9160     7.0890     4.9370     6.6650    25.1170     2.1980    -2.4520 
   96.2500    82.3980     6.9550     4.9260     6.8070    25.1380     2.1990    -2.3900 
   96.3750    83.7000     7.2440     5.1610     7.1590    25.1300     2.2060    -2.3230 
   96.5000    84.9710     8.3390     5.8360     8.5650    25.1060     2.2270    -2.2440 
   96.6250    81.4910    10.9650     7.4330    12.9810    25.0680     2.2770    -2.1070 
   96.7500    75.1400    15.2440    10.2460    21.2620    25.0100     2.3620    -1.9640 
   96.8750    70.7220    20.8570    14.4070    31.5180    24.9640     2.4760    -1.8120 
   97.0000    70.3370    26.1570    19.0930    41.2010    24.9710     2.5890    -1.6600 
   97.1250    72.3390    27.0730    21.1240    46.4790    24.9920     2.6500    -1.5380 
   97.2500    76.4910    22.9300    19.0000    44.1360    24.9890     2.6540    -1.4200 
   97.3750    83.0400    16.5820    14.5340    29.0500    24.9590     2.6170    -1.3290 
   97.5000    90.1480    11.1910    10.2690    12.1610    24.9510     2.5490    -1.2770 
   97.6250    96.1460     8.1670     7.4920     7.1460    24.9580     2.4560    -1.2880 
   97.7500    98.0060     6.7350     5.8580     5.8570    24.9790     2.3690    -1.3080 
   97.8750    95.6390     6.3150     5.0340     6.0070    25.0620     2.3140    -1.3700 
   98.0000    93.9140     6.4160     4.7370     6.2020    25.1560     2.2980    -1.4130 
   98.1250    96.4590     6.5880     4.7170     6.2380    25.2150     2.3130    -1.4880 
   98.2500    98.5210     6.5380     4.6970     5.9560    25.0920     2.3390    -1.5540 
   98.3750    96.8980     6.2680     4.5980     5.6000    24.9800     2.3640    -1.6250 
   98.5000    94.1130     5.9570     4.4640     5.0460    24.9340     2.3780    -1.7020 
   98.6250    93.4060     5.8400     4.4200     4.7550    24.9430     2.3800    -1.8160 
   98.7500    92.4620     5.9780     4.5260     4.8410    25.0450     2.3740    -1.9650 
   98.8750    89.3840     6.3420     4.7850     5.2880    25.2860     2.3630    -2.1270 
   99.0000    85.2740     6.8230     5.1400     5.9710    25.7740     2.3430    -2.3440 
   99.1250    83.0760     7.2180     5.4550     6.3930    25.7240     2.3140    -2.5430 
   99.2500    83.3020     7.3560     5.5910     6.5790    25.3920     2.2880    -2.7720 
   99.3750    85.3610     7.1760     5.4880     6.5370    24.8090     2.2740    -3.0060 
   99.5000    89.7720     6.7460     5.1770     6.4400    24.5300     2.2770    -3.2310 
   99.6250    95.9710     6.2100     4.7540     6.0250    24.5900     2.2920    -3.4520 
   99.7500    99.3760     5.7270     4.3460     5.7090    24.8250     2.3070    -3.6920 
   99.8750    98.8070     5.3820     4.0260     5.7310    25.3180     2.3160    -3.9730 
  100.0000    97.0930     5.2540     3.8540     6.0700    26.0390     2.3180    -4.3130 
  100.1250    97.2450     5.5060     3.9410     5.4320    25.3380     2.3220    -4.7910 
  100.2500    97.8080     6.1860     4.3180     5.3400    25.1220     2.3300    -5.3720 
  100.3750    97.8080     7.3270     5.0260     6.0400    25.2210     2.3400    -6.0590 
  100.5000    95.8910     8.8400     6.0530     7.3740    24.9090     2.3470    -6.8410 
  100.6250    89.0700    10.3920     7.2670     9.4420    24.6640     2.3510    -7.6810 
  100.7500    80.4410    11.4870     8.3130    11.3050    24.5740     2.3430    -8.5300 
  100.8750    75.0590    11.8250     8.8960    11.7430    24.5990     2.3090    -9.3460 
  101.0000    74.1710    11.4550     8.9280    11.3400    24.5970     2.2550   -10.0840 
  101.1250    72.9500    10.7240     8.5520    11.1500    24.5720     2.2070   -10.6810 
  101.2500    71.7430    10.0780     8.1070    10.8920    24.5300     2.1800   -11.1470 
  101.3750    74.0740     9.6740     7.7460    10.5030    24.4450     2.1710   -11.4750 
  101.5000    78.3240     9.5010     7.5040    10.0100    24.3800     2.1750   -11.6910 
  101.6250    78.8510     9.4740     7.3540     9.9410    24.3500     2.1850   -11.7960 
  101.7500    77.6230     9.4590     7.2360     9.9430    24.3040     2.1930   -11.8320 
  101.8750    78.7890     9.4000     7.1340     9.9480    24.2390     2.1970   -11.8170 
  102.0000    80.3760     9.3090     7.0580     9.8450    24.2060     2.1980   -11.7720 
  102.1250    77.8400     9.2830     7.0560     9.7970    24.2170     2.2010   -11.7350 
  102.2500    74.7090     9.3960     7.1480     9.8900    24.2350     2.2050   -11.7050 
  102.3750    74.2780     9.6580     7.3320     9.9990    24.2180     2.2060   -11.6980 
  102.5000    74.7740    10.0130     7.5810    10.1340    24.1960     2.2060   -11.6940 
  102.6250    72.3080    10.3290     7.8290    10.7230    24.1980     2.2050   -11.6940 
  102.7500    70.0280    10.4850     7.9930    10.8110    24.2190     2.2020   -11.7040 
  102.8750    70.0560    10.4500     8.0310    10.7100    24.2170     2.1960   -11.7320 
  103.0000    69.7150    10.2620     7.9470    10.6380    24.1460     2.1910   -11.7690 
  103.1250    66.3800     9.9970     7.7750    10.6070    24.0780     2.1920   -11.8040 
  103.2500    63.9480     9.7540     7.5960    10.6200    24.0640     2.1980   -11.8430 
  103.3750    64.2610     9.5860     7.4590    10.5660    24.0660     2.2020   -11.8770 
  103.5000    66.4000     9.5140     7.3910    10.2460    24.0580     2.2020   -11.9290 
  103.6250    69.8050     9.5690     7.4210     9.8700    24.0420     2.2030   -12.0240 
  103.7500    74.1940     9.7420     7.5430     9.8920    24.0440     2.2040   -12.1590 
  103.8750    75.6320    10.0250     7.7510    10.2510    24.0580     2.1990   -12.3030 
  104.0000    71.9590    10.3770     8.0150    10.6720    24.0610     2.1910   -12.4920 
  104.1250    67.7480    10.7030     8.2730    11.1470    24.0680     2.1860   -12.6420 
  104.2500    67.4610    10.8630     8.4220    11.5040    24.0950     2.1890   -12.8070 
  104.3750    69.4630    10.7210     8.3670    11.6520    24.1470     2.1950   -12.9680 
  104.5000    70.7500    10.2350     8.0700    11.7680    24.2240     2.2000   -13.1100 
  104.6250    71.6650     9.5290     7.6040    11.9070    24.3360     2.2050   -13.2310 
  104.7500    75.0400     8.9730     7.2050    11.2700    24.4630     2.2120   -13.3460 
  104.8750    77.1420     8.9130     7.0880     9.8010    24.5610     2.2260   -13.4980 
  105.0000    72.5610     9.6060     7.4400     9.2480    24.6060     2.2460   -13.6730 
  105.1250    64.1600    11.2470     8.4730    12.1200    24.5940     2.2610   -13.9620 
  105.2500    60.4150    13.4220    10.0430    20.3190    24.5460     2.2630   -14.2540 
  105.3750    62.5090    15.5210    11.8360    39.4470    24.4410     2.2560   -14.6010 
  105.5000    64.3400    16.7290    13.2380    42.2580    24.2860     2.2500   -15.0000 
  105.6250    63.5570    16.3040    13.4670    23.4460    24.1370     2.2510   -15.4260 
  105.7500    63.5340    14.9080    12.7730    14.5290    24.0460     2.2460   -15.8270 
  105.8750    65.8540    13.3340    11.6940    12.3120    24.0120     2.2270   -16.1880 
  106.0000    69.5580    12.1170    10.6840    12.2280    24.0020     2.2050   -16.4420 
  106.1250    71.4190    11.4300     9.9670    12.3630    24.0330     2.1960   -16.5980 
