~V
VERS. 2.00: Ver 2.00
~W
STRT.M 52.0000:
STOP.M 286.0000:
STEP.M 0.1250:
NULL. -999.2500:
UWI. F11061:
~C
DEPT.M :
GR.API :
RML.OHMM :
RI. :
RXO.OHMM :
CALI.CM :
DEN.GM/CC :
SP.MV :
~A
# ...
  153.2500    57.5700    15.8710    15.6620    15.4070    23.6480     2.4340   -16.5800 
  153.3750    57.8030    15.2360    14.9240    14.3240    23.8790     2.4330   -16.5790 
  153.5000    56.9010    15.1180    14.6410    13.8080    24.1700     2.4480   -16.5390 
  153.6250    56.2390    15.4520    14.7890    14.1760    24.3570     2.4740   -16.4470 
  153.7500    55.4270    16.0690    15.2450    15.5560    24.3900     2.5010   -16.3160 
  153.8750    54.2660    16.7220    15.8030    17.6180    24.3170     2.5170   -16.1630 
  154.0000    53.1650    17.0760    16.1550    19.5100    24.2420     2.5140   -15.9820 
  154.1250    52.5920    16.9640    16.1040    19.1280    24.1760     2.4970   -15.7670 
  154.2500    53.5390    16.3900    15.6150    17.0820    24.0930     2.4770   -15.5300 
  154.3750    55.1560    15.5090    14.8020    15.1370    23.9590     2.4630   -15.3020 
  154.5000    55.3390    14.5710    13.8840    13.3840    23.7520     2.4630   -15.1100 
  154.6250    54.4310    13.7600    13.0770    11.5960    23.5590     2.4700   -14.9390 
  154.7500    53.8170    13.1650    12.4800    10.6140    23.4560     2.4810   -14.7710 
  154.8750    54.6820    12.7730    12.0910    10.1030    23.3860     2.4890   -14.6090 
  155.0000    56.3640    12.4550    11.8560     9.5970    23.3120     2.4940   -14.4680 
  155.1250    58.0840    12.3150    11.6640     9.3060    23.2450     2.4970   -14.3660 
  155.2500    59.3430    12.1380    11.4280     9.2570    23.1980     2.5000   -14.3000 
  155.3750    59.1910    11.8410    11.1040     9.1010    23.1330     2.5020   -14.2430 
  155.5000    57.1480    11.4320    10.6780     8.8340    23.0290     2.5040   -14.1790 
  155.6250    55.0570    10.9880    10.2080     8.8010    22.9990     2.5030   -14.1400 
  155.7500    54.3710    10.5870     9.7580     9.0170    23.1130     2.5000   -14.1510 
  155.8750    55.1970    10.3000     9.3900     9.1120    23.3680     2.4930   -14.2100 
  156.0000    55.4080    10.2000     9.1750     9.1770    23.7040     2.4830   -14.3130 
  156.1250    54.1280    10.2790     9.1230     9.5880    24.0480     2.4720   -14.4340 
  156.2500    52.7620    10.5020     9.2130    10.0090    24.2780     2.4620   -14.5570 
  156.3750    52.3700    10.8120     9.4060    10.2970    24.3640     2.4560   -14.6840 
  156.5000    53.1140    11.1310     9.6400    11.0670    24.3580     2.4550   -14.8200 
  156.6250    53.7160    11.3800     9.8460    12.0040    24.3170     2.4600   -14.9410 
  156.7500    54.2640    11.5050     9.9710    12.3340    24.2780     2.4670   -15.0130 
  156.8750    55.5810    11.4790     9.9810    12.2570    24.2960     2.4760   -15.0160 
  157.0000    57.9050    11.2900     9.8530    12.5270    24.3360     2.4810   -14.9520 
  157.1250    59.7060    10.9880     9.6200    13.0100    24.3710     2.4830   -14.8340 
  157.2500    58.6700    10.6310     9.3220    12.6700    24.3940     2.4810   -14.6740 
  157.3750    54.9950    10.2720     9.0060    11.7360    24.4270     2.4770   -14.4760 
  157.5000    51.0030     9.9540     8.7160    10.9890    24.4660     2.4710   -14.2270 
  157.6250    48.7800     9.6620     8.4500    11.0150    24.4850     2.4630   -13.9300 
  157.7500    47.7190     9.3340     8.1680    11.2040    24.4860     2.4510   -13.6070 
  157.8750    47.7060     8.8830     7.7960    10.9990    24.4960     2.4330   -13.2700 
  158.0000    50.9270     8.1930     7.2360    10.5690    24.5360     2.4130   -12.9290 
  158.1250    56.6470     7.2770     6.4810     9.6960    24.5500     2.3940   -12.5930 
  158.2500    62.4010     6.2250     5.5980     8.4750    24.4820     2.3790   -12.2740 
  158.3750    67.1970     5.1810     4.6990     7.0810    24.3100     2.3690   -11.9760 
  158.5000    72.2190     4.3210     3.9230     5.6210    24.0650     2.3650   -11.7110 
  158.6250    77.3900     3.7100     3.3340     4.4610    23.8350     2.3670   -11.4810 
  158.7500    81.1310     3.3410     2.9410     3.8960    23.6520     2.3710   -11.2860 
  158.8750    82.7830     3.1630     2.7150     3.7760    23.4860     2.3780   -11.1330 
  159.0000    83.1470     3.1090     2.6180     3.8080    23.3430     2.3840   -11.0100 
  159.1250    82.9990     3.0990     2.5870     3.7700    23.3870     2.3870   -10.9030 
  159.2500    81.8810     3.0860     2.5770     3.6760    23.6630     2.3890   -10.8090 
  159.3750    80.0400     3.0520     2.5640     3.5970    24.0040     2.3890   -10.7210 
  159.5000    79.6340     2.9950     2.5340     3.5430    24.2390     2.3900   -10.6330 
  159.6250    81.6870     2.9260     2.4890     3.5220    24.3570     2.3920   -10.5550 
  159.7500    83.8020     2.8520     2.4330     3.5070    24.3950     2.3940   -10.4950 
  159.8750    84.7410     2.7780     2.3700     3.5060    24.3850     2.3970   -10.4470 
  160.0000    85.2560     2.7120     2.3080     3.5050    24.3460     2.3970   -10.4080 
  160.1250    84.8500     2.6700     2.2590     3.4830    24.3190     2.3950   -10.3900 
  160.2500    82.8700     2.6720     2.2360     3.4480    24.3080     2.3900   -10.3800 
  160.3750    80.4550     2.7280     2.2480     3.4510    24.3030     2.3830   -10.3710 
  160.5000    80.2020     2.8360     2.2960     3.5380    24.2840     2.3760   -10.3730 
  160.6250    80.1110     2.9540     2.3560     3.7370    24.2410     2.3710   -10.3880 
  160.7500    77.8470     3.0340     2.3970     4.0700    24.1780     2.3680   -10.3960 
  160.8750    75.2750     3.0310     2.3920     4.3640    24.1130     2.3690   -10.3920 
  161.0000    75.7450     2.9180     2.3190     4.2570    24.1300     2.3720   -10.3880 
  161.1250    78.8010     2.7400     2.1990     3.9480    24.1430     2.3750   -10.3780 
  161.2500    82.2840     2.5810     2.0790     3.8090    24.0940     2.3770   -10.3620 
  161.3750    84.8680     2.5470     2.0210     3.8320    23.9260     2.3740   -10.3440 
  161.5000    84.1940     2.7850     2.1270     3.8900    23.6410     2.3640   -10.3180 
  161.6250    79.9230     3.3390     2.4430     4.1100    23.3380     2.3490   -10.2720 
  161.7500    73.7430     4.1640     2.9650     4.8050    23.1200     2.3320   -10.2120 
  161.8750    68.7310     5.1090     3.6160     6.2170    23.0160     2.3160   -10.1530 
  162.0000    67.2920     5.8580     4.2050     8.6050    23.0010     2.3090   -10.0930 
  162.1250    68.1500     6.1470     4.5340    10.7410    23.0200     2.3150   -10.0350 
  162.2500    71.1630     5.8800     4.4880    11.1180    23.0430     2.3350    -9.9920 
  162.3750    77.1000     5.1940     4.1050     9.1810    23.0560     2.3640    -9.9740 
  162.5000    83.5310     4.4240     3.5780     6.9680    23.0440     2.3960    -9.9860 
  162.6250    86.8570     3.8680     3.1260     5.6230    22.9910     2.4200   -10.0310 
  162.7500    86.8740     3.6290     2.8590     5.1490    22.9610     2.4320   -10.1240 
  162.8750    85.6250     3.6960     2.8020     5.0080    23.2370     2.4300   -10.2590 
  163.0000    82.8820     4.0380     2.9600     5.0910    23.7670     2.4160   -10.4210 
  163.1250    80.0650     4.5670     3.2810     5.5460    24.2050     2.3980   -10.6010 
  163.2500    79.2410     5.2180     3.7250     6.5490    24.3510     2.3760   -10.7920 
  163.3750    79.2150     5.9400     4.2590     7.9920    24.3090     2.3500   -10.9900 
  163.5000    77.9020     6.6720     4.8460     9.1960    24.1980     2.3090   -11.2020 
  163.6250    75.4190     7.3520     5.4300    10.0320    24.1140     2.2510   -11.4230 
  163.7500    72.6590     7.9230     5.9630    11.4140    24.1650     2.1810   -11.6340 
  163.8750    69.5970     8.3530     6.4050    12.4150    24.3360     2.1140   -11.8230 
  164.0000    66.5730     8.6350     6.7360    12.0890    24.6690     2.0690   -12.0110 
  164.1250    63.5670     8.8450     6.9980    12.1860    25.1380     2.0520   -12.2070 
  164.2500    60.0500     9.0790     7.2530    13.2660    25.5160     2.0600   -12.4080 
  164.3750    57.7920     9.4340     7.5700    14.7720    25.5580     2.0850   -12.6180 
