~V
VERS. 2.00: Ver 2.00
~W
STRT.M 59.0000:
STOP.M 291.0000:
STEP.M 0.1250:
NULL. -999.2500:
UWI. F11077:
~C
DEPT.M :
DEN.GM/CC :
GR.API :
RML.OHMM :
RI. :
RXO.OHMM :
CALI.CM :
SP.MV :
~A
# ...
  272.7500     2.3940   112.1220     5.5420     4.9820     5.3880    25.9040     3.8000 
  272.8750     2.3930   117.0080     5.5150     4.9800     5.2620    25.9090     3.9430 
  273.0000     2.3910   118.2630     5.4600     4.9520     5.2000    25.9050     4.1210 
  273.1250     2.3900   113.1740     5.3930     4.9100     5.1760    25.9120     4.3230 
  273.2500     2.3890   109.0870     5.3310     4.8690     5.1400    25.9260     4.5260 
  273.3750     2.3870   110.8080     5.2830     4.8340     5.1030    25.9300     4.6910 
  273.5000     2.3840   111.8020     5.2530     4.8080     5.1000    25.9270     4.8060 
  273.6250     2.3820   108.7130     5.2440     4.7930     5.1300    25.9410     4.8720 
  273.7500     2.3830   107.2360     5.2530     4.7850     5.1450    26.0040     4.8740 
  273.8750     2.3810   109.6190     5.2710     4.7820     5.1310    26.1370     4.8660 
  274.0000     2.3710   111.0440     5.2850     4.7790     5.1110    26.3500     4.8680 
  274.1250     2.3560   110.4030     5.2920     4.7730     5.0650    26.5720     4.8770 
  274.2500     2.3400   109.2990     5.2910     4.7630     5.0410    26.6580     4.8950 
  274.3750     2.3320   108.5880     5.2870     4.7500     5.0930    26.5660     4.9340 
  274.5000     2.3320   109.1890     5.2810     4.7350     5.1650    26.3800     4.9940 
  274.6250     2.3400   111.8130     5.2670     4.7150     5.1790    26.1840     5.0770 
  274.7500     2.3500   113.3750     5.2460     4.6920     5.1910    26.0310     5.1790 
  274.8750     2.3600   110.6550     5.2260     4.6760     5.2520    25.9110     5.2040 
  275.0000     2.3690   106.6930     5.2290     4.6820     5.3170    25.8200     5.1100 
  275.1250     2.3750   105.6380     5.2780     4.7230     5.3430    25.7660     4.9290 
  275.2500     2.3740   107.5810     5.3920     4.8130     5.3940    25.7150     4.7010 
  275.3750     2.3670   108.7930     5.5770     4.9580     5.5780    25.6300     4.4610 
  275.5000     2.3560   107.2060     5.8110     5.1420     5.8670    25.5390     4.2190 
  275.6250     2.3480   104.7600     6.0670     5.3470     6.0960    25.5110     3.9900 
  275.7500     2.3450   104.0640     6.2910     5.5410     6.1890    25.5810     3.7970 
  275.8750     2.3450   105.0520     6.4210     5.6810     6.3160    25.7190     3.6860 
  276.0000     2.3430   106.4750     6.4290     5.7390     6.6460    25.8440     3.6620 
  276.1250     2.3380   108.8940     6.3510     5.7270     7.0740    25.8840     3.7090 
  276.2500     2.3310   111.1520     6.3210     5.7270     7.1840    25.8540     3.7650 
  276.3750     2.3260   109.9080     6.5230     5.8670     6.8840    25.8200     3.8090 
  276.5000     2.3250   105.1110     7.0750     6.2460     6.8440    25.8240     3.8440 
  276.6250     2.3290    99.9980     7.9650     6.8910     7.6790    25.8580     3.8460 
  276.7500     2.3370    96.0110     8.9800     7.6870    10.1520    25.9010     3.8350 
  276.8750     2.3430    91.0670     9.7380     8.3590    13.8150    25.9630     3.8040 
  277.0000     2.3470    85.0760     9.9450     8.6350    15.4430    26.0300     3.7240 
  277.1250     2.3560    81.5280     9.6140     8.4710    13.0680    25.9970     3.6070 
  277.2500     2.3770    81.9590     9.0860     8.0930     9.4290    25.8870     3.4850 
  277.3750     2.4030    83.4320     8.8270     7.8500     8.3960    25.8340     3.3570 
  277.5000     2.4210    83.0190     9.1560     8.0170     9.6470    25.8440     3.2120 
  277.6250     2.4120    80.8940    10.2180     8.7600    11.3220    25.8480     3.0380 
  277.7500     2.3750    77.7230    12.1040    10.2510    12.4930    25.8310     2.8120 
  277.8750     2.3290    73.4770    14.7600    12.5480    14.5950    25.8440     2.5560 
  278.0000     2.2930    69.8380    18.2790    15.4470    17.6290    25.9020     2.3320 
  278.1250     2.2770    67.7560    22.2610    18.6260    22.0190    25.9790     2.1300 
  278.2500     2.2750    66.6360    25.3110    21.5580    26.3280    26.0460     1.9540 
  278.3750     2.2770    66.2500    27.1580    23.6910    28.2120    26.0820     1.8100 
  278.5000     2.2780    66.5110    27.7890    24.7450    27.5210    26.0570     1.7250 
  278.6250     2.2770    66.7040    27.2410    24.6640    27.3420    25.9690     1.7290 
  278.7500     2.2760    66.0200    25.7530    23.5940    27.8930    25.8930     1.8000 
  278.8750     2.2750    64.8950    23.7810    21.9250    26.7880    25.8890     1.9000 
  279.0000     2.2770    64.4720    21.9130    20.2220    22.8950    25.8260     2.0300 
  279.1250     2.2800    65.0040    20.5760    18.8930    18.9090    25.6070     2.1710 
  279.2500     2.2810    66.2490    20.0920    18.2490    17.1670    25.3890     2.3080 
  279.3750     2.2790    67.2590    20.5260    18.4000    18.1430    25.3020     2.4480 
  279.5000     2.2760    67.5130    21.5790    19.1710    22.4490    25.2540     2.5530 
  279.6250     2.2770    67.5130    22.8640    20.3090    27.1710    25.1680     2.6290 
  279.7500     2.2910    67.5130    23.9500    21.4710    27.5770    24.9970     2.7080 
  279.8750     2.3190    67.5130    24.6580    22.4310    24.5290    24.7720     2.7870 
  280.0000     2.3520    67.5130    25.2300    23.2640    21.3750    24.6250     2.8460 
  280.1250     2.3820    67.5130    26.0450    24.2330    20.9180    24.6330     2.9150 
  280.2500     2.4050    67.5130    27.4410    25.6450    23.7490    24.7260     3.0070 
  280.3750     2.4270    67.5130    29.4560    27.6030    30.1050    24.8620     3.1170 
  280.5000     2.4580    67.5130    31.6940    29.8220    36.8680    25.0930     3.2500 
  280.6250     2.4960    67.5130    33.6240    31.8220    38.9320    25.3580     3.3960 
  280.7500     2.5290    67.5130    34.6680    33.0000    37.3390    25.4990     3.5290 
  280.8750     2.5370    67.5130    34.5110    32.9830    36.6970    25.5490     3.6500 
  281.0000     2.5120    67.5130    33.2840    31.8660    35.9970    25.6040     3.7220 
  281.1250     2.4580    67.5130    31.2000    29.8820    33.8990    25.6330     3.7180 
  281.2500     2.3970    67.5130    28.6350    27.4440    30.3130    25.5760     3.6320 
  281.3750     2.3510    67.5130    26.1200    25.0870    26.9320    25.4650     3.4810 
  281.5000     2.3260    67.5130    24.1810    23.2940    24.4360    25.3460     3.3000 
  281.6250     2.3170    67.5130    23.1960    22.3900    22.3320    25.2170     3.1260 
  281.7500     2.3160    67.5130    23.5360    22.7180    22.7960    25.1230     2.9820 
  281.8750     2.3170    67.5130    25.3940    24.4980    29.3630    25.1610     2.8880 
  282.0000     2.3250    67.5130    28.5080    27.5710    41.4000    25.3200     2.8550 
  282.1250     2.3480    67.5130    32.3090    31.4900    52.8590    25.4930     2.8940 
  282.2500     2.3910    67.5130    35.3820    34.9370    57.2210    25.5570     3.0130 
  282.3750     2.4460    67.5130    35.7940    35.8880    57.5240    25.5660     3.1650 
  282.5000     2.5020    67.5130    32.6270    33.1160    62.7670    25.6270     3.3790 
  282.6250     2.5440    67.5130    26.6470    27.2130    75.2910    25.6950     3.6780 
  282.7500     2.5550    67.5130    19.8960    20.3330    69.8340    25.7360     3.9960 
  282.8750     2.5320    67.5130    14.1700    14.4650    36.3280    25.6740     4.3750 
  283.0000     2.4810    67.5130    10.0430    10.2250    14.6890    25.5170     4.8060 
  283.1250     2.4200    67.5130     7.1190     7.4490     6.7880    25.3410     5.0550 
  283.2500     2.3670    67.5130     5.2420     5.8190     4.9590    25.1960     5.2540 
  283.3750     2.3350    67.5130     4.5990     5.0040     4.7210    25.0640     5.3910 
  283.5000     2.3270    67.5130     4.3870     4.6820     4.7370    24.9670     5.3760 
  283.6250     2.3360    67.5130     4.4580     4.7140     5.1810    24.9300     5.2000 
  283.7500     2.3540    67.5130     4.7220     5.0120     6.1340    24.9200     4.9620 
  283.8750     2.3660    67.5130     5.1190     5.4930     7.2590    24.9020     4.7620 
