~V
VERS. 2.00: Ver 2.00
~W
STRT.M 52.0000:
STOP.M 287.0000:
STEP.M 0.1250:
NULL. -999.2500:
UWI. F11078:
~C
DEPT.M :
GR.API :
RML.OHMM :
RI. :
RXO.OHMM :
CALI.CM :
DEN.GM/CC :
SP.MV :
~A
# ...
  277.0000    96.1200    16.8690    15.0200    20.8770    23.3650     2.4180    -0.4370 
  277.1250    96.1200    18.1110    16.4580    21.7210    23.4600     2.4370    -0.5840 
  277.2500    96.1200    18.9790    17.5210    36.1010    23.5300     2.4860    -0.7810 
  277.3750    96.1200    19.5650    18.2200    55.8480    23.5310     2.5410    -1.0510 
  277.5000    96.1200    20.0920    18.6700    50.4760    23.5020     2.5570    -1.2560 
  277.6250    96.1200    20.9190    19.2380    33.4410    23.4880     2.5270    -1.3840 
  277.7500    96.1200    22.4320    20.3610    29.9180    23.5060     2.4750    -1.4130 
  277.8750    96.1200    25.0000    22.5000    37.0130    23.4690     2.4380    -1.3430 
  278.0000    96.1200    28.8760    26.2300    45.3840    23.2360     2.4430    -1.2340 
  278.1250    96.1200    32.9670    30.9800    52.3180    23.0770     2.4760    -1.1070 
  278.2500    96.1200    35.4120    35.0750    51.5960    23.0900     2.5190    -0.8760 
  278.3750    96.1200    34.3400    35.7540    35.4610    23.1070     2.5580    -0.5460 
  278.5000    96.1200    28.9850    30.9410    30.9280    23.0820     2.5850    -0.1390 
  278.6250    96.1200    22.0540    23.8300    23.1040    23.0010     2.5950     0.3320 
  278.7500    96.1200    15.7380    17.1700    12.4970    22.8910     2.5780     0.8440 
  278.8750    96.1200    11.1370    12.2140     7.2480    22.8020     2.5310     1.3650 
  279.0000    96.1200     8.4500     9.2150     6.3080    22.8430     2.4630     1.8300 
  279.1250    96.1200     6.8720     7.4000     6.0450    22.9020     2.4040     2.2400 
  279.2500    96.1200     6.0140     6.3780     5.4570    22.9360     2.3700     2.5560 
  279.3750    96.1200     5.6450     5.8780     5.3640    22.9330     2.3590     2.8090 
  279.5000    96.1200     5.6920     5.7750     5.7470    22.9100     2.3590     2.9670 
  279.6250    96.1200     5.9990     5.9060     5.9130    22.8860     2.3570     3.0330 
  279.7500    96.1200     6.4520     6.2130     5.7110    22.8540     2.3530     3.0120 
  279.8750    96.1200     6.9050     6.6130     5.6590    22.8060     2.3540     2.9340 
  280.0000    96.1200     7.1610     6.9560     6.2520    22.7680     2.3640     2.8230 
  280.1250    96.1200     7.1490     7.0910     6.4200    22.6860     2.3780     2.7560 
  280.2500    96.1200     6.8870     6.9550     5.7200    22.6420     2.3880     2.7550 
  280.3750    96.1200     6.4860     6.6010     5.4200    22.6330     2.3860     2.7660 
  280.5000    96.1200     6.1410     6.1880     6.9540    22.6730     2.3750     2.8170 
  280.6250    96.1200     6.0130     5.9030    10.0600    22.7180     2.3650     2.8470 
  280.7500    96.1200     6.1880     5.8550    11.7930    22.7130     2.3620     2.8480 
  280.8750    96.1200     6.6730     6.0980    11.6890    22.6900     2.3690     2.7970 
  281.0000    96.1200     7.4180     6.6600    13.3040    22.8230     2.3810     2.7440 
  281.1250    96.1200     8.2320     7.3960    15.3860    22.9410     2.3920     2.5880 
  281.2500    96.1200     8.9720     8.1630    14.9850    22.9620     2.3970     2.3350 
  281.3750    96.1200     9.5420     8.8130    13.7520    23.0300     2.3960     2.0560 
  281.5000    96.1200     9.8990     9.2210    11.9220    23.0870     2.3980     1.7510 
  281.6250    96.1200    10.1290     9.4330    11.7810    23.0790     2.4060     1.4830 
  281.7500    96.1200    10.2850     9.5140    11.2500    23.0450     2.4190     1.2670 
  281.8750    96.1200    10.3950     9.5320     9.7980    23.0130     2.4300     1.1220 
  282.0000    96.1200    10.4600     9.5310     8.7560    22.9470     2.4310     1.0650 
  282.1250    96.1200    10.4910     9.5310     7.9880    22.8960     2.4240     1.1660 
  282.2500    96.1200    10.5000     9.5320     8.0610    22.8700     2.4170     1.3650 
  282.3750    96.1200    10.5010     9.5320     8.7060    22.8180     2.4160     1.6450 
  282.5000    96.1200    10.5010     9.5320     7.8290    22.7040     2.4190     2.0170 
  282.6250    96.1200    10.5010     9.5320     5.7680    22.5980     2.4170     2.3670 
  282.7500    96.1200    10.5010     9.5320     4.5010    22.5420     2.4050     2.6660 
  282.8750    96.1200    10.5010     9.5320     4.1260    22.5030     2.3840     2.9400 
  283.0000    96.1200    10.5010     9.5320     4.1820    22.4830     2.3690     3.1550 
  283.1250    96.1200    10.5010     9.5320     4.2040    22.4960     2.3680     3.2860 
  283.2500    96.1200    10.5010     9.5320     4.2510    22.4860     2.3810     3.3650 
  283.3750    96.1200    10.5010     9.5320     4.3490    22.4480     2.3980     3.3570 
  283.5000    96.1200    10.5010     9.5320     4.3950    22.4370     2.4090     3.3350 
  283.6250    96.1200    10.5010     9.5320     4.3100    22.4510     2.4110     3.4850 
  283.7500    96.1200    10.5010     9.5320     4.2700    22.4610     2.4120     3.7140 
  283.8750    96.1200    10.5010     9.5320     4.3940    22.4400     2.4200     3.6930 
  284.0000    96.1200    10.5010     9.5320     4.4770    22.4350     2.4410     3.6580 
  284.1250    96.1200    10.5010     9.5320     4.4060    22.4420     2.4630     3.6030 
  284.2500    96.1200    10.5010     9.5320     4.3640    22.4280     2.4700     3.5670 
  284.3750    96.1200    10.5010     9.5320     4.3460    22.3920     2.4590     3.5190 
  284.5000    96.1200    10.5010     9.5320     4.3480    22.3410     2.4370     3.4180 
  284.6250    96.1200    10.5010     9.5320     4.6970    22.3500     2.4260     3.1550 
  284.7500    96.1200    10.5010     9.5320     5.8090    22.3740     2.4300     2.9900 
  284.8750    96.1200    10.5010     9.5320     7.8840    22.2990     2.4430     2.9900 
  285.0000    96.1200    10.5010     9.5320     6.6880    22.0850     2.4480     2.9900 
  285.1250    96.1200    10.5010     9.5320     5.0950    21.9310     2.4410  -999.2500 
  285.2500    96.1200    10.5010     9.5320     4.2730    21.8710     2.4280  -999.2500 
  285.3750    96.1200    10.5010     9.5320     4.3960    21.8680     2.4160  -999.2500 
  285.5000    96.1200    10.5010     9.5320     4.2740    21.8620     2.4080  -999.2500 
  285.6250    96.1200    10.5010     9.5320     4.1730    21.8160     2.4020  -999.2500 
  285.7500    96.1200    10.5010     9.5320     4.0500    21.7210     2.3970  -999.2500 
  285.8750    96.1200    10.5010     9.5320     3.9990    21.5860     2.3920  -999.2500 
  286.0000    96.1200    10.5010     9.5320     3.9910    21.3100     2.3820  -999.2500 
  286.1250    96.1200    10.5010     9.5320     3.9630    20.5820     2.3560  -999.2500 
  286.2500    96.1200    10.5010     9.5320     3.9260    19.0940     2.3070  -999.2500 
  286.3750    96.1200    10.5010     9.5320     3.8970    16.8700     2.2350  -999.2500 
  286.5000    96.1200    10.5010     9.5320     3.8910    15.7300     2.1600  -999.2500 
  286.6250    96.1200    10.5010     9.5320     3.8870    15.3640     2.0970  -999.2500 
  286.7500    96.1200    10.5010     9.5320     3.8860    15.3430     2.0560  -999.2500 
  286.8750    96.1200    10.5010     9.5320     3.8850    15.3390     2.0380  -999.2500 
  287.0000    96.1200    10.5010     9.5320     3.8850    15.3390     2.0330  -999.2500 
