~V
VERS. 2.00: Ver 2.00
~W
STRT.M 52.0000:
STOP.M 279.0000:
STEP.M 0.1250:
NULL. -999.2500:
UWI. F11031:
~C
DEPT.M :
DEN.GM/CC :
GR.API :
RML.OHMM :
RI. :
RXO.OHMM :
CALI.CM :
SP.MV :
~A
# ...
  164.5000     2.1880    70.8100    22.6480    22.2890    18.4480    22.9860    -9.9170 
  164.6250     2.1860    68.2990    20.2080    20.2900    15.5160    22.8680    -9.7640 
  164.7500     2.1900    69.3380    18.2550    18.6470    13.6300    22.9090    -9.6210 
  164.8750     2.1980    71.3710    16.6440    17.2170    12.8270    22.9200    -9.4860 
  165.0000     2.2070    70.7330    15.1360    15.8140    12.4960    22.8940    -9.3800 
  165.1250     2.2140    69.3280    13.5000    14.2530    11.9070    22.6940    -9.3400 
  165.2500     2.2210    70.8710    11.7700    12.5620    10.1930    22.4660    -9.3240 
  165.3750     2.2270    75.2070    10.1440    10.8890     8.4130    22.2780    -9.3230 
  165.5000     2.2360    80.5530     8.8230     9.4100     7.1870    22.2340    -9.3790 
  165.6250     2.2480    82.4000     7.9840     8.3130     6.2040    22.2310    -9.4320 
  165.7500     2.2630    79.1510     7.5630     7.6040     5.8560    22.2360    -9.5040 
  165.8750     2.2790    74.6150     7.5700     7.3160     5.8780    22.2170    -9.5940 
  166.0000     2.2940    72.4080     8.0920     7.4950     5.8820    22.1800    -9.6780 
  166.1250     2.3030    72.7580     9.4240     8.3200     6.2650    22.1300    -9.7370 
  166.2500     2.3030    72.4260    11.6040     9.8030     8.0060    21.8830    -9.8090 
  166.3750     2.2950    70.5490    14.6430    12.0020    11.6990    21.8220    -9.8900 
  166.5000     2.2800    67.4580    18.3590    14.8710    16.6580    22.1550    -9.9700 
  166.6250     2.2640    63.9450    20.3180    18.1840    19.9650    22.9450   -10.1230 
  166.7500     2.2540    62.0210    23.7660    21.4390    21.4750    23.3520   -10.2850 
  166.8750     2.2530    61.7800    26.9900    24.4290    22.2770    23.5270   -10.4870 
  167.0000     2.2620    61.4940    30.2910    27.2950    24.6640    23.5660   -10.7150 
  167.1250     2.2760    59.8270    34.1900    30.4700    31.8490    23.5790   -10.9370 
  167.2500     2.2830    57.7760    38.6660    34.0780    40.2190    23.7460   -11.1690 
  167.3750     2.2770    56.7540    43.2310    37.8460    46.5480    23.8940   -11.3830 
  167.5000     2.2580    56.0070    46.9290    41.1140    48.8660    23.9350   -11.5500 
  167.6250     2.2350    55.7560    48.1000    42.5810    48.5010    23.9930   -11.6680 
  167.7500     2.2200    55.5670    46.2980    41.6530    47.9850    24.0170   -11.7490 
  167.8750     2.2150    57.2100    41.8430    38.3180    44.7640    24.0150   -11.7560 
  168.0000     2.2210    60.9860    35.9010    33.3820    37.1620    23.9800   -11.7330 
  168.1250     2.2310    62.8180    30.0250    28.1580    30.2080    23.9400   -11.6690 
  168.2500     2.2400    60.6540    25.2180    23.7120    21.8820    23.9210   -11.5620 
  168.3750     2.2430    58.8530    21.7460    20.3810    17.5120    23.8580   -11.4410 
  168.5000     2.2410    60.7420    19.5110    18.1370    16.2540    23.7760   -11.3240 
  168.6250     2.2370    63.0120    18.3510    16.8730    16.0720    23.7480   -11.2140 
  168.7500     2.2340    62.6660    17.7340    16.1440    15.3630    23.6950   -11.1130 
  168.8750     2.2330    64.4370    17.3440    15.6900    14.2760    23.5710   -11.0670 
  169.0000     2.2350    69.8430    16.9380    15.2940    13.3200    23.2820   -11.0610 
  169.1250     2.2380    74.1880    16.3800    14.8360    13.1960    22.9990   -11.1020 
  169.2500     2.2420    73.8630    15.7190    14.3400    12.8380    22.8440   -11.2010 
  169.3750     2.2460    71.1750    15.0450    13.8670    11.8470    22.8010   -11.3050 
  169.5000     2.2480    70.4320    14.4690    13.4760    11.0990    22.7450   -11.4080 
  169.6250     2.2490    71.0890    14.1150    13.2150    11.1910    22.7360   -11.5380 
  169.7500     2.2490    69.9220    13.9610    13.0520    11.4550    22.7340   -11.6650 
  169.8750     2.2500    68.3940    13.9370    12.9490    11.5470    22.7310   -11.7640 
  170.0000     2.2500    68.4110    13.9400    12.8550    11.5900    22.7200   -11.8410 
  170.1250     2.2500    70.3340    13.8760    12.7290    11.3180    22.6560   -11.8870 
  170.2500     2.2470    72.3340    13.7590    12.5830    11.1630    22.6380   -11.9110 
  170.3750     2.2450    74.3270    13.6400    12.4500    10.9670    22.6270   -11.9590 
  170.5000     2.2440    76.0500    13.5460    12.3560    10.7870    22.6330   -12.0000 
  170.6250     2.2440    76.5310    13.4530    12.3050    10.8370    22.6300   -11.9720 
  170.7500     2.2460    75.7490    13.3280    12.2630    11.0230    22.6220   -11.9320 
  170.8750     2.2480    75.9540    13.1640    12.1910    11.1200    22.5770   -11.8610 
  171.0000     2.2500    77.8920    12.9820    12.0570    10.9170    22.5340   -11.7490 
  171.1250     2.2520    78.5260    12.8210    11.8630    10.5630    22.4490   -11.6280 
  171.2500     2.2560    75.3320    12.7050    11.6650    10.1010    22.3850   -11.4220 
  171.3750     2.2590    71.6640    12.6500    11.5140     9.7070    22.7760   -11.1340 
  171.5000     2.2620    72.0610    12.6660    11.4470     9.7090    22.9550   -10.8030 
  171.6250     2.2640    75.8530    12.7680    11.4850    10.0300    22.9230   -10.4320 
  171.7500     2.2650    76.7690    12.9350    11.5900    10.4260    22.7050   -10.0430 
  171.8750     2.2650    74.4210    13.1540    11.7340    10.5550    22.4230    -9.6670 
  172.0000     2.2630    71.6610    13.4030    11.9000    10.4400    21.9620    -9.3370 
  172.1250     2.2570    70.6720    13.6630    12.0930    10.5320    22.0780    -9.0290 
  172.2500     2.2500    70.8450    13.9330    12.3160    10.7800    22.7360    -8.8120 
  172.3750     2.2420    71.5310    14.2280    12.5790    10.9710    23.1710    -8.6780 
  172.5000     2.2360    73.0390    14.5590    12.8800    11.2270    23.3480    -8.6290 
  172.6250     2.2350    76.4620    14.9380    13.2060    11.5270    23.3970    -8.7130 
  172.7500     2.2380    79.5510    15.3460    13.5360    11.9910    23.2410    -8.8480 
  172.8750     2.2440    80.0180    15.7710    13.8760    12.4090    22.7100    -9.0250 
  173.0000     2.2490    78.1030    16.2160    14.2440    12.7960    21.7930    -9.2390 
  173.1250     2.2500    75.9690    16.7320    14.6760    12.8560    21.0330    -9.5040 
  173.2500     2.2470    75.0640    17.3410    15.1780    12.7480    20.5780    -9.7760 
  173.3750     2.2420    74.1220    18.0130    15.7370    13.0480    20.2960   -10.0880 
  173.5000     2.2390    72.6070    18.6620    16.3050    13.3150    20.1050   -10.4290 
  173.6250     2.2390    73.4040    19.1750    16.8060    13.8040    19.9950   -10.7440 
  173.7500     2.2420    75.1050    19.5850    17.2200    14.0400    19.9190   -11.1000 
  173.8750     2.2460    75.3060    20.0260    17.6090    13.8490    19.8160   -11.4960 
  174.0000     2.2480    74.0360    20.6710    18.0930    13.4410    19.7380   -11.8990 
  174.1250     2.2490    74.2150    21.6550    18.8130    13.3180    19.7060   -12.3140 
  174.2500     2.2520    75.4800    22.8380    19.7320    14.0350    19.6620   -12.7540 
  174.3750     2.2590    74.9310    24.0690    20.7670    15.6120    19.6610   -13.1930 
  174.5000     2.2700    73.6030    25.2600    21.8330    18.1820    19.7010   -13.6140 
  174.6250     2.2810    71.5350    26.5320    22.9590    20.5240    19.7330   -14.0610 
  174.7500     2.2860    68.7000    28.2310    24.3530    21.8480    19.8340   -14.4740 
  174.8750     2.2780    66.1560    30.7680    26.3480    23.2420    20.0070   -14.8280 
  175.0000     2.2600    65.1480    34.4320    29.2700    25.5960    20.2640   -15.1580 
  175.1250     2.2380    64.2040    39.3910    33.4740    26.8760    20.4170   -15.4640 
  175.2500     2.2230    61.3730    45.0570    38.5850    27.4890    20.7520   -15.7400 
  175.3750     2.2190    58.9530    50.8760    44.1130    31.9210    21.3830   -15.9940 
  175.5000     2.2250    58.7310    56.4180    49.5190    40.6770    22.2150   -16.2310 
  175.6250     2.2340    61.1320    61.6980    54.5700    54.2740    22.8150   -16.4180 
