~V
VERS. 2.00: Ver 2.00
~W
STRT.M 51.0000:
STOP.M 282.0000:
STEP.M 0.1250:
NULL. -999.2500:
UWI. F11065:
~C
DEPT.M :
GR.API :
RML.OHMM :
RI. :
RXO.OHMM :
CALI.CM :
DEN.GM/CC :
SP.MV :
~A
# ...
  141.0000    76.1710    10.6250     8.7620    10.1410    24.0190     2.1990   -12.8110 
  141.1250    77.2820    10.3440     8.5980     9.8280    24.2980     2.1940   -12.7470 
  141.2500    79.5440     9.8910     8.3700     9.8140    24.4400     2.1930   -12.5900 
  141.3750    81.0440     9.4480     8.1240     9.3360    24.3820     2.1980   -12.4710 
  141.5000    81.5160     9.1720     7.9250     8.7340    24.1870     2.2070   -12.3490 
  141.6250    80.1720     9.1280     7.8210     8.6300    23.9370     2.2160   -12.3290 
  141.7500    77.2770     9.3140     7.8230     9.0700    23.8450     2.2240   -12.4230 
  141.8750    74.2030     9.6780     7.9190     9.4750    24.0820     2.2310   -12.6050 
  142.0000    73.4160    10.0560     8.0750     9.6280    24.4330     2.2380   -12.8360 
  142.1250    75.0020    10.3400     8.2890     9.5220    24.7110     2.2450   -13.0630 
  142.2500    78.0090    10.4920     8.5580     9.5080    24.8440     2.2480   -13.2920 
  142.3750    80.1030    10.5520     8.8660     9.9520    24.8870     2.2400   -13.4590 
  142.5000    77.7070    10.6140     9.1620    10.8160    24.9400     2.2220   -13.5420 
  142.6250    73.0880    10.6880     9.3990    12.0290    24.9600     2.1990   -13.5700 
  142.7500    70.1790    10.7240     9.5410    12.6730    24.8290     2.1760   -13.4830 
  142.8750    70.8220    10.6490     9.5640    11.4060    24.5650     2.1580   -13.3350 
  143.0000    72.7390    10.4950     9.5000    10.5990    24.5020     2.1470   -13.1290 
  143.1250    72.7090    10.3450     9.3600    10.2850    24.6840     2.1440   -12.9320 
  143.2500    70.3780    10.2850     9.1730    10.0350    24.9010     2.1510   -12.7810 
  143.3750    70.7130    10.3870     9.0320    10.0030    24.7830     2.1670   -12.5970 
  143.5000    74.8790    10.6170     9.0330    10.4390    24.5060     2.1860   -12.4820 
  143.6250    77.4130    10.9060     9.2240    10.8430    24.2870     2.2010   -12.3060 
  143.7500    74.5280    11.1150     9.5610    10.3850    24.2420     2.2100   -12.1030 
  143.8750    69.2890    10.9900     9.8440    10.2560    24.2840     2.2200   -11.7910 
  144.0000    66.9680    10.4320     9.8110    10.8250    24.3050     2.2390   -11.3570 
  144.1250    70.0870     9.4650     9.3020    11.0090    24.3290     2.2700   -10.8110 
  144.2500    78.4820     8.2660     8.3430     9.4240    24.4420     2.3040   -10.1610 
  144.3750    88.6340     7.1240     7.1350     7.1890    24.7370     2.3280    -9.5550 
  144.5000    95.6500     6.2470     5.9770     6.4980    25.0300     2.3350    -8.8790 
  144.6250    99.8240     5.7280     5.0400     6.1270    25.2070     2.3280    -8.2250 
  144.7500   101.3280     5.6180     4.4380     5.8290    25.2580     2.3180    -7.6270 
  144.8750   100.1770     6.0760     4.3240     5.6610    25.2440     2.3300    -7.1050 
  145.0000    98.4370     7.1040     4.7090     5.8450    25.2200     2.3750    -6.7670 
  145.1250    95.0740     8.6980     5.6710     7.0230    25.2090     2.4520    -6.5910 
  145.2500    88.0380    10.6820     7.2540    10.7170    25.2080     2.5420    -6.5790 
  145.3750    77.9940    12.5170     9.3290    17.9940    25.1950     2.6040    -6.7440 
  145.5000    71.2840    13.5560    11.1350    23.4810    25.1510     2.6070    -7.0720 
  145.6250    71.3000    13.4720    11.9140    21.9260    25.0790     2.5400    -7.5720 
  145.7500    76.1380    12.4670    11.5170    15.2830    25.0500     2.4140    -8.2190 
  145.8750    78.8400    11.2360    10.5740    11.4450    25.2450     2.2640    -8.9590 
  146.0000    76.9910    10.5180     9.9110    11.3360    25.5880     2.1470    -9.6120 
  146.1250    73.0480    10.5540     9.8490    11.6010    25.7850     2.1080   -10.1130 
  146.2500    70.3330    11.1950    10.4360    11.5440    25.7120     2.1620   -10.4570 
  146.3750    71.1600    11.9290    11.4600    11.8450    25.4750     2.2930   -10.5090 
  146.5000    74.3420    12.1440    12.2310    13.8690    25.2130     2.4270   -10.3860 
  146.6250    77.7990    11.5700    12.1610    18.0450    25.0570     2.5140   -10.0640 
  146.7500    80.4750    10.3380    11.1340    18.2420    25.0790     2.5330    -9.5690 
  146.8750    84.9230     8.9150     9.5980    11.5450    25.2270     2.5000    -9.0430 
  147.0000    89.8900     7.7870     8.2050     7.7640    25.3100     2.4620    -8.5060 
  147.1250    92.5560     7.1000     7.1890     6.8900    25.3340     2.4380    -8.0880 
  147.2500    93.9880     6.7880     6.5790     7.0800    25.3350     2.4290    -7.7690 
  147.3750    94.3860     6.6940     6.3120     7.1080    25.3350     2.4250    -7.5760 
  147.5000    94.8360     6.6380     6.1690     7.0210    25.3350     2.4160    -7.4760 
  147.6250    97.7430     6.6110     6.0590     6.7880    25.3350     2.4030    -7.3940 
  147.7500   102.6810     6.7250     6.0310     6.5920    25.3350     2.3940    -7.3620 
  147.8750   103.4800     7.2360     6.3140     6.4090    25.3350     2.4040    -7.3370 
  148.0000    98.7710     8.2060     7.0500     6.7440    25.3350     2.4370    -7.4080 
  148.1250    91.8280     9.5470     8.2890     8.3310    25.3200     2.4870    -7.5300 
  148.2500    84.4500    10.9240     9.8640    11.9370    25.2770     2.5360    -7.6270 
  148.3750    78.3980    11.6740    11.0470    16.5210    25.2110     2.5540    -7.7100 
  148.5000    74.5550    11.4950    11.0790    16.8730    25.2060     2.5300    -7.7530 
  148.6250    75.8660    10.5240     9.9770    12.6350    25.2530     2.4770    -7.8060 
  148.7500    85.0080     9.3160     8.5130     7.8980    25.3140     2.4220    -7.8740 
  148.8750    94.4450     8.7200     7.5850     6.2710    25.3730     2.4100    -7.9490 
  149.0000    92.8180     9.1690     7.5010     6.4350    25.3820     2.4530    -8.0000 
  149.1250    81.6250    11.0390     8.4400     8.5880    25.3230     2.5360    -7.9910 
  149.2500    69.9930    14.5200    10.5930    14.6550    25.1770     2.6300    -7.9780 
  149.3750    62.4140    19.1680    14.2010    21.7750    25.0280     2.6960    -7.9990 
  149.5000    57.8590    23.4310    18.4040    27.4620    24.9290     2.7230    -8.0280 
  149.6250    57.3760    26.2440    21.9440    27.8690    24.8720     2.7170    -8.1130 
  149.7500    59.4620    27.3620    23.8700    25.0370    24.8700     2.6960    -8.1630 
  149.8750    60.5460    27.2090    24.2250    24.9470    24.8860     2.6770    -8.2420 
  150.0000    61.0760    26.8260    24.1440    25.1300    24.9100     2.6700    -8.3550 
  150.1250    60.8110    26.7150    24.1470    24.5130    24.9280     2.6710    -8.5360 
  150.2500    60.0040    26.9450    24.3550    26.4790    24.9360     2.6770    -8.8290 
  150.3750    60.4780    27.3050    24.6170    27.3340    24.9360     2.6830    -9.0990 
  150.5000    60.1660    27.5250    24.6780    27.2280    24.9360     2.6880    -9.3840 
  150.6250    57.8230    27.5120    24.4170    25.1110    24.9320     2.6940    -9.5950 
  150.7500    55.1010    27.2820    23.8710    23.1630    24.9200     2.6990    -9.8340 
  150.8750    55.7480    26.8740    23.2010    24.0990    24.8970     2.7010   -10.0930 
  151.0000    58.8670    26.3370    22.5870    25.6070    24.8870     2.6970   -10.3150 
  151.1250    61.1080    25.6720    22.0990    23.7760    24.8850     2.6870   -10.5000 
  151.2500    61.0490    24.9230    21.7680    22.4930    24.8850     2.6720   -10.5740 
  151.3750    58.8530    24.2270    21.6290    22.1020    24.8830     2.6590   -10.6680 
  151.5000    57.7300    23.7280    21.6210    22.6030    24.8700     2.6520   -10.7680 
  151.6250    57.6180    23.4970    21.6930    22.4580    24.8350     2.6510   -10.9100 
  151.7500    55.8630    23.5260    21.7860    23.8610    24.7930     2.6520   -11.0730 
  151.8750    54.0570    23.7790    21.8680    25.1070    24.7890     2.6560   -11.1660 
  152.0000    54.5560    24.1570    21.9930    25.3570    24.8060     2.6620   -11.2730 
  152.1250    55.2120    24.6070    22.2370    23.2700    24.8150     2.6710   -11.4000 
