~V
VERS. 2.00: Ver 2.00
~W
STRT.M 54.0000:
STOP.M 281.0000:
STEP.M 0.1250:
NULL. -999.2500:
UWI. F11055:
~C
DEPT.M :
SP.MV :
GR.API :
RML.OHMM :
RI. :
RXO.OHMM :
CALI.CM :
DEN.GM/CC :
~A
# ...
  177.7500    -3.6500    64.4500    73.2150    63.7090    61.0110    24.6340     2.2520 
  177.8750    -3.7530    64.9250    78.0010    67.4690    67.2830    24.6770     2.2470 
  178.0000    -3.9070    66.3520    83.1720    71.6620    73.6220    24.7270     2.2440 
  178.1250    -4.0290    66.9220    88.3690    76.0790    77.4490    24.7680     2.2470 
  178.2500    -4.1860    66.9500    93.1920    80.3250    81.6480    24.7900     2.2530 
  178.3750    -4.3300    68.2750    97.3270    84.0040    86.8790    24.8030     2.2590 
  178.5000    -4.4530    69.9700   100.5660    86.8010    92.2110    24.8020     2.2620 
  178.6250    -4.5940    68.8760   102.7270    88.4880    96.7680    24.7930     2.2600 
  178.7500    -4.6560    65.6520   104.2200    89.4720    98.6970    24.7950     2.2560 
  178.8750    -4.7680    64.1470   105.4450    90.1560    99.9530    24.7950     2.2560 
  179.0000    -4.7980    65.0560   106.8010    90.9710   100.0680    24.7790     2.2580 
  179.1250    -4.8490    66.4110   108.4780    92.2290    99.4150    24.7730     2.2620 
  179.2500    -4.8320    67.8890   109.8740    93.5450   100.7780    24.7880     2.2670 
  179.3750    -4.8300    68.9600   109.8790    94.0590   103.7510    24.8040     2.2740 
  179.5000    -4.7880    68.7010   107.4590    92.8200   106.9220    24.8070     2.2800 
  179.6250    -4.7180    68.0260   102.0550    89.0880   108.7270    24.7970     2.2820 
  179.7500    -4.6700    69.7140    95.2370    83.9080   104.3750    24.7830     2.2750 
  179.8750    -4.5950    71.3710    88.5290    78.5310    87.0500    24.7760     2.2620 
  180.0000    -4.5890    70.3600    83.0660    74.0740    68.5640    24.7750     2.2510 
  180.1250    -4.5140    66.0710    79.0940    71.0280    65.1020    24.7780     2.2470 
  180.2500    -4.5170    62.4040    75.4380    68.4820    65.8510    24.7790     2.2480 
  180.3750    -4.4750    61.6540    71.2410    65.6010    69.3390    24.7770     2.2530 
  180.5000    -4.4760    62.9500    66.2190    61.9280    70.5330    24.7750     2.2610 
  180.6250    -4.4720    65.9600    60.9850    57.7400    62.0320    24.7770     2.2710 
  180.7500    -4.4380    68.7900    56.9050    54.2270    49.6190    24.7770     2.2790 
  180.8750    -4.4350    70.2420    55.0300    52.4120    46.4230    24.7740     2.2800 
  181.0000    -4.3630    69.5230    55.7120    52.7950    50.0150    24.7720     2.2760 
  181.1250    -4.3590    66.3250    58.5300    55.3150    56.5190    24.7660     2.2760 
  181.2500    -4.2660    65.3320    61.0630    57.9850    63.5310    24.7430     2.2830 
  181.3750    -4.2200    69.9830    60.4900    58.0390    66.5890    24.6990     2.2890 
  181.5000    -4.1580    78.4510    54.8810    53.1960    63.0460    24.6770     2.2900 
  181.6250    -4.0960    82.0650    45.2290    44.1670    55.3960    24.6500     2.2770 
  181.7500    -4.0860    80.6270    36.1340    35.4870    40.4300    24.6310     2.2510 
  181.8750    -4.0210    80.8730    30.3230    29.5680    23.2110    24.6560     2.2240 
  182.0000    -3.9950    83.6520    29.1830    27.3760    14.5220    24.6760     2.2090 
  182.1250    -3.9530    80.9070    34.2810    30.1870    19.9570    24.6560     2.2110 
  182.2500    -3.9540    72.6960    44.8490    37.8750    43.8740    24.6200     2.2180 
  182.3750    -3.9360    66.2110    60.0720    50.4680    86.5600    24.6290     2.2230 
  182.5000    -3.9370    65.3140    76.9450    66.0150   112.6610    24.6890     2.2280 
  182.6250    -3.9130    66.6200    87.7750    77.9290   100.2330    24.7040     2.2370 
  182.7500    -3.9050    66.7680    88.3050    80.9550    85.3140    24.6820     2.2470 
  182.8750    -3.9190    66.6390    80.9540    75.9940    76.0800    24.6650     2.2570 
  183.0000    -3.9520    66.1080    71.5880    67.8980    70.7510    24.6860     2.2670 
  183.1250    -4.0230    65.0030    64.6770    60.9790    64.1460    24.6770     2.2840 
  183.2500    -4.1210    66.0360    60.8080    56.3890    54.9180    24.6410     2.3070 
  183.3750    -4.2560    68.1400    59.7470    54.1280    49.5730    24.6310     2.3320 
  183.5000    -4.4060    69.6200    60.9490    53.8970    56.6220    24.6540     2.3480 
  183.6250    -4.6300    71.4750    63.8320    55.4020    69.1950    24.7040     2.3410 
  183.7500    -4.8380    73.1250    67.4680    57.8310    69.9620    24.7310     2.3190 
  183.8750    -5.0600    71.5050    71.6680    60.9150    60.1100    24.7500     2.2920 
  184.0000    -5.2510    67.8170    76.7020    64.7650    51.9400    24.7580     2.2720 
  184.1250    -5.4350    68.5070    83.3390    70.0570    65.2720    24.7670     2.2610 
  184.2500    -5.6060    71.6080    91.4760    76.8030    80.1950    24.7710     2.2560 
  184.3750    -5.7690    72.1600   100.1560    84.3130    95.4620    24.7740     2.2520 
  184.5000    -5.8640    70.0110   107.0770    90.6950   115.7510    24.7760     2.2470 
  184.6250    -5.9580    68.5770   108.1790    92.4270   114.5980    24.7730     2.2430 
  184.7500    -6.0360    68.3360   103.1950    88.9280   103.7500    24.7730     2.2440 
  184.8750    -6.1060    67.9230    94.2030    81.6820    89.1080    24.7760     2.2480 
  185.0000    -6.1900    67.3420    84.4190    73.3630    76.2670    24.7770     2.2550 
  185.1250    -6.2580    68.7140    76.6740    66.4790    61.9850    24.7730     2.2610 
  185.2500    -6.3170    70.5190    71.5040    61.6610    56.9650    24.7710     2.2630 
  185.3750    -6.3340    70.5450    68.7310    58.8560    60.3340    24.7720     2.2630 
  185.5000    -6.4370    68.5240    67.9740    57.8040    64.2170    24.7740     2.2640 
  185.6250    -6.5080    68.1210    69.3240    58.6110    67.2230    24.7770     2.2680 
  185.7500    -6.5790    70.4790    72.7120    61.1610    63.7460    24.7750     2.2670 
  185.8750    -6.6680    72.6820    78.5470    65.8140    64.3020    24.7720     2.2590 
  186.0000    -6.7510    72.3170    86.8970    72.7950    81.7790    24.7590     2.2470 
  186.1250    -6.7930    70.6430    96.8250    81.6540   102.7120    24.7210     2.2430 
  186.2500    -6.8280    70.4670   105.0990    89.7800   116.7430    24.6730     2.2440 
  186.3750    -6.8640    69.7840   108.0440    93.9850   119.5070    24.6530     2.2480 
  186.5000    -6.8690    66.4460   103.5130    91.9360   118.6780    24.6320     2.2550 
  186.6250    -6.8550    62.3530    92.8740    83.8760   110.5390    24.6710     2.2660 
  186.7500    -6.8160    60.6920    81.9310    74.6190    89.4020    24.7790     2.2770 
  186.8750    -6.7770    62.0570    73.9160    67.2680    64.8280    24.8930     2.2860 
  187.0000    -6.7320    64.8250    70.1690    63.3770    50.2080    24.9380     2.2840 
  187.1250    -6.6910    66.3330    71.1320    63.7950    58.7370    24.9390     2.2580 
  187.2500    -6.6540    65.5460    74.1750    66.6630    76.1030    24.9450     2.2130 
  187.3750    -6.6210    62.9240    75.9470    69.1890    91.1800    24.9500     2.1750 
  187.5000    -6.5630    60.7580    72.7990    67.7790    93.3750    24.9490     2.1700 
  187.6250    -6.5290    58.2810    62.9430    59.9980    77.7410    24.9680     2.1990 
  187.7500    -6.5160    57.4840    51.1200    49.7340    44.3870    25.0480     2.2250 
  187.8750    -6.5070    60.2090    41.3590    40.7120    20.6680    25.1470     2.2350 
  188.0000    -6.5050    64.8990    35.5330    34.8770    11.3330    25.1520     2.2400 
  188.1250    -6.5300    68.1210    33.8350    32.7010    13.1280    24.9690     2.2580 
  188.2500    -6.5610    69.8830    34.1520    32.5220    24.5410    24.8390     2.2810 
  188.3750    -6.5920    72.0320    35.0580    33.1430    40.3540    24.8040     2.2970 
  188.5000    -6.6480    74.6200    35.5520    33.6280    42.5230    24.8070     2.2990 
  188.6250    -6.7430    77.3500    35.5070    33.6580    32.5400    24.8010     2.2860 
  188.7500    -6.8110    80.3060    36.1190    34.0110    25.7690    24.7930     2.2710 
  188.8750    -6.8880    80.8870    38.8140    35.8160    26.6660    24.8020     2.2580 
