~V
VERS. 2.00: Ver 2.00
~W
STRT.M 52.0000:
STOP.M 278.0000:
STEP.M 0.1250:
NULL. -999.2500:
UWI. F11035:
~C
DEPT.M :
DEN.GM/CC :
GR.API :
RML.OHMM :
RI. :
RXO.OHMM :
CALI.CM :
SP.MV :
~A
# ...
  198.2500     2.4690    95.7580     8.8370     7.0520     8.7960    25.1980    -8.4620 
  198.3750     2.5110    95.0750     9.3460     7.5080    10.6870    24.8790    -8.7850 
  198.5000     2.5250    91.9950     9.6960     7.8850    10.8230    24.7690    -9.2010 
  198.6250     2.5090    88.9720     9.7450     7.9980    10.3220    24.7360    -9.7100 
  198.7500     2.4800    90.7650     9.5370     7.8360    10.1220    24.6850   -10.2600 
  198.8750     2.4480    95.3790     9.1640     7.4750     9.7590    24.7110   -10.8940 
  199.0000     2.4270    95.8880     8.7540     7.0470     8.8520    24.8820   -11.6370 
  199.1250     2.4210    92.0360     8.4610     6.6990     8.1010    25.1460   -12.4390 
  199.2500     2.4230    91.1040     8.3540     6.5000     8.3210    25.2290   -13.2470 
  199.3750     2.4230    93.0160     8.4680     6.4830     8.6140    25.0660   -14.0510 
  199.5000     2.4160    95.4410     8.8120     6.6600     8.6540    24.9090   -14.8830 
  199.6250     2.4030    97.7900     9.4260     7.0720     9.0610    24.8370   -15.7470 
  199.7500     2.3960   100.0350    10.2470     7.6900    10.4530    24.7570   -16.6170 
  199.8750     2.4070    97.8430    11.1960     8.4940    12.3400    24.7020   -17.3710 
  200.0000     2.4370    89.6440    12.1030     9.3850    13.5600    24.6960   -17.9470 
  200.1250     2.4790    81.1440    12.6410    10.0860    14.0030    24.6910   -18.3040 
  200.2500     2.5110    78.1930    12.6290    10.3240    15.5850    24.6380   -18.4990 
  200.3750     2.5220    80.8340    12.0330     9.9720    16.5650    24.5710   -18.5310 
  200.5000     2.5100    85.8880    11.0150     9.1320    13.3350    24.5580   -18.3730 
  200.6250     2.4870    89.6970     9.8880     8.0870     9.2760    24.6090   -17.9920 
  200.7500     2.4670    91.8890     8.9640     7.1550     7.5220    24.6460   -17.4680 
  200.8750     2.4530    93.4060     8.3910     6.4740     7.3990    24.6800   -16.9350 
  201.0000     2.4390    96.3510     8.2200     6.1070     7.4360    24.7700   -16.4820 
  201.1250     2.4190    99.4090     8.4930     6.1250     7.4440    24.8920   -16.2340 
  201.2500     2.3980    99.1080     9.0870     6.4550     8.0820    24.9780   -16.2250 
  201.3750     2.3820    94.6870     9.9380     7.0660     9.3200    24.9810   -16.4680 
  201.5000     2.3830    88.3960    11.0000     7.9210    10.9700    24.9130   -16.9640 
  201.6250     2.4060    81.8690    12.3290     9.0230    13.1840    24.8820   -17.5770 
  201.7500     2.4490    75.3280    13.9970    10.3570    14.1070    24.7810   -18.2410 
  201.8750     2.5090    70.3820    16.1070    12.0240    16.2010    24.6760   -18.8760 
  202.0000     2.5830    68.9420    18.5830    14.1040    19.3210    24.6000   -19.4120 
  202.1250     2.6560    72.2800    20.7670    16.3380    22.6630    24.6050   -19.6410 
  202.2500     2.6940    77.0530    21.6170    17.7390    27.2350    24.5800   -19.5350 
  202.3750     2.6700    80.0750    20.3960    17.2200    35.9240    24.5080   -19.0490 
  202.5000     2.5790    79.7070    17.2260    14.5960    38.0710    24.4490   -18.2250 
  202.6250     2.4460    76.2490    13.1770    11.0530    22.4540    24.5810   -17.1470 
  202.7500     2.3310    71.3750     9.7000     8.0580    10.3030    25.0120   -15.9100 
  202.8750     2.2700    67.9180     7.3460     5.9830     5.5990    25.5510   -14.5610 
  203.0000     2.2680    69.2260     6.1110     4.7640     4.3740    25.9720   -13.1530 
  203.1250     2.3060    74.0090     5.8420     4.3150     4.5740    26.0350   -11.8200 
  203.2500     2.3470    76.2020     6.0830     4.3530     4.9980    25.6020   -10.5890 
  203.3750     2.3760    75.3740     6.5790     4.7320     5.3850    24.9170    -9.4990 
  203.5000     2.3880    76.5140     7.0920     5.2830     6.1500    24.5510    -8.5110 
  203.6250     2.3890    82.0860     7.3820     5.7830     6.8850    24.6130    -7.6580 
  203.7500     2.3860    88.7110     7.3970     6.0650     6.9750    24.6780    -6.8840 
  203.8750     2.3870    92.5570     7.1840     6.0830     6.4070    24.6790    -6.1980 
  204.0000     2.3920    92.8830     6.8640     5.9030     6.1330    24.6440    -5.6180 
  204.1250     2.4020    92.5750     6.5830     5.6520     6.1340    24.6370    -5.1310 
  204.2500     2.4090    93.6600     6.4180     5.4440     6.2390    24.6200    -4.6880 
  204.3750     2.4120    94.3250     6.3760     5.3100     6.3270    24.6330    -4.2540 
  204.5000     2.4100    92.6840     6.4230     5.2360     6.3770    24.6610    -3.8710 
  204.6250     2.4060    89.5780     6.5100     5.1940     6.2490    24.6790    -3.6200 
  204.7500     2.4020    88.5830     6.5960     5.1610     6.1260    24.6610    -3.5350 
  204.8750     2.4000    89.0050     6.6850     5.1450     6.3250    24.6470    -3.5860 
  205.0000     2.3960    91.4520     6.8060     5.1670     6.7590    24.6540    -3.6980 
  205.1250     2.3900    96.1210     7.0160     5.2800     7.2460    24.6780    -3.8670 
  205.2500     2.3830    99.5640     7.3340     5.5030     7.6800    24.7040    -4.0760 
  205.3750     2.3760    99.2240     7.7740     5.8450     8.1920    24.7160    -4.3740 
  205.5000     2.3710    94.7950     8.3370     6.3080     9.0080    24.7150    -4.7520 
  205.6250     2.3670    91.0420     9.0290     6.9000    10.4340    24.7030    -5.1870 
  205.7500     2.3650    89.4340     9.7840     7.5720    11.1260    24.6860    -5.6060 
  205.8750     2.3660    88.6720    10.5260     8.2750    11.9950    24.6810    -5.9830 
  206.0000     2.3690    88.9270    11.1640     8.9330    14.1790    24.6810    -6.3290 
  206.1250     2.3730    89.8570    11.6020     9.4230    15.9100    24.6620    -6.6210 
  206.2500     2.3730    91.0850    11.8960     9.7460    14.7940    24.6520    -6.8660 
  206.3750     2.3690    91.4930    12.1410     9.9800    13.6630    24.6490    -7.0920 
  206.5000     2.3650    89.7990    12.4160    10.2240    12.3610    24.6440    -7.2900 
  206.6250     2.3680    87.5770    12.7000    10.5030    12.2580    24.6390    -7.4150 
  206.7500     2.3820    86.6380    12.8570    10.7170    14.1660    24.6440    -7.4720 
  206.8750     2.4010    86.0690    12.7690    10.7400    17.5600    24.6650    -7.4860 
  207.0000     2.4170    84.3400    12.4320    10.5130    17.9890    24.6830    -7.3980 
  207.1250     2.4180    84.6070    12.0380    10.1410    12.8340    24.7330    -7.2640 
  207.2500     2.4030    88.4040    11.9060     9.9050    11.0020    24.7730    -7.1400 
  207.3750     2.3780    90.1420    12.2450    10.0090    13.1230    24.7570    -6.9840 
  207.5000     2.3550    85.4960    13.1190    10.5610    17.6080    24.6870    -6.8020 
  207.6250     2.3420    81.3930    14.4810    11.6400    22.2380    24.6310    -6.6720 
  207.7500     2.3400    84.6070    16.0460    13.0410    21.1770    24.5950    -6.6320 
  207.8750     2.3430    91.9980    17.6640    14.5720    21.1520    24.5820    -6.6570 
  208.0000     2.3420    96.2430    19.3160    16.1020    23.7860    24.5800    -6.7670 
  208.1250     2.3300    94.4080    21.1890    17.7410    28.4140    24.5840    -6.9400 
  208.2500     2.3060    91.6000    23.4470    19.6950    31.7450    24.5970    -7.0820 
  208.3750     2.2760    87.9220    26.1670    22.0830    34.0530    24.6260    -7.1920 
  208.5000     2.2490    81.8500    29.3070    24.8970    35.8490    24.6430    -7.2610 
  208.6250     2.2370    75.6740    32.7930    28.0810    38.9120    24.6280    -7.2720 
  208.7500     2.2410    72.9740    36.4830    31.4490    45.4560    24.5740    -7.2240 
  208.8750     2.2540    73.3420    40.3670    34.9510    48.9270    24.5190    -7.1580 
  209.0000     2.2640    75.1370    44.4470    38.6390    46.4450    24.4760    -7.1070 
  209.1250     2.2570    77.5140    48.6180    42.5490    50.1220    24.4860    -7.0860 
  209.2500     2.2370    77.4980    52.5890    46.3940    58.9980    24.5430    -7.1230 
  209.3750     2.2130    75.0210    56.1450    49.8740    65.0150    24.6110    -7.2170 
