~V
VERS. 2.00: Ver 2.00
~W
STRT.M 55.0000:
STOP.M 281.0000:
STEP.M 0.1250:
NULL. -999.2500:
UWI. F11051:
~C
DEPT.M :
SP.MV :
GR.API :
RML.OHMM :
RI. :
RXO.OHMM :
CALI.CM :
DEN.GM/CC :
~A
# ...
   66.2500   -22.1550    61.9090    16.0570    13.9340    14.6710    23.6830     2.3840 
   66.3750   -22.3720    63.2770    12.0610    10.8950    15.0420    23.6500     2.2790 
   66.5000   -22.5190    64.1090     9.9110     8.9200    18.5630    23.6200     2.1950 
   66.6250   -22.6070    65.5340     9.1160     7.8760    12.5660    23.5220     2.1400 
   66.7500   -22.6360    68.6630     8.8810     7.3370     8.9320    23.4040     2.1120 
   66.8750   -22.6200    71.6830     8.8650     7.1030     7.6360    23.3080     2.1080 
   67.0000   -22.5830    71.0490     8.9140     7.0480     7.4040    23.2550     2.1220 
   67.1250   -22.5180    66.9280     9.0360     7.1340     7.2800    23.2600     2.1470 
   67.2500   -22.4800    65.2230     9.2590     7.3150     7.2840    23.3000     2.1660 
   67.3750   -22.4470    67.4750     9.5630     7.5540     7.7080    23.3480     2.1730 
   67.5000   -22.4570    68.3690     9.8660     7.7990     8.4510    23.4130     2.1660 
   67.6250   -22.4710    65.1580    10.0360     7.9670     9.4120    23.5190     2.1460 
   67.7500   -22.4980    62.5680    10.0350     8.0150     9.1240    23.6220     2.1260 
   67.8750   -22.5240    63.4420     9.8900     7.9400     8.6120    23.6660     2.1120 
   68.0000   -22.5630    67.1190     9.6840     7.7840     8.2200    23.6750     2.1100 
   68.1250   -22.6080    69.6570     9.5160     7.6160     8.0460    23.6490     2.1180 
   68.2500   -22.6400    70.8450     9.4390     7.4920     7.8810    23.5640     2.1270 
   68.3750   -22.6820    70.1370     9.4830     7.4230     7.7220    23.4450     2.1310 
   68.5000   -22.7000    66.9940     9.6670     7.3950     7.7660    23.3740     2.1280 
   68.6250   -22.7340    64.1270     9.9480     7.3860     7.9590    23.3620     2.1230 
   68.7500   -22.7710    63.8850    10.1700     7.3740     8.0060    23.3540     2.1210 
   68.8750   -22.8130    66.3190    10.2120     7.3500     7.9210    23.3280     2.1230 
   69.0000   -22.8420    66.5250    10.0350     7.3070     7.9280    23.2790     2.1270 
   69.1250   -22.8690    62.7880     9.7420     7.2480     7.9990    23.2460     2.1340 
   69.2500   -22.8830    61.0890     9.5720     7.2130     8.0440    23.2280     2.1460 
   69.3750   -22.8790    62.7000     9.6960     7.2640     8.0980    23.2040     2.1610 
   69.5000   -22.8810    65.2410    10.1620     7.4560     8.1780    23.1520     2.1710 
   69.6250   -22.8560    65.6960    10.8670     7.8050     8.4110    23.1530     2.1630 
   69.7500   -22.8270    65.7890    11.5320     8.2030    10.0420    23.2650     2.1430 
   69.8750   -22.7720    65.1610    11.9150     8.5130    15.4340    23.4280     2.1180 
   70.0000   -22.7130    63.2510    11.8470     8.6030    25.5590    23.4430     2.0960 
   70.1250   -22.6340    64.9360    11.3040     8.3880    19.1290    23.3020     2.0870 
   70.2500   -22.5640    69.4110    10.6100     8.0140    10.3810    23.1960     2.0870 
   70.3750   -22.4990    70.2780    10.0220     7.6270     7.3900    23.2980     2.0890 
   70.5000   -22.4460    65.1880     9.6710     7.3400     6.9880    23.4170     2.0920 
   70.6250   -22.4120    59.8040     9.5680     7.2280     7.1100    23.4290     2.0980 
   70.7500   -22.3840    57.9180     9.5800     7.2410     7.3590    23.3810     2.1100 
   70.8750   -22.3690    57.8760     9.6480     7.3210     7.8400    23.2990     2.1230 
   71.0000   -22.3570    59.2630     9.7930     7.4250     8.5580    23.2560     2.1320 
   71.1250   -22.3620    62.3400    10.0950     7.5590     9.2940    23.3030     2.1280 
   71.2500   -22.3430    64.8280    10.5120     7.7500     9.0540    23.4170     2.1190 
   71.3750   -22.3240    64.5270    10.9680     7.9990     8.4630    23.5220     2.1170 
   71.5000   -22.2800    61.1670    11.3610     8.2670     7.8720    23.5260     2.1300 
   71.6250   -22.2340    58.7890    11.5420     8.4450     7.5500    23.3880     2.1580 
   71.7500   -22.1960    60.1680    11.4620     8.4660     7.4310    23.2860     2.1810 
   71.8750   -22.1580    63.5860    11.1440     8.3270     7.4070    23.2420     2.1890 
   72.0000   -22.1360    64.5760    10.7130     8.0960     7.3550    23.2100     2.1800 
   72.1250   -22.1180    62.0640    10.3770     7.8840     7.3600    23.0800     2.1660 
   72.2500   -22.1430    60.2790    10.2610     7.7660     7.2860    22.9010     2.1570 
   72.3750   -22.1780    59.6210    10.3740     7.7550     7.1700    22.8720     2.1530 
   72.5000   -22.2360    58.6600    10.6050     7.8230     7.2360    22.9560     2.1540 
   72.6250   -22.2930    59.4460    10.8070     7.9180     7.5810    22.9140     2.1560 
   72.7500   -22.3530    61.8900    10.9170     7.9900     7.9970    22.8580     2.1540 
   72.8750   -22.4180    62.3200    10.9350     8.0220     8.2740    22.8840     2.1450 
   73.0000   -22.4890    59.1810    10.8890     8.0080     8.3390    22.9450     2.1290 
   73.1250   -22.5430    57.6740    10.8210     7.9570     8.4010    22.9750     2.1100 
   73.2500   -22.5840    60.6600    10.7480     7.8890     8.3950    23.0060     2.0970 
   73.3750   -22.6260    63.9980    10.6470     7.8210     8.3220    22.9910     2.0940 
   73.5000   -22.6620    64.8800    10.5060     7.7650     8.1890    22.9590     2.1050 
   73.6250   -22.6920    65.3850    10.3850     7.7450     8.0590    22.9210     2.1300 
   73.7500   -22.7000    68.2810    10.3810     7.7750     7.9860    22.8570     2.1580 
   73.8750   -22.7030    72.0690    10.5530     7.8730     7.7360    22.7700     2.1800 
   74.0000   -22.6830    72.9490    10.8890     8.0450     7.4190    22.6750     2.1870 
   74.1250   -22.6650    70.5100    11.2960     8.2730     7.2420    22.6870     2.1770 
   74.2500   -22.6470    67.1760    11.6370     8.4850     7.1930    22.8210     2.1600 
   74.3750   -22.6160    64.9660    11.8380     8.6150     7.1580    23.0060     2.1460 
   74.5000   -22.5810    64.3580    11.8800     8.6200     7.2080    23.1140     2.1410 
   74.6250   -22.5480    63.7940    11.7890     8.4920     7.2740    23.1530     2.1430 
   74.7500   -22.5180    62.3700    11.6580     8.3130     7.2950    23.1900     2.1460 
   74.8750   -22.4790    61.5960    11.5460     8.1440     7.2860    23.2490     2.1480 
   75.0000   -22.4550    62.4830    11.4840     8.0240     7.3300    23.3190     2.1470 
   75.1250   -22.4270    62.7310    11.4600     7.9670     7.4950    23.3450     2.1450 
   75.2500   -22.3990    62.0420    11.4210     7.9420     7.7560    23.3510     2.1440 
   75.3750   -22.3610    62.2230    11.3290     7.9240     8.0960    23.3580     2.1420 
   75.5000   -22.3050    62.5460    11.1860     7.8950     8.6240    23.3780     2.1400 
   75.6250   -22.2390    61.1080    11.0360     7.8480     8.8590    23.4150     2.1350 
   75.7500   -22.1690    59.8340    10.9180     7.7910     8.9420    23.4190     2.1300 
   75.8750   -22.0900    60.3520    10.8440     7.7310     8.9170    23.4180     2.1250 
   76.0000   -21.9960    61.0820    10.7960     7.6740     8.9050    23.3720     2.1210 
   76.1250   -21.8900    60.7190    10.7440     7.6280     8.8420    23.2900     2.1200 
   76.2500   -21.7650    60.6850    10.6860     7.5950     8.7560    23.1790     2.1210 
   76.3750   -21.6360    62.1260    10.6310     7.5720     8.7230    23.1550     2.1230 
   76.5000   -21.5040    63.6970    10.5630     7.5520     8.8300    23.2630     2.1240 
   76.6250   -21.3380    62.9870    10.4190     7.5140     9.1330    23.3120     2.1250 
   76.7500   -21.1730    61.0560    10.2060     7.4480     9.3440    23.3010     2.1230 
   76.8750   -21.0070    60.8710    10.0190     7.3660     9.0850    23.2570     2.1190 
   77.0000   -20.8170    62.4000    10.0270     7.3200     8.6930    23.1990     2.1130 
   77.1250   -20.6390    62.4050    10.4310     7.4230     8.4400    23.1230     2.1060 
   77.2500   -20.4240    63.1650    11.1510     7.7220     8.5580    23.0700     2.1130 
   77.3750   -20.2010    66.6460    12.0200     8.2040     8.9770    23.0570     2.1510 
