~V
VERS. 2.00: Ver 2.00
~W
STRT.M 53.0000:
STOP.M 276.0000:
STEP.M 0.1250:
NULL. -999.2500:
UWI. F11074:
~C
DEPT.M :
DEN.GM/CC :
SP.MV :
GR.API :
RML.OHMM :
RI. :
RXO.OHMM :
CALI.CM :
~A
# ...
  109.2500     2.1910   -17.6770    79.1700    11.9780     9.1980    12.2150    24.2310 
  109.3750     2.2230   -17.9930    80.5660    12.2480     9.4510    16.0520    24.2170 
  109.5000     2.2620   -18.2140    80.8040    12.6580     9.7950    24.7840    24.2130 
  109.6250     2.2990   -18.2860    79.4590    12.9020    10.0510    31.8910    24.2000 
  109.7500     2.3080   -18.2220    78.2830    12.6730     9.9760    23.4510    24.1760 
  109.8750     2.2730   -18.0660    77.0080    11.9470     9.5010    14.0270    24.1630 
  110.0000     2.2150   -17.8580    74.7630    11.0300     8.8080    10.4990    24.1780 
  110.1250     2.1770   -17.6330    74.1220    10.3870     8.2260     9.7320    24.2370 
  110.2500     2.1670   -17.4030    76.6040    10.1640     7.9190     9.5790    24.3150 
  110.3750     2.1710   -17.1760    80.2550    10.2750     7.8750     9.6350    24.4000 
  110.5000     2.1810   -16.9780    83.5520    10.5160     7.9800     9.8810    24.4660 
  110.6250     2.1920   -16.8780    85.0900    10.6650     8.0860     9.9810    24.4880 
  110.7500     2.2010   -16.8640    84.0970    10.6610     8.1110    10.0780    24.4920 
  110.8750     2.2060   -16.8870    81.1820    10.5380     8.0570    10.2350    24.4920 
  111.0000     2.2050   -16.9330    79.2970    10.3590     7.9570    10.2240    24.4860 
  111.1250     2.2000   -16.9850    79.6820    10.1820     7.8450     9.9370    24.4550 
  111.2500     2.1950   -17.0400    78.5400    10.0470     7.7540     9.5660    24.3760 
  111.3750     2.1920   -17.1120    77.2300     9.9710     7.7020     9.4370    24.2590 
  111.5000     2.1940   -17.2370    79.8250     9.9450     7.6920     9.5760    24.1720 
  111.6250     2.2010   -17.4030    85.1000     9.9440     7.7160     9.7900    24.1440 
  111.7500     2.2110   -17.5750    86.7450     9.9230     7.7440     9.9130    24.1390 
  111.8750     2.2190   -17.7520    82.8020     9.8530     7.7530    10.0850    24.1300 
  112.0000     2.2220   -17.8950    77.5500     9.7180     7.7270    10.1100    24.1070 
  112.1250     2.2230   -18.0180    77.1370     9.5270     7.6610     9.9280    24.0740 
  112.2500     2.2230   -18.1080    79.8240     9.3290     7.5820     9.6410    24.0300 
  112.3750     2.2170   -18.1470    80.8470     9.1620     7.5180     9.5950    23.9670 
  112.5000     2.2040   -18.0760    77.9770     9.0400     7.4870     9.6940    23.8730 
  112.6250     2.1860   -17.8550    75.9690     8.9440     7.4800     9.4720    23.7870 
  112.7500     2.1680   -17.5330    76.6410     8.8260     7.4530     9.0580    23.7130 
  112.8750     2.1540   -17.0640    78.1590     8.6510     7.3620     8.8800    23.6700 
  113.0000     2.1440   -16.4580    79.5120     8.3940     7.1760     9.0330    23.6960 
  113.1250     2.1470   -15.6840    83.0190     8.0350     6.8640     9.2220    23.9090 
  113.2500     2.1660   -14.8270    88.5970     7.5960     6.4540     9.1780    24.3060 
  113.3750     2.2040   -13.9430    93.5770     7.1120     5.9780     8.7030    24.6750 
  113.5000     2.2500   -13.1240    96.9270     6.6440     5.4890     7.4770    24.8690 
  113.6250     2.2910   -12.4660    98.9660     6.3130     5.0860     6.0080    24.9580 
  113.7500     2.3190   -11.9660   101.0620     6.2080     4.8550     5.6040    24.9920 
  113.8750     2.3330   -11.6820   102.4980     6.4080     4.8640     5.8870    24.9690 
  114.0000     2.3370   -11.6390   101.7750     6.9860     5.1700     6.2510    24.8880 
  114.1250     2.3390   -11.9420    98.4300     8.1900     5.9270     6.9750    24.7730 
  114.2500     2.3520   -12.4930    94.0110    10.2780     7.2920     8.0250    24.6840 
  114.3750     2.3820   -13.2130    88.3310    13.6440     9.6510    10.4870    24.6500 
  114.5000     2.4310   -14.0360    80.7840    18.4090    13.3980    17.6140    24.6470 
  114.6250     2.4880   -14.9340    72.5110    23.6190    18.3520    40.7570    24.6510 
  114.7500     2.5210   -15.9150    66.4890    26.3900    22.0130    57.9870    24.6490 
  114.8750     2.5000   -16.9370    64.9080    24.3210    21.5760    41.3370    24.6420 
  115.0000     2.4270   -17.9530    68.1660    18.5060    17.3080    22.3090    24.6380 
  115.1250     2.3310   -18.8820    74.1150    13.0380    12.6100    14.4650    24.6270 
  115.2500     2.2490   -19.7250    76.4980     9.8510     9.4930    12.1860    24.6320 
  115.3750     2.1920   -20.4860    73.8890     8.6520     7.9260    11.7220    24.6350 
  115.5000     2.1570   -21.1500    70.9310     8.7150     7.4330    11.6090    24.6280 
  115.6250     2.1400   -21.6380    73.6030     9.4190     7.5980    11.5420    24.5940 
  115.7500     2.1310   -21.9090    79.8480    10.1100     7.9300    11.7030    24.5420 
  115.8750     2.1320   -21.9930    83.1430    10.4610     8.1640    11.7950    24.5120 
  116.0000     2.1470   -21.9230    81.4980    10.4270     8.2000    11.2610    24.5180 
  116.1250     2.1730   -21.7280    80.7180    10.2810     8.1410    10.2080    24.5480 
  116.2500     2.1990   -21.4770    84.5740    10.4170     8.2240     9.7290    24.5630 
  116.3750     2.2140   -21.2040    89.7330    11.0390     8.6080    10.3420    24.5650 
  116.5000     2.2170   -20.9210    90.9980    12.1560     9.3640    11.1090    24.5240 
  116.6250     2.2080   -20.6580    85.9950    13.5210    10.4230    11.3490    24.4000 
  116.7500     2.1960   -20.4440    81.6280    14.5890    11.4140    11.2300    24.2330 
  116.8750     2.1930   -20.3310    83.5110    14.9440    11.9690    11.1600    24.0680 
  117.0000     2.2070   -20.3400    90.3310    14.4520    11.8780    11.2450    23.8690 
  117.1250     2.2310   -20.4660    95.0090    13.3060    11.1680    11.2940    23.6190 
  117.2500     2.2480   -20.6660    96.8230    12.0650    10.2500    11.3450    23.5250 
  117.3750     2.2460   -20.9250    97.6020    11.0370     9.3830    11.7050    23.5960 
  117.5000     2.2270   -21.2540    94.8960    10.3660     8.7190    12.3140    23.7770 
  117.6250     2.1990   -21.6560    87.5570    10.0890     8.3440    12.5280    23.9160 
  117.7500     2.1760   -22.0890    81.0630    10.0300     8.1720    12.5190    23.9840 
  117.8750     2.1650   -22.4900    77.9860    10.0650     8.1220    12.4390    24.0310 
  118.0000     2.1640   -22.8150    76.3100    10.1050     8.1220    12.2410    24.0590 
  118.1250     2.1670   -23.0550    73.2870    10.1250     8.1350    12.2270    24.0690 
  118.2500     2.1660   -23.1920    70.6290    10.1280     8.1450    12.6980    24.0690 
  118.3750     2.1620   -23.2290    70.1190    10.0850     8.1300    13.1080    24.0690 
  118.5000     2.1560   -23.1610    74.6320     9.9690     8.0640    12.9730    24.0610 
  118.6250     2.1450   -22.9550    81.6940     9.7790     7.9380    12.8130    24.0280 
  118.7500     2.1340   -22.6660    83.2490     9.5800     7.7960    12.5490    23.9770 
  118.8750     2.1340   -22.2810    80.0570     9.4220     7.6760    12.2500    23.9440 
  119.0000     2.1510   -21.8230    78.2080     9.3330     7.6010    12.0680    23.9400 
  119.1250     2.1840   -21.2920    80.5240     9.3360     7.5860    11.9880    23.9750 
  119.2500     2.2180   -20.7050    82.3920     9.4320     7.6320    11.8290    24.0430 
  119.3750     2.2450   -20.0370    82.6990     9.6260     7.7480    11.6680    24.1190 
  119.5000     2.2620   -19.2280    83.5620     9.8890     7.9210    11.5700    24.1990 
  119.6250     2.2710   -18.3300    85.0010    10.1070     8.0880    11.7820    24.3310 
  119.7500     2.2830   -17.3840    89.7330    10.1380     8.1400    11.6040    24.4700 
  119.8750     2.2950   -16.4690    97.7270     9.8860     7.9900    10.5640    24.5740 
  120.0000     2.2960   -15.6430   103.0880     9.3790     7.6280     9.0130    24.6200 
  120.1250     2.2790   -14.9430   104.5780     8.7900     7.1570     8.2990    24.6180 
  120.2500     2.2670   -14.3610   108.9730     8.3340     6.7500     8.0300    24.5960 
  120.3750     2.2700   -13.9850   114.8160     8.0970     6.4950     7.9780    24.5730 
