~V
VERS. 2.00: Ver 2.00
~W
STRT.M 53.0000:
STOP.M 279.0000:
STEP.M 0.1250:
NULL. -999.2500:
UWI. F11057:
~C
DEPT.M :
GR.API :
RML.OHMM :
RI. :
RXO.OHMM :
CALI.CM :
DEN.GM/CC :
SP.MV :
~A
# ...
  266.7500    60.3370    15.7110    15.4240    18.5440    24.6070     2.5440    -4.4950 
  266.8750    62.9180    15.4940    15.1400    17.9250    24.5960     2.5260    -4.5090 
  267.0000    63.9110    15.2990    14.8710    17.7220    24.5910     2.5060    -4.4920 
  267.1250    63.4200    15.1640    14.6430    18.5900    24.5900     2.4980    -4.4620 
  267.2500    65.0230    15.0740    14.4510    18.9800    24.5850     2.5020    -4.4310 
  267.3750    67.0620    14.9770    14.2640    18.6810    24.5690     2.5100    -4.3910 
  267.5000    65.5360    14.7990    14.0310    18.5330    24.5370     2.5090    -4.3090 
  267.6250    61.9370    14.4910    13.7030    18.1560    24.5230     2.4970    -4.2080 
  267.7500    60.3350    14.1330    13.3270    17.3180    24.5200     2.4880    -4.1260 
  267.8750    60.7350    13.8340    12.9830    16.7290    24.5200     2.4920    -4.0300 
  268.0000    61.6650    13.6790    12.7450    17.4480    24.5190     2.5030    -3.9670 
  268.1250    62.5680    13.6750    12.6510    18.3760    24.5180     2.5100    -3.9020 
  268.2500    62.9120    13.6950    12.6170    16.9850    24.5180     2.5080    -3.8180 
  268.3750    62.1260    13.6530    12.5640    13.8480    24.5180     2.5010    -3.7380 
  268.5000    61.8500    13.5140    12.4410    12.3110    24.5180     2.4940    -3.6740 
  268.6250    61.8500    13.2720    12.2180    12.1930    24.5180     2.4910    -3.6040 
  268.7500    61.8500    12.9570    11.9210    11.9270    24.5180     2.4870    -3.5310 
  268.8750    61.8500    12.5860    11.5700    11.7410    24.5180     2.4820    -3.4710 
  269.0000    61.8500    12.1920    11.1890    11.8810    24.5180     2.4760    -3.4180 
  269.1250    61.8500    11.8400    10.8250    11.6310    24.5180     2.4710    -3.3750 
  269.2500    61.8500    11.5970    10.5340    10.2340    24.5180     2.4640    -3.3510 
  269.3750    61.8500    11.4920    10.3610     9.0820    24.5180     2.4540    -3.3360 
  269.5000    61.8500    11.5140    10.3200     8.5550    24.5180     2.4440    -3.3200 
  269.6250    61.8500    11.6290    10.3960     8.6890    24.5180     2.4360    -3.3110 
  269.7500    61.8500    11.7610    10.5140     8.9940    24.5180     2.4340    -3.3050 
  269.8750    61.8500    11.8540    10.6200     9.2680    24.5180     2.4380    -3.3130 
  270.0000    61.8500    11.8750    10.6730     9.3700    24.5180     2.4410    -3.3020 
  270.1250    61.8500    11.8100    10.6560     9.0260    24.5180     2.4400    -3.2910 
  270.2500    61.8500    11.7020    10.5950     9.1650    24.5140     2.4380    -3.2650 
  270.3750    61.8500    11.5920    10.5160     9.6550    24.5000     2.4390    -3.2580 
  270.5000    61.8500    11.5110    10.4450    10.1200    24.4600     2.4410    -3.2590 
  270.6250    61.8500    11.4870    10.4140    10.3650    24.4120     2.4380    -3.2750 
  270.7500    61.8500    11.5170    10.4290    10.0570    24.3520     2.4310    -3.3170 
  270.8750    61.8500    11.5960    10.4860     9.8680    24.3050     2.4250    -3.3420 
  271.0000    61.8500    11.7030    10.5700    10.1840    24.2700     2.4220    -3.3390 
  271.1250    61.8500    11.7960    10.6540    10.5180    24.2560     2.4290    -3.3360 
  271.2500    61.8500    11.8420    10.7180    10.9070    24.2490     2.4440    -3.3540 
  271.3750    61.8500    11.8370    10.7520    11.3720    24.2470     2.4620    -3.3630 
  271.5000    61.8500    11.8020    10.7630    11.3470    24.2470     2.4730    -3.3690 
  271.6250    61.8500    11.7730    10.7650    10.6690    24.2470     2.4730    -3.3780 
  271.7500    61.8500    11.7600    10.7770     9.5890    24.2450     2.4680    -3.3600 
  271.8750    61.8500    11.7540    10.8110     8.9280    24.2420     2.4590    -3.3650 
  272.0000    61.8500    11.7470    10.8720     8.9690    24.2390     2.4510    -3.4000 
  272.1250    61.8500    11.7410    10.9570     9.5740    24.2380     2.4460    -3.4260 
  272.2500    61.8500    11.7310    11.0360    10.4150    24.2380     2.4450    -3.4610 
  272.3750    61.8500    11.7120    11.0850    11.0180    24.2380     2.4480    -3.4910 
  272.5000    61.8500    11.6820    11.0940    11.4140    24.2380     2.4540    -3.5400 
  272.6250    61.8500    11.6460    11.0690    12.6190    24.2350     2.4660    -3.5890 
  272.7500    61.8500    11.6270    11.0400    15.3550    24.2090     2.4790    -3.6590 
  272.8750    61.8500    11.6370    11.0220    17.9030    24.1520     2.4910    -3.7380 
  273.0000    61.8500    11.6650    11.0150    19.0700    24.1080     2.5020    -3.8210 
  273.1250    61.8500    11.6820    11.0130    19.0790    24.0940     2.5110    -3.9260 
  273.2500    61.8500    11.6750    11.0110    19.2090    24.0940     2.5190    -4.0220 
  273.3750    61.8500    11.6520    11.0100    19.5690    24.0940     2.5260    -4.1140 
  273.5000    61.8500    11.6230    11.0110    19.9040    24.0940     2.5320    -4.1870 
  273.6250    61.8500    11.6050    11.0180    20.2720    24.0940     2.5380    -4.2500 
  273.7500    61.8500    11.6030    11.0290    20.5880    24.0940     2.5440    -4.2690 
  273.8750    61.8500    11.6110    11.0410    20.4800    24.0940     2.5500    -4.2620 
  274.0000    61.8500    11.6220    11.0500    20.2500    24.0940     2.5560    -4.2720 
  274.1250    61.8500    11.6270    11.0520    20.2440    24.0940     2.5630    -4.2720 
  274.2500    61.8500    11.6270    11.0480    20.4510    24.0940     2.5700    -4.2390 
  274.3750    61.8500    11.6250    11.0450    20.4360    24.0930     2.5760    -4.2100 
  274.5000    61.8500    11.6250    11.0450    20.4450    24.0920     2.5800    -4.1750 
  274.6250    61.8500    11.6250    11.0450    21.0460    24.0890     2.5780    -4.1350 
  274.7500    61.8500    11.6250    11.0450    21.2750    24.0880     2.5730    -4.1260 
  274.8750    61.8500    11.6250    11.0450    19.9570    24.0860     2.5660    -4.1210 
  275.0000    61.8500    11.6250    11.0450    17.5890    24.0850     2.5580    -4.1080 
  275.1250    61.8500    11.6250    11.0450    16.3010    24.0850     2.5550    -4.1060 
  275.2500    61.8500    11.6250    11.0450    17.5420    24.0850     2.5560    -4.1320 
  275.3750    61.8500    11.6250    11.0450    20.5980    24.0850     2.5610    -4.1490 
  275.5000    61.8500    11.6250    11.0450    23.6860    24.0850     2.5610    -4.1750 
  275.6250    61.8500    11.6250    11.0450    24.6830    24.0850     2.5550    -4.2180 
  275.7500    61.8500    11.6250    11.0450    24.7920    24.0830     2.5470    -4.2510 
  275.8750    61.8500    11.6250    11.0450    24.0380    24.0720     2.5450    -4.2980 
  276.0000    61.8500    11.6250    11.0450    23.8710    24.0390     2.5510    -4.3520 
  276.1250    61.8500    11.6250    11.0450    24.2470    23.9720     2.5610    -4.3900 
  276.2500    61.8500    11.6250    11.0450    25.4930    23.8790     2.5680    -4.4280 
  276.3750    61.8500    11.6250    11.0450    26.6200    23.7640     2.5610    -4.4750 
  276.5000    61.8500    11.6250    11.0450    26.5160    23.6230     2.5360    -4.5290 
  276.6250    61.8500    11.6250    11.0450    25.9300    23.5310     2.4870    -4.5680 
  276.7500    61.8500    11.6250    11.0450    27.1820    23.4200     2.4200    -4.6050 
  276.8750    61.8500    11.6250    11.0450    26.6680    23.2240     2.3360    -4.6140 
  277.0000    61.8500    11.6250    11.0450    22.5700    22.8120     2.2370    -4.6200 
  277.1250    61.8500    11.6250    11.0450    16.5830    21.4790     2.1290    -4.6190 
  277.2500    61.8500    11.6250    11.0450    12.0190    19.1930     2.0340    -4.6170 
  277.3750    61.8500    11.6250    11.0450     9.7060    17.2190     1.9690    -4.6200 
  277.5000    61.8500    11.6250    11.0450     9.0570    16.4020     1.9400    -4.6020 
  277.6250    61.8500    11.6250    11.0450     9.0470    16.3600     1.9360    -4.5780 
  277.7500    61.8500    11.6250    11.0450     9.0480    16.3600     1.9370    -4.5560 
  277.8750    61.8500    11.6250    11.0450     9.0480    16.3600     1.9360    -4.5530 
