~V
VERS. 2.00: Ver 2.00
~W
STRT.M 55.0000:
STOP.M 280.0000:
STEP.M 0.1250:
NULL. -999.2500:
UWI. F11032:
~C
DEPT.M :
DEN.GM/CC :
GR.API :
RML.OHMM :
RI. :
RXO.OHMM :
CALI.CM :
SP.MV :
~A
# ...
   66.2500     2.1250    64.7390     8.6820     7.9440     9.1460    22.5580   -37.5130 
   66.3750     2.1230    65.6230     8.7480     7.6390     9.1860    22.6590   -36.5490 
   66.5000     2.1400    67.0920     8.4170     7.2820     8.9580    22.7910   -35.4760 
   66.6250     2.1700    71.5320     7.9190     6.8490     8.1160    22.8270   -34.4640 
   66.7500     2.2040    79.3080     7.6100     6.4020     6.9340    22.9260   -33.5980 
   66.8750     2.2320    88.3000     7.4690     6.0170     6.0900    23.2180   -32.8840 
   67.0000     2.2500    95.2150     7.3740     5.7470     5.8460    23.3930   -32.3920 
   67.1250     2.2520    97.1570     7.2270     5.6270     5.8770    23.1280   -32.1760 
   67.2500     2.2390    95.9150     7.0670     5.6240     5.9760    23.2200   -32.2690 
   67.3750     2.2180    93.3380     6.9910     5.7180     6.0150    23.5510   -32.6400 
   67.5000     2.2010    90.7960     7.0770     5.8730     5.9530    24.1990   -33.2870 
   67.6250     2.2010    88.1670     7.3310     6.0400     6.6630    24.0080   -34.0860 
   67.7500     2.2160    86.5030     7.6570     6.2010     7.9040    23.0470   -34.9670 
   67.8750     2.2330    83.5450     8.1050     6.4030     8.4350    22.2070   -35.8530 
   68.0000     2.2360    77.9210     8.9060     6.7780     8.3000    21.6880   -36.6910 
   68.1250     2.2220    74.2420    10.4260     7.6430     8.6550    21.5360   -37.5060 
   68.2500     2.2080    74.0390    12.6460     9.1440     9.8960    21.6570   -38.2370 
   68.3750     2.2120    72.6750    15.3390    11.3080    12.5980    22.0210   -38.8620 
   68.5000     2.2370    66.7550    17.8210    13.7810    19.7090    22.5690   -39.3560 
   68.6250     2.2680    62.3500    18.4870    15.2580    37.7390    22.9970   -39.7460 
   68.7500     2.2830    62.9700    16.8160    14.7980    35.6700    23.0620   -39.9620 
   68.8750     2.2700    62.8930    13.7300    12.8070    18.5160    22.6820   -40.0360 
   69.0000     2.2330    59.3780    10.7840    10.5070    11.1690    22.5120   -39.9940 
   69.1250     2.1890    57.2580     9.0670     8.8580     9.7160    22.4670   -39.7380 
   69.2500     2.1540    58.1360     8.3950     7.9130     9.6930    22.4300   -39.3220 
   69.3750     2.1350    58.6900     8.4050     7.5170     9.6940    22.4240   -38.7550 
   69.5000     2.1280    57.7540     8.6530     7.4420     9.6330    22.4240   -38.0450 
   69.6250     2.1340    59.1970     8.6790     7.4270     9.5910    22.4350   -37.1950 
   69.7500     2.1500    64.8330     8.3620     7.2800     9.3590    22.4530   -36.3510 
   69.8750     2.1750    73.9180     7.8140     6.9740     8.6110    22.4860   -35.5610 
   70.0000     2.2040    83.3930     7.2310     6.5800     7.4910    22.4980   -34.9000 
   70.1250     2.2290    89.1190     6.8440     6.2200     6.7030    22.4980   -34.4710 
   70.2500     2.2430    91.4160     6.7600     6.0030     6.4650    22.4910   -34.2730 
   70.3750     2.2420    90.9470     7.0460     6.0250     6.5290    22.4480   -34.2860 
   70.5000     2.2270    86.3830     7.7160     6.3420     7.0770    22.4260   -34.5260 
   70.6250     2.2040    75.0230     8.7280     6.9760     8.2140    22.4230   -34.9540 
   70.7500     2.1820    62.9470     9.8040     7.7490     9.7490    22.4230   -35.4550 
   70.8750     2.1700    55.5900    10.6470     8.4530    11.6450    22.4220   -35.9980 
   71.0000     2.1710    53.9270    11.0020     8.8560    13.6250    22.4160   -36.4770 
   71.1250     2.1810    56.1690    10.7030     8.7500    13.0450    22.3800   -36.8990 
   71.2500     2.1900    59.7620    10.0520     8.3200    10.7570    22.3300   -37.2480 
   71.3750     2.1940    63.3110     9.3460     7.7930     9.5570    22.2810   -37.5420 
   71.5000     2.1910    65.8850     8.8090     7.3510     9.2810    22.2610   -37.7740 
   71.6250     2.1810    67.0340     8.5540     7.1170     9.3840    22.2580   -37.9570 
   71.7500     2.1670    67.1340     8.4830     7.0480     9.6070    22.2580   -38.1270 
   71.8750     2.1520    66.0220     8.4970     7.0680     9.8930    22.2460   -38.2520 
   72.0000     2.1370    63.2720     8.5200     7.0920     9.9200    22.1900   -38.3580 
   72.1250     2.1260    60.7970     8.5200     7.0670     9.5290    21.9560   -38.3640 
   72.2500     2.1220    59.6000     8.5220     7.0230     9.2540    21.8230   -38.2930 
   72.3750     2.1280    58.9150     8.5530     6.9850     9.1220    21.8000   -38.1490 
   72.5000     2.1430    58.8330     8.6190     6.9600     9.1420    21.7970   -37.9660 
   72.6250     2.1590    61.2480     8.7190     6.9630     9.3070    21.7980   -37.7760 
   72.7500     2.1680    65.4720     8.8500     6.9960     9.6030    21.8050   -37.5890 
   72.8750     2.1650    68.3850     8.9910     7.0450    10.1120    21.8520   -37.4440 
   73.0000     2.1520    69.1660     9.0960     7.0900    10.4250    21.8850   -37.3160 
   73.1250     2.1390    67.3570     9.1090     7.1060    10.4470    21.9610   -37.2310 
   73.2500     2.1330    63.2830     9.0270     7.0880    10.2450    21.9970   -37.1050 
   73.3750     2.1340    59.6260     8.8500     7.0340    10.1270    22.0030   -36.9930 
   73.5000     2.1410    60.0670     8.6130     6.9590    10.0790    21.8880   -36.8630 
   73.6250     2.1480    65.2920     8.4160     6.8800    10.0060    21.8130   -36.7070 
   73.7500     2.1520    69.4900     8.3450     6.7980     9.8160    21.7080   -36.5690 
   73.8750     2.1510    69.6220     8.4190     6.7260     9.5550    21.6490   -36.4540 
   74.0000     2.1450    66.4360     8.5930     6.6910     9.4250    21.6230   -36.3850 
   74.1250     2.1360    63.4250     8.7610     6.7120     9.5030    21.5760   -36.3520 
   74.2500     2.1280    62.1250     8.8240     6.7550     9.6320    21.6260   -36.4410 
   74.3750     2.1240    61.6960     8.7710     6.7800     9.7620    21.7970   -36.5580 
   74.5000     2.1250    63.8690     8.6590     6.7620     9.9690    21.8900   -36.6750 
   74.6250     2.1320    67.3080     8.5600     6.7070    10.1990    22.0440   -36.8290 
   74.7500     2.1380    67.6040     8.5130     6.6510    10.3500    22.1930   -36.9610 
   74.8750     2.1420    63.0120     8.5380     6.6370    10.3030    22.3200   -37.0610 
   75.0000     2.1430    58.5210     8.6400     6.6840    10.2080    22.4090   -37.1250 
   75.1250     2.1430    56.9560     8.8130     6.7960    10.2400    22.4440   -37.2020 
   75.2500     2.1440    56.2570     8.9950     6.9410    10.3690    22.5290   -37.2030 
   75.3750     2.1480    57.1890     9.1050     7.0760    10.3950    22.6170   -37.1540 
   75.5000     2.1510    60.0980     9.0560     7.1390    10.3850    22.6580   -37.1050 
   75.6250     2.1520    61.7550     8.7820     7.0640    10.3710    22.6630   -37.0280 
   75.7500     2.1500    61.6330     8.3940     6.8890    10.2630    22.6630   -36.9300 
   75.8750     2.1460    62.3670     8.0290     6.6720    10.1670    22.6500   -36.8410 
   76.0000     2.1410    64.0210     7.8050     6.4690    10.2150    22.5980   -36.7300 
   76.1250     2.1350    62.7090     7.7890     6.3380    10.2820    22.3820   -36.6150 
   76.2500     2.1290    60.3900     7.9010     6.2910    10.4090    22.3430   -36.5460 
   76.3750     2.1270    61.4270     8.0650     6.3100    10.4980    22.3350   -36.4950 
   76.5000     2.1280    65.3510     8.2260     6.3690    10.5220    22.3350   -36.4590 
   76.6250     2.1320    68.7080     8.3770     6.4380    10.4580    22.3340   -36.4450 
   76.7500     2.1360    67.5210     8.5340     6.4920    10.3100    22.3270   -36.4340 
   76.8750     2.1400    62.5080     8.6780     6.5170    10.1790    22.2830   -36.3820 
   77.0000     2.1430    58.3580     8.7430     6.5100    10.2700    22.2620   -36.2990 
   77.1250     2.1460    59.8070     8.6380     6.4930    10.5510    22.2580   -36.1750 
   77.2500     2.1490    63.1670     8.4240     6.4880    10.7590    22.2580   -35.9620 
   77.3750     2.1510    62.4910     8.2240     6.4980    10.8860    22.2580   -35.7080 
