~V
VERS. 2.00: Ver 2.00
~W
STRT.M 62.0000:
STOP.M 236.0000:
STEP.M 0.1250:
NULL. -999.2500:
UWI. F11006:
~C
DEPT.M :
GR.API :
RML.OHMM :
RI. :
RXO.OHMM :
CALI.CM :
SP.MV :
DEN.GM/CC :
~A
# ...
  152.0000    76.8490    69.0140    65.0980    22.2320    25.1420   -18.8070     2.1320 
  152.1250    76.8550    71.2860    66.8570    22.5510    25.1640   -19.1190     2.1580 
  152.2500    76.6120    75.3390    70.2920    24.8370    25.2600   -19.4190     2.1820 
  152.3750    75.0500    81.0840    75.3750    30.3460    25.5250   -19.6710     2.1990 
  152.5000    73.6920    88.2550    81.8730    35.5450    25.8950   -19.8770     2.2080 
  152.6250    74.0640    96.5520    89.4700    34.7510    26.0850   -20.0470     2.2110 
  152.7500    73.2900   105.2330    97.4280    30.0090    26.0510   -20.1880     2.2120 
  152.8750    70.4840   113.6130   105.1510    29.5330    25.9780   -20.3240     2.2130 
  153.0000    68.6400   120.7330   111.8520    35.0210    26.0080   -20.4410     2.2140 
  153.1250    70.0240   124.8410   116.0110    52.5390    26.0850   -20.4880     2.2150 
  153.2500    72.5690   125.5410   117.0840    82.8270    26.0470   -20.5530     2.2180 
  153.3750    73.2940   123.3560   115.2450   109.6290    25.8450   -20.7150     2.2260 
  153.5000    73.2100   120.1050   111.8820   118.6440    25.6300   -20.9920     2.2370 
  153.6250    73.7780   118.8820   109.7070   107.0830    25.4910   -21.3100     2.2460 
  153.7500    74.0680   121.5800   110.8090    91.6070    25.4310   -21.5340     2.2460 
  153.8750    74.3560   128.8060   116.0000    98.9020    25.4680   -21.6670     2.2380 
  154.0000    74.6700   139.8830   124.7830   132.6440    25.5530   -21.8060     2.2260 
  154.1250    73.6400   153.0460   135.5620   175.2650    25.6770   -21.9920     2.2210 
  154.2500    71.2910   165.4710   145.7200   194.5710    25.8510   -22.2200     2.2240 
  154.3750    70.9270   175.6310   153.8190   202.6860    26.0570   -22.4280     2.2320 
  154.5000    73.6420   183.4120   159.6430   193.4350    26.2210   -22.5750     2.2400 
  154.6250    74.9620   190.0430   164.1020   150.2310    26.1900   -22.6550     2.2450 
  154.7500    74.1550   197.1740   168.6910   104.0460    26.1000   -22.7610     2.2530 
  154.8750    75.9870   205.0450   173.7590    63.3900    25.8600   -22.9100     2.2650 
  155.0000    83.2800   212.9010   178.8510    45.6340    25.4360   -23.0110     2.2820 
  155.1250    90.5290   219.5320   183.0810    38.0830    24.7350   -23.0240     2.2990 
  155.2500    93.7690   225.0890   186.4890    32.6660    24.0930   -22.9150     2.3170 
  155.3750    94.6540   230.8350   189.9940    30.8090    23.6500   -22.6950     2.3380 
  155.5000    95.9610   238.7380   195.1850    31.9480    23.4320   -22.4150     2.3610 
  155.6250    98.2490   250.9440   204.0800    31.8220    23.3550   -22.1440     2.3780 
  155.7500    97.1770   265.2400   215.4170    31.0970    23.3790   -21.8770     2.3770 
  155.8750    91.7030   275.8870   225.2520    30.0340    23.4570   -21.6190     2.3500 
  156.0000    83.4890   274.8360   227.4680    29.3310    23.6540   -21.4090     2.2990 
  156.1250    75.6410   254.1890   214.9090    27.5740    23.8500   -21.2360     2.2410 
  156.2500    70.0310   221.0400   191.0610    25.8460    23.7870   -21.0790     2.2010 
  156.3750    68.6150   185.0520   162.4180    24.7130    23.5150   -20.9360     2.1900 
  156.5000    74.1610   154.8930   136.2170    23.4960    23.3040   -20.8190     2.2070 
  156.6250    81.2610   136.1310   118.3840    22.5110    23.3770   -20.7060     2.2370 
  156.7500    83.8700   126.1590   108.2340    22.3760    23.6120   -20.5690     2.2610 
  156.8750    84.2780   122.3520   104.0620    22.5900    23.9790   -20.3510     2.2690 
  157.0000    85.5560   121.9030   103.6140    22.0460    24.3820   -20.0440     2.2600 
  157.1250    85.7290   122.1690   104.7070    22.0600    24.7020   -19.7470     2.2390 
  157.2500    81.9970   121.2290   105.3470    23.5090    24.9860   -19.4990     2.2170 
  157.3750    77.5890   118.5590   104.7760    25.2240    25.2890   -19.2890     2.1980 
  157.5000    75.6550   114.5030   102.9740    25.6530    25.5710   -19.0950     2.1870 
  157.6250    75.7900   110.0050   100.4730    28.2880    25.6470   -18.9050     2.1880 
  157.7500    76.0950   106.2120    98.2860    29.7330    25.5160   -18.7360     2.1970 
  157.8750    76.2960   103.6380    97.0660    29.7180    25.2820   -18.6500     2.2110 
  158.0000    77.7490   101.8070    96.7160    29.8530    25.1400   -18.6980     2.2230 
  158.1250    79.4680    98.1430    95.1360    31.5120    25.0870   -18.8130     2.2300 
  158.2500    80.0610    89.8990    89.3400    34.1810    24.9530   -18.9060     2.2310 
  158.3750    80.8140    76.1350    77.7410    35.6420    24.6560   -18.9850     2.2340 
  158.5000    82.0150    58.8220    61.6940    35.8140    24.3340   -19.0250     2.2420 
  158.6250    82.7040    42.5290    45.4980    31.8040    24.2340   -19.0550     2.2640 
  158.7500    84.8880    30.5050    32.9670    22.6370    24.3470   -19.1210     2.2970 
  158.8750    92.2490    23.3710    25.0990    13.6490    24.4390   -19.1820     2.3350 
  159.0000   101.7590    20.2860    21.2670    10.1880    24.4100   -19.1660     2.3700 
  159.1250   103.5850    20.3600    20.7470    10.6030    24.3220   -19.0830     2.3900 
  159.2500    99.2930    22.0920    22.1680    13.1460    24.2040   -18.9770     2.3930 
  159.3750    94.9170    24.7560    24.9340    16.0560    24.0710   -18.8520     2.3820 
  159.5000    92.9180    27.6050    28.3220    16.9580    23.8640   -18.7360     2.3650 
  159.6250    92.4900    29.6520    31.1800    18.0040    23.5890   -18.6600     2.3460 
  159.7500    92.5530    30.4050    32.6260    19.4910    23.4220   -18.6020     2.3300 
  159.8750    92.3240    29.8390    32.3880    20.5160    23.3950   -18.5730     2.3180 
  160.0000    91.6140    28.4110    30.8430    21.7550    23.4560   -18.5830     2.3130 
  160.1250    91.9910    26.9820    28.8330    21.4880    23.5310   -18.6080     2.3180 
  160.2500    93.3930    26.4200    27.3400    16.4800    23.6000   -18.6560     2.3290 
  160.3750    91.7790    27.2960    26.9520    13.1720    23.6220   -18.7720     2.3380 
  160.5000    86.7920    29.9720    28.0480    14.8450    23.4930   -18.9740     2.3390 
  160.6250    83.5770    34.9850    31.1820    21.6180    23.3970   -19.2090     2.3300 
  160.7500    83.6830    42.0930    36.2450    25.4440    23.4130   -19.4610     2.3140 
  160.8750    83.7280    51.2710    43.2990    26.0830    23.5730   -19.6980     2.2970 
  161.0000    80.9910    62.3160    52.2030    28.3240    23.7950   -19.9030     2.2790 
  161.1250    77.4860    74.8160    62.6210    29.9220    24.0410   -20.1030     2.2660 
  161.2500    76.4390    87.4860    73.3230    36.6260    24.4610   -20.2910     2.2570 
  161.3750    78.1760    99.1820    83.1750    40.7390    25.0600   -20.4250     2.2520 
  161.5000    79.4410   109.1330    91.3120    38.9340    25.4420   -20.5180     2.2520 
  161.6250    76.2040   117.3550    97.5370    37.9900    25.5460   -20.5930     2.2530 
  161.7500    73.1210   125.2990   103.2190    40.8530    25.5710   -20.5820     2.2510 
  161.8750    73.9410   133.8290   109.3480    44.6630    25.4780   -20.4940     2.2460 
  162.0000    75.0760   142.6790   116.0470    43.4040    25.2440   -20.3640     2.2360 
  162.1250    72.7600   149.6310   121.9080    41.5930    25.2000   -20.1930     2.2220 
  162.2500    70.3850   152.4730   125.0740    43.8780    25.2930   -20.0120     2.2070 
  162.3750    70.8250   150.1630   124.4180    47.7970    25.3010   -19.8400     2.1940 
  162.5000    72.8120   143.6110   120.2020    52.6390    25.2750   -19.6400     2.1880 
  162.6250    76.0800   135.4760   114.0670    64.3750    25.4160   -19.4080     2.1910 
  162.7500    79.4900   128.9700   108.6730    87.7250    25.6580   -19.2240     2.2020 
  162.8750    80.3360   125.5790   105.4950    92.9260    25.7330   -19.0350     2.2160 
  163.0000    79.1770   125.5670   105.0690    98.5200    25.5820   -18.7490     2.2300 
  163.1250    77.4580   128.6770   107.4450   105.6220    25.2710   -18.3950     2.2390 
