~V
VERS. 2.00: Ver 2.00
~W
STRT.M 51.0000:
STOP.M 282.0000:
STEP.M 0.1250:
NULL. -999.2500:
UWI. F11065:
~C
DEPT.M :
GR.API :
RML.OHMM :
RI. :
RXO.OHMM :
CALI.CM :
DEN.GM/CC :
SP.MV :
~A
# ...
  186.0000    65.5190    88.5000    87.0880   111.4330    25.3380     2.3030   -19.3090 
  186.1250    65.8670    81.0050    78.0200    73.3160    25.3220     2.2960   -19.3210 
  186.2500    64.4650    77.8500    73.0640    48.9940    25.3050     2.2810   -19.3710 
  186.3750    64.3110    79.8820    73.6860    52.2500    25.1810     2.2640   -19.3890 
  186.5000    65.8380    84.9690    78.1130    71.2880    24.8850     2.2490   -19.3890 
  186.6250    68.2780    91.1470    84.5640    87.0720    24.5430     2.2380   -19.3710 
  186.7500    71.5320    96.2880    90.8160    84.4390    24.4620     2.2310   -19.2230 
  186.8750    73.4630    98.0660    93.9850    78.7980    24.7380     2.2290   -19.1320 
  187.0000    71.1550    96.4160    93.3490    75.1680    25.0750     2.2270   -19.0410 
  187.1250    67.1000    92.0500    89.5450    72.1390    25.2110     2.2240   -19.0650 
  187.2500    66.1860    86.1940    83.9940    72.9410    25.2410     2.2190   -19.0750 
  187.3750    68.2730    80.0930    78.0140    78.8730    25.3530     2.2140   -19.0190 
  187.5000    69.2020    74.6660    72.5560    69.1390    25.3530     2.2120   -18.9580 
  187.6250    69.1450    70.4220    68.1800    57.1730    25.2790     2.2150   -18.8400 
  187.7500    69.0970    67.6930    65.2040    53.0000    25.3100     2.2210   -18.7910 
  187.8750    68.3460    66.8340    63.9240    51.2650    25.3340     2.2280   -18.7050 
  188.0000    66.1470    67.2710    64.0760    52.9430    25.3380     2.2350   -18.5810 
  188.1250    62.7460    68.3050    65.4380    55.2990    25.3250     2.2420   -18.3800 
  188.2500    60.1370    68.8970    67.1980    56.9070    25.3020     2.2490   -18.1190 
  188.3750    62.5950    67.6010    67.5200    60.0790    25.2540     2.2610   -17.9700 
  188.5000    68.8080    64.1950    65.3080    65.8300    25.2100     2.2790   -17.7860 
  188.6250    73.7730    59.1550    60.6690    67.9260    25.1390     2.3010   -17.6630 
  188.7500    74.4280    53.5220    54.7600    57.8070    25.0560     2.3210   -17.5030 
  188.8750    73.3050    48.5510    49.1430    42.3970    24.9710     2.3310   -17.3490 
  189.0000    72.9850    44.7770    44.6400    33.4700    24.9360     2.3340   -17.2160 
  189.1250    72.1830    42.2970    41.4140    32.9000    24.9270     2.3340   -17.1250 
  189.2500    70.5040    41.0800    39.4360    37.1550    24.9510     2.3340   -17.0830 
  189.3750    71.3270    41.4670    38.9860    37.4910    24.9660     2.3340   -17.0190 
  189.5000    74.5760    43.5550    40.0310    32.5230    24.9560     2.3270   -17.0470 
  189.6250    76.2190    47.6430    42.8150    30.3940    24.9410     2.3130   -17.1200 
  189.7500    74.6090    53.7850    47.5600    36.4940    24.9360     2.2930   -17.2870 
  189.8750    71.5480    61.6970    54.5330    55.7740    24.9340     2.2770   -17.4090 
  190.0000    68.4230    69.9390    62.7010    70.3950    24.9220     2.2660   -17.5120 
  190.1250    65.6010    77.1700    70.7020    73.6410    24.8900     2.2610   -17.5370 
  190.2500    64.7950    82.2900    76.9470    76.2410    24.8540     2.2590   -17.5770 
  190.3750    66.3630    84.4930    80.0950    79.9560    24.8160     2.2590   -17.6510 
  190.5000    67.1100    84.5460    80.9530    85.3610    24.7900     2.2580   -17.6290 
  190.6250    66.9140    82.8150    80.0950    86.4620    24.7460     2.2550   -17.5470 
  190.7500    66.7750    79.3850    77.5420    78.1080    24.6890     2.2520   -17.3980 
  190.8750    66.7110    74.0760    72.7070    68.9870    24.7230     2.2560   -17.3040 
  191.0000    67.5680    67.8200    66.2830    70.5000    24.8000     2.2700   -17.2590 
  191.1250    70.4110    61.8390    59.4190    75.9950    24.8130     2.2920   -17.2010 
  191.2500    73.5880    57.6090    53.6710    63.6560    24.7180     2.3130   -17.1390 
  191.3750    72.0030    57.1570    51.0780    45.1610    24.5480     2.3190   -17.1170 
  191.5000    68.4250    60.9470    52.2710    37.9680    24.4480     2.3080   -17.2380 
  191.6250    66.6170    69.3570    57.8860    43.7830    24.4710     2.2860   -17.4090 
  191.7500    67.4070    82.1760    68.2320    62.0200    24.6680     2.2620   -17.6200 
  191.8750    67.5740    98.3000    83.1630    90.7910    24.9560     2.2460   -17.8390 
  192.0000    66.0450   114.0170    99.1210   118.5700    25.2260     2.2370   -18.0360 
  192.1250    65.1220   125.8670   112.0480   141.5570    25.3910     2.2340   -18.2930 
  192.2500    65.2460   131.5820   118.7400   148.1880    25.4490     2.2320   -18.5630 
  192.3750    66.1250   130.7090   118.2820   137.5010    25.4550     2.2310   -18.7620 
  192.5000    67.5110   127.0080   114.7350   125.1010    25.4550     2.2300   -18.8130 
  192.6250    67.8020   123.0430   110.8880   119.8730    25.4550     2.2320   -18.8630 
  192.7500    65.7680   120.1610   108.2400   119.0210    25.4550     2.2330   -18.9140 
  192.8750    61.6670   118.4270   106.9830   122.2620    25.4320     2.2370   -19.0180 
  193.0000    60.1570   116.7910   105.9180   142.7700    25.3740     2.2450   -19.1120 
  193.1250    62.6550   114.6560   104.2640   151.1920    25.3170     2.2570   -19.1830 
  193.2500    67.1680   112.0250   101.9780   139.9330    25.3480     2.2720   -19.1790 
  193.3750    69.6740   109.4960    99.8210   122.2330    25.4170     2.2800   -19.1460 
  193.5000    69.3570   107.5200    98.5650   105.1320    25.4490     2.2770   -19.2130 
  193.6250    68.0920   105.8270    98.2480    96.4020    25.4550     2.2650   -19.2440 
  193.7500    66.6140   103.4740    97.9790    96.1750    25.4550     2.2490   -19.2660 
  193.8750    63.2660    99.0130    95.7760   113.7240    25.4460     2.2390   -19.1180 
  194.0000    60.6190    92.6280    90.9790   117.1380    25.4000     2.2380   -18.9170 
  194.1250    61.8230    85.5010    84.4000   101.9810    25.3000     2.2450   -18.7450 
  194.2500    65.8990    79.3980    77.9170    78.7740    25.2190     2.2530   -18.6550 
  194.3750    70.2740    76.1280    73.9710    66.8260    25.1650     2.2550   -18.7050 
  194.5000    72.6150    75.1420    72.8230    63.4010    25.1150     2.2490   -18.6800 
  194.6250    72.0650    74.9770    73.2730    66.0760    25.0860     2.2370   -18.6460 
  194.7500    68.6370    73.7780    73.1250    73.9700    25.1120     2.2220   -18.6120 
  194.8750    66.4740    70.0860    69.9640    88.0440    25.1860     2.2130   -18.6690 
  195.0000    69.2480    65.1150    64.5520    93.6790    25.1980     2.2140   -18.7760 
  195.1250    73.9460    61.0230    59.1250    75.6940    25.0740     2.2260   -18.8500 
  195.2500    75.2740    60.2350    56.2990    49.9940    24.9460     2.2430   -18.8960 
  195.3750    72.1270    65.7510    59.1430    39.6630    24.9200     2.2520   -18.8370 
  195.5000    67.6370    77.7390    68.3560    45.3770    24.9620     2.2490   -18.8280 
  195.6250    63.7000    95.8060    84.4970    73.2900    25.0530     2.2330   -18.7860 
  195.7500    60.3720   117.3670   106.3050   132.5500    25.1150     2.2130   -18.7290 
  195.8750    59.8290   135.6640   127.8050   195.5840    25.1240     2.1970   -18.6400 
  196.0000    62.1680   144.3380   140.2060   198.2780    25.0940     2.1890   -18.5880 
  196.1250    64.4030   141.2470   139.5640   185.0040    25.0510     2.1890   -18.5260 
  196.2500    64.6090   129.2390   128.7810   164.7720    25.0460     2.1940   -18.4460 
  196.3750    65.3480   113.9590   114.1740   136.7250    25.0970     2.2040   -18.3860 
  196.5000    68.5180   100.3040   101.0390   106.7650    25.1240     2.2170   -18.2520 
  196.6250    72.1840    89.3970    90.5670    89.5330    25.1260     2.2310   -18.1680 
  196.7500    74.2570    80.8910    82.3990    85.8540    25.0910     2.2460   -18.0640 
  196.8750    73.1150    74.2580    75.8410    84.6420    25.0020     2.2590   -17.9970 
  197.0000    70.8740    68.8110    70.0990    82.0380    24.9030     2.2710   -17.8730 
  197.1250    71.7670    64.6880    65.2950    75.9320    24.8510     2.2830   -17.7110 
