~V
VERS. 2.00: Ver 2.00
~W
STRT.M 55.0000:
STOP.M 229.0000:
STEP.M 0.1250:
NULL. -999.2500:
UWI. F11013:
~C
DEPT.M :
DEN.GM/CC :
GR.API :
RML.OHMM :
RI. :
RXO.OHMM :
CALI.CM :
SP.MV :
~A
# ...
  145.0000     2.4790    49.8930    13.2630    11.9020    11.9840    24.2230   -11.3490 
  145.1250     2.4900    51.5440    13.2210    11.7930    12.1600    24.1200   -11.3550 
  145.2500     2.4970    56.0110    13.4760    11.8990    12.9290    23.9900   -11.3790 
  145.3750     2.4900    59.0930    14.0030    12.2430    13.6280    23.9380   -11.4170 
  145.5000     2.4710    56.1770    14.6140    12.6890    14.5610    23.9000   -11.4740 
  145.6250     2.4540    49.5220    15.1660    13.1240    14.5270    23.8920   -11.5250 
  145.7500     2.4470    45.6270    15.5570    13.4500    14.8800    23.8890   -11.5620 
  145.8750     2.4520    48.4060    15.7390    13.6050    14.8410    23.8560   -11.5750 
  146.0000     2.4610    51.5540    15.8150    13.6580    14.5760    23.7940   -11.5950 
  146.1250     2.4720    51.5010    15.8850    13.6860    14.2160    23.7470   -11.6010 
  146.2500     2.4860    49.1630    16.0440    13.7650    14.3300    23.7340   -11.6280 
  146.3750     2.4960    48.7350    16.3760    13.9690    14.8160    23.8000   -11.6080 
  146.5000     2.5030    49.1820    16.8430    14.2840    15.3100    23.8780   -11.5940 
  146.6250     2.5060    48.0730    17.3870    14.6750    15.5660    23.9130   -11.5660 
  146.7500     2.5030    46.3650    17.9430    15.0910    15.9920    23.9250   -11.5540 
  146.8750     2.4920    46.3190    18.4140    15.4660    17.5890    23.8840   -11.5510 
  147.0000     2.4820    48.0340    18.7280    15.7390    19.5050    23.8330   -11.5750 
  147.1250     2.4760    49.7610    18.8300    15.8610    20.0660    23.7620   -11.6170 
  147.2500     2.4750    50.2860    18.7130    15.8130    19.0500    23.7070   -11.6390 
  147.3750     2.4770    49.5970    18.4090    15.6100    17.6330    23.7490   -11.6610 
  147.5000     2.4830    48.7080    18.0510    15.3520    16.4210    23.9440   -11.6840 
  147.6250     2.4900    49.0560    17.7230    15.1060    16.0680    24.1690   -11.7250 
  147.7500     2.4930    50.2650    17.4530    14.8990    16.5050    24.2690   -11.7420 
  147.8750     2.4920    50.8880    17.1960    14.7100    16.5280    24.2810   -11.7750 
  148.0000     2.4930    49.9940    16.8800    14.4910    16.1590    24.3240   -11.7720 
  148.1250     2.4970    48.6030    16.4630    14.2100    15.5770    24.3600   -11.7640 
  148.2500     2.4990    47.9360    15.9400    13.8510    15.1050    24.3410   -11.7290 
  148.3750     2.4880    48.6330    15.3560    13.4310    14.1290    24.2680   -11.7280 
  148.5000     2.4660    48.3250    14.8070    13.0170    13.7810    24.1880   -11.6980 
  148.6250     2.4430    47.6530    14.3650    12.6630    13.4660    24.1010   -11.6670 
  148.7500     2.4260    49.1640    14.0610    12.3990    12.8290    24.1130   -11.6540 
  148.8750     2.4200    51.1690    13.8940    12.2360    12.5230    24.2870   -11.6500 
  149.0000     2.4220    50.3500    13.7840    12.1180    12.7470    24.3840   -11.6630 
  149.1250     2.4260    47.2420    13.6800    12.0020    13.2380    24.4120   -11.6680 
  149.2500     2.4280    46.6150    13.5510    11.8630    13.2120    24.3820   -11.6960 
  149.3750     2.4280    49.6960    13.4020    11.7000    12.4530    24.3540   -11.7180 
  149.5000     2.4310    52.6640    13.2810    11.5510    12.1410    24.3820   -11.7780 
  149.6250     2.4320    54.6700    13.2400    11.4590    12.1870    24.4260   -11.8210 
  149.7500     2.4270    55.6390    13.3150    11.4600    12.6950    24.4470   -11.8790 
  149.8750     2.4220    54.3080    13.5380    11.5920    13.1380    24.3570   -11.9000 
  150.0000     2.4340    54.9310    13.8690    11.8310    13.1850    24.1560   -11.9510 
  150.1250     2.4680    59.7480    14.2810    12.1520    13.6170    23.9290   -11.9990 
  150.2500     2.5120    64.0970    14.7780    12.5430    13.4690    23.7370   -12.0300 
  150.3750     2.5470    61.1920    15.4340    13.0510    14.3780    23.6600   -12.0520 
  150.5000     2.5640    55.7760    16.2550    13.6990    15.4730    23.6610   -12.0420 
  150.6250     2.5610    53.7100    17.1950    14.4820    15.8170    23.7100   -12.0510 
  150.7500     2.5410    54.8380    18.1340    15.3390    16.2030    23.7530   -12.0170 
  150.8750     2.5150    56.6130    18.8430    16.1090    19.4840    23.8090   -12.0100 
  151.0000     2.5010    58.0540    19.1570    16.6110    25.6330    23.9230   -11.9500 
  151.1250     2.5010    58.3570    18.9840    16.7170    25.8550    24.0830   -11.8950 
  151.2500     2.5130    57.9600    18.3600    16.4120    20.5650    24.1510   -11.8270 
  151.3750     2.5250    58.9340    17.4020    15.7470    17.4130    24.1250   -11.7650 
  151.5000     2.5310    59.5730    16.3640    14.9380    16.4240    24.1410   -11.7140 
  151.6250     2.5340    58.7390    15.4010    14.1250    15.5260    24.2690   -11.6770 
  151.7500     2.5370    58.0600    14.5980    13.3940    13.7620    24.3810   -11.6500 
  151.8750     2.5410    60.6120    13.9990    12.7990    11.6230    24.4130   -11.6340 
  152.0000     2.5440    64.0270    13.5360    12.3040    10.9930    24.4290   -11.6280 
  152.1250     2.5430    63.9800    13.1470    11.8730    10.9810    24.4440   -11.6310 
  152.2500     2.5310    60.6390    12.7700    11.4670    11.3500    24.4620   -11.6730 
  152.3750     2.5060    57.2290    12.4210    11.1020    11.4630    24.4920   -11.7320 
  152.5000     2.4750    57.5240    12.2630    10.8860    11.2390    24.5020   -11.8160 
  152.6250     2.4400    61.2290    12.5680    10.9980    10.4560    24.4690   -11.8720 
  152.7500     2.4010    62.2640    13.6880    11.6620     9.5900    24.4410   -11.9770 
  152.8750     2.3540    56.1100    16.2990    13.3410    10.7220    24.5130   -12.0700 
  153.0000     2.3120    49.7180    20.6880    16.3050    15.2730    24.6760   -12.1910 
  153.1250     2.2860    47.8330    27.2930    21.0470    23.9250    24.8060   -12.2930 
  153.2500     2.2770    48.3430    36.4020    28.1200    34.9550    24.7930   -12.4040 
  153.3750     2.2760    47.7830    47.9160    38.1060    45.0960    24.6680   -12.4750 
  153.5000     2.2770    47.8790    59.3200    49.0760    62.0940    24.5880   -12.5350 
  153.6250     2.2820    49.2520    66.8300    57.4520    89.4980    24.5570   -12.5990 
  153.7500     2.2980    51.4970    66.8190    59.2470   112.8830    24.5360   -12.6350 
  153.8750     2.3260    57.6110    58.5150    52.9370    98.5710    24.4940   -12.7190 
  154.0000     2.3580    66.5510    47.8300    43.8480    57.5420    24.4600   -12.7990 
  154.1250     2.3820    73.8390    38.5590    35.6130    29.4230    24.4440   -12.8850 
  154.2500     2.3920    77.9190    32.1440    29.6890    18.6950    24.4480   -12.9520 
  154.3750     2.3900    79.5880    28.6200    26.2280    16.9910    24.4380   -13.0610 
  154.5000     2.3830    80.2730    26.5730    24.1270    16.9020    24.4310   -13.1400 
  154.6250     2.3730    81.5900    25.2180    22.7860    19.5680    24.4120   -13.2290 
  154.7500     2.3660    83.9140    24.1150    21.8190    22.1210    24.3820   -13.2740 
  154.8750     2.3640    83.5550    23.4280    21.2450    20.9290    24.3390   -13.2630 
  155.0000     2.3590    79.3940    23.6620    21.3300    18.2900    24.3280   -13.2250 
  155.1250     2.3460    77.2620    25.4080    22.4930    18.5630    24.3370   -13.1870 
  155.2500     2.3280    79.5850    29.1300    25.1780    21.1510    24.3440   -13.1270 
  155.3750     2.3080    79.4690    35.3960    30.1570    28.3480    24.3480   -13.0640 
  155.5000     2.2900    74.0850    43.4850    37.1930    42.0940    24.3640   -13.0040 
  155.6250     2.2790    68.0410    52.4000    45.5960    60.5590    24.3900   -12.9360 
  155.7500     2.2740    65.4730    60.7050    53.8720    71.1310    24.4080   -12.8760 
  155.8750     2.2730    64.1240    66.8300    60.0680    67.4920    24.4220   -12.8270 
  156.0000     2.2740    60.4480    70.7100    63.8950    62.6810    24.4440   -12.7840 
  156.1250     2.2750    58.1460    72.0780    65.2210    62.1550    24.4630   -12.7640 
