~V
VERS. 2.00: Ver 2.00
~W
STRT.M 53.0000:
STOP.M 220.0000:
STEP.M 0.1250:
NULL. -999.2500:
UWI. F11005:
~C
DEPT.M :
DEN.GM/CC :
GR.API :
RML.OHMM :
RI. :
RXO.OHMM :
CALI.CM :
SP.MV :
~A
# ...
   86.7500     2.2270    81.2430     8.4050     6.6940     8.3620    23.5690   -10.6830 
   86.8750     2.2350    79.7270     8.3720     6.6560     7.6320    23.7080   -10.0480 
   87.0000     2.2440    79.7290     8.1830     6.5020     5.9020    23.8620    -9.6900 
   87.1250     2.2510    83.6920     7.9050     6.2910     5.4700    24.0140    -9.5870 
   87.2500     2.2570    88.6720     7.6330     6.0830     5.7370    24.1780    -9.5720 
   87.3750     2.2680    89.4610     7.4410     5.9290     6.2730    24.2630    -9.5680 
   87.5000     2.2840    84.6890     7.4220     5.9040     6.9310    24.1960    -9.5860 
   87.6250     2.3060    81.5330     7.7780     6.1260     7.1580    23.9370    -9.7880 
   87.7500     2.3230    82.4590     8.6000     6.6370     6.7320    23.8790   -10.2220 
   87.8750     2.3270    82.5820     9.9060     7.4830     7.8770    23.9760   -10.8530 
   88.0000     2.3130    78.1090    11.5040     8.6240    13.7210    24.1390   -11.6360 
   88.1250     2.2810    72.1940    12.8710     9.7850    16.8850    24.1690   -12.5950 
   88.2500     2.2460    69.5080    13.5280    10.5360    14.0080    24.0250   -13.6570 
   88.3750     2.2180    69.8170    13.3230    10.6420    11.6560    23.7110   -14.7790 
   88.5000     2.2020    71.7590    12.4920    10.1970    10.8410    23.5080   -15.9070 
   88.6250     2.1970    72.9200    11.5540     9.5670    10.3390    23.4780   -16.9240 
   88.7500     2.1960    71.6570    10.9370     9.1130     9.9690    23.4650   -17.7720 
   88.8750     2.1940    68.0190    10.7110     8.9140     9.8300    23.4680   -18.4380 
   89.0000     2.1880    64.3970    10.7480     8.8980     9.8370    23.4980   -18.9050 
   89.1250     2.1780    65.2990    10.8580     8.9510     9.9700    23.5570   -19.1810 
   89.2500     2.1700    69.0240    10.8980     8.9700    10.0650    23.5950   -19.3590 
   89.3750     2.1660    73.2520    10.8350     8.9160     9.9540    23.5740   -19.4830 
   89.5000     2.1670    75.9620    10.6890     8.7940     9.5740    23.4970   -19.6040 
   89.6250     2.1710    75.4920    10.5180     8.6450     9.5550    23.4160   -19.7280 
   89.7500     2.1730    73.4280    10.3870     8.5190     9.8800    23.3350   -19.7960 
   89.8750     2.1710    71.7970    10.3220     8.4390    10.0740    23.2410   -19.7960 
   90.0000     2.1630    72.2170    10.3180     8.4060    10.0330    23.1540   -19.7740 
   90.1250     2.1500    72.2350    10.3450     8.4020     9.8860    23.1040   -19.6820 
   90.2500     2.1360    70.6750    10.3680     8.4010     9.7400    23.0860   -19.4860 
   90.3750     2.1260    70.5970    10.3860     8.4020     9.5370    23.0780   -19.2020 
   90.5000     2.1240    72.5940    10.4140     8.4160     9.3800    23.0770   -18.8590 
   90.6250     2.1310    75.5120    10.4640     8.4520     9.3370    23.1280   -18.5210 
   90.7500     2.1440    78.8720    10.5090     8.4880     9.4470    23.2170   -18.2060 
   90.8750     2.1600    80.5370    10.5080     8.4940     9.5800    23.3120   -17.8910 
   91.0000     2.1760    79.1540    10.4210     8.4400     9.7020    23.3810   -17.5660 
   91.1250     2.1830    76.3110    10.2340     8.3040     9.5510    23.4100   -17.3100 
   91.2500     2.1800    76.2260    10.0110     8.1270     9.1210    23.4260   -17.1740 
   91.3750     2.1680    77.6560     9.8240     7.9660     8.7210    23.4320   -17.1370 
   91.5000     2.1530    76.8840     9.7260     7.8730     8.9970    23.3930   -17.1680 
   91.6250     2.1410    75.2700     9.7380     7.8820     9.1500    23.3250   -17.2130 
   91.7500     2.1370    75.2930     9.7930     7.9440     9.2420    23.2370   -17.2400 
   91.8750     2.1420    76.1930     9.8330     8.0050     9.3350    23.1310   -17.2710 
   92.0000     2.1590    77.6120     9.8220     8.0200     9.3760    23.0070   -17.3570 
   92.1250     2.1900    79.2860     9.7670     7.9840     9.2210    22.9690   -17.4730 
   92.2500     2.2260    78.9800     9.7280     7.9460     8.9690    23.0400   -17.5560 
   92.3750     2.2540    76.0590     9.7470     7.9500     8.9620    23.1510   -17.6440 
   92.5000     2.2620    74.2930     9.8380     8.0180     9.8970    23.2090   -17.7750 
   92.6250     2.2430    74.9470     9.9760     8.1490    11.3410    23.2190   -17.9840 
   92.7500     2.2130    73.7100    10.1060     8.3010    11.0260    23.2160   -18.2650 
   92.8750     2.1860    70.7600    10.2090     8.4450     9.6540    23.2080   -18.5750 
   93.0000     2.1690    69.5840    10.2980     8.5690     9.0080    23.1950   -18.8590 
   93.1250     2.1600    70.9320    10.4040     8.6780     8.9430    23.1520   -19.0810 
   93.2500     2.1570    74.1020    10.5060     8.7760     9.0110    23.1100   -19.1890 
   93.3750     2.1610    78.6650    10.5140     8.8150     9.1740    23.1030   -19.1110 
   93.5000     2.1750    79.7290    10.3050     8.6910     9.5040    23.1290   -18.8460 
   93.6250     2.1970    74.1210     9.7610     8.2800     9.7160    23.1520   -18.4170 
   93.7500     2.2170    70.1890     9.0180     7.6790     9.8190    23.2310   -17.9350 
   93.8750     2.2250    74.9520     8.2650     7.0410     8.9680    23.5320   -17.4830 
   94.0000     2.2170    84.5250     7.7110     6.5310     7.1910    24.0060   -17.1220 
   94.1250     2.1970    89.2000     7.5610     6.3170     6.2900    24.2760   -16.9440 
   94.2500     2.1770    87.4110     7.7660     6.3880     7.1370    24.0240   -16.9780 
   94.3750     2.1670    83.1590     8.2040     6.6930     8.4070    23.7400   -17.2280 
   94.5000     2.1660    80.3670     8.6860     7.1130     9.0970    23.5770   -17.6580 
   94.6250     2.1730    79.3870     8.9850     7.4560     9.2120    23.5660   -18.2180 
   94.7500     2.1820    78.3570     9.0590     7.6170     9.2400    23.6150   -18.7970 
   94.8750     2.1970    78.5750     9.0010     7.6400     8.8560    23.6880   -19.3720 
   95.0000     2.2180    80.6330     8.9730     7.6510     8.4480    23.7530   -19.8980 
   95.1250     2.2440    80.9190     9.1210     7.7810     8.6350    23.8430   -20.2980 
   95.2500     2.2640    80.3510     9.4030     8.0190     9.4990    23.9490   -20.6220 
   95.3750     2.2710    81.3610     9.6980     8.2870    11.3150    24.0180   -20.9330 
   95.5000     2.2600    82.5470     9.8750     8.4720    13.4880    23.9780   -21.2170 
   95.6250     2.2340    79.6980     9.8380     8.4600    11.4740    23.8330   -21.4240 
   95.7500     2.2040    74.4220     9.6690     8.3030    10.2560    23.7410   -21.6090 
   95.8750     2.1740    71.7050     9.4650     8.0870    10.1860    23.7440   -21.7690 
   96.0000     2.1490    69.6880     9.3090     7.8980    10.4150    23.8060   -21.8700 
   96.1250     2.1330    64.9830     9.2460     7.8090    10.3070    23.8820   -21.8520 
   96.2500     2.1260    62.5750     9.2510     7.8090    10.5260    23.9260   -21.7200 
   96.3750     2.1310    66.6320     9.3230     7.8850    10.8840    23.8850   -21.4360 
   96.5000     2.1530    74.3790     9.5190     8.0510    11.3420    23.7520   -20.9880 
   96.6250     2.1910    77.2510     9.9980     8.4090    11.8120    23.5870   -20.4380 
   96.7500     2.2350    76.2580    10.8110     9.0210    12.1310    23.5030   -19.7960 
   96.8750     2.2730    75.3030    11.9010     9.9030    12.1520    23.4790   -19.0080 
   97.0000     2.2980    75.2120    13.0250    10.9420    12.6390    23.4790   -18.1280 
   97.1250     2.3040    76.2970    13.6650    11.7320    13.1440    23.4990   -17.2820 
   97.2500     2.2960    79.6430    13.5230    11.8770    13.8180    23.5630   -16.5110 
   97.3750     2.2780    86.0090    12.5950    11.2750    13.4630    23.6880   -15.8340 
   97.5000     2.2520    93.6100    11.2010    10.1930    11.4170    23.8410   -15.2480 
   97.6250     2.2240    99.8440     9.8770     9.0970     8.3000    24.0030   -14.7600 
   97.7500     2.2010   101.8980     8.9810     8.2970     7.2400    24.1150   -14.3920 
   97.8750     2.1880    97.8720     8.5710     7.8600     7.5720    24.1980   -14.1620 
