~V
VERS. 2.00: Ver 2.00
~W
STRT.M 60.0000:
STOP.M 274.0000:
STEP.M 0.1250:
NULL. -999.2500:
UWI. F11079:
~C
DEPT.M :
GR.API :
RML.OHMM :
RI. :
RXO.OHMM :
CALI.CM :
DEN.GM/CC :
SP.MV :
~A
   60.0000    67.7490     0.2980     0.1210     0.2010    27.4480     2.2250    54.1230 
   60.1250    70.9430     0.3570     0.2070     0.2150    28.5350     2.0160    48.3410 
   60.2500    71.7650     0.5150     0.3880     0.9500    28.6600     1.8750    42.2410 
   60.3750    74.2050     0.8070     0.7260     2.5870    27.8610     1.8400    35.9080 
   60.5000    79.4130     1.2740     1.2870     4.5380    26.7480     1.8950    29.5180 
   60.6250    79.2830     1.9640     2.1600     8.5910    25.8970     1.9890    23.4260 
   60.7500    73.0110     2.8200     3.2880    16.4480    25.4630     2.0610    17.9170 
   60.8750    68.2660     3.7830     4.5950    26.2150    25.3710     2.0880    13.1950 
   61.0000    68.4540     4.7730     5.9440    32.4280    25.4490     2.0670     9.1970 
   61.1250    69.8170     5.6650     7.1140    28.0410    25.4200     2.0190     5.7770 
   61.2500    69.8970     6.3780     7.9690    19.6090    25.3090     1.9830     2.7870 
   61.3750    68.8030     6.8570     8.4510    14.3460    25.3260     1.9820     0.2500 
   61.5000    66.0230     7.0930     8.5940    15.8930    25.7410     2.0230    -1.8650 
   61.6250    62.3450     7.0900     8.4390    18.6690    26.1970     2.1000    -3.5140 
   61.7500    61.7470     6.9670     8.1300    14.4240    25.5970     2.1650    -4.8170 
   61.8750    64.9930     6.8200     7.7630    10.4030    24.3880     2.1780    -5.9330 
   62.0000    68.8170     6.6970     7.4150     8.9920    23.5010     2.1450    -6.9760 
   62.1250    70.8550     6.5970     7.1400     9.0280    23.3580     2.1090    -7.8360 
   62.2500    70.6930     6.4980     6.9370     9.0430    23.6250     2.0910    -8.4690 
   62.3750    69.0900     6.4320     6.8210     8.9420    24.0160     2.0880    -8.9520 
   62.5000    67.0830     6.5070     6.8510     9.0200    24.4050     2.0960    -9.2550 
   62.6250    66.7870     6.9210     7.1650     9.1970    24.6690     2.1170    -9.4070 
   62.7500    67.4480     7.6850     7.7780     9.3640    24.8920     2.1460    -9.4640 
   62.8750    67.2940     8.7100     8.6310    10.0020    24.8810     2.1830    -9.4430 
   63.0000    66.8660     9.7450     9.5330    12.5500    24.5980     2.2360    -9.2570 
   63.1250    67.2900    10.2210    10.0490    16.7330    24.4080     2.3110    -8.9650 
   63.2500    69.5150     9.8420     9.9070    15.3010    24.3130     2.3720    -8.6540 
   63.3750    74.3170     8.7920     9.1380    11.2160    24.2660     2.3670    -8.2980 
   63.5000    82.7550     7.5700     8.0430     9.1240    24.2580     2.3030    -7.9590 
   63.6250    90.8190     6.6550     7.0180     8.1500    24.2850     2.2550    -7.7080 
   63.7500    93.8000     6.1470     6.2870     7.1210    24.2600     2.2510    -7.6040 
   63.8750    93.8370     6.0110     5.9080     6.4740    24.1470     2.2680    -7.6270 
   64.0000    94.2570     6.1460     5.8440     6.3370    23.8670     2.2810    -7.8820 
   64.1250    93.3260     6.4600     6.0520     6.8040    23.4030     2.2760    -8.4550 
   64.2500    88.7490     6.8370     6.3960     7.5730    23.0000     2.2640    -9.2200 
   64.3750    83.2400     7.2000     6.7760     8.2080    22.8770     2.2480   -10.1130 
   64.5000    80.4150     7.4750     7.0920     8.4390    23.0940     2.2270   -11.0830 
   64.6250    79.9670     7.5910     7.2450     8.6560    23.5820     2.1990   -12.0710 
   64.7500    77.4110     7.5730     7.2570     8.8080    24.1650     2.1630   -12.9970 
   64.8750    73.1130     7.4680     7.1700     8.8710    24.6300     2.1210   -13.8140 
   65.0000    73.0460     7.3280     7.0340     8.7920    24.9030     2.0840   -14.4540 
   65.1250    76.5630     7.2070     6.8890     8.6730    25.0380     2.0600   -14.8380 
   65.2500    76.2810     7.1340     6.7510     8.5990    25.1380     2.0510   -15.0470 
   65.3750    72.4070     7.1090     6.6270     8.4690    25.1810     2.0510   -15.1560 
   65.5000    70.0880     7.1260     6.5240     8.1950    25.0850     2.0610   -15.2260 
   65.6250    69.3200     7.1850     6.4660     8.1910    24.7680     2.0810   -15.2860 
   65.7500    68.2100     7.2860     6.4690     8.2730    24.4540     2.1120   -15.3700 
   65.8750    69.3800     7.4390     6.5410     8.1910    24.2930     2.1470   -15.5140 
   66.0000    71.5470     7.6280     6.6740     8.0430    24.2680     2.1760   -15.7590 
   66.1250    70.0950     7.8140     6.8380     8.2200    24.3370     2.1890   -16.1130 
   66.2500    67.5440     7.9500     6.9800     8.5170    24.4530     2.1850   -16.5470 
   66.3750    66.5130     7.9940     7.0600     8.7190    24.5200     2.1690   -17.0130 
   66.5000    65.3730     7.9330     7.0620     8.7810    24.4600     2.1510   -17.4640 
   66.6250    63.3810     7.7960     6.9890     8.7300    24.3390     2.1450   -17.8630 
   66.7500    65.0580     7.6530     6.8900     8.5800    24.2850     2.1510   -18.2010 
   66.8750    69.3860     7.5580     6.8040     8.6880    24.2880     2.1620   -18.4470 
   67.0000    71.0370     7.5650     6.7570     8.8080    24.3170     2.1690   -18.5710 
   67.1250    67.6680     7.6850     6.7560     8.8400    24.3710     2.1670   -18.5880 
   67.2500    65.1900     7.8100     6.7620     8.8150    24.3830     2.1580   -18.5600 
   67.3750    66.0710     7.8710     6.7430     8.8060    24.3870     2.1470   -18.5040 
   67.5000    67.0020     7.8500     6.6880     8.8230    24.3810     2.1340   -18.4150 
   67.6250    65.2260     7.7680     6.6030     8.7870    24.3470     2.1240   -18.2720 
   67.7500    63.2020     7.6720     6.5200     8.7770    24.2210     2.1210   -18.0830 
   67.8750    62.4860     7.5990     6.4580     8.8610    23.9930     2.1240   -17.8950 
   68.0000    63.3800     7.5750     6.4270     8.8120    23.6980     2.1340   -17.7520 
   68.1250    66.5250     7.6270     6.4290     8.6380    23.4790     2.1490   -17.6320 
   68.2500    70.0440     7.7460     6.4480     8.4350    23.3980     2.1670   -17.5060 
   68.3750    72.5010     7.9050     6.4780     8.3800    23.4570     2.1800   -17.3800 
   68.5000    74.3770     8.0640     6.5080     8.5190    23.5360     2.1800   -17.2720 
   68.6250    75.5320     8.1750     6.5330     8.5670    23.5680     2.1610   -17.2370 
   68.7500    73.3610     8.2320     6.5510     8.5700    23.5730     2.1380   -17.2880 
   68.8750    69.8380     8.2510     6.5640     8.5810    23.5670     2.1180   -17.3890 
   69.0000    69.8190     8.2500     6.5710     8.5670    23.5470     2.1050   -17.5000 
   69.1250    72.6870     8.2410     6.5730     8.6020    23.4750     2.1000   -17.6210 
   69.2500    72.4530     8.2400     6.5780     8.6240    23.3480     2.1040   -17.7700 
   69.3750    69.3820     8.2710     6.6060     8.6370    23.1520     2.1210   -17.9820 
   69.5000    66.9280     8.3790     6.6850     8.6360    22.9660     2.1460   -18.2710 
   69.6250    66.5030     8.6230     6.8570     8.7300    22.8710     2.1680   -18.6200 
   69.7500    66.5070     8.9830     7.1160     9.1060    22.8020     2.1800   -18.9740 
   69.8750    65.3830     9.3990     7.4320     9.7960    22.6890     2.1820   -19.3150 
   70.0000    62.5790     9.7500     7.7370    10.2080    22.4700     2.1800   -19.6160 
   70.1250    59.2660     9.8480     7.8990    10.4960    22.4810     2.1780   -19.8980 
   70.2500    57.8040     9.6590     7.8500    10.3810    23.0850     2.1730   -20.1850 
   70.3750    57.5800     9.2490     7.5940     9.7920    23.8500     2.1620   -20.4170 
   70.5000    56.1720     8.7570     7.2150     9.2160    24.2520     2.1480   -20.5520 
   70.6250    53.1810     8.3450     6.8390     8.9450    24.3190     2.1390   -20.5620 
   70.7500    52.3140     8.0770     6.5560     8.7890    24.3190     2.1360   -20.4740 
   70.8750    55.2570     7.9530     6.3960     8.6990    24.3190     2.1350   -20.3130 
   71.0000    60.0880     7.9470     6.3480     8.7850    24.3310     2.1350   -20.1210 
   71.1250    62.9640     8.0410     6.3950     8.7480    24.3690     2.1390   -19.8960 
