~V
VERS. 2.00: Ver 2.00
~W
STRT.M 57.0000:
STOP.M 278.0000:
STEP.M 0.1250:
NULL. -999.2500:
UWI. F11043:
~C
DEPT.M :
SP.MV :
GR.API :
RML.OHMM :
RI. :
RXO.OHMM :
CALI.CM :
DEN.GM/CC :
~A
# ...
  214.5000   -18.8600    65.0820   109.3260   100.6820   105.8520    24.1820     2.1930 
  214.6250   -18.9800    63.7930   102.5290    94.0690    91.1050    24.1860     2.2030 
  214.7500   -19.0830    63.1910    98.7370    90.0110    86.8860    24.1960     2.2060 
  214.8750   -19.1300    64.4130    97.6370    88.4430    87.9060    24.1910     2.1970 
  215.0000   -19.0980    66.6760    98.8410    89.1740    90.8690    24.1880     2.1820 
  215.1250   -19.0520    67.4660   102.1660    92.0780    93.2080    24.2000     2.1730 
  215.2500   -19.0120    66.8150   106.7510    96.1780    92.9420    24.2010     2.1740 
  215.3750   -19.0050    67.1520   112.0620   100.8570    93.9530    24.2060     2.1790 
  215.5000   -19.0310    68.3480   117.4900   105.5470   103.6680    24.2080     2.1780 
  215.6250   -19.0760    66.7400   122.1270   109.5470   113.2280    24.2000     2.1720 
  215.7500   -19.1560    62.9830   125.5490   112.5230   112.0230    24.1880     2.1680 
  215.8750   -19.2260    61.9400   127.8090   114.4320   110.4350    24.1960     2.1740 
  216.0000   -19.2690    64.5990   129.2570   115.4530   117.0700    24.1980     2.1910 
  216.1250   -19.2640    65.8800   130.1010   115.7500   119.7460    24.1870     2.2110 
  216.2500   -19.2470    65.2400   130.5420   115.6550   117.3140    24.1850     2.2240 
  216.3750   -19.2530    65.5860   130.5920   115.3190   115.6440    24.1780     2.2270 
  216.5000   -19.2690    67.6720   130.2260   114.8360   115.7630    24.1730     2.2210 
  216.6250   -19.3050    66.7550   129.5160   114.2650   105.0760    24.1820     2.2080 
  216.7500   -19.3760    63.3890   128.7540   113.6620   111.4060    24.1950     2.1960 
  216.8750   -19.4730    60.5590   127.9400   112.9290   145.8530    24.1850     2.1850 
  217.0000   -19.5920    59.8620   126.8250   111.8240   207.1770    24.1810     2.1720 
  217.1250   -19.6960    61.2170   125.2750   110.2030   214.1510    24.1890     2.1590 
  217.2500   -19.7880    61.5540   123.9200   108.6030   139.9260    24.1900     2.1530 
  217.3750   -19.8880    59.8400   123.5430   107.7570   101.7090    24.1880     2.1550 
  217.5000   -20.0130    58.0560   124.7670   108.2900    98.7790    24.2030     2.1610 
  217.6250   -20.1580    59.5300   128.0820   110.7310   108.2660    24.2050     2.1670 
  217.7500   -20.3030    62.0350   132.6530   114.4670   121.1090    24.1900     2.1720 
  217.8750   -20.4620    62.6760   137.5470   118.7650   130.1660    24.1750     2.1790 
  218.0000   -20.6540    62.2010   141.9550   122.9070   129.3590    24.1830     2.1860 
  218.1250   -20.8310    62.4460   145.5360   126.5700   130.9010    24.1830     2.1840 
  218.2500   -20.9590    63.2450   148.6460   129.9930   130.8390    24.1930     2.1700 
  218.3750   -21.0010    63.3430   151.3050   133.1620   133.3670    24.1990     2.1530 
  218.5000   -20.9840    63.5210   153.0260   135.6240   140.2380    24.1890     2.1420 
  218.6250   -20.9500    63.5640   152.2360   136.0000   141.9280    24.1910     2.1460 
  218.7500   -20.9410    62.2270   148.0820   133.4280   124.1020    24.1980     2.1560 
  218.8750   -20.9500    60.2170   140.3980   127.5940   115.1390    24.1900     2.1660 
  219.0000   -20.9840    60.7340   130.1640   119.1860   112.2970    24.1880     2.1770 
  219.1250   -21.0050    63.8500   119.2540   109.6770   103.9030    24.1990     2.1870 
  219.2500   -20.9290    65.7400   109.7420   100.9650    92.6140    24.1950     2.1910 
  219.3750   -20.7980    64.9740   102.8790    94.2370    81.8660    24.1900     2.1870 
  219.5000   -20.6300    64.5930    99.4500    90.2920    71.7210    24.2030     2.1810 
  219.6250   -20.4270    65.4410   100.7870    90.3530    69.0390    24.2060     2.1830 
  219.7500   -20.1960    66.7900   106.8060    94.4280    71.2140    24.1940     2.1920 
  219.8750   -19.9430    67.5510   117.6940   102.7500    80.5710    24.1810     2.2030 
  220.0000   -19.7200    67.4120   132.8140   114.7250    94.9060    24.1810     2.2130 
  220.1250   -19.6140    64.9540   149.9260   128.3090   123.1380    24.1870     2.2240 
  220.2500   -19.6260    60.9130   164.1660   139.5370   160.9920    24.2000     2.2380 
  220.3750   -19.6930    57.8970   171.3280   145.1760   181.6800    24.2090     2.2510 
  220.5000   -19.7810    58.0110   170.2260   144.2110   174.0810    24.2070     2.2550 
  220.6250   -19.8640    62.3060   164.1300   138.7580   147.2830    24.1980     2.2500 
  220.7500   -19.9430    66.4910   159.3990   133.8030   130.8280    24.1970     2.2420 
  220.8750   -20.0410    66.8180   159.1440   132.0730   125.6680    24.1870     2.2350 
  221.0000   -20.1540    64.9710   164.1160   134.4720   125.7330    24.1850     2.2300 
  221.1250   -20.3050    64.1360   172.9010   140.2290   142.8560    24.1970     2.2360 
  221.2500   -20.4830    63.4740   180.7140   145.8220   156.8540    24.1930     2.2510 
  221.3750   -20.6530    61.3870   183.5860   148.2280   163.2770    24.1880     2.2590 
  221.5000   -20.8070    60.8380   179.6030   145.6450   160.5200    24.1960     2.2520 
  221.6250   -20.9520    63.2900   169.6100   137.9570   146.6850    24.1940     2.2330 
  221.7500   -21.0600    64.4630   158.3620   128.5420   137.0990    24.1850     2.2160 
  221.8750   -21.1500    63.7500   148.8000   119.8900   128.1490    24.1930     2.2050 
  222.0000   -21.2100    63.3430   142.3240   113.4720   113.8060    24.1970     2.1970 
  222.1250   -21.2650    62.9530   139.3490   109.9410   111.0720    24.1880     2.1900 
  222.2500   -21.3320    62.4350   138.3240   108.1960   121.0900    24.1930     2.1850 
  222.3750   -21.4170    64.0260   137.9270   107.2470   127.0640    24.1970     2.1830 
  222.5000   -21.5150    67.9500   136.9580   106.1580   119.0750    24.1880     2.1860 
  222.6250   -21.5880    69.0580   134.5630   104.2070   107.1870    24.1920     2.1960 
  222.7500   -21.6460    67.9090   131.1700   101.4740   101.9250    24.1970     2.2090 
  222.8750   -21.6670    67.8330   127.6210    98.3830    98.9540    24.1870     2.2210 
  223.0000   -21.6190    68.2500   124.9380    95.6480    93.6780    24.1840     2.2270 
  223.1250   -21.5120    66.0850   124.0440    94.0860    90.2400    24.1970     2.2230 
  223.2500   -21.4110    63.1880   124.5640    93.6110    90.1780    24.1930     2.2100 
  223.3750   -21.3240    63.7980   125.8420    93.8520    92.8680    24.1880     2.1930 
  223.5000   -21.2400    66.6800   127.0520    94.2700    98.1160    24.1980     2.1770 
  223.6250   -21.1700    67.7420   127.2020    94.2110   105.0520    24.1950     2.1690 
  223.7500   -21.0810    67.3350   125.8850    93.3120   107.1910    24.1870     2.1690 
  223.8750   -20.9790    67.5210   122.9080    91.3940   100.7460    24.1950     2.1760 
  224.0000   -20.8620    67.8300   118.4140    88.5530   100.5360    24.2000     2.1840 
  224.1250   -20.6760    66.6360   113.1230    85.2950   115.4500    24.1920     2.1920 
  224.2500   -20.4380    65.1200   108.5940    82.5370   121.0490    24.1940     2.2030 
  224.3750   -20.2000    64.9570   106.4780    81.2030    99.5360    24.1960     2.2220 
  224.5000   -19.9830    65.2010   108.4070    82.4580    85.0520    24.1810     2.2490 
  224.6250   -19.7920    63.9330   114.8380    87.2590    82.3870    24.1760     2.2870 
  224.7500   -19.6410    61.7200   119.9440    92.0660    81.4950    24.1770     2.3390 
  224.8750   -19.4850    61.1470   114.7000    90.1900    89.2680    24.1740     2.4100 
  225.0000   -19.2870    62.9730    93.5790    76.0270   117.2610    24.1720     2.4910 
  225.1250   -19.0280    63.9760    63.7710    53.0950   154.8220    24.1720     2.5540 
  225.2500   -18.7320    65.3170    38.8650    33.1190    93.8340    24.1680     2.5910 
  225.3750   -18.4170    70.1210    22.8130    19.9660    33.5000    24.1650     2.5990 
  225.5000   -18.1030    76.6820    14.3800    12.7300    12.6450    24.1700     2.5710 
  225.6250   -17.8080    79.1820    10.9220     9.5440     9.5700    24.1700     2.5080 
