~V
VERS. 2.00: Ver 2.00
~W
STRT.M 50.0000:
STOP.M 278.0000:
STEP.M 0.1250:
NULL. -999.2500:
UWI. F11029:
~C
DEPT.M :
SP.MV :
DEN.GM/CC :
GR.API :
RML.OHMM :
RI. :
RXO.OHMM :
CALI.CM :
~A
# ...
   83.7500   -20.7240     2.1650    60.5730     7.5330     6.2360     9.7950    26.8310 
   83.8750   -19.1630     2.1650    64.3550     7.1210     5.9010     8.7450    26.9780 
   84.0000   -17.2750     2.1810    72.7920     6.6390     5.4750     7.2060    26.9730 
   84.1250   -15.2090     2.2150    84.8240     6.1950     5.0480     5.9210    26.8850 
   84.2500   -13.1810     2.2520    95.3770     5.8570     4.6990     5.3510    26.7430 
   84.3750   -11.2860     2.2790   100.3980     5.6420     4.4570     5.1710    26.5600 
   84.5000    -9.6330     2.2900   100.0630     5.5370     4.3190     5.3350    26.4120 
   84.6250    -8.3620     2.2820    97.3820     5.5630     4.2820     5.7620    26.3310 
   84.7500    -7.4440     2.2650    93.7730     5.7790     4.3510     5.8560    26.2860 
   84.8750    -6.8920     2.2510    89.9930     6.3150     4.6070     5.8500    26.1970 
   85.0000    -6.7520     2.2520    86.1590     7.2970     5.1690     6.2910    26.0790 
   85.1250    -6.9680     2.2900    81.9140     8.8040     6.2050     7.6470    25.9650 
   85.2500    -7.2920     2.3570    78.6410    10.4980     7.6080    11.2900    25.9180 
   85.3750    -7.6880     2.4340    76.8960    11.8950     9.0920    19.4080    25.9120 
   85.5000    -8.1500     2.4850    78.1070    12.4580    10.0930    27.0010    25.9060 
   85.6250    -8.6280     2.4760    79.9180    11.7540     9.8890    22.7940    25.8870 
   85.7500    -9.0860     2.4170    78.5540    10.3050     8.8200    14.1560    25.8980 
   85.8750    -9.5070     2.3380    74.8760     8.7280     7.4910     9.5770    25.9190 
   86.0000    -9.8960     2.2680    72.3740     7.5470     6.3840     7.8790    25.9310 
   86.1250   -10.3070     2.2260    73.1240     7.0900     5.7820     7.3240    25.9290 
   86.2500   -10.7730     2.2030    73.1870     7.1550     5.6050     7.3700    25.9080 
   86.3750   -11.2190     2.1910    71.8370     7.5130     5.7410     7.9640    25.7980 
   86.5000   -11.5920     2.1850    71.2660     7.9020     6.0220     8.6250    25.6010 
   86.6250   -11.8340     2.1870    72.2150     8.0430     6.2310     8.9010    25.3780 
   86.7500   -11.8780     2.1960    73.0730     7.8660     6.2240     8.9560    25.4020 
   86.8750   -11.7040     2.2100    73.7650     7.4280     5.9760     8.1950    25.4930 
   87.0000   -11.2880     2.2240    76.7810     6.8910     5.5780     6.7850    25.6330 
   87.1250   -10.6250     2.2350    82.9360     6.4940     5.2070     6.0110    25.6650 
   87.2500    -9.8770     2.2420    87.8410     6.3700     5.0040     5.5600    25.5940 
   87.3750    -9.2470     2.2460    88.8020     6.5550     5.0260     5.5330    25.4970 
   87.5000    -8.8460     2.2480    85.8490     6.9890     5.2740     6.1260    25.4480 
   87.6250    -8.6280     2.2440    81.1190     7.5280     5.6970     7.7040    25.3660 
   87.7500    -8.5060     2.2350    77.9760     7.9520     6.1200     8.5630    25.2820 
   87.8750    -8.4370     2.2240    75.9650     8.1190     6.3980     8.5960    25.2030 
   88.0000    -8.3450     2.2170    73.5650     7.9810     6.4410     8.2390    25.2210 
   88.1250    -8.0950     2.2210    70.7010     7.5780     6.2310     7.6880    25.3330 
   88.2500    -7.6510     2.2370    70.8770     7.1090     5.9140     6.9460    25.4600 
   88.3750    -7.0020     2.2600    74.7300     6.7030     5.5960     6.0080    25.5780 
   88.5000    -6.1500     2.2810    80.0080     6.4410     5.3510     5.7450    25.6060 
   88.6250    -5.2110     2.2900    84.4840     6.3670     5.2280     5.7730    25.5200 
   88.7500    -4.3570     2.2890    86.7110     6.4210     5.2100     5.9170    25.4250 
   88.8750    -3.6510     2.2810    85.8870     6.5480     5.2780     6.0400    25.3440 
   89.0000    -3.0910     2.2750    84.0300     6.6860     5.3960     6.0190    25.2550 
   89.1250    -2.7630     2.2730    85.0960     6.7600     5.5010     5.8160    25.1720 
   89.2500    -2.6540     2.2740    87.7530     6.7420     5.5430     5.7540    25.1400 
   89.3750    -2.6400     2.2760    88.9220     6.6340     5.5020     5.8850    25.1320 
   89.5000    -2.6290     2.2790    86.9850     6.4730     5.3870     6.0310    25.1360 
   89.6250    -2.5580     2.2830    84.2250     6.3340     5.2420     5.5990    25.1930 
   89.7500    -2.3790     2.2900    82.9220     6.2790     5.1330     5.2910    25.2780 
   89.8750    -2.1610     2.3000    82.5950     6.3250     5.0940     5.1200    25.3430 
   90.0000    -2.0200     2.3130    82.9110     6.4310     5.1220     5.1310    25.3850 
   90.1250    -1.9540     2.3250    82.9000     6.4800     5.1580     5.3850    25.4230 
   90.2500    -1.8370     2.3330    82.8130     6.3790     5.1050     5.6480    25.4470 
   90.3750    -1.6630     2.3350    83.4220     6.1300     4.9180     5.7040    25.5500 
   90.5000    -1.4820     2.3350    84.4270     5.8470     4.6520     5.4410    25.8460 
   90.6250    -1.4190     2.3460    86.4300     5.7810     4.4810     4.7890    26.3720 
   90.7500    -1.5840     2.3770    87.1920     6.0910     4.5430     4.5560    26.7550 
   90.8750    -1.9780     2.4230    83.9870     6.8280     4.9140     5.6000    26.5630 
   91.0000    -2.5430     2.4630    75.9910     7.9020     5.6030     9.1870    26.0740 
   91.1250    -3.2450     2.4640    67.8370     9.0190     6.5070    16.2890    25.7250 
   91.2500    -4.1080     2.4200    64.2290     9.7880     7.3000    15.9760    25.5690 
   91.3750    -5.1530     2.3470    64.5780     9.9790     7.6940    11.4850    25.5130 
   91.5000    -6.3080     2.2740    66.3470     9.6120     7.5880     9.2330    25.5030 
   91.6250    -7.4860     2.2300    67.5340     8.9460     7.1260     8.9760    25.5090 
   91.7500    -8.6160     2.2160    68.6180     8.3820     6.6640     8.7570    25.5190 
   91.8750    -9.6800     2.2200    69.7440     8.1000     6.3700     8.0370    25.4910 
   92.0000   -10.6830     2.2280    70.8250     8.1210     6.2920     7.3160    25.4220 
   92.1250   -11.6640     2.2300    70.6420     8.3790     6.4140     7.8510    25.3680 
   92.2500   -12.6070     2.2260    69.2700     8.7020     6.6270     9.1940    25.3470 
   92.3750   -13.5160     2.2160    66.6490     8.9790     6.8550    10.1190    25.3500 
   92.5000   -14.3780     2.2030    62.5360     9.1340     7.0250    10.0910    25.3720 
   92.6250   -15.1350     2.1890    58.7350     9.1240     7.0800     9.5100    25.4290 
   92.7500   -15.7720     2.1780    55.9380     9.0180     7.0540     9.4700    25.5020 
   92.8750   -16.2080     2.1750    54.3440     8.8810     6.9940     9.7170    25.5840 
   93.0000   -16.3530     2.1840    54.3090     8.7680     6.9430     9.9280    25.6360 
   93.1250   -16.1660     2.2060    57.4030     8.7090     6.9310     9.9060    25.6660 
   93.2500   -15.8620     2.2350    62.7770     8.6910     6.9530     9.7600    25.6700 
   93.3750   -15.5100     2.2620    66.6500     8.7060     7.0040     9.8430    25.6700 
   93.5000   -15.1350     2.2740    66.2690     8.7530     7.0810    10.1650    25.6670 
   93.6250   -14.6850     2.2560    62.4800     8.8440     7.1890    10.0700    25.8330 
   93.7500   -14.1520     2.2110    59.4340     8.9640     7.3270    10.1470    26.1700 
   93.8750   -13.6000     2.1510    57.9920     9.0660     7.4750    10.2630    26.6750 
   94.0000   -13.0290     2.0950    57.3270     9.0660     7.5780    10.2100    27.1460 
   94.1250   -12.3280     2.0730    58.5610     8.8100     7.5020     9.9680    27.1210 
   94.2500   -11.3700     2.0910    61.7780     8.2640     7.1730     9.8450    26.6290 
   94.3750   -10.1110     2.1440    66.8680     7.4680     6.5890     8.9580    26.1060 
   94.5000    -8.6690     2.2160    73.6000     6.6410     5.8500     7.1850    25.7170 
   94.6250    -7.2080     2.2870    78.6760     6.0770     5.1350     5.7050    25.4170 
   94.7500    -5.7720     2.3400    80.6970     5.7870     4.5850     4.8810    25.1890 
   94.8750    -4.4550     2.3690    82.0820     5.6830     4.2570     4.5390    25.0380 
