~V
VERS. 2.00: Ver 2.00
~W
STRT.M 50.0000:
STOP.M 220.0000:
STEP.M 0.1250:
NULL. -999.2500:
UWI. F11004:
~C
DEPT.M :
SP.MV :
GR.API :
RML.OHMM :
RI. :
RXO.OHMM :
CALI.CM :
DEN.GM/CC :
~A
# ...
   83.7500   -12.9970    83.4300     6.4580     5.5010     5.1520    24.1940     2.2510 
   83.8750   -12.3790    89.8320     6.3160     5.3610     5.1270    24.0930     2.2660 
   84.0000   -11.9650    93.8340     6.1070     5.1990     4.9560    23.8710     2.2680 
   84.1250   -11.7220    90.0440     5.8300     5.0080     4.6940    23.6310     2.2820 
   84.2500   -11.6480    85.6420     5.5080     4.7870     4.5960    23.4980     2.3080 
   84.3750   -11.8100    87.9700     5.2190     4.5680     4.6570    23.4800     2.3330 
   84.5000   -12.2870    94.8910     5.1110     4.4450     4.5590    23.5210     2.3470 
   84.6250   -12.9480    95.9520     5.2430     4.4720     4.3050    23.5610     2.3580 
   84.7500   -13.7090    91.0020     5.6080     4.6540     4.3200    23.5180     2.3660 
   84.8750   -14.6040    86.4440     6.1350     4.9480     4.9440    23.3170     2.3610 
   85.0000   -15.7090    85.9350     6.6750     5.2700     5.9580    23.0560     2.3300 
   85.1250   -16.9260    85.3910     7.0990     5.5490     6.3190    22.9450     2.2820 
   85.2500   -18.1750    82.0690     7.4060     5.7810     6.0690    23.0150     2.2300 
   85.3750   -19.4070    76.0580     7.6880     6.0120     6.2020    23.1450     2.1840 
   85.5000   -20.6100    69.8750     8.0780     6.3040     7.2400    23.2000     2.1550 
   85.6250   -21.7410    68.1030     8.6060     6.6760     8.2620    23.1910     2.1440 
   85.7500   -22.7150    70.7720     9.2350     7.1220     8.6620    23.1660     2.1520 
   85.8750   -23.5130    73.4110     9.8760     7.5960     8.8480    23.1530     2.1710 
   86.0000   -24.1260    72.5080    10.4170     8.0060     9.2880    23.1330     2.1880 
   86.1250   -24.5750    70.5680    10.8490     8.3180     9.7300    23.0940     2.1930 
   86.2500   -24.8400    69.1300    11.1950     8.5450    10.1430    23.0700     2.1890 
   86.3750   -24.9460    67.4340    11.4560     8.7030    10.5440    23.0910     2.1800 
   86.5000   -24.9110    65.8400    11.6000     8.7790    10.8200    23.1530     2.1690 
   86.6250   -24.7810    65.7460    11.6480     8.7910    10.9380    23.2170     2.1590 
   86.7500   -24.5820    65.2190    11.6220     8.7560    10.9610    23.2660     2.1510 
   86.8750   -24.2500    64.1870    11.5030     8.6740    10.9530    23.2910     2.1500 
   87.0000   -23.7150    64.1630    11.1850     8.4810    10.9150    23.2410     2.1610 
   87.1250   -23.1410    64.7940    10.6630     8.1560    10.7690    23.1220     2.1830 
   87.2500   -22.6220    66.0510    10.0400     7.7490    10.1590    22.9770     2.2130 
   87.3750   -22.1370    68.6410     9.5190     7.3790     8.6700    22.8830     2.2440 
   87.5000   -21.6970    74.6570     9.3870     7.2260     7.2090    22.8990     2.2700 
   87.6250   -21.4010    78.9320     9.6790     7.3410     7.2550    22.9700     2.2900 
   87.7500   -21.3100    77.4510    10.2860     7.6920     9.2560    23.0380     2.2960 
   87.8750   -21.4280    75.2390    10.9590     8.1550    11.9950    23.0740     2.2820 
   88.0000   -21.7690    76.9160    11.3610     8.5260    11.9810    23.0910     2.2470 
   88.1250   -22.2300    79.6610    11.4140     8.7040    10.3620    23.1040     2.2110 
   88.2500   -22.8000    79.3880    11.2350     8.7130     9.5800    23.1070     2.1830 
   88.3750   -23.5200    77.4400    11.0370     8.6610    10.1620    23.1050     2.1620 
   88.5000   -24.2960    76.9470    11.0130     8.6800    11.4580    23.1140     2.1430 
   88.6250   -25.0240    75.8500    11.1080     8.7880    12.2550    23.1750     2.1300 
   88.7500   -25.6920    72.3680    11.1710     8.9150    12.1490    23.3180     2.1280 
   88.8750   -26.3020    67.9410    11.0830     8.9740    11.6620    23.5020     2.1350 
   89.0000   -26.7830    65.7740    10.8200     8.8970    11.4060    23.5770     2.1440 
   89.1250   -27.1500    66.4140    10.5140     8.7390    11.2660    23.5320     2.1510 
   89.2500   -27.4080    66.4550    10.2770     8.5770    11.1270    23.4860     2.1590 
   89.3750   -27.5160    62.5730    10.1900     8.4870    11.0640    23.5100     2.1670 
   89.5000   -27.5200    58.8050    10.3040     8.5330    11.2040    23.5470     2.1770 
   89.6250   -27.4570    59.9000    10.5530     8.6850    11.5560    23.5530     2.1890 
   89.7500   -27.2940    63.4550    10.8620     8.9050    12.0830    23.5750     2.2000 
   89.8750   -27.0690    63.8230    11.1350     9.1420    12.5940    23.6470     2.2050 
   90.0000   -26.8640    60.9450    11.2550     9.3270    12.7320    23.7200     2.2000 
   90.1250   -26.6020    60.3870    11.2210     9.4330    12.5400    23.7650     2.1890 
   90.2500   -26.2150    63.2970    11.0930     9.4660    12.2360    23.7970     2.1810 
   90.3750   -25.7310    66.3050    10.9740     9.4710    12.0320    23.8260     2.1790 
   90.5000   -25.1910    67.0680    10.9840     9.5070    12.0430    23.8650     2.1810 
   90.6250   -24.5620    68.1500    11.1070     9.5810    12.1620    23.9550     2.1800 
   90.7500   -23.8140    69.6980    11.2150     9.6170    12.1850    24.0190     2.1740 
   90.8750   -22.9350    68.0310    11.0960     9.4750    11.9980    23.9190     2.1730 
   91.0000   -21.9520    62.9060    10.4740     8.9590    11.2580    23.7130     2.1870 
   91.1250   -21.0150    63.9490     9.4050     8.1110     9.7310    23.7050     2.2160 
   91.2500   -20.1870    74.4280     8.0980     7.0830     7.7000    23.9550     2.2480 
   91.3750   -19.4850    85.2480     6.8830     6.1000     5.9920    24.2340     2.2730 
   91.5000   -18.9590    88.1100     6.1490     5.4250     5.2620    24.3370     2.2780 
   91.6250   -18.6970    89.1010     5.9760     5.1340     5.2180    24.3600     2.2680 
   91.7500   -18.7290    89.9730     6.3580     5.2570     5.8560    24.3340     2.2480 
   91.8750   -18.9900    87.9590     7.2000     5.7790     7.2960    24.2230     2.2270 
   92.0000   -19.4750    83.2290     8.3100     6.6430     9.0680    24.0350     2.2140 
   92.1250   -20.1120    80.6510     9.3380     7.5930    10.1960    23.8580     2.2100 
   92.2500   -20.8190    81.0180    10.0520     8.4030    10.5650    23.7010     2.2130 
   92.3750   -21.5030    80.3290    10.3660     8.9110    10.7660    23.5500     2.2220 
   92.5000   -22.1100    76.2510    10.3290     9.0490    10.9920    23.4410     2.2280 
   92.6250   -22.6110    70.1160    10.1800     8.9950    11.0790    23.3900     2.2310 
   92.7500   -23.0330    65.3070    10.0560     8.8870    11.0340    23.3820     2.2310 
   92.8750   -23.4070    64.8900    10.0190     8.8100    10.9410    23.4030     2.2280 
   93.0000   -23.6310    68.1910    10.0810     8.8000    10.9250    23.4650     2.2190 
   93.1250   -23.6650    72.3440    10.1950     8.8320    11.0050    23.5910     2.2050 
   93.2500   -23.5810    74.7850    10.3080     8.8670    11.1340    23.7410     2.1910 
   93.3750   -23.4120    72.6100    10.3350     8.8600    11.2330    23.8400     2.1830 
   93.5000   -23.0150    69.5730    10.1710     8.7430    11.2310    23.8500     2.1840 
   93.6250   -22.3640    69.1870     9.8860     8.5390    11.1120    23.8090     2.1920 
   93.7500   -21.4990    69.4620     9.6900     8.3570    10.8070    23.7210     2.2010 
   93.8750   -20.4560    67.4170     9.8650     8.3780    10.2650    23.6050     2.2120 
   94.0000   -19.2710    65.8500    10.6690     8.8250     9.8430    23.5370     2.2330 
   94.1250   -17.9930    67.6180    11.8630     9.6490    11.0100    23.5900     2.2640 
   94.2500   -16.6880    69.1370    13.0020    10.6370    15.4990    23.7440     2.2970 
   94.3750   -15.4380    69.6810    13.4660    11.3480    20.6640    23.8420     2.3230 
   94.5000   -14.3500    75.5190    12.6070    11.1240    16.2390    23.6740     2.3270 
   94.6250   -13.4660    86.2570    10.8610    10.0760     9.3220    23.3510     2.3090 
   94.7500   -12.7610    93.7840     8.9270     8.6880     5.8470    23.0820     2.2830 
   94.8750   -12.2510    94.2720     7.4120     7.4510     4.9150    22.9710     2.2610 
