~V
VERS. 2.00: Ver 2.00
~W
STRT.M 53.0000:
STOP.M 257.0000:
STEP.M 0.1250:
NULL. -999.2500:
UWI. F11022:
~C
DEPT.M :
GR.API :
RML.OHMM :
RI. :
RXO.OHMM :
CALI.CM :
SP.MV :
DEN.GM/CC :
~A
# ...
   64.2500    80.6120     4.6960     4.8290     6.3080    26.4120    -7.9410     2.1560 
   64.3750    86.7870     4.8520     5.3830     6.3080    26.1740   -10.4210     2.2190 
   64.5000    93.7530     4.9430     5.6960     6.0150    26.1070   -12.2410     2.2340 
   64.6250    95.2480     4.9620     5.8470     5.9350    26.0610   -13.5040     2.2220 
   64.7500    91.2640     4.9480     5.9200     5.9200    25.9890   -14.4550     2.2160 
   64.8750    87.5610     4.9730     5.9830     5.9370    25.9060   -15.1780     2.2230 
   65.0000    87.1900     5.1350     6.1560     6.1420    25.8040   -15.9380     2.2460 
   65.1250    86.6040     5.5810     6.6800     7.1820    25.6680   -16.6860     2.2890 
   65.2500    82.4370     6.3870     7.6850     8.8950    25.5290   -17.3280     2.3470 
   65.3750    76.0950     7.6890     9.2470    11.3240    25.4320   -18.0160     2.4090 
   65.5000    70.8810     9.6490    11.2800    16.5210    25.3910   -18.7070     2.4630 
   65.6250    67.1650    12.4050    13.2400    34.9370    25.3880   -19.2140     2.4840 
   65.7500    64.2290    14.9350    14.1800    46.8800    25.4150   -19.7530     2.4390 
   65.8750    60.9860    14.8760    13.5870    38.5350    25.5150   -20.4010     2.3220 
   66.0000    57.6770    11.7260    11.8440    23.2350    25.7140   -20.9020     2.1800 
   66.1250    59.8340     8.7070     9.8820    13.6310    25.9290   -21.2920     2.0870 
   66.2500    68.6230     7.0880     8.3990     9.3780    26.0090   -21.7650     2.0630 
   66.3750    79.3080     6.5640     7.6060     7.5570    25.9200   -22.1460     2.0960 
   66.5000    82.8420     6.9380     7.5210     7.0780    25.7590   -22.4020     2.1570 
   66.6250    75.3150     8.2340     8.1150     8.0760    25.6640   -22.7590     2.2020 
   66.7500    67.3020     9.9420     9.0500    10.3330    25.7000   -23.0850     2.2190 
   66.8750    64.5760    11.3480     9.9800    13.2190    25.8220   -23.2550     2.2230 
   67.0000    64.7110    11.8710    10.5030    15.7130    25.9200   -23.5050     2.2150 
   67.1250    63.3450    11.4180    10.2760    14.7850    25.9220   -23.8310     2.1890 
   67.2500    62.2510    10.6470     9.5820    11.7600    25.8730   -24.0050     2.1630 
   67.3750    64.2430     9.9240     8.7500    10.1690    25.8350   -24.1960     2.1500 
   67.5000    67.7090     9.3970     8.0240     9.8070    25.8220   -24.4800     2.1490 
   67.6250    69.2110     9.0410     7.5290     9.4900    25.8270   -24.6030     2.1520 
   67.7500    68.8670     8.7290     7.2040     9.1500    25.8680   -24.7080     2.1550 
   67.8750    67.6310     8.4430     7.0070     9.3760    25.9820   -24.9270     2.1540 
   68.0000    65.3250     8.2830     6.9600    10.1980    26.1580   -25.0400     2.1420 
   68.1250    62.2110     8.5510     7.2680    11.2580    26.2320   -25.1430     2.1280 
   68.2500    59.3640     9.5120     8.1930    11.9470    26.0700   -25.3470     2.1460 
   68.3750    57.0590    11.5780    10.2280    13.9380    25.6760   -25.4320     2.2210 
   68.5000    55.0010    15.4280    14.1920    20.9310    25.3940   -25.5140     2.3570 
   68.6250    52.9160    22.7790    21.7890    45.6790    25.3150   -25.7170     2.5040 
   68.7500    52.2060    33.5110    32.5770    95.5890    25.3110   -25.8030     2.5950 
   68.8750    52.6950    42.5770    42.6580   173.8500    25.3120   -25.8440     2.6170 
   69.0000    52.9670    40.3290    44.3140   237.7320    25.3110   -26.0430     2.5960 
   69.1250    53.8300    28.6040    34.8270   167.0920    25.3300   -26.2270     2.5330 
   69.2500    57.7510    18.7820    23.9300    72.6270    25.4160   -26.3230     2.4270 
   69.3750    63.0220    12.7140    15.9170    27.3200    25.5980   -26.5100     2.2980 
   69.5000    66.6490     9.4750    11.0840    14.0970    25.8050   -26.7500     2.1880 
   69.6250    67.2120     8.2510     8.7310    11.4580    25.9130   -26.8910     2.1360 
   69.7500    65.9500     8.0590     7.6360    11.2570    25.9700   -27.0290     2.1270 
   69.8750    64.8390     8.4580     7.3510    11.0600    26.0090   -27.2230     2.1380 
   70.0000    65.7410     8.9980     7.5060    10.9890    26.0300   -27.3280     2.1530 
   70.1250    67.1170     9.1790     7.7300    11.0030    26.0340   -27.3170     2.1680 
   70.2500    66.6830     8.9490     7.7830    11.0650    26.0230   -27.4030     2.1830 
   70.3750    67.5380     8.5490     7.6790    11.0100    25.9830   -27.4900     2.1960 
   70.5000    70.7100     8.2530     7.5480    10.2840    25.9020   -27.4110     2.2030 
   70.6250    72.9510     8.2420     7.5460     9.0380    25.8270   -27.3880     2.2020 
   70.7500    71.1600     8.4770     7.7050     8.8980    25.8130   -27.4870     2.1900 
   70.8750    67.1230     8.8740     7.9840    10.9690    25.8610   -27.4800     2.1690 
   71.0000    64.1420     9.2910     8.2760    14.0410    25.8720   -27.4400     2.1520 
   71.1250    64.2260     9.5380     8.4250    15.3010    25.7680   -27.5500     2.1480 
   71.2500    65.7770     9.5650     8.3830    13.0830    25.6940   -27.5800     2.1420 
   71.3750    65.4780     9.4280     8.1950    11.4760    25.6620   -27.6100     2.1260 
   71.5000    63.4170     9.2420     7.9630    11.5410    25.6490   -27.7440     2.1080 
   71.6250    61.9440     9.1410     7.7990    12.0940    25.6360   -27.7860     2.1010 
   71.7500    60.5710     9.1620     7.7300    12.1720    25.6440   -27.7890     2.1010 
   71.8750    60.0590     9.2720     7.7360    12.1960    25.6610   -27.8600     2.1010 
   72.0000    61.2280     9.4100     7.7730    12.3700    25.6840   -27.8760     2.0990 
   72.1250    62.1500     9.4840     7.7830    12.3740    25.7190   -27.7250     2.0950 
   72.2500    59.8180     9.4350     7.7260    12.2360    25.7420   -27.6310     2.0880 
   72.3750    56.2710     9.2520     7.5870    12.1030    25.7500   -27.5420     2.0810 
   72.5000    57.5260     8.9790     7.3900    12.4610    25.7500   -27.3370     2.0700 
   72.6250    66.7440     8.7190     7.2000    11.8670    25.7190   -27.1510     2.0610 
   72.7500    75.3700     8.5670     7.0830    10.3030    25.6030   -26.9760     2.0670 
   72.8750    76.8930     8.5720     7.0630     8.8670    25.4020   -26.7380     2.0960 
   73.0000    70.9280     8.7310     7.1310     8.9400    25.2280   -26.5480     2.1330 
   73.1250    63.5430     8.9840     7.2550    10.2870    25.1430   -26.5590     2.1480 
   73.2500    60.8740     9.2220     7.3760    10.9080    25.0890   -26.5350     2.1450 
   73.3750    62.2940     9.3680     7.4430    10.9110    25.0680   -26.4290     2.1400 
   73.5000    64.9210     9.3750     7.4160    10.7110    25.0730   -26.4920     2.1360 
   73.6250    65.2080     9.2200     7.2770    10.6360    25.0790   -26.6320     2.1370 
   73.7500    62.9440     8.9650     7.0850    10.6620    25.0890   -26.6740     2.1460 
   73.8750    59.7350     8.6480     6.8900    10.8060    25.1190   -26.8120     2.1580 
   74.0000    58.7250     8.3370     6.7390    11.0620    25.1590   -27.0090     2.1670 
   74.1250    62.5010     8.2100     6.7070    11.3060    25.2390   -27.0420     2.1690 
   74.2500    66.0740     8.4160     6.8420    11.3740    25.4010   -27.1540     2.1710 
   74.3750    65.8070     9.0260     7.1910    11.7060    25.6140   -27.3030     2.1710 
   74.5000    62.7690     9.9820     7.7600    13.1740    25.7920   -27.3430     2.1650 
   74.6250    61.3770    11.0570     8.4750    20.4560    25.8510   -27.4540     2.1470 
   74.7500    60.6560    11.8620     9.0970    39.6570    25.7800   -27.5830     2.1190 
   74.8750    58.2110    12.0940     9.3940    50.9150    25.6640   -27.5570     2.0900 
   75.0000    54.4660    11.6700     9.2450    31.0800    25.6080   -27.5240     2.0720 
   75.1250    53.2060    10.7800     8.7100    17.3300    25.6460   -27.6140     2.0750 
   75.2500    56.1880     9.8870     8.0940    12.7310    25.6880   -27.5630     2.0870 
   75.3750    61.0880     9.2510     7.5800    11.6630    25.7390   -27.4660     2.0990 
