~V
VERS. 2.00: Ver 2.00
~W
STRT.M 58.0000:
STOP.M 272.0000:
STEP.M 0.1250:
NULL. -999.2500:
UWI. F11073:
~C
DEPT.M :
GR.API :
RML.OHMM :
RI. :
RXO.OHMM :
CALI.CM :
DEN.GM/CC :
SP.MV :
~A
# ...
  260.5000    53.5900    11.2340    10.9290     6.6620    24.2670     2.5840     0.3300 
  260.6250    54.4900    10.0970     9.8710     6.9440    24.2540     2.5140     0.4150 
  260.7500    55.4320     8.9950     8.8050     7.3550    24.2840     2.4490     0.4580 
  260.8750    57.3500     8.2080     7.9480     7.7070    24.3010     2.4190     0.4500 
  261.0000    58.7880     7.8170     7.4060     7.7530    24.2600     2.4190     0.4090 
  261.1250    57.9430     7.7260     7.1760     7.9000    24.2050     2.4250     0.3860 
  261.2500    55.8330     7.6820     7.0690     8.3070    24.1980     2.4220     0.3390 
  261.3750    55.1140     7.5650     6.9660     8.6760    24.2360     2.4160     0.2550 
  261.5000    55.1140     7.3640     6.8140     8.4240    24.3140     2.4100     0.1590 
  261.6250    55.1140     7.1730     6.6510     7.9820    24.3840     2.4060     0.0320 
  261.7500    55.1140     7.0950     6.5510     7.6140    24.3660     2.4060    -0.0790 
  261.8750    55.1140     7.1610     6.5560     7.5410    24.3140     2.4130    -0.1860 
  262.0000    55.1140     7.3530     6.6830     7.9300    24.2610     2.4220    -0.2620 
  262.1250    55.1140     7.6330     6.9180     8.8250    24.2260     2.4230    -0.3110 
  262.2500    55.1140     7.9280     7.1840     9.2330    24.2240     2.4170    -0.3450 
  262.3750    55.1140     8.1840     7.4190     9.2330    24.2410     2.4090    -0.3330 
  262.5000    55.1140     8.3710     7.5780     9.1290    24.3050     2.4030    -0.3170 
  262.6250    55.1140     8.4780     7.6510     9.1590    24.3690     2.4000    -0.3270 
  262.7500    55.1140     8.5310     7.6870     9.2980    24.3650     2.3990    -0.3940 
  262.8750    55.1140     8.5440     7.7130     9.6570    24.2170     2.4000    -0.4240 
  263.0000    55.1140     8.5250     7.7330    10.0680    24.1060     2.4050    -0.4520 
  263.1250    55.1140     8.4800     7.7200    10.5930    24.1590     2.4140    -0.4760 
  263.2500    55.1140     8.4010     7.6540    10.4340    24.2600     2.4240    -0.5400 
  263.3750    55.1140     8.2650     7.5160     9.9430    24.3140     2.4320    -0.6770 
  263.5000    55.1140     8.0540     7.3020     9.5690    24.3050     2.4340    -0.7930 
  263.6250    55.1140     7.7720     7.0150     9.3430    24.2640     2.4240    -0.7870 
  263.7500    55.1140     7.4800     6.7050     8.9740    24.2890     2.4040    -0.6900 
  263.8750    55.1140     7.2310     6.4200     8.3910    24.3550     2.3860    -0.5920 
  264.0000    55.1140     7.0600     6.1980     7.4350    24.4610     2.3730    -0.5130 
  264.1250    55.1140     6.9740     6.0570     6.9070    24.6000     2.3640    -0.4700 
  264.2500    55.1140     6.9190     5.9660     6.7230    24.5950     2.3580    -0.4180 
  264.3750    55.1140     6.8580     5.8990     6.8010    24.5120     2.3560    -0.3390 
  264.5000    55.1140     6.7780     5.8400     6.9850    24.4250     2.3610    -0.2930 
  264.6250    55.1140     6.6930     5.7920     7.0930    24.4360     2.3670    -0.3200 
  264.7500    55.1140     6.6370     5.7680     7.1480    24.4630     2.3730    -0.4000 
  264.8750    55.1140     6.6370     5.7800     7.2800    24.4670     2.3820    -0.4470 
  265.0000    55.1140     6.7140     5.8380     7.2370    24.4170     2.3980    -0.4150 
  265.1250    55.1140     6.8930     5.9680     7.3290    24.3280     2.4210    -0.2720 
  265.2500    55.1140     7.1510     6.1640     8.1710    24.2550     2.4390    -0.0400 
  265.3750    55.1140     7.4520     6.4000     9.7270    24.2240     2.4450     0.1880 
  265.5000    55.1140     7.7270     6.6280    10.2370    24.2470     2.4390     0.4150 
  265.6250    55.1140     7.8950     6.7820    10.4520    24.2450     2.4300     0.6530 
  265.7500    55.1140     7.9620     6.8540    10.7250    24.2290     2.4210     0.8940 
  265.8750    55.1140     7.9630     6.8640    10.2590    24.1940     2.4140     1.0990 
  266.0000    55.1140     7.9470     6.8540     8.8740    24.1990     2.4110     1.2330 
  266.1250    55.1140     7.9500     6.8580     7.9410    24.2130     2.4130     1.2360 
  266.2500    55.1140     7.9670     6.8730     7.9400    24.1880     2.4170     1.0860 
  266.3750    55.1140     7.9840     6.8880     8.7020    24.1540     2.4220     0.9090 
  266.5000    55.1140     7.9950     6.8930     9.1170    24.1970     2.4260     0.7810 
  266.6250    55.1140     7.9990     6.8890     9.0860    24.2520     2.4240     0.6040 
  266.7500    55.1140     8.0010     6.8850     9.0080    24.2680     2.4140     0.4640 
  266.8750    55.1140     8.0150     6.8820     8.9550    24.2990     2.3950     0.3140 
  267.0000    55.1140     8.3240     6.9010     8.6200    24.3210     2.3730     0.1400 
  267.1250    55.1140    10.1770     8.4960     7.6920    24.3340     2.3600     0.0370 
  267.2500    55.1140    12.3740    11.1230     6.9910    24.3530     2.3630     0.0370 
  267.3750    55.1140    12.3740    11.1230     6.7410    24.3490     2.3760     0.0370 
  267.5000    55.1140    12.3740    11.1230     6.8550    24.2910     2.3830  -999.2500 
  267.6250    55.1140    12.3740    11.1230     7.0190    24.2540     2.3730  -999.2500 
  267.7500    55.1140    12.3740    11.1230     6.9870    24.2750     2.3520  -999.2500 
  267.8750    55.1140    12.3740    11.1230     6.7410    24.3110     2.3300  -999.2500 
  268.0000    55.1140    12.3740    11.1230     6.6570    24.3020     2.3170  -999.2500 
  268.1250    55.1140    12.3740    11.1230     6.5810    24.3400     2.3130  -999.2500 
  268.2500    55.1140    12.3740    11.1230     6.4520    24.3640     2.3070  -999.2500 
  268.3750    55.1140    12.3740    11.1230     6.3250    24.3770     2.2970  -999.2500 
  268.5000    55.1140    12.3740    11.1230     6.2070    24.3740     2.2910  -999.2500 
  268.6250    55.1140    12.3740    11.1230     6.1870    24.3670     2.2970  -999.2500 
  268.7500    55.1140    12.3740    11.1230     6.3470    24.3450     2.3150  -999.2500 
  268.8750    55.1140    12.3740    11.1230     6.7380    24.3020     2.3390  -999.2500 
  269.0000    55.1140    12.3740    11.1230     7.4450    24.2920     2.3680  -999.2500 
  269.1250    55.1140    12.3740    11.1230     8.8020    24.2400     2.3940  -999.2500 
  269.2500    55.1140    12.3740    11.1230    10.2380    24.1460     2.4230  -999.2500 
  269.3750    55.1140    12.3740    11.1230    11.0190    24.0650     2.4540  -999.2500 
  269.5000    55.1140    12.3740    11.1230    11.3690    24.0270     2.4720  -999.2500 
  269.6250    55.1140    12.3740    11.1230    11.5290    24.0300     2.4810  -999.2500 
  269.7500    55.1140    12.3740    11.1230    11.8920    24.0590     2.4810  -999.2500 
  269.8750    55.1140    12.3740    11.1230    11.7820    24.1190     2.4700  -999.2500 
  270.0000    55.1140    12.3740    11.1230    11.2680    24.2110     2.4450  -999.2500 
  270.1250    55.1140    12.3740    11.1230    10.5860    24.2430     2.4050  -999.2500 
  270.2500    55.1140    12.3740    11.1230     9.5720    24.2450     2.3590  -999.2500 
  270.3750    55.1140    12.3740    11.1230     8.2600    24.2070     2.3080  -999.2500 
  270.5000    55.1140    12.3740    11.1230     7.5620    24.1760     2.2460  -999.2500 
  270.6250    55.1140    12.3740    11.1230     7.5280    24.1380     2.1610  -999.2500 
  270.7500    55.1140    12.3740    11.1230     7.5680    24.0990     2.0580  -999.2500 
  270.8750    55.1140    12.3740    11.1230     7.5830    24.0700     1.9770  -999.2500 
  271.0000    55.1140    12.3740    11.1230     7.5830    24.0640     1.9330  -999.2500 
  271.1250    55.1140    12.3740    11.1230     7.5800    24.0810     1.9160  -999.2500 
  271.2500    55.1140    12.3740    11.1230     7.5750    24.1070     1.9120  -999.2500 
  271.3750    55.1140    12.3740    11.1230     7.5730    24.1030     1.9070  -999.2500 
  271.5000    55.1140    12.3740    11.1230     7.5750    24.0780     1.9050  -999.2500 
  271.6250    55.1140    12.3740    11.1230     7.5760    24.0810     1.9040  -999.2500 
