~V
VERS. 2.00: Ver 2.00
~W
STRT.M 62.0000:
STOP.M 273.0000:
STEP.M 0.1250:
NULL. -999.2500:
UWI. F11050:
~C
DEPT.M :
SP.MV :
GR.API :
RML.OHMM :
RI. :
RXO.OHMM :
CALI.CM :
DEN.GM/CC :
~A
# ...
  174.5000   -19.8620    81.4760    94.2320    86.9410    78.0830    24.5880     2.3280 
  174.6250   -19.8510    79.8290    92.2270    85.7290    84.6470    24.5730     2.3390 
  174.7500   -19.8440    76.4040    89.6020    83.9560    93.8120    24.6140     2.3440 
  174.8750   -19.8360    72.9020    87.5290    82.5110    85.5100    24.6260     2.3480 
  175.0000   -19.8320    70.9140    86.9430    82.1420    73.1790    24.6090     2.3560 
  175.1250   -19.8210    69.2120    88.0530    83.1010    73.8690    24.5760     2.3620 
  175.2500   -19.7920    66.5790    89.3250    84.1990    76.2420    24.5340     2.3560 
  175.3750   -19.7910    65.5210    89.0730    84.0360    83.0850    24.5290     2.3410 
  175.5000   -19.7650    68.3050    85.9930    81.4080    87.1400    24.6060     2.3250 
  175.6250   -19.7720    70.0360    79.7810    75.7780    73.0300    24.6890     2.3130 
  175.7500   -19.7500    67.6130    72.7330    69.0360    52.3660    24.7020     2.3050 
  175.8750   -19.7380    64.6730    66.9360    63.0770    41.2680    24.6970     2.3000 
  176.0000   -19.7110    64.0330    63.9150    59.3800    38.1400    24.7350     2.2960 
  176.1250   -19.6840    64.6050    65.3100    59.4060    39.6340    24.7800     2.2960 
  176.2500   -19.6380    64.6100    71.1640    63.2390    39.1090    24.8410     2.2980 
  176.3750   -19.5830    63.0860    81.8140    71.3640    45.1600    24.8980     2.2960 
  176.5000   -19.5650    60.4500    97.1070    83.9860    59.7180    24.9320     2.2890 
  176.6250   -19.5230    59.6730   115.8830   100.5890    88.2980    24.9370     2.2780 
  176.7500   -19.5080    61.2720   133.5110   117.1550    99.0600    24.9120     2.2740 
  176.8750   -19.4830    62.1910   144.7560   128.9860    91.9440    24.8370     2.2780 
  177.0000   -19.4740    60.7060   146.0480   132.4150    87.4950    24.7960     2.2860 
  177.1250   -19.4760    57.8190   138.2260   126.9880    93.2590    24.8270     2.2870 
  177.2500   -19.5080    56.1570   128.7050   118.8110    98.6250    24.8920     2.2810 
  177.3750   -19.5540    57.0010   121.6660   111.9150    93.5660    24.9230     2.2720 
  177.5000   -19.5730    59.3380   118.5860   108.1880    87.9710    24.9220     2.2650 
  177.6250   -19.6190    59.8550   119.3830   108.0620   100.1090    24.9240     2.2580 
  177.7500   -19.6530    59.1680   121.7400   109.8250   121.2870    24.9420     2.2530 
  177.8750   -19.6950    59.3720   123.5830   111.8490   128.4190    24.9520     2.2510 
  178.0000   -19.7260    60.5360   122.9450   112.3690   117.6010    24.9200     2.2510 
  178.1250   -19.7690    61.1230   118.3220   109.6550   115.2120    24.9270     2.2550 
  178.2500   -19.7910    60.3120   111.1900   104.4000   112.6650    24.9580     2.2620 
  178.3750   -19.8260    59.4170   103.3240    97.9180   106.2740    24.9570     2.2700 
  178.5000   -19.8490    60.6010    96.5170    91.8520    92.6160    24.9910     2.2750 
  178.6250   -19.8670    64.9180    92.8130    88.2000    81.1530    25.0130     2.2750 
  178.7500   -19.8770    68.3140    92.8920    87.8010    77.2990    25.0010     2.2710 
  178.8750   -19.8860    67.9680    97.4060    91.3460    81.1710    24.9310     2.2630 
  179.0000   -19.8860    65.8000   106.5340    99.1530    86.7960    24.8930     2.2540 
  179.1250   -19.8570    64.7200   119.5520   110.8690    98.1370    24.9170     2.2410 
  179.2500   -19.8130    63.9040   132.3180   122.9150   118.7790    24.9500     2.2250 
  179.3750   -19.7330    62.0110   140.3480   131.2990   145.9570    24.9160     2.2080 
  179.5000   -19.6180    60.4440   140.5070   132.9110   172.5060    24.8700     2.1950 
  179.6250   -19.5090    59.7260   132.9380   127.0350   179.2480    24.7920     2.1940 
  179.7500   -19.3780    57.6650   123.7940   118.6420   134.4030    24.6630     2.2050 
  179.8750   -19.2560    55.0710   117.4750   111.7790    96.5030    24.5580     2.2210 
  180.0000   -19.1370    54.5280   116.3420   109.0600    83.6600    24.5890     2.2350 
  180.1250   -19.0520    57.0750   121.3820   111.9030   101.5650    24.6120     2.2420 
  180.2500   -18.9910    61.0660   129.8960   118.2600   123.4400    24.6600     2.2480 
  180.3750   -18.9990    65.4960   139.1380   125.8860   139.0350    24.6940     2.2510 
  180.5000   -19.0640    67.6800   146.2120   132.2600   148.5850    24.7110     2.2530 
  180.6250   -19.1700    65.4870   149.0020   135.3330   146.5740    24.6990     2.2520 
  180.7500   -19.3210    63.0640   149.2550   136.1530   139.0370    24.6460     2.2520 
  180.8750   -19.4950    62.3780   149.1090   136.4030   134.7540    24.6140     2.2530 
  181.0000   -19.7000    61.5960   150.2830   137.6280   129.0200    24.6070     2.2560 
  181.1250   -19.9140    58.4380   153.8200   140.9440   143.3910    24.6010     2.2590 
  181.2500   -20.1490    56.6120   158.6000   145.5000   149.4310    24.5890     2.2610 
  181.3750   -20.3520    58.3470   162.6300   149.5550   150.0580    24.5790     2.2640 
  181.5000   -20.5250    61.3790   163.2920   150.7850   144.8170    24.5540     2.2660 
  181.6250   -20.6850    61.1830   157.6090   146.4520   152.9610    24.5070     2.2660 
  181.7500   -20.7940    59.5500   146.8040   137.3560   150.8810    24.5220     2.2650 
  181.8750   -20.8750    60.6920   133.2100   125.2860   131.2430    24.5730     2.2680 
  182.0000   -20.9220    65.2490   119.9190   112.8670   104.2110    24.6230     2.2750 
  182.1250   -20.9480    68.1940   110.3670   103.2340    91.1930    24.7080     2.2820 
  182.2500   -20.9250    67.7780   105.5100    97.6530    86.6760    24.8120     2.2850 
  182.3750   -20.8840    66.3390   105.7350    96.6910    78.7210    24.8910     2.2800 
  182.5000   -20.8130    66.9590   111.0260   100.4040    71.4720    24.9260     2.2640 
  182.6250   -20.7290    68.4460   121.7050   109.0100    77.2700    24.9390     2.2340 
  182.7500   -20.6550    67.4980   135.7360   120.5930    83.4500    24.9540     2.2060 
  182.8750   -20.5800    64.4560   150.9480   133.3130    88.1910    24.9480     2.1940 
  183.0000   -20.5020    61.6480   164.2680   144.6830    92.9510    24.9460     2.2010 
  183.1250   -20.3940    60.2990   171.2330   151.0370   108.8910    24.9550     2.2160 
  183.2500   -20.2950    59.9970   171.3000   151.6470   121.6710    24.9460     2.2280 
  183.3750   -20.1780    60.2950   165.8960   147.3830   128.0730    24.9340     2.2350 
  183.5000   -20.0820    59.9200   157.6050   140.2530   132.0170    24.9300     2.2370 
  183.6250   -19.9690    58.3390   148.9390   132.4820   135.1400    24.9310     2.2350 
  183.7500   -19.8470    58.6530   141.4770   125.8420   134.7160    24.9300     2.2290 
  183.8750   -19.7030    62.1880   135.6680   121.1070   132.8360    24.9320     2.2210 
  184.0000   -19.5700    65.5620   131.3240   118.4050   129.7790    24.9380     2.2110 
  184.1250   -19.4400    66.7360   128.1030   117.6390   134.7790    24.9430     2.2030 
  184.2500   -19.3320    67.5630   125.5460   118.0060   128.3430    24.9350     2.2020 
  184.3750   -19.2380    67.9780   123.6700   119.1050   123.0830    24.9350     2.2140 
  184.5000   -19.1740    65.0890   122.6360   120.7730   115.6670    24.9450     2.2330 
  184.6250   -19.1410    60.1520   122.3560   122.8810    96.4140    24.9360     2.2510 
  184.7500   -19.1130    59.5400   121.0420   123.9810    83.7490    24.9300     2.2630 
  184.8750   -19.1040    62.5360   115.5970   121.0570    81.0650    24.9230     2.2710 
  185.0000   -19.0950    65.2180   103.1810   110.6930    79.0010    24.9030     2.2820 
  185.1250   -19.0890    64.9640    83.4360    91.1740    71.0860    24.8770     2.2990 
  185.2500   -19.0770    64.8950    62.4120    68.7920    60.6240    24.8740     2.3210 
  185.3750   -19.0380    65.3250    44.7500    49.2950    42.0430    24.8660     2.3530 
  185.5000   -19.0230    64.5370    32.6400    35.7020    23.3690    24.7960     2.3940 
  185.6250   -18.9330    62.6330    26.9130    28.8260    16.3980    24.7230     2.4290 
