~V
VERS. 2.00: Ver 2.00
~W
STRT.M 57.0000:
STOP.M 272.0000:
STEP.M 0.1250:
NULL. -999.2500:
UWI. F11045:
~C
DEPT.M :
DEN.GM/CC :
GR.API :
RML.OHMM :
RI. :
RXO.OHMM :
CALI.CM :
SP.MV :
~A
# ...
  102.0000     2.1920    70.9310     9.4060     7.2990     8.7110    22.3450    -0.3050 
  102.1250     2.1960    70.9180     9.3950     7.3010     8.5240    22.4820    -0.3730 
  102.2500     2.2030    67.8840     9.3840     7.3400     8.7910    22.7490    -0.4440 
  102.3750     2.2100    65.5140     9.4220     7.4200     9.2760    22.9640    -0.5370 
  102.5000     2.2160    66.5830     9.5160     7.5340     9.7230    23.1040    -0.6310 
  102.6250     2.2150    70.0230     9.5900     7.6300     9.9640    23.1510    -0.6810 
  102.7500     2.2090    71.9030     9.5570     7.6290    10.1750    23.1490    -0.7120 
  102.8750     2.2030    72.1520     9.3950     7.4790    10.4290    23.1260    -0.7350 
  103.0000     2.2020    72.1280     9.1540     7.1910    10.2780    23.2210    -0.7570 
  103.1250     2.2070    72.4160     8.9280     6.8590     9.4320    23.4290    -0.7590 
  103.2500     2.2140    71.7450     8.8180     6.6220     8.5580    23.5620    -0.7400 
  103.3750     2.2210    70.4500     8.8880     6.5660     8.3280    23.5530    -0.7260 
  103.5000     2.2230    69.4680     9.1700     6.7100     9.0670    23.4440    -0.7780 
  103.6250     2.2190    68.8830     9.6390     7.0210     9.8410    23.2960    -0.9440 
  103.7500     2.2080    67.9840    10.1210     7.3610    10.1270    23.1070    -1.1830 
  103.8750     2.1930    66.4740    10.4490     7.6210    10.1650    22.9550    -1.4770 
  104.0000     2.1750    64.4460    10.5040     7.7340    10.2200    22.9060    -1.8010 
  104.1250     2.1590    63.2800    10.2630     7.6930    10.3140    22.9610    -2.1600 
  104.2500     2.1490    63.6080     9.9120     7.5850    10.3560    23.0370    -2.5530 
  104.3750     2.1440    63.8360     9.5980     7.4680    10.2410    23.1410    -2.9510 
  104.5000     2.1430    62.5820     9.4120     7.3690    10.0720    23.2710    -3.2750 
  104.6250     2.1470    62.1180     9.4000     7.3010    10.0200    23.3740    -3.4770 
  104.7500     2.1510    63.1920     9.5110     7.2630    10.0210    23.4140    -3.6130 
  104.8750     2.1560    62.4880     9.6900     7.2600     9.9910    23.4230    -3.6880 
  105.0000     2.1600    58.9080     9.8640     7.2880     9.8890    23.4090    -3.6870 
  105.1250     2.1640    56.4050     9.9550     7.3320     9.7600    23.3450    -3.6430 
  105.2500     2.1670    57.7660     9.9370     7.3650     9.7180    23.2430    -3.5580 
  105.3750     2.1680    61.3200     9.7950     7.3700     9.8340    23.1800    -3.4500 
  105.5000     2.1670    63.6070     9.5520     7.3420    10.0390    23.2000    -3.3370 
  105.6250     2.1640    63.2350     9.3040     7.2880    10.1960    23.3030    -3.2350 
  105.7500     2.1610    63.0540     9.1790     7.2350    10.2210    23.3910    -3.1130 
  105.8750     2.1590    65.8310     9.2300     7.1980    10.2050    23.4250    -2.9760 
  106.0000     2.1590    69.7740     9.4210     7.1840    10.1480    23.4200    -2.8460 
  106.1250     2.1580    70.0530     9.6280     7.1880    10.2980    23.4110    -2.7120 
  106.2500     2.1580    67.5340     9.7230     7.1860    10.6650    23.4100    -2.5850 
  106.3750     2.1610    64.6450     9.6880     7.1560    10.7840    23.4100    -2.4390 
  106.5000     2.1700    63.5770     9.6040     7.1030    10.0960    23.3800    -2.2630 
  106.6250     2.1800    64.6400     9.5950     7.0630     9.3720    23.3110    -2.0460 
  106.7500     2.1820    65.0920     9.6850     7.0700     9.3680    23.2260    -1.8500 
  106.8750     2.1740    64.3610     9.8230     7.1260     9.8650    23.1770    -1.6990 
  107.0000     2.1650    64.7100     9.9320     7.2000    10.2010    23.1810    -1.6010 
  107.1250     2.1620    68.2430     9.9260     7.2360    10.1040    23.1850    -1.5470 
  107.2500     2.1680    71.4300     9.8130     7.2060     9.8350    23.1740    -1.5260 
  107.3750     2.1780    72.0460     9.6340     7.1140     9.5760    23.1850    -1.5430 
  107.5000     2.1870    71.5160     9.4410     6.9990     9.4140    23.2560    -1.6170 
  107.6250     2.1890    70.8010     9.2950     6.9210     9.4240    23.3630    -1.7670 
  107.7500     2.1850    68.8530     9.2430     6.9190     9.4350    23.4140    -1.9270 
  107.8750     2.1820    66.5440     9.3200     7.0060     9.4840    23.4360    -2.0400 
  108.0000     2.1810    66.5080     9.5140     7.1700     9.5430    23.4600    -2.0780 
  108.1250     2.1840    67.9150     9.7550     7.3660     9.5610    23.4640    -2.0450 
  108.2500     2.1880    67.8560     9.9000     7.5010     9.5880    23.4580    -1.9480 
  108.3750     2.1940    66.3700     9.8120     7.4770     9.5460    23.4760    -1.7730 
  108.5000     2.2010    68.1140     9.4050     7.2260     9.6040    23.5430    -1.5010 
  108.6250     2.2130    75.7450     8.7080     6.7450     9.6870    23.5860    -1.1080 
  108.7500     2.2280    82.3270     7.9860     6.2110     9.2420    23.5940    -0.6540 
  108.8750     2.2420    85.1230     7.4540     5.7730     8.1390    23.6130    -0.1730 
  109.0000     2.2470    84.3870     7.2680     5.5390     6.9100    23.6250     0.2660 
  109.1250     2.2410    80.7730     7.5500     5.5910     6.8150    23.6100     0.6160 
  109.2500     2.2300    74.3760     8.1540     5.8580     7.6540    23.5810     0.8650 
  109.3750     2.2210    68.7040     8.8980     6.2640     8.5910    23.5590     1.0180 
  109.5000     2.2160    67.4640     9.5410     6.6970     9.0340    23.5180     1.0800 
  109.6250     2.2170    68.2640     9.7770     6.9790     8.9950    23.4340     1.0590 
  109.7500     2.2170    67.9040     9.5650     6.9980     9.0040    23.3560     1.0170 
  109.8750     2.2190    68.4820     8.9730     6.7210     9.0350    23.3230     0.9710 
  110.0000     2.2240    71.7340     8.1670     6.2290     8.8660    23.3950     0.9670 
  110.1250     2.2360    76.8560     7.3660     5.6840     8.0140    23.5620     1.0990 
  110.2500     2.2470    81.9570     6.7560     5.2610     6.8870    23.6550     1.3440 
  110.3750     2.2500    85.0220     6.4690     5.0530     6.2520    23.6400     1.6620 
  110.5000     2.2380    85.1820     6.6040     5.1030     6.4590    23.5530     1.9770 
  110.6250     2.2100    82.0600     7.2420     5.4510     7.2630    23.4670     2.2160 
  110.7500     2.1870    77.0040     8.1400     5.9840     8.0270    23.4420     2.3870 
  110.8750     2.1840    71.9440     8.9870     6.5510     8.6250    23.4630     2.5310 
  111.0000     2.2080    69.9420     9.4360     6.9380     9.6830    23.5310     2.7000 
  111.1250     2.2540    74.1560     9.1650     6.8820    11.3390    23.7020     2.9060 
  111.2500     2.3000    82.6660     8.3940     6.4560    11.6860    23.9350     3.1560 
  111.3750     2.3160    93.0540     7.4490     5.8450     9.1100    24.1020     3.4140 
  111.5000     2.2930    98.9980     6.6620     5.2750     7.0520    24.1850     3.6730 
  111.6250     2.2540    94.6180     6.3370     4.9640     6.4820    24.2050     3.9330 
  111.7500     2.2320    86.8810     6.4900     4.9640     6.6070    24.1040     4.1840 
  111.8750     2.2280    82.4030     7.0510     5.2720     6.9100    23.8630     4.3620 
  112.0000     2.2340    79.8300     7.8130     5.7960     7.1010    23.5200     4.4330 
  112.1250     2.2530    74.3500     8.3810     6.3100     7.8330    23.2090     4.3770 
  112.2500     2.2940    69.6020     8.4560     6.5470     8.6990    23.0570     4.2940 
  112.3750     2.3460    72.9440     7.9960     6.3850     9.1130    23.0410     4.2750 
  112.5000     2.3800    85.4660     7.2240     5.8960     7.5100    23.1220     4.3870 
  112.6250     2.3770    98.8630     6.4900     5.2970     6.8200    23.2910     4.6410 
  112.7500     2.3610   104.0010     5.9780     4.7990     6.6860    23.5710     4.9650 
  112.8750     2.3460   102.9030     5.7030     4.4730     6.5440    23.8710     5.3580 
  113.0000     2.3330   101.8990     5.6170     4.3230     6.1220    24.1090     5.7870 
  113.1250     2.3170   103.3900     5.6670     4.3200     5.9420    24.2340     6.2300 
