~V
VERS. 2.00: Ver 2.00
~W
STRT.M 60.0000:
STOP.M 279.0000:
STEP.M 0.1250:
NULL. -999.2500:
UWI. F11060:
~C
DEPT.M :
GR.API :
RML.OHMM :
RI. :
RXO.OHMM :
CALI.CM :
DEN.GM/CC :
SP.MV :
~A
# ...
  116.2500    84.1240     6.4500     4.7660     5.9250    23.4650     2.2460    -4.3510 
  116.3750    79.5940     7.1990     5.2700     6.8350    23.5750     2.2330    -4.5380 
  116.5000    77.0480     8.0380     5.9260     7.4840    23.8220     2.2210    -4.9690 
  116.6250    75.1170     8.7400     6.5640     7.9650    23.9330     2.2140    -5.5740 
  116.7500    73.3660     9.1800     7.0270     8.4400    23.8090     2.2070    -6.2550 
  116.8750    72.5640     9.3490     7.2580     8.8190    23.7150     2.1930    -7.0050 
  117.0000    71.5200     9.3430     7.2940     8.9430    23.8090     2.1740    -7.7730 
  117.1250    67.2380     9.2730     7.2090     8.9920    23.9500     2.1600    -8.3500 
  117.2500    61.8470     9.2010     7.0930     9.2650    24.0230     2.1540    -8.6750 
  117.3750    58.1380     9.0950     6.9620     9.5770    24.0900     2.1520    -8.8200 
  117.5000    57.0990     8.8840     6.8000     9.8070    24.1720     2.1570    -8.8620 
  117.6250    57.0670     8.5420     6.6000     9.8070    24.2470     2.1720    -8.7760 
  117.7500    55.9330     8.2880     6.4680     9.7780    24.3110     2.1960    -8.4730 
  117.8750    54.8460     8.5130     6.6150     9.7850    24.3330     2.2320    -7.8860 
  118.0000    56.3300     9.7220     7.3420     9.9810    24.3190     2.2870    -7.1310 
  118.1250    58.9060    12.7870     9.3110    11.1120    24.2510     2.3760    -6.2740 
  118.2500    59.3440    17.8790    12.9370    16.3930    24.1570     2.4900    -5.2800 
  118.3750    56.9450    24.7020    18.4340    35.3880    24.0900     2.5970    -4.1440 
  118.5000    54.5180    31.2240    24.6800    66.5620    24.0110     2.6520    -2.9220 
  118.6250    56.9280    31.9850    27.1530    70.3530    23.8720     2.6260    -1.7310 
  118.7500    61.2310    26.2580    23.8200    51.4970    23.7540     2.5570    -0.6040 
  118.8750    65.3920    18.1420    17.4450    30.8650    23.6770     2.4680     0.4720 
  119.0000    70.8980    11.5310    11.5750    15.1300    23.7450     2.3840     1.5180 
  119.1250    80.1940     7.7650     7.8150     7.5950    23.9450     2.3400     2.4150 
  119.2500    91.6560     5.7450     5.5470     5.0600    24.1870     2.3340     3.1380 
  119.3750   101.7190     4.7880     4.2650     4.3730    24.3100     2.3470     3.7410 
  119.5000   108.4620     4.4270     3.6050     4.2950    24.3350     2.3630     4.2930 
  119.6250   109.5640     4.3830     3.3710     4.3490    24.3290     2.3700     4.7880 
  119.7500   108.4920     4.4150     3.3200     4.3770    24.3310     2.3720     5.1370 
  119.8750   107.1260     4.4250     3.3390     4.3930    24.3400     2.3720     5.3160 
  120.0000   106.3210     4.3750     3.3610     4.4240    24.3410     2.3670     5.4440 
  120.1250   108.2970     4.2650     3.3540     4.4000    24.3320     2.3550     5.5810 
  120.2500   111.3990     4.1420     3.3370     4.3760    24.3230     2.3410     5.6290 
  120.3750   112.1320     4.0580     3.3490     4.3710    24.3330     2.3350     5.5670 
  120.5000   109.4040     4.0760     3.4440     4.4480    24.3360     2.3370     5.4410 
  120.6250   106.9090     4.2910     3.6810     4.7100    24.3160     2.3340     5.3480 
  120.7500   104.2200     4.6840     4.0390     5.0440    24.2770     2.3120     5.2910 
  120.8750    98.9980     5.1790     4.4590     5.3970    24.2450     2.2810     5.1970 
  121.0000    91.7240     5.6230     4.8320     6.1190    24.2140     2.2610     5.0300 
  121.1250    88.1300     5.7980     5.0040     6.6550    24.2100     2.2670     4.8890 
  121.2500    91.7740     5.6870     4.9580     6.2950    24.2440     2.2850     4.8300 
  121.3750    99.3420     5.4020     4.7480     5.5490    24.3010     2.3010     4.7990 
  121.5000   102.1790     5.1130     4.4810     4.9770    24.3310     2.3080     4.7340 
  121.6250    97.3140     4.9730     4.2680     4.9570    24.3440     2.2980     4.6310 
  121.7500    94.0750     4.9780     4.1510     5.0840    24.3630     2.2840     4.5990 
  121.8750    97.4380     5.0830     4.1220     5.1150    24.3930     2.2750     4.6440 
  122.0000   103.5040     5.2420     4.1520     5.0570    24.4180     2.2750     4.6650 
  122.1250   103.5740     5.4020     4.2090     5.0980    24.3940     2.2800     4.6320 
  122.2500    97.9600     5.5220     4.2720     5.0800    24.3000     2.2870     4.6180 
  122.3750    92.8350     5.5850     4.3430     5.1740    24.1970     2.2920     4.6310 
  122.5000    92.3250     5.6010     4.4340     5.3930    24.1160     2.2930     4.6380 
  122.6250    94.2260     5.6060     4.5550     5.6620    24.1340     2.2890     4.5930 
  122.7500    94.0940     5.6460     4.6920     5.5650    24.2060     2.2840     4.5110 
  122.8750    92.9900     5.7300     4.8240     5.4940    24.2360     2.2790     4.4940 
  123.0000    92.2380     5.8200     4.9140     5.6160    24.1930     2.2790     4.5440 
  123.1250    90.3600     5.8180     4.9060     5.6500    24.1230     2.2860     4.5350 
  123.2500    87.4720     5.6860     4.7920     5.5800    24.1360     2.2960     4.4750 
  123.3750    87.2680     5.4480     4.5950     5.4200    24.1810     2.3030     4.4520 
  123.5000    91.5630     5.1890     4.3700     5.1240    24.2050     2.3060     4.5350 
  123.6250    97.1600     5.0540     4.2120     4.8120    24.2050     2.3090     4.6720 
  123.7500   100.0720     5.1170     4.1830     4.6730    24.2000     2.3100     4.7080 
  123.8750    98.4710     5.4000     4.3150     4.7730    24.1520     2.3090     4.6380 
  124.0000    93.7180     5.8630     4.5990     5.1840    23.9800     2.3100     4.5930 
  124.1250    88.2530     6.3870     4.9760     5.8090    23.6260     2.3190     4.5820 
  124.2500    84.9260     6.7690     5.3030     6.4500    23.3630     2.3280     4.5220 
  124.3750    84.3770     6.8630     5.4580     6.5370    23.3870     2.3250     4.4210 
  124.5000    87.0870     6.6430     5.3810     5.9230    23.5920     2.3120     4.3100 
  124.6250    93.3830     6.2130     5.1030     5.5720    23.7860     2.3040     4.2420 
  124.7500    98.6730     5.7930     4.7830     5.1680    23.9540     2.3090     4.2230 
  124.8750    99.4000     5.5020     4.5200     4.9100    24.0770     2.3190     4.1630 
  125.0000    95.1850     5.3730     4.3550     4.9040    24.1220     2.3270     4.0450 
  125.1250    89.7190     5.3790     4.2950     5.2000    24.1240     2.3250     3.9680 
  125.2500    85.4170     5.4260     4.2910     5.6800    24.1280     2.3210     3.9280 
  125.3750    82.7970     5.4830     4.3280     5.8100    24.1330     2.3210     3.8230 
  125.5000    81.1030     5.6070     4.4380     5.7330    24.0960     2.3300     3.5850 
  125.6250    78.9310     6.0240     4.7510     5.9160    23.9920     2.3470     3.2540 
  125.7500    75.4810     6.9460     5.3950     6.8130    23.9020     2.3840     2.9700 
  125.8750    71.0210     8.5620     6.5330     8.8350    23.8490     2.4480     2.7730 
  126.0000    66.2680    10.8850     8.2830    13.4530    23.7950     2.5240     2.5320 
  126.1250    62.2010    13.5130    10.5630    20.1390    23.7270     2.5620     2.2070 
  126.2500    60.4120    15.4380    12.5940    25.3740    23.6330     2.5410     1.8960 
  126.3750    61.9300    15.8270    13.4900    25.5090    23.4320     2.4740     1.6500 
  126.5000    66.0640    14.6190    12.8990    19.3720    23.1530     2.3890     1.4370 
  126.6250    69.3700    12.6670    11.3250    12.1650    22.9230     2.3100     1.1700 
  126.7500    68.9880    11.0630     9.7830     9.2250    22.7920     2.2550     0.8500 
  126.8750    65.6230    10.1200     8.6500     8.5640    22.8220     2.2220     0.5490 
  127.0000    62.8370     9.7760     7.9930     8.4590    23.0400     2.2030     0.2930 
  127.1250    64.5460     9.8680     7.7910     8.3860    23.5050     2.1900     0.0200 
  127.2500    68.6610    10.1240     7.8410     8.2920    23.7540     2.1850    -0.2630 
  127.3750    71.5260    10.4240     8.0240     8.2320    23.7920     2.1800    -0.5140 
