~V
VERS. 2.00: Ver 2.00
~W
STRT.M 59.0000:
STOP.M 217.0000:
STEP.M 0.1250:
NULL. -999.2500:
UWI. F11019:
~C
DEPT.M :
DEN.GM/CC :
GR.API :
RML.OHMM :
RI. :
RXO.OHMM :
CALI.CM :
SP.MV :
~A
# ...
  182.7500     2.2180    68.5240    91.4950    86.8870    80.5970    24.3500   -36.1370 
  182.8750     2.2190    69.3200    92.5160    87.9430    80.0080    24.4750   -36.9490 
  183.0000     2.2180    68.1890    94.5760    90.0230    84.5300    24.5540   -37.7610 
  183.1250     2.2160    66.7810    97.1620    92.6670    90.9060    24.5600   -38.5300 
  183.2500     2.2160    65.9660    99.5690    95.1440    93.9140    24.5590   -39.2860 
  183.3750     2.2170    65.3580   101.4930    97.1040    96.2010    24.5520   -40.0110 
  183.5000     2.2190    64.7910   102.9280    98.5090    97.7050    24.5430   -40.7330 
  183.6250     2.2200    64.8400   104.0490    99.5310    94.2060    24.4240   -41.5270 
  183.7500     2.2180    65.7500   105.1170   100.4720    84.3630    24.1420   -42.3660 
  183.8750     2.2140    67.0250   106.2530   101.4660    70.9250    23.6440   -43.2010 
  184.0000     2.2100    68.0710   107.6420   102.6600    60.1580    22.9930   -43.9070 
  184.1250     2.2070    68.3860   109.8810   104.5420    56.8000    22.5010   -44.5630 
  184.2500     2.2060    68.2310   113.4770   107.5910    58.0550    22.2890   -45.1920 
  184.3750     2.2080    67.4200   118.7300   112.1560    69.3820    22.4730   -45.7610 
  184.5000     2.2120    65.4480   125.3260   118.0790    91.1570    23.0250   -46.2390 
  184.6250     2.2180    63.4370   132.0720   124.3960   123.1420    23.7370   -46.5330 
  184.7500     2.2210    63.3700   137.3990   129.5570   151.7460    24.2770   -46.7760 
  184.8750     2.2220    65.3740   140.5350   132.6050   169.6710    24.5620   -47.0090 
  185.0000     2.2180    67.4070   142.0380   133.7040   170.2680    24.6780   -47.2770 
  185.1250     2.2110    66.4900   144.7550   135.0650   144.8690    24.7860   -47.3890 
  185.2500     2.2010    63.0490   152.5960   140.4490   129.4140    24.8880   -47.2340 
  185.3750     2.1890    59.6030   169.2090   153.5530   155.0520    24.9210   -46.8810 
  185.5000     2.1790    58.0880   196.9890   177.0850   256.9730    24.8330   -46.5020 
  185.6250     2.1720    57.9630   236.7740   212.5950   450.3720    24.6550   -46.2180 
  185.7500     2.1690    57.6130   280.7200   253.3400   733.9340    24.5910   -45.9610 
  185.8750     2.1700    56.9380   319.0740   290.6860  1038.0740    24.5740   -45.7460 
  186.0000     2.1720    56.1030   340.9300   314.4860  1203.6850    24.5610   -45.6410 
  186.1250     2.1760    54.9390   335.2280   313.4490  1243.5680    24.5250   -45.6580 
  186.2500     2.1820    54.1830   309.8160   292.6480  1172.7950    24.4870   -45.7940 
  186.3750     2.1890    54.6970   275.9950   261.2930   913.5040    24.4650   -45.9340 
  186.5000     2.1950    56.0310   244.8760   230.0790   553.0520    24.4880   -45.9530 
  186.6250     2.1970    56.7450   224.7160   208.0740   275.0810    24.6050   -45.7530 
  186.7500     2.1940    56.4400   215.2560   196.3080   211.8370    24.7980   -45.4060 
  186.8750     2.1860    55.2250   214.5650   193.6740   226.1710    24.9920   -44.8910 
  187.0000     2.1750    53.0250   219.6550   197.5740   249.5280    25.0480   -44.1580 
  187.1250     2.1660    50.5250   226.7930   204.6630   231.3490    24.8650   -43.2780 
  187.2500     2.1620    49.8200   231.8800   210.5510   191.1390    24.4650   -42.3610 
  187.3750     2.1630    51.8870   232.2780   212.1700   170.9840    24.0650   -41.4710 
  187.5000     2.1670    55.3140   227.1760   207.2840   183.1320    23.8900   -40.5760 
  187.6250     2.1730    57.3120   214.2880   193.7270   211.0610    24.0370   -39.7000 
  187.7500     2.1780    57.2800   194.6490   173.7930   222.0900    24.1480   -38.7720 
  187.8750     2.1820    56.7890   168.1220   150.1090   205.5050    24.1880   -37.7480 
  188.0000     2.1870    57.8540   141.3550   126.2100   169.0940    24.1790   -36.6450 
  188.1250     2.1940    60.5590   118.9020   106.1630   126.2140    24.2180   -35.5420 
  188.2500     2.2040    63.1260   101.7630    90.8600    89.2490    24.3380   -34.5030 
  188.3750     2.2150    65.0600    88.9980    79.4630    65.5430    24.4270   -33.4780 
  188.5000     2.2250    66.5960    78.4050    70.0040    54.0110    24.4940   -32.4090 
  188.6250     2.2340    67.4790    67.5040    60.2710    51.2830    24.6560   -31.2070 
  188.7500     2.2430    67.9110    55.3670    49.4350    48.8760    24.5130   -29.9860 
  188.8750     2.2520    69.0680    42.8250    38.2360    41.6000    24.1680   -28.9260 
  189.0000     2.2610    72.0910    31.5680    28.1860    27.1600    23.7450   -28.1490 
  189.1250     2.2700    77.3810    23.5220    21.0020    14.7590    23.3340   -27.6730 
  189.2500     2.2770    82.8060    18.4970    16.5150     8.9840    23.1730   -27.3500 
  189.3750     2.2830    86.6140    16.1530    14.4220     7.3460    23.3250   -27.1730 
  189.5000     2.2840    88.1420    16.3200    14.5710     8.1840    23.8990   -27.1970 
  189.6250     2.2800    87.1040    19.8620    17.7340    12.6390    24.5460   -27.5710 
  189.7500     2.2690    84.4610    26.9780    24.0870    21.8850    24.9470   -28.1130 
  189.8750     2.2530    81.4320    37.8310    33.7780    36.6010    25.2810   -28.6910 
  190.0000     2.2380    79.2180    51.4990    45.9810    54.5110    25.4970   -29.2790 
  190.1250     2.2320    77.6340    65.2330    58.2440    70.1350    25.5140   -29.8050 
  190.2500     2.2350    76.3220    75.4130    67.3330    77.1080    25.3620   -30.2310 
  190.3750     2.2460    75.3730    79.8650    71.3080    74.5250    25.1500   -30.5560 
  190.5000     2.2610    74.0210    78.6990    70.2740    66.9830    24.9680   -30.8420 
  190.6250     2.2730    71.4340    74.1080    66.1720    59.2330    24.8420   -31.0840 
  190.7500     2.2820    68.7440    69.7070    62.2030    54.5000    24.8060   -31.3510 
  190.8750     2.2860    66.8950    67.0860    59.8440    53.8100    24.7950   -31.6820 
  191.0000     2.2860    65.4540    66.7650    59.5510    58.9390    24.7980   -31.9770 
  191.1250     2.2810    64.1160    68.2380    61.1090    70.4450    24.8130   -32.2150 
  191.2500     2.2730    63.4850    70.2240    63.2230    84.7720    24.8370   -32.4840 
  191.3750     2.2660    63.4850    71.6580    64.9880    96.1220    24.8540   -32.8570 
  191.5000     2.2600    63.5480    72.1360    65.9510    96.6730    24.8760   -33.3320 
  191.6250     2.2580    63.7200    72.8640    66.2970    83.3950    24.8750   -33.7650 
  191.7500     2.2570    63.9720    73.6850    66.8020    76.3100    24.8360   -34.0710 
  191.8750     2.2540    63.6460    74.9880    67.8060    80.1940    24.8060   -34.3800 
  192.0000     2.2470    62.3770    76.4350    69.0710    89.1750    24.7930   -34.8150 
  192.1250     2.2380    61.5460    76.8620    69.6460    93.3290    24.7870   -35.2670 
  192.2500     2.2320    62.8160    75.5210    68.7850    86.1120    24.7540   -35.6330 
  192.3750     2.2310    65.8730    72.3740    66.3010    71.5130    24.7510   -35.8940 
  192.5000     2.2340    68.7740    68.1920    62.6960    59.4890    24.7900   -35.9810 
  192.6250     2.2380    69.6390    64.3560    59.0610    56.4920    24.8160   -35.8750 
  192.7500     2.2410    69.7270    61.8300    56.3850    55.7800    24.8230   -35.7710 
  192.8750     2.2420    70.3170    60.9410    55.0890    56.0180    24.8450   -35.5850 
  193.0000     2.2400    70.8150    61.6410    55.2080    57.0510    24.8710   -35.2060 
  193.1250     2.2350    69.7720    63.8520    56.6780    60.4160    24.8930   -34.7700 
  193.2500     2.2290    67.8860    66.9630    58.9250    65.7630    24.9130   -34.3890 
  193.3750     2.2230    66.7770    70.5900    61.5930    71.8900    24.8900   -33.9800 
  193.5000     2.2200    67.5280    74.4160    64.4060    77.3000    24.8100   -33.5460 
  193.6250     2.2220    70.0020    78.5160    67.3860    81.5740    24.7820   -33.2150 
  193.7500     2.2270    72.3450    83.5500    71.0480    83.9200    24.7640   -32.9180 
  193.8750     2.2390    73.0220    90.4930    76.2310    85.6320    24.7250   -32.5520 
