~V
VERS. 2.00: Ver 2.00
~W
STRT.M 57.0000:
STOP.M 276.0000:
STEP.M 0.1250:
NULL. -999.2500:
UWI. F11063:
~C
DEPT.M :
DEN.GM/CC :
GR.API :
RML.OHMM :
RI. :
RXO.OHMM :
CALI.CM :
SP.MV :
~A
# ...
  259.5000     2.3950    49.7660    10.6820     8.8040    12.2760    23.9380   -10.4140 
  259.6250     2.3900    50.9230    10.6570     8.8330    12.2190    24.1490   -10.3200 
  259.7500     2.3890    53.0470    10.6340     8.8670    11.8760    24.2650   -10.1760 
  259.8750     2.3910    55.8390    10.6340     8.9070    11.8370    24.2970   -10.0740 
  260.0000     2.3940    56.4020    10.6590     8.9560    12.5670    24.3040    -9.9570 
  260.1250     2.3980    52.4630    10.7300     9.0390    13.4270    24.2980    -9.8500 
  260.2500     2.4020    48.9510    10.8690     9.1650    12.8160    24.2900    -9.8190 
  260.3750     2.4030    48.2340    11.0800     9.3200    11.9040    24.2900    -9.7750 
  260.5000     2.4000    49.6140    11.3190     9.4670    11.2900    24.2840    -9.7670 
  260.6250     2.3980    52.0820    11.5060     9.5550    10.3110    24.2680    -9.7670 
  260.7500     2.3970    54.7860    11.6180     9.5870     9.5400    24.2410    -9.7890 
  260.8750     2.3970    57.4810    11.6830     9.5940     9.0140    24.2260    -9.8100 
  261.0000     2.4020    58.6120    11.7420     9.6110     9.1050    24.2500    -9.8350 
  261.1250     2.4170    56.5640    11.8280     9.6610     9.0270    24.2680    -9.8680 
  261.2500     2.4400    51.3130    11.9500     9.7490     9.0450    24.2850    -9.8830 
  261.3750     2.4600    45.9460    12.1450     9.8950     9.1090    24.2820    -9.9220 
  261.5000     2.4720    44.5480    12.4670    10.1270     9.2860    24.2750    -9.9380 
  261.6250     2.4790    44.9460    12.9130    10.4510     9.3070    24.2690    -9.9720 
  261.7500     2.4830    43.7500    13.3020    10.7600     8.9610    24.2490   -10.0270 
  261.8750     2.4850    42.6540    13.4130    10.9140     8.3880    24.1750   -10.0820 
  262.0000     2.4850    44.5100    13.0760    10.7890     8.4490    24.0780   -10.1090 
  262.1250     2.4810    48.2510    12.2450    10.3060     9.7490    23.9600   -10.1400 
  262.2500     2.4650    49.9060    11.2350     9.6030     9.3240    23.9300   -10.1310 
  262.3750     2.4390    50.2590     9.3940     8.8130     9.4600    24.0100   -10.1030 
  262.5000     2.4120    50.1260     8.4170     8.0550     9.9770    24.1680   -10.0790 
  262.6250     2.3940    49.1950     7.9910     7.4290    10.3120    24.2220   -10.0180 
  262.7500     2.3780    48.0060     7.6740     6.9460    10.1750    24.2330    -9.9570 
  262.8750     2.3640    48.2420     7.3890     6.6060     9.5550    24.1970    -9.8820 
  263.0000     2.3530    50.0630     7.1370     6.3970     9.0020    24.2010    -9.8220 
  263.1250     2.3530    50.5890     7.0100     6.3290     8.4580    24.2830    -9.7550 
  263.2500     2.3600    48.9030     7.0410     6.3780     7.6460    24.3350    -9.7030 
  263.3750     2.3710    47.1580     7.1920     6.5190     7.4750    24.3320    -9.6750 
  263.5000     2.3830    46.6690     7.3540     6.6920     7.6750    24.3150    -9.6520 
  263.6250     2.3920    47.5050     7.3870     6.7940     8.1890    24.3130    -9.6550 
  263.7500     2.3930    48.0630     7.2740     6.7630     8.5930    24.3200    -9.6550 
  263.8750     2.3910    47.4180     7.0690     6.5940     8.3390    24.3500    -9.6550 
  264.0000     2.3870    45.7050     6.8520     6.3350     7.9610    24.3770    -9.6880 
  264.1250     2.3820    45.4510     6.7010     6.0730     8.1200    24.3860    -9.7100 
  264.2500     2.3730    48.1520     6.6430     5.8890     8.4180    24.3670    -9.7580 
  264.3750     2.3650    50.8120     6.6870     5.8100     8.6400    24.3740    -9.8030 
  264.5000     2.3600    50.7400     6.7980     5.8270     9.0380    24.3900    -9.8350 
  264.6250     2.3580    49.2690     6.9050     5.9010    10.6740    24.3450    -9.8700 
  264.7500     2.3610    48.3160     6.9540     5.9730    10.4490    24.3100    -9.9050 
  264.8750     2.3670    47.3160     6.9690     6.0220     9.4970    24.2810    -9.9720 
  265.0000     2.3720    45.7740     7.0150     6.0460     8.9330    24.2630    -9.9810 
  265.1250     2.3740    45.9380     7.1340     6.0530     8.5100    24.2430   -10.0010 
  265.2500     2.3730    47.9320     7.2740     6.0590     8.2070    24.1800   -10.0670 
  265.3750     2.3700    49.8130     7.3690     6.0730     7.8700    24.0330   -10.1600 
  265.5000     2.3670    51.6110     7.3780     6.1030     7.6240    23.6510   -10.2680 
  265.6250     2.3630    53.2650     7.3000     6.1310     7.5330    23.0420   -10.3080 
  265.7500     2.3590    52.6340     7.1510     6.1110     7.7950    22.6360   -10.3140 
  265.8750     2.3520    51.7150     6.9160     6.0110     8.2330    22.7220   -10.3430 
  266.0000     2.3450    51.7150     6.5990     5.8290     7.5640    23.0460   -10.4090 
  266.1250     2.3400    51.7150     6.2870     5.6070     7.0990    23.2510   -10.4190 
  266.2500     2.3400    51.7150     6.1060     5.4140     7.1520    23.3290   -10.3450 
  266.3750     2.3440    51.7150     6.1190     5.2940     7.2230    23.3320   -10.2060 
  266.5000     2.3490    51.7150     6.3000     5.2580     6.8140    23.2630   -10.0970 
  266.6250     2.3510    51.7150     6.5550     5.3000     6.9600    23.1520   -10.0940 
  266.7500     2.3530    51.7150     6.7670     5.3750     7.4540    23.0480   -10.1100 
  266.8750     2.3540    51.7150     6.9100     5.4520     7.3870    23.0560   -10.0700 
  267.0000     2.3530    51.7150     7.0040     5.5070     7.2290    23.2250   -10.0550 
  267.1250     2.3520    51.7150     7.0490     5.5250     7.3990    23.6360   -10.0940 
  267.2500     2.3540    51.7150     7.0280     5.5240     7.5770    24.0350   -10.1830 
  267.3750     2.3580    51.7150     6.9340     5.5150     7.6960    24.2060   -10.2850 
  267.5000     2.3620    51.7150     6.8120     5.5080     7.7220    24.2110   -10.3290 
  267.6250     2.3630    51.7150     6.7630     5.5150     7.5740    24.1900   -10.3610 
  267.7500     2.3630    51.7150     6.8410     5.5460     7.4700    24.1770   -10.3970 
  267.8750     2.3660    51.7150     7.0240     5.6050     7.6000    24.1450   -10.4270 
  268.0000     2.3710    51.7150     7.2150     5.6850     8.1050    24.0960   -10.4390 
  268.1250     2.3760    51.7150     7.2780     5.7760     8.3700    24.1060   -10.4070 
  268.2500     2.3780    51.7150     7.2070     5.8580     8.4150    24.2020   -10.3330 
  268.3750     2.3770    51.7150     7.0660     5.9220     8.2590    24.3250   -10.3170 
  268.5000     2.3760    51.7150     6.9650     5.9670     8.0080    24.4210   -10.3780 
  268.6250     2.3800    51.7150     7.0150     5.9920     7.6720    24.4400   -10.3520 
  268.7500     2.3880    51.7150     7.1850     6.0010     7.3450    24.4400   -10.2960 
  268.8750     2.3960    51.7150     7.3820     5.9940     7.0140    24.4190   -10.2990 
  269.0000     2.3980    51.7150     7.5050     5.9770     7.3020    24.4070   -10.2870 
  269.1250     2.3960    51.7150     7.5110     5.9630     7.6380    24.4090   -10.2720 
  269.2500     2.3900    51.7150     7.4670     5.9590     7.6590    24.3720   -10.3200 
  269.3750     2.3830    51.7150     7.4240     5.9610     7.3940    24.3350   -10.3280 
  269.5000     2.3740    51.7150     7.3930     5.9670     7.2750    24.3090   -10.2380 
  269.6250     2.3650    51.7150     7.3590     5.9750     7.3640    24.2980   -10.2550 
  269.7500     2.3600    51.7150     7.3080     5.9790     7.2340    24.2940   -10.2720 
  269.8750     2.3590    51.7150     7.2470     5.9790     6.6850    24.2680  -999.2500 
  270.0000     2.3640    51.7150     7.1900     5.9820     6.2930    24.1770  -999.2500 
  270.1250     2.3720    51.7150     7.1430     5.9850     6.4390    24.0820  -999.2500 
  270.2500     2.3800    51.7150     7.1110     5.9840     6.8200    24.0190  -999.2500 
  270.3750     2.3870    51.7150     7.1000     5.9750     7.3520    23.9980  -999.2500 
  270.5000     2.3920    51.7150     7.1180     5.9580     7.3720    23.9750  -999.2500 
  270.6250     2.3980    51.7150     7.1530     5.9370     6.7660    23.8830  -999.2500 
