~V
VERS. 2.00: Ver 2.00
~W
STRT.M 50.0000:
STOP.M 281.0000:
STEP.M 0.1250:
NULL. -999.2500:
UWI. F11064:
~C
DEPT.M :
SP.MV :
GR.API :
RML.OHMM :
RI. :
RXO.OHMM :
CALI.CM :
DEN.GM/CC :
~A
# ...
  275.0000    -8.5260    56.0000    10.3740     9.9320     9.1660    24.5330     2.4450 
  275.1250    -8.5620    56.0000    10.4130     9.9190     8.9770    24.5360     2.4540 
  275.2500    -8.6070    56.0000    10.4550     9.9000     8.9520    24.5700     2.4620 
  275.3750    -8.5970    56.0000    10.4870     9.8860     8.6870    24.6330     2.4660 
  275.5000    -8.5970    56.0000    10.5020     9.8810     8.2920    24.6780     2.4680 
  275.6250    -8.6170    56.0000    10.5080     9.8800     7.9190    24.6930     2.4650 
  275.7500    -8.6530    56.0000    10.5130     9.8760     7.4450    24.6800     2.4580 
  275.8750    -8.6480    56.0000    10.5170     9.8700     6.9810    24.6260     2.4490 
  276.0000    -8.5330    56.0000    10.5090     9.8700     6.6940    24.5670     2.4380 
  276.1250    -8.3890    56.0000    10.4860     9.8790     6.5390    24.5150     2.4300 
  276.2500    -8.1930    56.0000    10.4660     9.8900     6.4330    24.4350     2.4250 
  276.3750    -8.0200    56.0000    10.4660     9.8930     6.3710    24.3360     2.4240 
  276.5000    -7.8410    56.0000    10.4760     9.8880     6.5030    24.2710     2.4260 
  276.6250    -7.6250    56.0000    10.4610     9.8790     6.8420    24.2340     2.4290 
  276.7500    -7.4100    56.0000    10.4110     9.8750     7.4330    24.2230     2.4310 
  276.8750    -7.3270    56.0000    10.3400     9.8810     8.3480    24.2320     2.4340 
  277.0000    -7.3320    56.0000    10.3250     9.8820     9.7310    24.2500     2.4380 
  277.1250  -999.2500    56.0000    10.3250     9.8820     9.9590    24.2150     2.4420 
  277.2500  -999.2500    56.0000    10.3250     9.8820     9.8410    24.1160     2.4450 
  277.3750  -999.2500    56.0000    10.3250     9.8820     9.7560    23.9910     2.4450 
  277.5000  -999.2500    56.0000    10.3250     9.8820     9.9940    23.9180     2.4430 
  277.6250  -999.2500    56.0000    10.3250     9.8820     9.9590    23.8920     2.4350 
  277.7500  -999.2500    56.0000    10.3250     9.8820     9.6910    23.8560     2.4180 
  277.8750  -999.2500    56.0000    10.3250     9.8820     9.7660    23.7490     2.3860 
  278.0000  -999.2500    56.0000    10.3250     9.8820     9.4640    23.5710     2.3300 
  278.1250  -999.2500    56.0000    10.3250     9.8820     8.2350    23.3850     2.2460 
  278.2500  -999.2500    56.0000    10.3250     9.8820     6.9300    23.1050     2.1330 
  278.3750  -999.2500    56.0000    10.3250     9.8820     5.8800    22.4960     2.0100 
  278.5000  -999.2500    56.0000    10.3250     9.8820     4.6510    21.0510     1.9070 
  278.6250  -999.2500    56.0000    10.3250     9.8820     3.4240    18.6770     1.8480 
  278.7500  -999.2500    56.0000    10.3250     9.8820     2.7850    16.6990     1.8340 
  278.8750  -999.2500    56.0000    10.3250     9.8820     2.6070    15.8900     1.8360 
  279.0000  -999.2500    56.0000    10.3250     9.8820     2.5950    15.7510     1.8400 
  279.1250  -999.2500    56.0000    10.3250     9.8820     2.5960    15.7500     1.8410 
  279.2500  -999.2500    56.0000    10.3250     9.8820     2.5920    15.7570     1.8420 
  279.3750  -999.2500    56.0000    10.3250     9.8820     2.5870    15.7670     1.8430 
  279.5000  -999.2500    56.0000    10.3250     9.8820     2.5870    15.7670     1.8440 
  279.6250  -999.2500    56.0000    10.3250     9.8820     2.5890    15.7640     1.8330 
  279.7500  -999.2500    56.0000    10.3250     9.8820     2.5960    15.7440  -999.2500 
  279.8750  -999.2500    56.0000    10.3250     9.8820     2.5970    15.7410  -999.2500 
  280.0000  -999.2500    56.0000    10.3250     9.8820     2.5950    15.7460  -999.2500 
  280.1250  -999.2500    56.0000    10.3250     9.8820     2.5910    15.7580  -999.2500 
  280.2500  -999.2500    56.0000    10.3250     9.8820     2.5890    15.7640  -999.2500 
  280.3750  -999.2500    56.0000    10.3250     9.8820     2.5910    15.7600  -999.2500 
  280.5000  -999.2500    56.0000    10.3250     9.8820     2.5930    15.7540  -999.2500 
  280.6250  -999.2500    56.0000    10.3250     9.8820     2.5900    15.7590  -999.2500 
  280.7500  -999.2500    56.0000    10.3250     9.8820     2.5870    15.7670  -999.2500 
  280.8750  -999.2500    56.0000    10.3250     9.8820     2.5880    15.7660  -999.2500 
  281.0000  -999.2500    56.0000    10.3250     9.8820     2.5910    15.7580  -999.2500 
