~V
VERS. 2.00: Ver 2.00
~W
STRT.M 49.0000:
STOP.M 284.0000:
STEP.M 0.1250:
NULL. -999.2500:
UWI. F11034:
~C
DEPT.M :
GR.API :
RML.OHMM :
RI. :
RXO.OHMM :
CALI.CM :
DEN.GM/CC :
SP.MV :
~A
# ...
  274.0000    55.4780    11.2580    10.5100    13.2370    25.0770     2.5050    -4.1480 
  274.1250    55.4780    11.2100    10.5340    12.9690    25.1330     2.5070    -4.2200 
  274.2500    55.4780    11.2010    10.5810    12.7280    25.2610     2.5090    -4.2790 
  274.3750    55.4780    11.2600    10.6700    12.7470    25.3640     2.5120    -4.3400 
  274.5000    55.4780    11.4090    10.8120    13.1930    25.4010     2.5150    -4.4250 
  274.6250    55.4780    11.6200    10.9920    13.9070    25.3860     2.5170    -4.5170 
  274.7500    55.4780    11.8430    11.1740    14.6940    25.3200     2.5190    -4.5900 
  274.8750    55.4780    12.0140    11.3110    15.1950    25.2300     2.5210    -4.6690 
  275.0000    55.4780    12.0400    11.3290    14.9600    25.1690     2.5240    -4.7460 
  275.1250    55.4780    11.8900    11.2020    14.2040    25.1440     2.5260    -4.8310 
  275.2500    55.4780    11.5910    10.9490    13.3350    25.1340     2.5270    -4.9320 
  275.3750    55.4780    11.2350    10.6400    12.6500    25.1430     2.5240    -5.0180 
  275.5000    55.4780    11.0150    10.4330    12.3800    25.1480     2.5160    -5.1030 
  275.6250    55.4780    11.0930    10.4730    12.9560    25.1870     2.5020    -5.1900 
  275.7500    55.4780    11.5700    10.8630    14.5840    25.2330     2.4870    -5.2770 
  275.8750    55.4780    12.4550    11.6420    17.3540    25.2440     2.4740    -5.3510 
  276.0000    55.4780    13.6580    12.7840    21.0790    25.1680     2.4660    -5.4020 
  276.1250    55.4780    14.9140    14.0720    24.6120    25.1350     2.4620    -5.4410 
  276.2500    55.4780    15.9630    15.2640    26.9140    25.1370     2.4600    -5.4720 
  276.3750    55.4780    16.6120    16.1380    27.4070    25.1530     2.4590    -5.4890 
  276.5000    55.4780    16.7430    16.5040    25.6970    25.1840     2.4630    -5.5030 
  276.6250    55.4780    16.5040    16.4490    21.7570    25.1940     2.4730    -5.5080 
  276.7500    55.4780    16.0780    16.1310    17.7790    25.1640     2.4870    -5.5100 
  276.8750    55.4780    15.6200    15.7110    15.3150    25.1100     2.5030    -5.5240 
  277.0000    55.4780    15.2410    15.3220    14.4590    25.0790     2.5160    -5.5580 
  277.1250    55.4780    14.9750    15.0290    14.6540    25.0750     2.5250    -5.5690 
  277.2500    55.4780    14.8160    14.8430    15.5200    25.0830     2.5280    -5.5790 
  277.3750    55.4780    14.7400    14.7480    16.9710    25.0870     2.5260    -5.6130 
  277.5000    55.4780    14.7140    14.7160    18.8030    25.0900     2.5240    -5.6440 
  277.6250    55.4780    14.7060    14.7110    20.5160    25.0990     2.5210    -5.6970 
  277.7500    55.4780    14.7000    14.7130    21.8030    25.1140     2.5230    -5.7730 
  277.8750    55.4780    14.6940    14.7150    22.6330    25.1250     2.5290    -5.8270 
  278.0000    55.4780    14.6890    14.7170    23.1630    25.1290     2.5360    -5.8650 
  278.1250    55.4780    14.6840    14.7170    23.5810    25.1330     2.5440    -5.9260 
  278.2500    55.4780    14.6790    14.7160    23.9320    25.1280     2.5480    -5.9900 
  278.3750    55.4780    14.6740    14.7150    23.9980    25.1050     2.5500    -6.0570 
  278.5000    55.4780    14.6710    14.7140    23.9490    25.0660     2.5490    -6.1400 
  278.6250    55.4780    14.6730    14.7140    23.9560    25.0630     2.5470    -6.1990 
  278.7500    55.4780    14.6790    14.7130    24.2780    25.0930     2.5470    -6.2160 
  278.8750    55.4780    14.6860    14.7130    24.8250    25.1180     2.5470    -6.2340 
  279.0000    55.4780    14.6930    14.7150    25.9610    25.1250     2.5470    -6.2520 
  279.1250    55.4780    14.6960    14.7170    27.3060    25.1260     2.5450    -6.2620 
  279.2500    55.4780    14.6960    14.7190    28.3960    25.1260     2.5410    -6.2940 
  279.3750    55.4780    14.6960    14.7190    28.8140    25.1260     2.5340    -6.3340 
  279.5000    55.4780    14.6960    14.7190    28.3810    25.1260     2.5270    -6.3620 
  279.6250    55.4780    14.6960    14.7190    27.8590    25.1250     2.5230    -6.3870 
  279.7500    55.4780    14.6960    14.7190    26.6010    25.1230     2.5230    -6.4400 
  279.8750    55.4780    14.6960    14.7190    24.4820    25.1190     2.5270    -6.4940 
  280.0000    55.4780    14.6960    14.7190    21.5960    25.1160     2.5330    -6.5830 
  280.1250    55.4780    14.6960    14.7190    19.0370    25.1160     2.5390    -6.7220 
  280.2500    55.4780    14.6960    14.7190    16.9630    25.1160     2.5420    -6.9240 
  280.3750    55.4780    14.6960    14.7190    15.3200    25.1160     2.5440    -7.2290 
  280.5000    55.4780    14.6960    14.7190    13.9040    25.1120     2.5430    -7.5690 
  280.6250    55.4780    14.6960    14.7190    12.5460    25.1010     2.5410    -7.9190 
  280.7500    55.4780    14.6960    14.7190    11.3320    25.0670     2.5390    -8.2590 
  280.8750    55.4780    14.6960    14.7190    10.5860    25.0250     2.5370    -8.6010 
  281.0000    55.4780    14.6960    14.7190    10.2000    24.9760     2.5350    -8.9180 
  281.1250    55.4780    14.6960    14.7190     9.9820    24.9190     2.5340    -9.1780 
  281.2500    55.4780    14.6960    14.7190     9.8440    24.8690     2.5340    -9.3020 
  281.3750    55.4780    14.6960    14.7190     9.7640    24.8340     2.5320    -9.3200 
  281.5000    55.4780    14.6960    14.7190     9.6800    24.7990     2.5210    -9.3200 
  281.6250    55.4780    14.6960    14.7190     9.5860    24.7650     2.4920  -999.2500 
  281.7500    55.4780    14.6960    14.7190     9.5370    24.5390     2.4430  -999.2500 
  281.8750    55.4780    14.6960    14.7190     9.4860    23.1170     2.3770  -999.2500 
  282.0000    55.4780    14.6960    14.7190     9.4350    19.5400     2.3100  -999.2500 
  282.1250    55.4780    14.6960    14.7190     9.4110    15.7340     2.2560  -999.2500 
  282.2500    55.4780    14.6960    14.7190     9.4160    13.8440     2.2200  -999.2500 
  282.3750    55.4780    14.6960    14.7190     9.4200    13.4130     2.2000  -999.2500 
  282.5000    55.4780    14.6960    14.7190     9.4200    13.3770     2.1940  -999.2500 
  282.6250    55.4780    14.6960    14.7190     9.4200    13.3770     2.1930  -999.2500 
  282.7500    55.4780    14.6960    14.7190     9.4200    13.3770     2.1950  -999.2500 
  282.8750    55.4780    14.6960    14.7190     9.4210    13.3770     2.1970  -999.2500 
  283.0000    55.4780    14.6960    14.7190     9.4220    13.3770     2.1980  -999.2500 
  283.1250    55.4780    14.6960    14.7190     9.4240    13.3770     2.1970  -999.2500 
  283.2500    55.4780    14.6960    14.7190     9.4240    13.3770     2.1960  -999.2500 
  283.3750    55.4780    14.6960    14.7190     9.4250    13.3770     2.1950  -999.2500 
  283.5000    55.4780    14.6960    14.7190     9.4250    13.3770     2.1960  -999.2500 
  283.6250    55.4780    14.6960    14.7190     9.4260    13.3770     2.1970  -999.2500 
  283.7500    55.4780    14.6960    14.7190     9.4270    13.3770     2.1990  -999.2500 
  283.8750    55.4780    14.6960    14.7190     9.4280    13.3770     2.2010  -999.2500 
  284.0000    55.4780    14.6960    14.7190     9.4280    13.3770  -999.2500  -999.2500 
