~V
VERS. 2.00: Ver 2.00
~W
STRT.M 57.0000:
STOP.M 283.0000:
STEP.M 0.1250:
NULL. -999.2500:
UWI. F11039:
~C
DEPT.M :
SP.MV :
GR.API :
RML.OHMM :
RI. :
RXO.OHMM :
CALI.CM :
DEN.GM/CC :
~A
# ...
  124.5000    -5.1420    84.0260     5.7850     5.2370     6.2350    23.0290     2.2250 
  124.6250    -4.5930    86.8950     5.4510     4.9370     5.9930    23.4520     2.2450 
  124.7500    -4.0440    87.9750     5.1120     4.6420     5.6280    23.9510     2.2680 
  124.8750    -3.5320    89.4730     4.8060     4.3840     5.2550    24.3430     2.2940 
  125.0000    -3.0870    91.1060     4.5620     4.1820     5.0910    24.5250     2.3230 
  125.1250    -2.7520    92.5000     4.4180     4.0550     4.9210    24.5530     2.3500 
  125.2500    -2.5140    92.5170     4.4130     4.0300     4.8430    24.5190     2.3720 
  125.3750    -2.3850    89.4390     4.6230     4.1620     4.9290    24.4990     2.3780 
  125.5000    -2.3410    85.5740     5.0340     4.4580     5.2100    24.4790     2.3670 
  125.6250    -2.3700    81.9230     5.6180     4.9140     5.6430    24.4410     2.3400 
  125.7500    -2.4360    76.8560     6.2760     5.4710     6.0910    24.3910     2.3050 
  125.8750    -2.5060    70.3330     6.8020     5.9860     6.6490    24.3220     2.2740 
  126.0000    -2.5630    65.9690     7.0200     6.2930     7.2330    24.2340     2.2550 
  126.1250    -2.5830    66.9960     6.8460     6.2820     7.6490    24.1540     2.2530 
  126.2500    -2.5480    72.1960     6.3350     5.9530     7.4340    24.1270     2.2680 
  126.3750    -2.4750    76.1190     5.6730     5.4170     6.7000    24.1950     2.2980 
  126.5000    -2.3780    76.7280     5.0980     4.8930     5.9010    24.3220     2.3320 
  126.6250    -2.2720    74.8900     4.7130     4.4930     5.3050    24.4480     2.3620 
  126.7500    -2.1780    74.5290     4.5210     4.2610     5.1690    24.5210     2.3840 
  126.8750    -2.1400    78.1140     4.4940     4.2060     5.1480    24.5510     2.3950 
  127.0000    -2.1480    81.7170     4.5510     4.2590     5.1660    24.5560     2.3970 
  127.1250    -2.2160    81.0520     4.6620     4.3790     5.2660    24.5520     2.3970 
  127.2500    -2.3510    76.7260     4.8150     4.5310     5.3540    24.5410     2.3970 
  127.3750    -2.5360    77.5220     5.0060     4.6920     5.3350    24.5250     2.3980 
  127.5000    -2.7210    82.6890     5.2040     4.8380     5.3950    24.5060     2.3950 
  127.6250    -2.8780    85.8410     5.3580     4.9410     5.6380    24.4970     2.3860 
  127.7500    -3.0240    84.2710     5.4060     4.9610     6.0740    24.4950     2.3690 
  127.8750    -3.1650    80.7230     5.2670     4.8420     6.3210    24.4960     2.3500 
  128.0000    -3.3330    77.4890     4.9830     4.6110     6.1140    24.4960     2.3370 
  128.1250    -3.5430    74.1360     4.6520     4.3310     5.7310    24.4940     2.3370 
  128.2500    -3.8070    72.0840     4.4290     4.1170     5.2130    24.4890     2.3500 
  128.3750    -4.1780    72.0210     4.5250     4.1320     5.1160    24.4780     2.3750 
  128.5000    -4.6750    72.6710     4.9680     4.4210     5.4550    24.4420     2.4030 
  128.6250    -5.2990    71.7910     5.7150     4.9780     6.2260    24.3570     2.4200 
  128.7500    -6.0370    67.6360     6.6390     5.7240     7.7010    24.1910     2.4140 
  128.8750    -6.8350    63.4050     7.5190     6.5050     9.9040    23.8400     2.3750 
  129.0000    -7.6460    63.6650     8.1620     7.1440    10.8780    23.2920     2.3220 
  129.1250    -8.4340    67.1290     8.5060     7.5550     9.6350    22.7090     2.2730 
  129.2500    -9.1940    68.6020     8.6320     7.7660     8.2250    22.3370     2.2430 
  129.3750    -9.8430    67.1000     8.7170     7.8930     8.2150    22.2910     2.2410 
  129.5000   -10.3850    67.2380     8.8940     8.0510     8.8150    22.3980     2.2510 
  129.6250   -10.7990    66.9270     9.1510     8.2510     9.5880    22.5350     2.2610 
  129.7500   -11.1130    62.8180     9.3900     8.4370    10.6520    22.6150     2.2570 
  129.8750   -11.3750    56.5540     9.4680     8.5150    11.6960    22.6780     2.2390 
  130.0000   -11.6230    53.3020     9.3700     8.4650    11.2270    22.8230     2.2170 
  130.1250   -11.8750    53.8750     9.1480     8.3110    10.1700    23.0220     2.1970 
  130.2500   -12.0970    54.4980     8.8860     8.1080     9.7460    23.1780     2.1830 
  130.3750   -12.2970    54.3810     8.6750     7.9160     9.8740    23.2450     2.1760 
  130.5000   -12.4790    55.3930     8.5420     7.7760    10.0600    23.2610     2.1730 
  130.6250   -12.6660    57.2550     8.4840     7.7000    10.1900    23.2160     2.1710 
  130.7500   -12.8370    58.0670     8.4830     7.6860     9.7980    23.1370     2.1700 
  130.8750   -12.9980    56.1360     8.5290     7.7240     9.0770    23.0710     2.1680 
  131.0000   -13.1070    55.1180     8.6060     7.7870     8.4460    23.0200     2.1660 
  131.1250   -13.1470    57.2660     8.7000     7.8550     8.2410    22.9860     2.1650 
  131.2500   -13.1320    60.3060     8.7820     7.9080     8.2800    22.9680     2.1670 
  131.3750   -13.0600    61.3250     8.8040     7.9200     8.4930    22.9320     2.1720 
  131.5000   -12.9620    60.1740     8.7510     7.8880     8.7310    22.8540     2.1760 
  131.6250   -12.8420    59.0760     8.6290     7.8100     8.7970    22.7780     2.1750 
  131.7500   -12.6890    58.8670     8.4630     7.6960     8.8430    22.7600     2.1700 
  131.8750   -12.5010    58.7020     8.2900     7.5560     8.8590    22.7660     2.1650 
  132.0000   -12.2930    59.0820     8.1410     7.4180     8.7950    22.7650     2.1630 
  132.1250   -12.0800    61.2870     8.0360     7.3030     8.6700    22.7550     2.1660 
  132.2500   -11.8670    63.5540     7.9950     7.2350     8.5250    22.7360     2.1720 
  132.3750   -11.7110    62.6370     8.0550     7.2480     8.3140    22.6790     2.1760 
  132.5000   -11.5650    59.6780     8.2110     7.3420     8.1700    22.5810     2.1790 
  132.6250   -11.4290    57.3050     8.4480     7.5100     8.2620    22.4610     2.1860 
  132.7500   -11.3440    56.1190     8.7230     7.7310     8.5180    22.3430     2.2020 
  132.8750   -11.2860    54.4620     8.9740     7.9710     8.8020    22.2390     2.2320 
  133.0000   -11.2350    53.8810     9.1840     8.2060     9.1160    22.1470     2.2700 
  133.1250   -11.1700    55.4030     9.4000     8.4580     9.5260    22.0920     2.3090 
  133.2500   -11.0710    56.7270     9.7570     8.7880     9.8580    22.0980     2.3430 
  133.3750   -10.9000    54.8730    10.3760     9.2940     9.9830    22.1870     2.3690 
  133.5000   -10.7240    51.7950    11.2130     9.9500    10.0960    22.3630     2.3890 
  133.6250   -10.5700    50.4810    12.1100    10.6390    10.6900    22.6480     2.3970 
  133.7500   -10.4560    51.9710    12.6530    11.1610    12.0590    22.9750     2.3860 
  133.8750   -10.3670    55.7900    12.5610    11.2120    14.1350    23.1440     2.3520 
  134.0000   -10.3410    58.1710    11.9260    10.7690    14.8580    22.8810     2.3060 
  134.1250   -10.3750    58.9250    10.9430     9.9570    12.6010    22.2610     2.2590 
  134.2500   -10.4640    59.4440     9.9330     9.0350     9.7510    21.6730     2.2200 
  134.3750   -10.6160    59.0430     9.2810     8.2960     8.7280    21.4250     2.1990 
  134.5000   -10.8070    58.3980     8.8600     7.8340     8.5560    21.3630     2.1890 
  134.6250   -11.0120    58.4450     8.7540     7.6320     8.6060    21.4000     2.1900 
  134.7500   -11.1920    59.9750     8.8310     7.6150     8.6170    21.5040     2.1950 
  134.8750   -11.3320    61.1470     8.9450     7.6840     8.6850    21.6980     2.2020 
  135.0000   -11.4310    60.2740     8.9950     7.7360     8.9110    21.9150     2.2050 
  135.1250   -11.5040    57.4530     8.9680     7.7430     9.0710    22.1150     2.2020 
  135.2500   -11.5670    53.4020     8.9110     7.7250     9.0310    22.3090     2.1940 
  135.3750   -11.5920    52.8020     8.9330     7.7570     8.9430    22.5330     2.1910 
  135.5000   -11.5680    55.6790     9.1020     7.8980     8.9870    22.7430     2.2040 
  135.6250   -11.4890    57.5050     9.4210     8.1610     9.1700    22.9080     2.2430 
