~V
VERS. 2.00: Ver 2.00
~W
STRT.M 50.0000:
STOP.M 275.0000:
STEP.M 0.1250:
NULL. -999.2500:
UWI. F11033:
~C
DEPT.M :
DEN.GM/CC :
GR.API :
RML.OHMM :
RI. :
RXO.OHMM :
CALI.CM :
SP.MV :
~A
# ...
  252.5000     2.3930    48.9820     8.2700     7.8220     6.5110    24.8260   -22.7420 
  252.6250     2.4220    45.8510     8.1910     7.7860     7.3380    24.8160   -22.7310 
  252.7500     2.4420    44.5970     8.1150     7.7380     9.4570    24.7920   -22.7080 
  252.8750     2.4440    44.5090     8.1460     7.7470    12.3150    24.7680   -22.6070 
  253.0000     2.4360    44.7840     8.3880     7.8950    12.9980    24.7620   -22.5890 
  253.1250     2.4310    46.9670     8.9150     8.2620    13.1330    24.7790   -22.6930 
  253.2500     2.4290    50.2690     9.6000     8.7780    14.1610    24.8060   -22.7290 
  253.3750     2.4210    51.1410    10.2690     9.3270    14.9180    24.8220   -22.7290 
  253.5000     2.4070    48.0110    10.7410     9.7630    13.7990    24.8260   -22.7660 
  253.6250     2.3960    44.6540    10.8720     9.9420    11.7840    24.8310   -22.8260 
  253.7500     2.3940    44.0860    10.7750     9.9130    11.1860    24.8590   -22.8120 
  253.8750     2.3920    45.6240    10.5700     9.7590    11.1510    24.9250   -22.8260 
  254.0000     2.3800    48.7920    10.3400     9.5530    11.2260    25.0130   -22.8210 
  254.1250     2.3570    51.6950    10.1050     9.3310    10.6580    25.0630   -22.7740 
  254.2500     2.3350    51.7750     9.8500     9.0990     9.2580    25.0710   -22.7540 
  254.3750     2.3250    50.7470     9.5900     8.8670     7.9450    25.0340   -22.7480 
  254.5000     2.3280    49.9660     9.3690     8.6650     7.0310    25.0050   -22.7600 
  254.6250     2.3370    49.2440     9.2690     8.5530     6.7940    25.0320   -22.7540 
  254.7500     2.3450    49.2450     9.2910     8.5390     7.2110    25.0620   -22.7660 
  254.8750     2.3480    51.6720     9.3880     8.5960     8.0430    25.0930   -22.7870 
  255.0000     2.3400    54.7630     9.4680     8.6530     8.4870    25.1030   -22.7970 
  255.1250     2.3280    54.4670     9.3930     8.6030     8.7050    25.0860   -22.7860 
  255.2500     2.3240    52.8480     9.1340     8.4110     8.4530    25.0720   -22.7660 
  255.3750     2.3320    52.4290     8.7400     8.1050     7.7700    25.0730   -22.7460 
  255.5000     2.3450    52.4620     8.3230     7.7590     6.9190    25.0470   -22.7170 
  255.6250     2.3540    51.2400     8.0340     7.4900     6.5160    25.0170   -22.6940 
  255.7500     2.3640    50.1410     7.9410     7.3620     6.3320    25.0300   -22.6650 
  255.8750     2.3820    50.1800     8.0650     7.4080     6.3240    25.0720   -22.6090 
  256.0000     2.4060    51.0710     8.3820     7.6230     7.2520    25.1010   -22.5220 
  256.1250     2.4210    50.0710     8.8270     7.9720    10.0310    25.0940   -22.4110 
  256.2500     2.4110    47.1690     9.2650     8.3360    13.2340    25.0810   -22.2750 
  256.3750     2.3840    44.7740     9.5980     8.6220    13.4520    25.0950   -22.1250 
  256.5000     2.3580    46.4260     9.7680     8.7670    11.3430    25.1140   -21.9730 
  256.6250     2.3490    50.9110     9.7530     8.7470     9.7810    25.1210   -21.8220 
  256.7500     2.3490    52.7690     9.6460     8.6430     9.1980    25.1210   -21.6830 
  256.8750     2.3510    52.0570     9.5180     8.5200     8.9210    25.1210   -21.5800 
  257.0000     2.3570    51.1830     9.4270     8.4250     9.0600    25.1270   -21.5330 
  257.1250     2.3680    50.7680     9.4330     8.3950     9.9000    25.1480   -21.4970 
  257.2500     2.3770    51.8480     9.5380     8.4320    10.7780    25.1660   -21.4720 
  257.3750     2.3790    55.4150     9.7280     8.5330    10.6720    25.1540   -21.4660 
  257.5000     2.3790    58.7970     9.9600     8.6810    10.4030    25.1350   -21.4780 
  257.6250     2.3790    58.1970    10.1670     8.8370     9.4540    25.1400   -21.5030 
  257.7500     2.3790    55.7680    10.3070     8.9590     8.9050    25.1530   -21.5390 
  257.8750     2.3740    54.8810    10.3720     9.0280     9.0250    25.1440   -21.5850 
  258.0000     2.3690    56.4150    10.3810     9.0440     9.3260    25.1280   -21.6120 
  258.1250     2.3730    58.0100    10.3460     9.0120    10.2240    25.1210   -21.6610 
  258.2500     2.3850    58.8380    10.2620     8.9390    12.8170    25.1210   -21.7250 
  258.3750     2.3990    58.8220    10.1020     8.8140    16.9820    25.1210   -21.7940 
  258.5000     2.4080    58.2330     9.8580     8.6320    20.1510    25.1220   -21.8380 
  258.6250     2.4030    56.9260     9.5620     8.4030    18.6800    25.1340   -21.8470 
  258.7500     2.3910    54.9460     9.2890     8.1740    14.6210    25.1480   -21.8200 
  258.8750     2.3840    53.9650     9.0810     7.9750    11.7730    25.1410   -21.7740 
  259.0000     2.3860    54.1560     8.9460     7.8180    11.2300    25.1270   -21.7770 
  259.1250     2.3890    55.4890     8.8520     7.7020    12.1280    25.1130   -21.8320 
  259.2500     2.3850    55.9470     8.7320     7.5980    12.1290    25.1090   -21.8870 
  259.3750     2.3690    54.5530     8.5610     7.4850    11.3850    25.1330   -21.9190 
  259.5000     2.3460    52.6360     8.3580     7.3620     9.7350    25.1890   -21.9480 
  259.6250     2.3280    52.0850     8.1930     7.2560     8.5740    25.2270   -21.9950 
  259.7500     2.3180    53.1710     8.1120     7.1930     7.5270    25.2010   -22.0490 
  259.8750     2.3170    54.4300     8.1120     7.1730     6.9040    25.1320   -22.0890 
  260.0000     2.3210    54.1290     8.1410     7.1710     6.6550    25.0700   -22.0760 
  260.1250     2.3310    52.2220     8.1060     7.1330     6.9000    25.0520   -22.0050 
  260.2500     2.3420    50.9190     7.9640     7.0270     7.4120    25.0540   -21.9330 
  260.3750     2.3480    50.6810     7.7310     6.8570     7.6810    25.0570   -21.8980 
  260.5000     2.3480    50.8880     7.4570     6.6490     7.6490    25.0270   -21.8810 
  260.6250     2.3430    51.9870     7.2160     6.4490     7.8760    24.9940   -21.8540 
  260.7500     2.3380    53.5090     7.0610     6.3000     8.8150    24.9760   -21.8470 
  260.8750     2.3350    54.0030     7.0340     6.2440    10.3880    24.9720   -21.8550 
  261.0000     2.3370    53.0630     7.1560     6.3090     9.9570    24.9800   -21.8570 
  261.1250     2.3550    52.0750     7.4460     6.5170     7.7190    24.9950   -21.8400 
  261.2500     2.3800    51.6110     7.8430     6.8210     7.9870    24.9980   -21.8080 
  261.3750     2.3960    50.6810     8.3130     7.1940    10.7340    24.9830   -21.7530 
  261.5000     2.3920    49.2850     8.8320     7.6150    13.0300    24.9720   -21.6920 
  261.6250     2.3640    50.0590     9.3870     8.0690    12.0390    24.9590   -21.6370 
  261.7500     2.3360    52.5130     9.9300     8.5080    10.6660    24.9340   -21.5700 
  261.8750     2.3250    54.2280    10.3720     8.8700    11.3800    24.9170   -21.4660 
  262.0000     2.3310    54.7290    10.5920     9.0690    13.1280    24.9280   -21.3200 
  262.1250     2.3400    56.0970    10.4420     9.0000    13.5850    24.9650   -21.1790 
  262.2500     2.3400    57.1650    10.0120     8.7190    11.6760    24.9750   -21.0240 
  262.3750     2.3340    56.2280     9.4440     8.3070     9.0390    24.9500   -20.8590 
  262.5000     2.3280    54.2480     8.9020     7.8730     7.4240    24.8360   -20.6790 
  262.6250     2.3210    52.6920     8.5320     7.5220     6.8100    24.7020   -20.4850 
  262.7500     2.3080    52.4830     8.3260     7.2810     6.4920    24.6400   -20.2820 
  262.8750     2.2890    53.3530     8.2330     7.1390     6.2310    24.6560   -20.1390 
  263.0000     2.2680    54.0530     8.1900     7.0610     5.9420    24.6850   -20.0680 
  263.1250     2.2530    53.3270     8.1590     7.0280     5.5580    24.6660   -19.9680 
  263.2500     2.2470    52.7760     8.1400     7.0250     5.2130    24.5620   -19.8550 
  263.3750     2.2530    53.8170     8.1490     7.0570     5.0460    24.4120   -19.7330 
  263.5000     2.2680    55.0750     8.2050     7.1240     5.0660    24.3650   -19.6410 
  263.6250     2.2970    55.7020     8.3290     7.2320     5.3220    24.4270   -19.5860 
