~V
VERS. 2.00: Ver 2.00
~W
STRT.M 52.0000:
STOP.M 286.0000:
STEP.M 0.1250:
NULL. -999.2500:
UWI. F11061:
~C
DEPT.M :
GR.API :
RML.OHMM :
RI. :
RXO.OHMM :
CALI.CM :
DEN.GM/CC :
SP.MV :
~A
# ...
  220.7500    51.4160    81.4600    73.4650    86.1360    24.8150     2.2260   -14.4080 
  220.8750    48.0200    89.7250    80.8300    92.3490    24.8410     2.2180   -14.5630 
  221.0000    47.2950    98.7250    89.1700   102.2690    24.8430     2.2130   -14.7320 
  221.1250    49.8690   107.6180    97.6530   110.3090    24.8210     2.2110   -14.8930 
  221.2500    53.3740   115.8840   105.7350   117.4040    24.7770     2.2130   -15.0510 
  221.3750    54.6880   123.2550   113.1270   128.6220    24.7250     2.2180   -15.2160 
  221.5000    52.2520   129.3260   119.4760   142.8730    24.6650     2.2240   -15.3630 
  221.6250    48.7820   133.7110   124.4710   151.6990    24.6030     2.2290   -15.4730 
  221.7500    47.2760   135.6450   127.4700   154.3100    24.5350     2.2320   -15.5510 
  221.8750    47.2720   134.2120   127.6200   156.2990    24.4700     2.2350   -15.6010 
  222.0000    47.3260   128.3830   123.7890   165.6160    24.4170     2.2350   -15.6040 
  222.1250    48.4580   119.2190   116.6170   162.0160    24.4250     2.2340   -15.5720 
  222.2500    50.5660   108.5350   107.5060   148.0650    24.4630     2.2340   -15.5060 
  222.3750    52.2840    98.3270    98.2470   127.3870    24.4840     2.2350   -15.3960 
  222.5000    53.9910    90.5320    90.8090   104.6350    24.4670     2.2370   -15.2380 
  222.6250    55.7460    85.5230    85.8840    90.5120    24.4400     2.2400   -15.0750 
  222.7500    55.8800    82.9380    83.3440    87.7660    24.4120     2.2450   -14.9220 
  222.8750    53.5720    82.0540    82.5850    92.3450    24.3880     2.2520   -14.7810 
  223.0000    51.9350    82.0640    82.8470    97.1910    24.3690     2.2570   -14.6660 
  223.1250    51.8300    82.2040    83.3130    97.8960    24.3580     2.2590   -14.5760 
  223.2500    52.2050    82.1490    83.5780    94.7300    24.3650     2.2570   -14.5050 
  223.3750    53.1690    81.9150    83.5800    88.8020    24.3920     2.2520   -14.4490 
  223.5000    54.4700    81.7370    83.4880    84.5440    24.4320     2.2470   -14.4050 
  223.6250    54.8300    81.8230    83.5260    84.5350    24.4630     2.2430   -14.3490 
  223.7500    53.5630    82.2500    83.7880    85.1400    24.4730     2.2380   -14.2590 
  223.8750    51.0660    82.9960    84.2640    83.3550    24.4720     2.2330   -14.1460 
  224.0000    49.2080    83.9940    84.8840    83.5930    24.4850     2.2270   -14.0130 
  224.1250    49.9910    85.0890    85.5240    86.7270    24.5100     2.2200   -13.8520 
  224.2500    53.1470    86.1580    86.0970    90.7610    24.5610     2.2130   -13.6680 
  224.3750    55.8340    87.1320    86.5640    94.7210    24.6580     2.2080   -13.4800 
  224.5000    56.3280    88.0250    86.9560    94.1250    24.7970     2.2050   -13.2910 
  224.6250    57.0620    88.9840    87.4050    92.6140    24.9030     2.2040   -13.1100 
  224.7500    59.0790    90.2020    88.0840    93.8580    24.9440     2.2020   -12.9500 
  224.8750    60.0520    91.8410    89.1490    99.1140    24.8810     2.1960   -12.8000 
  225.0000    57.2560    94.0310    90.7330   103.8960    24.7530     2.1800   -12.6570 
  225.1250    52.2360    96.6510    92.7290   105.9950    24.7090     2.1570   -12.5350 
  225.2500    48.2680    99.5190    94.9770   105.7010    24.7610     2.1350   -12.4340 
  225.3750    47.3590   102.4140    97.2830   104.4960    24.8390     2.1260   -12.3400 
  225.5000    48.9560   105.0270    99.3930   100.4370    24.8700     2.1380   -12.2560 
  225.6250    51.4060   107.1170   101.1140    93.3060    24.7720     2.1640   -12.1810 
  225.7500    53.8840   108.4420   102.2470    87.2580    24.5850     2.1940   -12.1030 
  225.8750    55.7170   108.7340   102.5510    88.1580    24.4130     2.2150   -12.0030 
  226.0000    55.9900   107.5220   101.5800    94.4920    24.3330     2.2220   -11.8760 
  226.1250    54.8150   104.7540    99.2270   101.6960    24.3910     2.2210   -11.7190 
  226.2500    53.4020   100.5090    95.5120   105.9260    24.5840     2.2180   -11.5310 
  226.3750    53.1590    95.1000    90.6850   103.8140    24.8250     2.2200   -11.3290 
  226.5000    54.9310    89.1190    85.2700    95.6350    24.9840     2.2250   -11.1170 
  226.6250    57.5430    83.3460    80.0010    86.2990    25.0090     2.2280   -10.8910 
  226.7500    59.4120    78.3160    75.3960    78.4960    24.9420     2.2280   -10.6560 
  226.8750    60.5550    74.3050    71.7320    72.4750    24.8790     2.2240   -10.4350 
  227.0000    60.3420    71.4650    69.1860    68.5600    24.8780     2.2170   -10.2340 
  227.1250    58.3800    69.5160    67.5130    67.1730    24.9260     2.2090   -10.0570 
  227.2500    54.6740    68.1810    66.4620    67.7610    24.9800     2.2050    -9.9140 
  227.3750    51.6440    67.2070    65.7840    69.8740    24.9790     2.2040    -9.7980 
  227.5000    52.9520    66.2920    65.1670    71.4040    24.8220     2.2060    -9.7060 
  227.6250    56.6180    65.1340    64.2900    72.1830    24.4970     2.2130    -9.6380 
  227.7500    58.9600    63.4960    62.8950    72.2710    24.1230     2.2200    -9.6060 
  227.8750    58.6080    61.2460    60.8410    71.5550    23.9650     2.2310    -9.6060 
  228.0000    57.6940    58.3680    58.0940    69.8500    24.2150     2.2430    -9.6360 
  228.1250    57.7180    55.1950    54.9890    67.5640    24.4870     2.2540    -9.6850 
  228.2500    58.1090    52.1290    51.9300    64.5770    24.6010     2.2640    -9.7390 
  228.3750    58.2020    49.5760    49.3140    60.6100    24.4850     2.2700    -9.7780 
  228.5000    56.7060    48.0230    47.6140    55.7200    24.2200     2.2690    -9.7970 
  228.6250    53.8150    47.6100    46.9780    51.0050    23.9930     2.2630    -9.8110 
  228.7500    50.7710    48.3650    47.4620    48.1180    23.8650     2.2560    -9.8150 
  228.8750    49.6540    50.1820    49.0040    46.7780    23.7880     2.2540    -9.8050 
  229.0000    52.2510    52.7980    51.4180    46.6870    23.6830     2.2670    -9.8030 
  229.1250    56.8630    55.5650    54.1090    47.1360    23.5030     2.2950    -9.8130 
  229.2500    60.6450    57.8090    56.4150    47.7240    23.2350     2.3270    -9.8350 
  229.3750    61.0100    58.9380    57.7130    48.5310    22.9360     2.3430    -9.8860 
  229.5000    59.1490    58.4730    57.4360    49.3690    22.8440     2.3160    -9.9690 
  229.6250    58.8170    56.8210    55.8950    48.8990    22.9140     2.2450   -10.0490 
  229.7500    59.2970    54.6700    53.7340    45.5330    23.0410     2.1490   -10.1140 
  229.8750    57.9960    52.7400    51.6770    36.7160    23.1560     2.0600   -10.1640 
  230.0000    55.1930    51.6790    50.4160    29.3850    23.3430     2.0090   -10.1680 
  230.1250    54.9390    51.5630    50.1110    29.7850    23.6420     1.9990   -10.1170 
  230.2500    58.3560    52.2390    50.6780    36.0300    23.9520     2.0250   -10.0250 
  230.3750    61.9070    53.5030    51.9430    43.9780    24.1900     2.0700    -9.8990 
  230.5000    61.2800    55.2720    53.8020    51.9100    24.3360     2.1220    -9.7430 
  230.6250    57.8600    57.5070    56.1350    59.4270    24.4200     2.1680    -9.5840 
  230.7500    55.4640    60.2690    58.9370    65.5780    24.4320     2.2050    -9.4420 
  230.8750    55.6880    63.5230    62.1600    69.6480    24.4030     2.2320    -9.3220 
  231.0000    56.7940    66.7830    65.3810    72.8880    24.3410     2.2480    -9.2250 
  231.1250    57.0490    69.0220    67.6630    77.1130    24.2430     2.2560    -9.1520 
  231.2500    56.7260    69.0740    67.8870    83.7260    24.1320     2.2590    -9.0820 
  231.3750    55.3590    66.1110    65.2120    88.4380    24.0420     2.2650    -8.9900 
  231.5000    53.8080    59.9520    59.3650    84.8770    23.9960     2.2720    -8.8730 
  231.6250    55.0630    52.3600    52.0090    73.6980    24.0170     2.2780    -8.7420 
  231.7500    59.2950    45.3510    45.0910    57.7360    24.0480     2.2810    -8.5950 
  231.8750    62.1450    40.4820    40.0960    44.6120    24.1320     2.2800    -8.4330 
