~V
VERS. 2.00: Ver 2.00
~W
STRT.M 57.0000:
STOP.M 272.0000:
STEP.M 0.1250:
NULL. -999.2500:
UWI. F11045:
~C
DEPT.M :
DEN.GM/CC :
GR.API :
RML.OHMM :
RI. :
RXO.OHMM :
CALI.CM :
SP.MV :
~A
# ...
  180.7500     2.3170    71.2820    89.6380    79.9140    70.8400    24.4160    -1.7570 
  180.8750     2.3130    70.4600    89.2610    79.6400    72.6000    24.4180    -1.7840 
  181.0000     2.3110    67.6700    89.9820    80.4430    71.0620    24.4290    -1.8410 
  181.1250     2.3080    65.8550    91.1280    81.7110    68.7430    24.4270    -1.9230 
  181.2500     2.3020    65.6870    91.9520    82.7430    66.4170    24.4030    -1.9950 
  181.3750     2.2960    65.7670    91.7020    82.9080    65.3710    24.3520    -2.0950 
  181.5000     2.2920    66.1260    89.4940    81.4300    66.4310    24.3010    -2.2170 
  181.6250     2.2910    67.6850    84.3100    77.2710    66.8720    24.2960    -2.2330 
  181.7500     2.2930    69.9630    77.3400    71.2430    63.0100    24.3160    -2.1420 
  181.8750     2.2990    71.7470    70.5190    64.8850    55.4010    24.3340    -2.0100 
  182.0000     2.3010    72.1780    66.0730    60.1030    47.5080    24.3840    -1.8780 
  182.1250     2.2930    70.0530    66.6750    59.2300    43.3810    24.4150    -1.7650 
  182.2500     2.2750    66.1770    72.7180    62.8790    44.4670    24.4320    -1.6910 
  182.3750     2.2540    62.8630    84.4700    71.5830    56.0890    24.4310    -1.6300 
  182.5000     2.2350    62.2770   101.2510    85.1100    84.1600    24.4330    -1.5950 
  182.6250     2.2280    63.7270   120.8780   101.9360   107.8390    24.4310    -1.6310 
  182.7500     2.2350    64.7930   139.0090   118.1450   111.2180    24.4280    -1.6390 
  182.8750     2.2510    64.7990   153.0690   131.2900   113.0130    24.4330    -1.6430 
  183.0000     2.2670    64.6050   162.9850   140.9800   124.6900    24.4330    -1.6590 
  183.1250     2.2730    64.9720   169.2390   147.4940   138.0510    24.4270    -1.6450 
  183.2500     2.2700    65.6280   170.2760   149.8530   138.9200    24.4300    -1.5930 
  183.3750     2.2640    65.4980   161.4220   144.2830   138.3590    24.4320    -1.5290 
  183.5000     2.2600    63.5060   140.7150   128.5040   148.7610    24.4260    -1.4430 
  183.6250     2.2580    61.9890   113.6710   105.7390   130.2490    24.4280    -1.3470 
  183.7500     2.2570    66.5180    90.4540    84.7950    87.2040    24.4320    -1.3590 
  183.8750     2.2620    73.8700    75.2940    70.1000    53.7700    24.4260    -1.4340 
  184.0000     2.2710    75.6720    68.7290    62.7650    41.1270    24.4210    -1.5370 
  184.1250     2.2780    71.0880    70.4780    62.9610    46.4850    24.4240    -1.6830 
  184.2500     2.2740    67.8170    77.2170    68.0120    64.2000    24.4300    -1.8660 
  184.3750     2.2610    67.6600    86.4530    76.0100    84.6040    24.4280    -2.0660 
  184.5000     2.2490    68.6870    94.9100    84.2670    85.6330    24.4320    -2.2490 
  184.6250     2.2450    68.5710    98.1020    88.6910    81.0180    24.4280    -2.3430 
  184.7500     2.2490    66.0510    95.4520    87.9320    77.7950    24.4250    -2.3820 
  184.8750     2.2590    63.4520    88.8730    83.0630    80.3590    24.4360    -2.4210 
  185.0000     2.2700    65.0940    81.3940    76.5750    80.7270    24.4390    -2.4230 
  185.1250     2.2780    72.2220    75.7770    71.0460    71.0450    24.4290    -2.4210 
  185.2500     2.2830    78.0960    72.7990    67.5480    57.7960    24.4290    -2.4370 
  185.3750     2.2850    78.4290    72.4870    66.2530    50.7210    24.4310    -2.4530 
  185.5000     2.2850    73.1120    74.3280    66.8310    55.9110    24.4330    -2.5420 
  185.6250     2.2840    67.0300    77.3920    68.6900    66.0190    24.4410    -2.8040 
  185.7500     2.2840    65.6910    80.4160    70.8230    70.7910    24.4290    -3.1360 
  185.8750     2.2860    67.6530    83.1910    72.9690    66.8540    24.4210    -3.4500 
  186.0000     2.2850    70.1360    86.4920    75.5670    62.0280    24.4270    -3.7480 
  186.1250     2.2820    71.2750    92.2330    79.9750    62.2490    24.4280    -4.0280 
  186.2500     2.2770    70.5460   101.2040    86.9370    67.7910    24.4280    -4.2930 
  186.3750     2.2680    68.6030   113.1820    96.5340    85.2840    24.4510    -4.5480 
  186.5000     2.2540    67.6720   126.3800   107.6030   119.1630    24.4750    -4.7520 
  186.6250     2.2380    67.0870   136.8610   117.0960   131.0380    24.5410    -4.8630 
  186.7500     2.2280    65.4530   141.9670   122.3700   118.0800    24.5740    -5.0010 
  186.8750     2.2260    63.8610   141.3090   122.5570   106.8280    24.5780    -5.1800 
  187.0000     2.2300    63.3000   136.5540   118.6890   102.2180    24.5910    -5.3960 
  187.1250     2.2360    63.0430   130.2050   112.9850    98.9010    24.6220    -5.6440 
  187.2500     2.2410    63.9250   124.4410   107.8830    97.1520    24.5980    -5.9080 
  187.3750     2.2440    66.7700   119.8920   104.1890    95.6000    24.5270    -6.1850 
  187.5000     2.2430    69.7380   116.7170   102.0140    91.4960    24.4080    -6.4800 
  187.6250     2.2410    70.1430   115.3720   101.5990    87.3480    24.2750    -6.8150 
  187.7500     2.2390    68.1340   115.8120   102.7610    86.8310    24.2280    -7.1070 
  187.8750     2.2370    65.1330   117.9860   105.4390    89.6530    24.2880    -7.3400 
  188.0000     2.2350    62.9040   121.5040   109.2940    92.8730    24.3700    -7.5390 
  188.1250     2.2310    62.4980   125.3080   113.4440    98.8550    24.4080    -7.6450 
  188.2500     2.2280    62.8660   127.4550   116.2680   105.5050    24.4230    -7.7030 
  188.3750     2.2330    63.8200   125.9100   116.0380   113.0280    24.4350    -7.7190 
  188.5000     2.2470    65.3370   119.4440   111.5360   108.3700    24.4750    -7.6950 
  188.6250     2.2640    65.1580   108.6540   102.7910    97.4450    24.5550    -7.6500 
  188.7500     2.2780    63.5870    97.6350    93.1500    84.6830    24.5880    -7.6240 
  188.8750     2.2840    62.3960    89.5540    85.4750    69.7450    24.5970    -7.6010 
  189.0000     2.2820    62.5780    86.3450    81.7260    56.4780    24.6410    -7.5520 
  189.1250     2.2710    62.0390    89.2650    83.3550    53.6760    24.6900    -7.4960 
  189.2500     2.2540    61.6260    96.2430    88.8530    68.1240    24.7400    -7.3830 
  189.3750     2.2350    63.4280   105.0430    96.4660    95.9230    24.7800    -7.2320 
  189.5000     2.2230    63.5080   113.0220   103.9120   108.2310    24.7900    -7.0550 
  189.6250     2.2240    63.3950   118.0790   109.0790    97.5550    24.7570    -6.8300 
  189.7500     2.2330    69.2740   121.9150   112.8960    77.3420    24.7490    -6.4950 
  189.8750     2.2440    76.4580   127.6690   117.9020    71.1070    24.7300    -6.1100 
  190.0000     2.2490    73.8020   138.0480   126.7450    78.0570    24.7280    -5.7210 
  190.1250     2.2450    62.3430   153.7200   140.6110   111.1070    24.7400    -5.3930 
  190.2500     2.2410    56.8020   169.1910   154.9970   158.4600    24.7270    -5.1460 
  190.3750     2.2420    58.5870   177.3260   163.7510   188.7230    24.6940    -4.9820 
  190.5000     2.2480    61.1340   173.4270   162.2510   176.0810    24.6530    -4.8760 
  190.6250     2.2560    61.4150   159.6630   150.8710   134.5820    24.6060    -4.8850 
  190.7500     2.2620    61.3500   146.1820   138.1510   104.8430    24.6100    -5.0120 
  190.8750     2.2640    62.5810   138.6290   129.8330    88.8020    24.6200    -5.2310 
  191.0000     2.2610    62.7390   139.3360   129.0060    88.3320    24.5950    -5.5140 
  191.1250     2.2470    59.9990   150.0050   138.0240   105.0820    24.5830    -5.7820 
  191.2500     2.2320    57.4840   168.2540   154.7760   131.3610    24.5630    -6.0100 
  191.3750     2.2220    56.8540   191.8300   177.0180   144.8240    24.5060    -6.2110 
  191.5000     2.2190    57.3780   216.1160   200.3300   150.0330    24.4780    -6.3780 
  191.6250     2.2190    58.5130   231.6210   216.2350   152.9690    24.4560    -6.4140 
  191.7500     2.2210    60.6080   232.7780   219.5110   162.9780    24.4410    -6.3130 
  191.8750     2.2230    62.6390   219.9190   209.6170   156.9290    24.4570    -6.1200 
