~V
VERS. 2.00: Ver 2.00
~W
STRT.M 60.0000:
STOP.M 276.0000:
STEP.M 0.1250:
NULL. -999.2500:
UWI. F11026:
~C
DEPT.M :
DEN.GM/CC :
GR.API :
RML.OHMM :
RI. :
RXO.OHMM :
CALI.CM :
SP.MV :
~A
# ...
  262.5000     2.5200    69.3500    12.7890    11.5060    16.4070    23.8030     9.9110 
  262.6250     2.5110    68.8580    12.8280    11.4890    16.4440    23.7300    10.0380 
  262.7500     2.5060    65.9750    12.9070    11.4900    16.3040    23.6190     9.8080 
  262.8750     2.5090    62.9770    13.0040    11.5220    16.1500    23.5870     9.5350 
  263.0000     2.5150    61.2770    13.1020    11.5920    15.5890    23.7240     9.2380 
  263.1250     2.5200    62.5470    13.1950    11.7100    13.8890    23.9450     8.6930 
  263.2500     2.5190    65.3430    13.3020    11.8720    13.5420    24.1540     7.8080 
  263.3750     2.5140    67.2160    13.4570    12.0740    15.1340    24.2840     6.7650 
  263.5000     2.5100    67.6280    13.6930    12.3090    17.4560    24.3370     5.9820 
  263.6250     2.5120    67.8540    14.0140    12.5720    19.0410    24.3280     5.9040 
  263.7500     2.5210    68.0340    14.3390    12.8510    18.9570    24.3040     6.0970 
  263.8750     2.5330    68.4660    14.5940    13.1260    19.2820    24.2870     6.1710 
  264.0000     2.5440    69.5990    14.7350    13.3710    19.9660    24.2790     6.0810 
  264.1250     2.5540    69.5680    14.7650    13.5400    20.6400    24.2820     5.9460 
  264.2500     2.5620    67.9710    14.7600    13.6190    20.4120    24.3040     5.8500 
  264.3750     2.5670    66.5500    14.7630    13.6150    20.3760    24.3300     5.7890 
  264.5000     2.5670    65.9890    14.7930    13.5660    20.9100    24.3480     5.7050 
  264.6250     2.5620    65.2150    14.8380    13.5350    19.7070    24.3350     5.5650 
  264.7500     2.5530    63.7590    14.8610    13.5480    18.1930    24.2730     5.4080 
  264.8750     2.5460    63.3360    14.8190    13.5820    17.3540    24.1700     5.3510 
  265.0000     2.5400    64.9480    14.6790    13.5810    16.5460    24.0500     5.3820 
  265.1250     2.5370    67.4460    14.4110    13.4740    17.7530    23.9870     5.3570 
  265.2500     2.5350    68.9830    14.0710    13.2710    17.7610    24.0220     5.2730 
  265.3750     2.5330    68.6960    13.7370    13.0170    16.2910    24.0850     5.1400 
  265.5000     2.5310    68.1730    13.4950    12.7860    13.7530    24.1870     5.0390 
  265.6250     2.5310    67.8900    13.4440    12.6730    13.1220    24.2840     4.9570 
  265.7500     2.5350    67.1650    13.5700    12.7060    12.1900    24.3570     4.8810 
  265.8750     2.5460    67.1650    13.8300    12.8830    12.4100    24.3900     4.8350 
  266.0000     2.5630    67.1650    14.1410    13.1580    14.0890    24.3870     4.8350 
  266.1250     2.5790    67.1650    14.3850    13.4490    17.5400    24.3600     4.8760 
  266.2500     2.5880    67.1650    14.4960    13.6720    20.7090    24.3410     4.9240 
  266.3750     2.5870    67.1650    14.4640    13.7780    20.7860    24.3060     4.9910 
  266.5000     2.5790    67.1650    14.3240    13.7440    18.8910    24.2450     5.0850 
  266.6250     2.5700    67.1650    14.1230    13.5570    16.5650    24.2170     5.2370 
  266.7500     2.5650    67.1650    13.9210    13.2880    14.9900    24.2040     5.3520 
  266.8750     2.5650    67.1650    13.7530    13.0070    14.0100    24.1890     5.6650 
  267.0000     2.5680    67.1650    13.6540    12.7920    13.7630    24.1680     5.9560 
  267.1250     2.5700    67.1650    13.6890    12.7290    12.7530    24.1920     6.0970 
  267.2500     2.5690    67.1650    13.8610    12.8210    13.6570    24.2440     6.1400 
  267.3750     2.5660    67.1650    14.1450    13.0480    16.6830    24.2680     6.2130 
  267.5000     2.5640    67.1650    14.4670    13.3610    20.3290    24.2620     6.2980 
  267.6250     2.5670    67.1650    14.7120    13.6730    21.1740    24.2460     6.2440 
  267.7500     2.5750    67.1650    14.8160    13.8940    20.6750    24.2200     6.0710 
  267.8750     2.5820    67.1650    14.7640    13.9740    19.6540    24.2320     5.8090 
  268.0000     2.5840    67.1650    14.5850    13.9170    19.0250    24.3040     5.5010 
  268.1250     2.5760    67.1650    14.3360    13.7700    19.6220    24.3770     5.2450 
  268.2500     2.5680    67.1650    14.1030    13.6270    21.7080    24.3970     5.0760 
  268.3750     2.5670    67.1650    13.9570    13.5400    22.3210    24.3780     4.9210 
  268.5000     2.5770    67.1650    13.9630    13.5280    20.9300    24.3470     4.7490 
  268.6250     2.5950    67.1650    14.1830    13.5880    18.4160    24.3470     4.6640 
  268.7500     2.6070    67.1650    14.5380    13.6850    16.5670    24.3910     4.6400 
  268.8750     2.6050    67.1650    14.9240    13.8060    16.0700    24.4420     4.6370 
  269.0000     2.5870    67.1650    15.2290    13.9400    17.7510    24.4730     4.6170 
  269.1250     2.5570    67.1650    15.3560    14.0490    18.1130    24.4840     4.6110 
  269.2500     2.5310    67.1650    15.3960    14.1430    17.3500    24.4610     4.6770 
  269.3750     2.5170    67.1650    15.3850    14.2160    15.6100    24.3950     4.7280 
  269.5000     2.5200    67.1650    15.3660    14.2290    15.4560    24.3150     4.8280 
  269.6250     2.5400    67.1650    15.3500    14.1910    16.0550    24.2550     5.0000 
  269.7500     2.5650    67.1650    15.3130    14.1240    16.5270    24.2280     5.1510 
  269.8750     2.5870    67.1650    15.2310    14.0520    15.1680    24.2850     5.3080 
  270.0000     2.6010    67.1650    15.1320    13.9920    14.1620    24.3460     5.3430 
  270.1250     2.6060    67.1650    15.0450    13.9570    13.5800    24.3800     5.7250 
  270.2500     2.6050    67.1650    14.9840    13.9550    13.3840    24.3940     5.8980 
  270.3750     2.6030    67.1650    14.9370    13.9850    13.3980    24.3950     6.0580 
  270.5000     2.6020    67.1650    14.8780    14.0160    13.1520    24.3690     6.1190 
  270.6250     2.6030    67.1650    14.8020    14.0310    13.1210    24.3260     6.0740 
  270.7500     2.6030    67.1650    14.7230    14.0260    14.1310    24.3410     6.0560 
  270.8750     2.5970    67.1650    14.6790    14.0150    15.5190    24.3510     6.0450 
  271.0000     2.5790    67.1650    14.6870    14.0130    16.2820    24.3350     5.9980 
  271.1250     2.5500    67.1650    14.7450    14.0190    16.4060    24.3130     6.0080 
  271.2500     2.5200    67.1650    14.8330    14.0230    16.8840    24.3180     6.0910 
  271.3750     2.5010    67.1650    14.9110    14.0160    18.0490    24.3120     6.1700 
  271.5000     2.4970    67.1650    14.9560    14.0080    19.3480    24.2880     6.2590 
  271.6250     2.5110    67.1650    14.9700    14.0070    20.2750    24.2580     6.3050 
  271.7500     2.5320    67.1650    14.9700    14.0080    19.6630    24.2340     6.1960 
  271.8750     2.5540    67.1650    14.9690    14.0080    19.9880    24.2550     6.1070 
  272.0000     2.5740    67.1650    14.9690    14.0080    20.5380    24.2950     6.0530 
  272.1250     2.5900    67.1650    14.9690    14.0080    21.2890    24.3520     5.9690 
  272.2500     2.6010    67.1650    14.9690    14.0080    23.7900    24.3940     5.8150 
  272.3750     2.6080    67.1650    14.9690    14.0080    22.6200    24.4020     5.6130 
  272.5000     2.6090    67.1650    14.9690    14.0080    21.3250    24.4020     5.4890 
  272.6250     2.6070    67.1650    14.9690    14.0080    21.0110    24.4010     5.5400 
  272.7500     2.6040    67.1650    14.9690    14.0080    20.9600    24.3960     5.7480 
  272.8750     2.6010    67.1650    14.9690    14.0080    19.6630    24.3820     5.9360 
  273.0000     2.5930    67.1650    14.9690    14.0080    18.7730    24.3700     6.0640 
  273.1250     2.5800    67.1650    14.9690    14.0080    18.8210    24.3800     6.1800 
  273.2500     2.5640    67.1650    14.9690    14.0080    18.7710    24.3930     6.3000 
  273.3750     2.5530    67.1650    14.9690    14.0080    18.2200    24.3910     6.4170 
  273.5000     2.5500    67.1650    14.9690    14.0080    15.3760    24.3800     6.5190 
  273.6250     2.5530    67.1650    14.9690    14.0080    12.4460    24.3680     6.5290 
