~V
VERS. 2.00: Ver 2.00
~W
STRT.M 59.0000:
STOP.M 217.0000:
STEP.M 0.1250:
NULL. -999.2500:
UWI. F11019:
~C
DEPT.M :
DEN.GM/CC :
GR.API :
RML.OHMM :
RI. :
RXO.OHMM :
CALI.CM :
SP.MV :
~A
# ...
   92.7500     2.0400    63.4200     8.8460     8.2260     6.6940    15.4690   -28.6320 
   92.8750     2.0370    65.0710     8.5340     7.9170     6.4570    15.3750   -29.0470 
   93.0000     2.0400    67.2690     8.2210     7.5920     6.2780    15.3320   -29.3830 
   93.1250     2.0470    69.5450     7.9590     7.3170     6.1270    15.2900   -29.6160 
   93.2500     2.0540    71.7210     7.7550     7.1010     5.9560    15.2320   -29.7820 
   93.3750     2.0590    73.7310     7.6100     6.9400     5.7740    15.1750   -29.8850 
   93.5000     2.0620    75.6630     7.5220     6.8240     5.6380    15.1630   -29.9560 
   93.6250     2.0620    77.3390     7.4930     6.7610     5.6140    15.2860   -29.9750 
   93.7500     2.0580    78.4970     7.5070     6.7490     5.6650    15.5260   -29.9200 
   93.8750     2.0530    78.8730     7.5520     6.7890     5.7280    15.8320   -29.7960 
   94.0000     2.0480    78.1890     7.6190     6.8710     5.7620    16.1600   -29.6150 
   94.1250     2.0460    75.9570     7.7020     6.9790     5.7510    16.3330   -29.2790 
   94.2500     2.0470    72.9430     7.7900     7.0880     5.7290    16.2860   -28.7670 
   94.3750     2.0500    69.9010     7.8720     7.1830     5.7130    16.1740   -28.0940 
   94.5000     2.0530    67.5740     7.9330     7.2550     5.7250    16.2150   -27.3260 
   94.6250     2.0550    66.7520     7.9440     7.3000     5.7750    16.4210   -26.5890 
   94.7500     2.0550    67.2970     7.9010     7.3200     5.8230    16.5910   -25.9380 
   94.8750     2.0520    68.7570     7.8010     7.3110     5.8550    16.7000   -25.4330 
   95.0000     2.0460    70.3080     7.6550     7.2710     5.8690    16.7010   -25.0620 
   95.1250     2.0400    71.1770     7.4980     7.2020     5.8760    16.5590   -24.8190 
   95.2500     2.0370    70.8450     7.3900     7.1430     5.9120    16.3330   -24.7320 
   95.3750     2.0390    69.9080     7.3760     7.1290     6.0060    16.1220   -24.8010 
   95.5000     2.0470    70.0480     7.4650     7.1800     6.1730    16.0280   -24.9580 
   95.6250     2.0570    71.7550     7.5860     7.2560     6.4460    16.1170   -25.0960 
   95.7500     2.0660    73.0270     7.5990     7.2550     6.7170    16.3420   -25.1140 
   95.8750     2.0700    72.8410     7.3940     7.0820     6.7720    16.8090   -24.9450 
   96.0000     2.0650    72.0640     6.9310     6.6900     6.4310    17.7830   -24.5980 
   96.1250     2.0500    72.7010     6.2740     6.1120     5.6860    19.2960   -24.1240 
   96.2500     2.0320    74.9440     5.6320     5.5210     4.8640    20.9540   -23.6040 
   96.3750     2.0180    77.7930     5.1540     5.0480     4.2710    22.0110   -23.0970 
   96.5000     2.0140    80.1200     4.9190     4.7740     4.0780    21.6440   -22.6940 
   96.6250     2.0230    81.2140     4.9760     4.7630     4.2240    19.9460   -22.4820 
   96.7500     2.0380    81.6160     5.2440     4.9610     4.5010    18.2010   -22.4500 
   96.8750     2.0520    81.3570     5.6660     5.3290     4.7950    17.3220   -22.5690 
   97.0000     2.0590    79.7430     6.1710     5.8070     5.0580    17.2070   -22.8290 
   97.1250     2.0570    76.4280     6.6470     6.2940     5.4960    16.9180   -23.1550 
   97.2500     2.0480    73.4740     6.9680     6.6570     6.0370    16.3720   -23.4120 
   97.3750     2.0360    73.1360     7.0390     6.7910     6.3940    16.1850   -23.5490 
   97.5000     2.0190    76.1510     6.8460     6.6590     6.4030    16.6150   -23.4880 
   97.6250     1.9960    81.1520     6.5080     6.3290     6.0530    17.5750   -23.1750 
   97.7500     1.9710    84.5240     6.3150     6.0540     5.7450    18.7830   -22.7680 
   97.8750     1.9480    83.6480     6.5270     6.0730     6.0650    19.9060   -22.3740 
   98.0000     1.9330    78.4040     7.3000     6.5630     7.7570    20.5540   -22.0420 
   98.1250     1.9270    71.1970     8.6490     7.6320    11.3200    20.2810   -21.8530 
   98.2500     1.9270    65.0860    10.1520     8.9850    15.6520    19.6090   -21.8220 
   98.3750     1.9270    60.9560    11.3580    10.2580    19.1690    19.0580   -21.9790 
   98.5000     1.9230    58.6200    11.8500    11.0350    19.8380    18.7150   -22.3230 
   98.6250     1.9160    58.1020    11.3490    10.9200    16.8240    18.0970   -22.8370 
   98.7500     1.9090    59.4610    10.3190    10.1800    12.9790    17.3690   -23.3790 
   98.8750     1.9070    62.3310     9.2480     9.2100    10.0490    16.9850   -23.8520 
   99.0000     1.9080    65.4470     8.4880     8.3770     8.6480    16.8490   -24.2150 
   99.1250     1.9120    66.9370     8.2070     7.9200     8.3120    16.7860   -24.4330 
   99.2500     1.9180    67.5570     8.2390     7.7780     8.2930    16.7330   -24.5230 
   99.3750     1.9250    68.5980     8.4360     7.8570     8.3930    16.6760   -24.4480 
   99.5000     1.9350    70.0800     8.6580     8.0390     8.5610    16.6180   -24.2640 
   99.6250     1.9470    70.2010     8.7730     8.2040     8.7410    16.5880   -24.0270 
   99.7500     1.9600    68.6320     8.7580     8.2850     8.8000    16.6140   -23.8060 
   99.8750     1.9710    66.8270     8.6690     8.2920     8.6790    16.7150   -23.6260 
  100.0000     1.9830    66.2680     8.6240     8.2980     8.4670    16.8840   -23.5010 
  100.1250     2.0000    67.1630     8.8010     8.4440     8.1490    17.1350   -23.4800 
  100.2500     2.0280    68.2110     9.2240     8.7930     7.8250    17.3780   -23.5190 
  100.3750     2.0710    68.5850     9.8040     9.3170     7.4870    17.6230   -23.6460 
  100.5000     2.1270    67.9560    10.3440     9.8770     7.0750    17.8210   -23.8430 
  100.6250     2.1870    65.9870    10.5290    10.2020     6.5790    17.8320   -24.0510 
  100.7500     2.2320    63.7580    10.2550    10.1310     6.1240    17.6360   -24.2090 
  100.8750     2.2480    62.8140     9.5770     9.6450     5.8080    17.3090   -24.3080 
  101.0000     2.2300    63.6450     8.7110     8.8860     5.6480    17.0610   -24.3860 
  101.1250     2.1890    65.3790     7.9620     8.1080     5.6420    17.0430   -24.5020 
  101.2500     2.1490    67.3700     7.4840     7.5060     5.7140    17.0300   -24.7100 
  101.3750     2.1190    70.2390     7.2840     7.1270     5.8370    16.9040   -24.9820 
  101.5000     2.0990    73.7110     7.2780     6.9380     5.9680    16.7030   -25.2960 
  101.6250     2.0820    75.5020     7.3380     6.8680     6.0650    16.4950   -25.6160 
  101.7500     2.0640    74.4910     7.3340     6.8080     6.1140    16.2240   -25.9430 
  101.8750     2.0460    71.6720     7.2180     6.7100     6.1200    15.8210   -26.2830 
  102.0000     2.0310    69.5090     7.0190     6.5730     6.0740    15.3450   -26.6020 
  102.1250     2.0240    70.5750     6.8930     6.4850     5.9800    15.0350   -26.8240 
  102.2500     2.0220    73.2920     7.0450     6.5900     5.9730    15.1020   -26.9140 
  102.3750     2.0220    75.2400     7.6300     7.0290     6.2330    15.4690   -26.8800 
  102.5000     2.0210    74.8660     8.6760     7.8700     6.9530    16.1350   -26.7240 
  102.6250     2.0160    72.0210    10.0080     9.0510     8.1130    17.0080   -26.4740 
  102.7500     2.0050    68.3390    11.1710    10.2140     9.2570    17.8350   -26.1390 
  102.8750     1.9900    65.0800    11.7710    10.9970     9.7700    18.4770   -25.7250 
  103.0000     1.9730    63.1440    11.5870    11.1260     9.0920    18.4480   -25.2660 
  103.1250     1.9600    62.7700    10.6580    10.5020     7.7550    17.5220   -24.8220 
  103.2500     1.9510    63.0330     9.5520     9.5690     6.9270    16.8090   -24.5340 
  103.3750     1.9450    64.0340     8.6540     8.6770     6.6690    16.5390   -24.4420 
  103.5000     1.9420    65.9710     8.1370     8.0400     6.6050    16.4790   -24.5090 
  103.6250     1.9380    67.8140     8.0070     7.7420     6.5740    16.4860   -24.7020 
  103.7500     1.9330    68.5420     8.0550     7.6560     6.5900    16.6130   -24.9950 
  103.8750     1.9290    68.0370     8.1590     7.6820     6.6490    16.8970   -25.3700 
