~V
VERS. 2.00: Ver 2.00
~W
STRT.M 57.0000:
STOP.M 276.0000:
STEP.M 0.1250:
NULL. -999.2500:
UWI. F11063:
~C
DEPT.M :
DEN.GM/CC :
GR.API :
RML.OHMM :
RI. :
RXO.OHMM :
CALI.CM :
SP.MV :
~A
# ...
  124.5000     2.2560    91.1520     5.8700     4.9930     6.1340    23.0280    -9.2880 
  124.6250     2.2440    89.8220     5.9500     4.9620     6.0990    23.0460    -9.2270 
  124.7500     2.2330    88.9420     6.1480     5.0650     6.1370    23.0830    -9.2050 
  124.8750     2.2270    89.1690     6.4000     5.2650     6.1900    23.0970    -9.2110 
  125.0000     2.2270    88.7650     6.6170     5.4810     6.1930    23.0210    -9.2080 
  125.1250     2.2330    87.0110     6.6640     5.5830     6.1560    22.9190    -9.1980 
  125.2500     2.2430    85.6210     6.5330     5.5340     6.1130    22.8660    -9.2110 
  125.3750     2.2570    86.2800     6.3040     5.3730     6.0630    22.8460    -9.2660 
  125.5000     2.2740    89.0930     6.1000     5.1900     6.0090    22.8570    -9.3610 
  125.6250     2.2860    91.6170     6.0600     5.1020     5.9190    22.9620    -9.4460 
  125.7500     2.2910    90.7440     6.2180     5.1540     5.8090    23.0740    -9.4860 
  125.8750     2.2910    84.3960     6.5480     5.3430     5.8350    23.0450    -9.5030 
  126.0000     2.2870    76.6110     6.9630     5.6170     7.4680    22.9130    -9.5320 
  126.1250     2.2810    72.5410     7.3170     5.8850     8.0060    22.8130    -9.5810 
  126.2500     2.2750    72.3460     7.4900     6.0420     8.5080    22.7420    -9.6360 
  126.3750     2.2760    74.1830     7.4100     6.0180     8.3880    22.8000    -9.6910 
  126.5000     2.2850    76.8130     7.0840     5.7980     7.4910    23.0260    -9.7390 
  126.6250     2.2910    78.7070     6.5990     5.4240     6.9810    23.2560    -9.7970 
  126.7500     2.2880    78.3270     6.1230     5.0250     6.8140    23.3840    -9.8740 
  126.8750     2.2870    79.0550     5.7610     4.6940     6.3360    23.4830    -9.9680 
  127.0000     2.2930    82.9850     5.5730     4.5080     5.5880    23.5930   -10.0810 
  127.1250     2.2960    85.7180     5.5980     4.5320     5.7220    23.6420   -10.2080 
  127.2500     2.2890    84.5700     5.7820     4.7280     6.2360    23.6420   -10.3500 
  127.3750     2.2800    82.4630     6.0770     5.0560     6.8770    23.5900   -10.5010 
  127.5000     2.2780    81.8980     6.4210     5.4470     7.1540    23.5250   -10.6730 
  127.6250     2.2850    81.6370     6.7220     5.7920     7.1440    23.4930   -10.8670 
  127.7500     2.2920    79.1400     6.9170     6.0120     7.0670    23.5210   -11.0700 
  127.8750     2.2900    75.5580     6.9860     6.0880     7.2130    23.6320   -11.2780 
  128.0000     2.2790    73.9500     6.9530     6.0580     7.5170    23.8010   -11.4790 
  128.1250     2.2670    74.6770     6.8940     5.9890     7.4840    23.9570   -11.6650 
  128.2500     2.2610    76.5260     6.9140     5.9530     7.3980    24.0640   -11.8240 
  128.3750     2.2600    79.1970     7.0740     5.9860     7.2730    24.0290   -11.9870 
  128.5000     2.2550    82.6860     7.3650     6.0880     7.2920    23.8150   -12.1630 
  128.6250     2.2410    82.8840     7.6740     6.2200     7.6760    23.5620   -12.3580 
  128.7500     2.2260    78.0390     7.8420     6.3290     8.3720    23.3480   -12.5660 
  128.8750     2.2170    72.2710     7.8420     6.4160     8.9690    23.1780   -12.7690 
  129.0000     2.2190    68.8870     7.8270     6.5530     9.2820    23.0350   -12.9620 
  129.1250     2.2310    67.6050     8.2150     6.9550     9.7490    23.1030   -13.1380 
  129.2500     2.2490    67.7280     9.3530     7.8300    10.8110    23.3020   -13.3010 
  129.3750     2.2770    67.3450    11.5690     9.4570    13.7720    23.5720   -13.4320 
  129.5000     2.3280    64.1020    15.0930    12.1670    21.4880    23.8010   -13.5240 
  129.6250     2.4040    59.1850    19.9830    16.3740    32.6620    23.9810   -13.5940 
  129.7500     2.4830    57.4370    25.0170    21.3070    41.6280    24.0700   -13.6730 
  129.8750     2.5380    58.7910    28.3120    25.2680    50.6800    24.1090   -13.7710 
  130.0000     2.5470    59.8540    28.0430    26.1440    56.5600    24.1490   -13.8720 
  130.1250     2.5080    58.7630    23.9630    23.0940    39.3450    24.1560   -13.9980 
  130.2500     2.4390    58.2580    18.9720    18.7330    22.3360    24.0600   -14.1400 
  130.3750     2.3530    60.9850    14.7660    14.7320    14.4820    24.0090   -14.2960 
  130.5000     2.2700    65.9180    11.9200    11.7460    11.9520    24.1430   -14.4580 
  130.6250     2.2170    69.5190    10.5040     9.9430    11.6210    24.3090   -14.6000 
  130.7500     2.1900    70.4790     9.9460     8.9390    11.4800    24.3150   -14.7110 
  130.8750     2.1790    70.4190     9.9030     8.5160    11.3710    24.2450   -14.7900 
  131.0000     2.1720    70.1830    10.0770     8.4610    11.4280    24.2150   -14.8480 
  131.1250     2.1640    70.7940    10.2370     8.5810    11.3720    24.2650   -14.8790 
  131.2500     2.1590    73.1920    10.2930     8.7060    11.0150    24.2880   -14.8970 
  131.3750     2.1590    74.8390    10.2590     8.7810    10.5870    24.2820   -14.8930 
  131.5000     2.1640    73.1820    10.1760     8.7980    10.4210    24.2440   -14.8730 
  131.6250     2.1740    69.7650    10.0650     8.7680    10.4270    24.0940   -14.8420 
  131.7500     2.1840    67.5070     9.9380     8.7340    10.2330    23.8900   -14.7970 
  131.8750     2.1910    66.8440     9.8120     8.7220     9.8730    23.7240   -14.7420 
  132.0000     2.1950    67.1390     9.7300     8.7480     9.7370    23.6590   -14.7020 
  132.1250     2.1950    68.7810     9.7610     8.8090     9.9150    23.6200   -14.6650 
  132.2500     2.1910    70.5530     9.8930     8.8860    10.1680    23.5650   -14.6260 
  132.3750     2.1850    70.9860    10.0870     8.9710    10.3350    23.4980   -14.5820 
  132.5000     2.1780    70.1690    10.2920     9.0680    10.4680    23.4650   -14.5370 
  132.6250     2.1730    67.2030    10.4840     9.1860    10.9010    23.5880   -14.4660 
  132.7500     2.1670    63.7190    10.6460     9.3110    11.7050    23.7740   -14.3730 
  132.8750     2.1570    62.7440    10.7340     9.4200    12.3780    23.9740   -14.2610 
  133.0000     2.1500    65.2370    10.6950     9.4760    12.8080    24.1670   -14.1280 
  133.1250     2.1540    68.3210    10.5020     9.4420    12.7970    24.2450   -13.9760 
  133.2500     2.1700    68.0310    10.2780     9.3670    12.6880    24.2620   -13.8200 
  133.3750     2.1950    65.1340    10.1840     9.3410    12.5230    24.1250   -13.6650 
  133.5000     2.2230    63.2050    10.3600     9.4740    12.4080    23.8780   -13.5060 
  133.6250     2.2490    64.4740    10.9000     9.8870    12.8930    23.7220   -13.3550 
  133.7500     2.2710    65.0580    11.6480    10.5120    13.9220    23.5920   -13.2040 
  133.8750     2.2850    63.5680    12.3830    11.1850    14.4890    23.4660   -13.0620 
  134.0000     2.2860    63.5240    12.7690    11.6170    14.3240    23.4390   -12.9320 
  134.1250     2.2680    66.4790    12.3320    11.3760    13.3260    23.5020   -12.7950 
  134.2500     2.2390    68.7920    11.1460    10.4830    11.8160    23.5500   -12.6480 
  134.3750     2.2120    69.4100     9.5280     9.1850    10.3010    23.5630   -12.4930 
  134.5000     2.2080    71.5720     7.9040     7.8250     8.9750    23.5680   -12.3220 
  134.6250     2.2360    76.5360     6.6960     6.7230     7.6700    23.6110   -12.1400 
  134.7500     2.2690    80.6410     5.9670     5.9550     6.9750    23.5890   -11.9650 
  134.8750     2.2900    82.1630     5.6480     5.5140     7.4340    23.4840   -11.8080 
  135.0000     2.2940    82.8720     5.6000     5.3450     8.3200    23.3830   -11.6630 
  135.1250     2.2910    84.0600     5.7050     5.3870     8.1170    23.4070   -11.5420 
  135.2500     2.2900    83.3720     5.8470     5.5030     7.5010    23.6000   -11.4640 
  135.3750     2.2900    81.5330     5.9680     5.5970     7.0060    23.9350   -11.4090 
  135.5000     2.2920    81.7800     6.0130     5.5990     6.6840    24.2280   -11.3640 
  135.6250     2.2980    84.5920     5.8950     5.4590     6.6180    24.3940   -11.3580 
