~V
VERS. 2.00: Ver 2.00
~W
STRT.M 7.0000:
STOP.M 259.0000:
STEP.M 0.1250:
NULL. -999.2500:
UWI. F11018:
~C
DEPT.M :
DEN.GM/CC :
SP.MV :
GR.API :
RML.OHMM :
RI. :
RXO.OHMM :
CALI.CM :
~A
# ...
   85.7500     2.2120   -21.2440    78.4190     7.1430     5.9790     6.5030    25.3650 
   85.8750     2.2330   -20.9720    86.0080     6.6570     5.6720     5.1150    25.2490 
   86.0000     2.2680   -20.6970    94.1430     6.2110     5.3230     4.5620    25.0570 
   86.1250     2.2950   -20.4590    96.1400     5.8830     5.0210     4.6060    24.8190 
   86.2500     2.3130   -20.2940    92.9470     5.6910     4.8030     4.7280    24.5800 
   86.3750     2.3300   -20.2380    88.0520     5.6330     4.6850     4.5620    24.3980 
   86.5000     2.3500   -20.3690    86.0670     5.7240     4.6880     4.3310    24.3350 
   86.6250     2.3600   -20.6590    86.9470     5.9370     4.7880     4.4290    24.2930 
   86.7500     2.3550   -21.0720    87.4990     6.2440     4.9700     4.9600    24.2280 
   86.8750     2.3400   -21.5980    86.3540     6.5870     5.2000     5.8980    24.1640 
   87.0000     2.3200   -22.2240    84.9040     6.8680     5.4220     6.4110    24.1490 
   87.1250     2.3030   -22.9070    82.8730     7.0330     5.5920     6.5780    24.1660 
   87.2500     2.2910   -23.6130    81.5210     7.0860     5.7000     6.0980    24.1850 
   87.3750     2.2860   -24.3560    82.6110     7.0800     5.7640     5.6150    24.1730 
   87.5000     2.2780   -25.1600    84.6270     7.0990     5.8240     5.9240    24.0950 
   87.6250     2.2690   -26.0010    82.7240     7.1970     5.9190     6.7200    23.9820 
   87.7500     2.2640   -26.8410    79.0870     7.3940     6.0670     7.0430    23.9060 
   87.8750     2.2610   -27.6570    78.0210     7.6940     6.2790     6.7360    23.8730 
   88.0000     2.2530   -28.4430    80.1480     8.1020     6.5720     6.7250    23.8520 
   88.1250     2.2390   -29.1640    81.5680     8.5760     6.9190     7.7520    23.8380 
   88.2500     2.2220   -29.7990    79.6990     9.0740     7.2840     9.1940    23.8340 
   88.3750     2.2020   -30.2750    74.9160     9.5200     7.6110    10.4140    23.8330 
   88.5000     2.1850   -30.4990    70.9060     9.7050     7.7600    10.8350    23.8190 
   88.6250     2.1810   -30.4940    72.1300     9.4920     7.6310    10.6820    23.7810 
   88.7500     2.1990   -30.2560    76.5890     8.9000     7.2070    10.6990    23.7380 
   88.8750     2.2390   -29.7910    80.1280     8.2020     6.6420    10.3190    23.7350 
   89.0000     2.2910   -29.1200    82.0880     7.8960     6.2580     8.9980    23.8440 
   89.1250     2.3420   -28.3540    83.9560     8.2320     6.2700     7.5970    24.0730 
   89.2500     2.3890   -27.5460    82.8630     9.2690     6.7790     8.3790    24.3370 
   89.3750     2.4320   -26.7330    75.5730    10.8520     7.7700    13.3950    24.3950 
   89.5000     2.4550   -25.8720    66.7300    12.4440     9.0280    25.3290    24.1370 
   89.6250     2.4320   -24.8950    64.0630    13.2060     9.9750    25.0160    23.6660 
   89.7500     2.3600   -23.7850    67.6040    12.7220    10.1580    16.5970    23.1280 
   89.8750     2.2770   -22.5810    72.3680    11.3920     9.5860    12.0830    22.6310 
   90.0000     2.2310   -21.3860    72.6270    10.0980     8.7070    11.7470    22.3130 
   90.1250     2.2190   -20.2860    69.7850     9.3030     8.0040    11.8340    22.1850 
   90.2500     2.2210   -19.2860    67.9940     9.0030     7.6150    11.4790    22.1870 
   90.3750     2.2260   -18.3930    68.6360     9.0350     7.5130    11.1670    22.3150 
   90.5000     2.2280   -17.6960    69.6060     9.2140     7.5980    11.1560    22.6360 
   90.6250     2.2290   -17.2640    68.9300     9.3700     7.7160    11.1900    23.0800 
   90.7500     2.2330   -17.1610    67.5460     9.4600     7.8070    11.2910    23.5220 
   90.8750     2.2400   -17.3730    66.6990     9.4860     7.8550    11.3390    23.9400 
   91.0000     2.2400   -17.8150    67.1130     9.4740     7.8640    11.2340    24.2660 
   91.1250     2.2280   -18.3120    67.9170     9.4490     7.8530    11.1810    24.4780 
   91.2500     2.2070   -18.7960    67.1490     9.3950     7.8180    11.4010    24.6240 
   91.3750     2.1850   -19.2280    65.3050     9.2890     7.7400    11.6950    24.7160 
   91.5000     2.1690   -19.5860    65.3790     9.1110     7.5960    11.5970    24.7440 
   91.6250     2.1630   -19.8830    66.8540     8.8780     7.4100    11.4320    24.7490 
   91.7500     2.1650   -20.1030    67.1880     8.6010     7.2140    11.0520    24.7490 
   91.8750     2.1690   -20.1970    65.8740     8.3400     7.0500    10.5380    24.7490 
   92.0000     2.1620   -20.0880    64.5780     8.2550     6.9640    10.4690    24.7490 
   92.1250     2.1480   -19.8180    64.8160     8.3810     6.9570    10.7870    24.7490 
   92.2500     2.1400   -19.4100    67.2700     8.6530     7.0070    11.2570    24.7490 
   92.3750     2.1490   -18.9200    70.1150     8.9080     7.0750    11.4140    24.7490 
   92.5000     2.1700   -18.3630    69.8620     8.9320     7.1100    11.1460    24.7490 
   92.6250     2.1850   -17.7390    67.7210     8.7330     7.0850    10.9340    24.7490 
   92.7500     2.1880   -17.0640    66.4390     8.4430     6.9970    10.8960    24.7490 
   92.8750     2.1830   -16.3740    66.7070     8.2300     6.8640    10.8870    24.7500 
   93.0000     2.1770   -15.7100    67.8870     8.1860     6.7310    10.5550    24.7640 
   93.1250     2.1750   -15.0710    69.2860     8.2320     6.6400    10.1790    24.8010 
   93.2500     2.1780   -14.4630    70.7950     8.2690     6.5930     9.4340    24.8480 
   93.3750     2.1890   -13.8830    71.5200     8.1830     6.5460     8.7710    24.8740 
   93.5000     2.2050   -13.3700    72.1030     7.8630     6.3930     8.9270    24.8440 
   93.6250     2.2240   -12.9760    73.8080     7.3830     6.0980     9.6000    24.7170 
   93.7500     2.2520   -12.7240    77.5500     6.8710     5.7050     8.7870    24.5250 
   93.8750     2.2850   -12.6490    82.5080     6.4960     5.3280     6.8640    24.5260 
   94.0000     2.3050   -12.8170    89.5340     6.4540     5.1280     5.7180    24.8700 
   94.1250     2.2950   -13.1950    94.1990     6.7450     5.1650     5.7280    25.2910 
   94.2500     2.2590   -13.7610    90.3660     7.3210     5.4500     7.3490    25.4350 
   94.3750     2.2170   -14.4850    79.2590     8.0560     5.9410     9.4050    25.3660 
   94.5000     2.1950   -15.3150    70.5620     8.6970     6.5200    10.4360    25.2130 
   94.6250     2.1930   -16.1390    68.3650     9.0510     7.0110    10.7270    25.0990 
   94.7500     2.1990   -16.8760    69.2190     9.1150     7.3150    10.9930    25.0610 
   94.8750     2.2000   -17.4570    69.7800     9.0390     7.4320    11.1890    25.0460 
   95.0000     2.2020   -17.8470    71.7120     9.0200     7.4300    11.2970    24.9700 
   95.1250     2.2130   -18.0940    73.8380     9.1170     7.4140    11.5130    24.8240 
   95.2500     2.2260   -18.2170    74.4880     9.2960     7.4290    11.7460    24.6810 
   95.3750     2.2290   -18.2190    74.1490     9.4940     7.4900    11.9620    24.5890 
   95.5000     2.2210   -18.0920    72.5480     9.6490     7.5910    12.1740    24.5580 
   95.6250     2.2130   -17.8730    70.6660     9.7370     7.6950    12.4970    24.5300 
   95.7500     2.2110   -17.5820    70.1740     9.7440     7.7720    12.5430    24.5240 
   95.8750     2.2170   -17.2530    71.7480     9.6630     7.8020    12.3830    24.5800 
   96.0000     2.2260   -16.8550    72.4460     9.5130     7.7810    12.0900    24.5320 
   96.1250     2.2320   -16.3860    70.8110     9.3570     7.7470    11.7680    24.4380 
   96.2500     2.2340   -15.8440    69.2810     9.2460     7.7280    11.5480    24.3830 
   96.3750     2.2350   -15.2380    69.7250     9.2210     7.7480    11.5760    24.3890 
   96.5000     2.2340   -14.5510    70.2640     9.2960     7.8170    11.6650    24.3160 
   96.6250     2.2290   -13.7640    70.2530     9.3810     7.8910    11.6040    24.3000 
   96.7500     2.2190   -12.8980    69.4670     9.3440     7.8930    11.3120    24.3050 
   96.8750     2.2110   -11.9600    68.5570     9.0380     7.7130    10.8890    24.2720 
