~V
VERS. 2.00: Ver 2.00
~W
STRT.M 52.0000:
STOP.M 286.0000:
STEP.M 0.1250:
NULL. -999.2500:
UWI. F11061:
~C
DEPT.M :
GR.API :
RML.OHMM :
RI. :
RXO.OHMM :
CALI.CM :
DEN.GM/CC :
SP.MV :
~A
# ...
  243.2500    51.5700    36.4850    32.1970    48.5090    24.1780     2.2560    -3.6060 
  243.3750    52.3400    35.5370    31.8550    49.2010    24.1450     2.2630    -3.8890 
  243.5000    55.9530    32.0330    29.1530    48.2970    24.0640     2.2660    -4.1900 
  243.6250    59.2220    27.3370    25.2030    44.1600    23.9640     2.2690    -4.4890 
  243.7500    59.9280    22.8390    21.2450    35.5780    23.8660     2.2740    -4.7760 
  243.8750    59.4310    19.4000    18.0740    25.0940    23.7570     2.2780    -5.0650 
  244.0000    59.7350    17.4430    16.0930    19.1670    23.6520     2.2810    -5.3500 
  244.1250    59.7090    16.6080    15.0670    17.5870    23.5730     2.2800    -5.6330 
  244.2500    59.0690    16.4480    14.6830    18.0630    23.4960     2.2780    -5.9300 
  244.3750    59.6160    16.5380    14.6240    18.9380    23.3670     2.2760    -6.2550 
  244.5000    61.0420    16.4970    14.5870    19.4350    23.2680     2.2730    -6.5950 
  244.6250    61.8030    16.2020    14.4090    19.2080    23.2550     2.2710    -6.9520 
  244.7500    60.9870    15.7470    14.1120    18.4530    23.3840     2.2700    -7.3450 
  244.8750    58.8740    15.3360    13.8290    17.4910    23.5690     2.2700    -7.7670 
  245.0000    56.1550    15.2020    13.7450    16.5640    23.6940     2.2680    -8.2020 
  245.1250    54.5790    15.3850    13.9160    16.8840    23.7740     2.2660    -8.6470 
  245.2500    54.9990    15.8080    14.3070    18.4240    23.8870     2.2640    -9.0920 
  245.3750    54.7940    16.3390    14.8210    19.8760    24.0870     2.2600    -9.5100 
  245.5000    53.1460    16.8240    15.3260    20.4690    24.2100     2.2570    -9.9060 
  245.6250    53.0440    17.1680    15.7190    20.7280    24.2420     2.2560   -10.3000 
  245.7500    56.0570    17.3520    15.9610    20.7440    24.2240     2.2580   -10.6860 
  245.8750    59.4890    17.4010    16.0650    21.1590    24.2040     2.2600   -11.0670 
  246.0000    58.4120    17.3500    16.0630    21.2420    24.1860     2.2640   -11.4680 
  246.1250    56.1270    17.2240    15.9910    21.0860    24.1660     2.2680   -11.8870 
  246.2500    56.7990    17.0060    15.8430    20.8630    24.1450     2.2720   -12.3160 
  246.3750    60.5530    16.6530    15.5880    20.7040    24.1330     2.2750   -12.7680 
  246.5000    64.5500    16.1240    15.1870    20.6250    24.1280     2.2730   -13.2520 
  246.6250    66.2910    15.4980    14.6900    20.6170    24.1280     2.2670   -13.7440 
  246.7500    65.5530    14.9310    14.2180    20.3840    24.1420     2.2640   -14.2330 
  246.8750    62.9640    14.6080    13.9260    19.3050    24.1730     2.2750   -14.7110 
  247.0000    59.7150    14.7040    13.9780    17.6160    24.1900     2.3150   -15.1570 
  247.1250    56.2740    15.1030    14.3130    16.6750    24.1600     2.3780   -15.5760 
  247.2500    51.3130    15.5460    14.7270    16.8390    24.0740     2.4490   -15.9790 
  247.3750    47.0880    15.7140    14.9430    18.0700    23.9530     2.5030   -16.3630 
  247.5000    49.4070    15.2750    14.6300    19.1220    23.8730     2.5160   -16.7240 
  247.6250    56.2580    14.2790    13.7760    17.9630    23.8290     2.4960   -17.0870 
  247.7500    62.1110    12.9880    12.5860    15.0800    23.7880     2.4600   -17.4710 
  247.8750    65.3520    11.7600    11.3870    13.9510    23.7900     2.4220   -17.8740 
  248.0000    69.6540    11.0290    10.5690    13.8790    23.8180     2.3880   -18.2930 
  248.1250    75.0220    11.0080    10.3470    13.4910    23.8750     2.3610   -18.7220 
  248.2500    77.7460    11.8190    10.8620    13.5480    23.9410     2.3420   -19.1500 
  248.3750    77.5080    13.4890    12.1900    13.3030    23.9680     2.3300   -19.5500 
  248.5000    75.1980    15.9400    14.3820    15.3640    23.9210     2.3230   -19.8950 
  248.6250    71.4890    18.6710    17.0680    20.1760    23.8750     2.3180   -20.1680 
  248.7500    68.1910    21.0710    19.7200    27.4430    23.8650     2.3140   -20.3520 
  248.8750    66.5600    22.5630    21.7200    33.4310    23.8680     2.3100   -20.4590 
  249.0000    65.0950    22.6900    22.4160    32.4460    23.8960     2.3050   -20.5170 
  249.1250    63.4660    21.8550    21.9860    27.6190    23.9060     2.2960   -20.5420 
  249.2500    63.8760    20.7170    20.9940    24.5280    23.8940     2.2830   -20.5560 
  249.3750    66.0540    19.8620    20.0340    22.4350    23.8570     2.2620   -20.5960 
  249.5000    66.9340    19.7230    19.5820    20.8790    23.7720     2.2350   -20.6840 
  249.6250    66.8870    20.3350    19.7580    19.7960    23.6070     2.2000   -20.8100 
  249.7500    67.3130    21.7130    20.6210    19.1150    23.3710     2.1610   -20.9600 
  249.8750    67.2430    23.9520    22.2760    17.6450    23.1730     2.1270   -21.1090 
  250.0000    66.4850    27.4080    25.0760    15.3270    23.0270     2.1180   -21.2040 
  250.1250    65.6330    32.2170    29.1960    15.0620    22.9740     2.1490   -21.2220 
  250.2500    65.0570    38.5290    34.8650    19.2120    23.0370     2.2220   -21.1650 
  250.3750    65.1010    46.4690    42.3040    27.0870    23.3040     2.3240   -21.0370 
  250.5000    66.5310    56.2850    51.8880    37.1530    23.5850     2.4330   -20.8300 
  250.6250    68.6590    67.4780    63.1560    48.6010    23.6250     2.5240   -20.5760 
  250.7500    69.5500    78.8020    74.9180    61.0020    23.5720     2.5860   -20.3010 
  250.8750    68.3000    87.8190    84.7790    78.4540    23.5820     2.6220   -20.0120 
  251.0000    64.8790    89.9540    88.1300   101.0270    23.6520     2.6320   -19.7370 
  251.1250    59.2650    82.7730    82.3270   134.7090    23.7180     2.6150   -19.4960 
  251.2500    50.9610    66.7850    67.4420   164.8770    23.7590     2.5680   -19.2750 
  251.3750    41.5740    46.8440    47.8220   162.8300    23.7620     2.5020   -19.0610 
  251.5000    35.9590    30.1230    30.7730   128.3610    23.7390     2.4360   -18.8640 
  251.6250    35.8450    18.9510    19.2410    81.0760    23.7500     2.3830   -18.6710 
  251.7500    38.8480    12.4280    12.4920    35.9420    23.8100     2.3480   -18.4890 
  251.8750    41.2840     8.9980     8.8790    12.9550    23.8900     2.3270   -18.3340 
  252.0000    41.8160     7.5250     7.2030     6.9450    23.9450     2.3120   -18.2080 
  252.1250    42.0020     6.9950     6.4820     5.6930    23.9860     2.2970   -18.0930 
  252.2500    42.5850     6.8910     6.2450     5.5140    24.0080     2.2840   -18.0000 
  252.3750    43.9310     6.9460     6.2400     5.5330    24.0090     2.2780   -17.9490 
  252.5000    45.5680     7.0030     6.3050     5.5680    23.9570     2.2830   -17.9400 
  252.6250    47.0720     7.0070     6.3510     5.6190    23.8520     2.2950   -17.9570 
  252.7500    48.2430     6.9650     6.3570     5.6880    23.7150     2.3130   -17.9870 
  252.8750    48.9760     6.9050     6.3320     5.7970    23.5780     2.3290   -18.0210 
  253.0000    49.1550     6.8470     6.2890     5.8730    23.5090     2.3380   -18.0690 
  253.1250    47.8930     6.8000     6.2400     5.8500    23.5270     2.3400   -18.1540 
  253.2500    46.3680     6.7510     6.1850     5.7750    23.5820     2.3340   -18.2790 
  253.3750    46.1490     6.6800     6.1240     5.7480    23.6250     2.3260   -18.4170 
  253.5000    46.7700     6.6080     6.0530     5.8170    23.6680     2.3170   -18.5550 
  253.6250    47.3460     6.5320     5.9760     5.9530    23.7100     2.3100   -18.7040 
  253.7500    47.8890     6.4710     5.8960     6.1610    23.7510     2.3070   -18.8600 
  253.8750    48.9450     6.4170     5.8180     6.5880    23.7730     2.3070   -19.0210 
  254.0000    49.9370     6.3730     5.7480     7.2070    23.7700     2.3090   -19.1770 
  254.1250    49.9440     6.3260     5.6950     7.7800    23.7420     2.3140   -19.2870 
  254.2500    48.3420     6.2820     5.6620     7.9650    23.6930     2.3220   -19.3410 
  254.3750    45.0210     6.2480     5.6500     8.0460    23.6070     2.3340   -19.3630 
