~V
VERS. 2.00: Ver 2.00
~W
STRT.M 47.0000:
STOP.M 270.0000:
STEP.M 0.1250:
NULL. -999.2500:
UWI. F11075:
~C
DEPT.M :
GR.API :
RML.OHMM :
RI. :
RXO.OHMM :
CALI.CM :
DEN.GM/CC :
SP.MV :
~A
# ...
  170.7500    72.4800    14.0020    12.9210    26.2350    25.2110     2.5820   -14.4980 
  170.8750    72.7980    12.8640    11.8730    29.3660    25.2560     2.6020   -14.0220 
  171.0000    78.0620    10.7680     9.8860    17.4100    25.2710     2.5760   -13.5270 
  171.1250    87.4260     8.5450     7.8090     8.5800    25.2760     2.5260   -13.0550 
  171.2500    95.5900     6.8340     6.1890     5.8690    25.2910     2.4730   -12.6160 
  171.3750    97.3170     5.9310     5.2440     5.4520    25.3290     2.4270   -12.2610 
  171.5000    96.0720     5.5680     4.7760     5.1760    25.3610     2.3860   -11.9900 
  171.6250    96.2140     5.5400     4.6250     4.8710    25.3720     2.3490   -11.7900 
  171.7500    95.5650     5.6760     4.6280     4.4580    25.3720     2.3200   -11.6420 
  171.8750    89.7870     5.8840     4.6940     4.0300    25.3700     2.3120   -11.5450 
  172.0000    85.7750     6.1420     4.7990     3.9730    25.3780     2.3200   -11.4920 
  172.1250    89.4550     6.4570     4.9650     4.4170    25.4000     2.3350   -11.4780 
  172.2500    96.0010     6.8010     5.1840     5.3380    25.4150     2.3450   -11.4960 
  172.3750    96.2440     7.0790     5.3990     5.8410    25.4190     2.3430   -11.5280 
  172.5000    92.8710     7.2170     5.5410     5.7800    25.4200     2.3330   -11.5520 
  172.6250    90.8620     7.1910     5.5670     5.6380    25.4310     2.3200   -11.5810 
  172.7500    91.3810     7.0440     5.4990     5.6240    25.4350     2.3120   -11.6290 
  172.8750    91.0800     6.8720     5.4060     5.7240    25.4330     2.3110   -11.6970 
  173.0000    88.9230     6.7720     5.3530     5.8020    25.4310     2.3170   -11.7500 
  173.1250    86.0290     6.7930     5.3680     6.0260    25.4250     2.3290   -11.7920 
  173.2500    82.1350     6.9470     5.4440     6.3840    25.4120     2.3450   -11.8270 
  173.3750    78.9680     7.2310     5.5540     6.7820    25.3790     2.3580   -11.8600 
  173.5000    80.3770     7.5780     5.6660     7.1150    25.3400     2.3660   -11.8900 
  173.6250    86.6350     7.9310     5.7620     7.8160    25.3180     2.3700   -11.9240 
  173.7500    92.3890     8.2300     5.8390     8.5450    25.3330     2.3700   -11.9740 
  173.8750    91.9500     8.3950     5.8850     8.0820    25.3870     2.3690   -12.0070 
  174.0000    89.7120     8.4120     5.8970     7.5770    25.4300     2.3640   -12.0370 
  174.1250    89.5440     8.2810     5.8710     7.2950    25.4580     2.3550   -12.0500 
  174.2500    90.8640     8.0370     5.7970     6.9090    25.4710     2.3400   -12.0550 
  174.3750    90.8270     7.7460     5.6850     6.7140    25.4800     2.3220   -12.0530 
  174.5000    90.0370     7.4960     5.5670     6.5570    25.4720     2.3100   -12.0660 
  174.6250    89.7740     7.3460     5.4660     6.2650    25.4520     2.3080   -12.0790 
  174.7500    89.6120     7.3270     5.4040     6.0990    25.4320     2.3170   -12.0700 
  174.8750    89.7340     7.4570     5.3990     6.1640    25.4240     2.3320   -12.0490 
  175.0000    91.4970     7.6710     5.4420     6.1520    25.4230     2.3460   -12.0340 
  175.1250    93.9990     7.9110     5.5160     6.1210    25.4210     2.3520   -12.0300 
  175.2500    94.0140     8.1220     5.5860     6.2930    25.4180     2.3480   -12.0340 
  175.3750    91.2080     8.2360     5.6090     6.6190    25.4200     2.3360   -12.0560 
  175.5000    90.2590     8.2300     5.5680     6.6260    25.4290     2.3210   -12.0680 
  175.6250    91.4600     8.1030     5.4870     6.3420    25.4340     2.3120   -12.0790 
  175.7500    93.2950     7.8830     5.4060     5.9710    25.4330     2.3120   -12.0930 
  175.8750    95.7720     7.6300     5.3590     5.8030    25.4300     2.3240   -12.1080 
  176.0000    97.2770     7.4180     5.3560     5.6960    25.4260     2.3440   -12.1190 
  176.1250    96.0390     7.2860     5.3800     5.8060    25.4230     2.3680   -12.1300 
  176.2500    93.3910     7.2450     5.4070     6.0320    25.4200     2.3950   -12.1450 
  176.3750    92.9380     7.2870     5.4120     6.1420    25.4200     2.4150   -12.1530 
  176.5000    93.0730     7.3800     5.3930     5.6510    25.4180     2.4230   -12.1670 
  176.6250    90.8070     7.5100     5.3620     5.2990    25.4160     2.4160   -12.1770 
  176.7500    87.2370     7.6590     5.3320     5.1950    25.4210     2.3950   -12.1900 
  176.8750    86.9520     7.7930     5.3170     5.3500    25.4320     2.3690   -12.2050 
  177.0000    90.5370     7.8700     5.3180     5.5440    25.4360     2.3470   -12.2230 
  177.1250    94.5630     7.8520     5.3280     5.8970    25.4350     2.3350   -12.2410 
  177.2500    96.0200     7.7310     5.3460     6.3810    25.4300     2.3300   -12.2490 
  177.3750    96.4570     7.5360     5.3590     6.3650    25.4240     2.3310   -12.2530 
  177.5000    98.6430     7.3560     5.3610     5.9100    25.4180     2.3330   -12.2530 
  177.6250   100.1070     7.2590     5.3480     5.4720    25.4120     2.3370   -12.2690 
  177.7500    99.3180     7.2800     5.3240     5.3520    25.4040     2.3410   -12.2930 
  177.8750    98.0350     7.4170     5.3070     5.4330    25.4100     2.3460   -12.3360 
  178.0000    96.8880     7.5850     5.2970     5.4070    25.4140     2.3470   -12.3740 
  178.1250    93.4160     7.7120     5.2840     5.4430    25.4170     2.3450   -12.4180 
  178.2500    88.8200     7.7450     5.2660     5.4780    25.4240     2.3400   -12.4770 
  178.3750    88.4410     7.6580     5.2540     5.4660    25.4050     2.3390   -12.5470 
  178.5000    91.4880     7.5040     5.2640     5.3540    25.3490     2.3420   -12.6160 
  178.6250    93.2100     7.3420     5.3020     5.3670    25.2910     2.3450   -12.6920 
  178.7500    93.0720     7.2250     5.3670     5.5980    25.2620     2.3440   -12.7710 
  178.8750    94.0990     7.2040     5.4500     5.9510    25.2570     2.3370   -12.8490 
  179.0000    96.4080     7.2780     5.5390     6.1010    25.2550     2.3270   -12.9280 
  179.1250    98.5090     7.4460     5.6330     6.1680    25.2550     2.3210   -13.0130 
  179.2500    99.8800     7.6900     5.7370     6.3550    25.2540     2.3210   -13.1010 
  179.3750   100.4170     7.9740     5.8470     6.5360    25.2520     2.3260   -13.1810 
  179.5000    98.3950     8.2270     5.9530     6.7610    25.2500     2.3330   -13.2660 
  179.6250    96.2660     8.3880     6.0420     7.1050    25.2530     2.3380   -13.3340 
  179.7500    96.2140     8.4340     6.0990     7.3590    25.2630     2.3400   -13.4020 
  179.8750    98.9320     8.4090     6.1530     7.3980    25.2670     2.3340   -13.4820 
  180.0000   101.8620     8.4440     6.2770     7.5630    25.2670     2.3220   -13.5740 
  180.1250   103.8020     8.6370     6.5320     8.0270    25.2670     2.3040   -13.6600 
  180.2500   103.8270     9.0110     6.9330     8.8200    25.2670     2.2880   -13.7240 
  180.3750   101.6640     9.4780     7.4020    10.0640    25.2630     2.2840   -13.7760 
  180.5000    99.8580     9.8470     7.7730    11.4040    25.2580     2.3000   -13.8310 
  180.6250   100.1940    10.0000     7.9220    11.8450    25.2540     2.3400   -13.8970 
  180.7500   100.3880     9.9370     7.8190    10.2070    25.2530     2.3980   -13.9670 
  180.8750    98.3780     9.7860     7.5680     8.5650    25.2520     2.4600   -14.0290 
  181.0000    96.4800     9.7250     7.3660     8.1440    25.2520     2.5070   -14.0990 
  181.1250    97.6830     9.8280     7.3290     7.9800    25.2500     2.5290   -14.1680 
  181.2500   101.1120    10.0860     7.5020     8.0130    25.2500     2.5260   -14.2530 
  181.3750   101.7980    10.4430     7.8880     8.3100    25.2560     2.5020   -14.3630 
  181.5000    99.1590    10.8110     8.3810     9.0060    25.2650     2.4710   -14.4950 
  181.6250    96.3570    11.1510     8.8830     9.9010    25.2670     2.4410   -14.6430 
  181.7500    93.8680    11.4510     9.3170    10.5960    25.2630     2.4160   -14.8030 
  181.8750    89.7970    11.7250     9.6320    10.7840    25.2570     2.4040   -14.9840 
