~V
VERS. 2.00: Ver 2.00
~W
STRT.M 53.0000:
STOP.M 279.0000:
STEP.M 0.1250:
NULL. -999.2500:
UWI. F11057:
~C
DEPT.M :
GR.API :
RML.OHMM :
RI. :
RXO.OHMM :
CALI.CM :
DEN.GM/CC :
SP.MV :
~A
# ...
  143.0000    76.3640    11.0070     9.9860    11.4550    24.8020     2.2070   -17.8370 
  143.1250    75.7710    12.4970    11.0190    12.5820    24.7780     2.2620   -17.2300 
  143.2500    75.2320    14.6320    12.6620    15.7380    24.7150     2.3440   -16.5130 
  143.3750    75.8910    17.1550    14.8500    22.1530    24.6230     2.4440   -15.7460 
  143.5000    75.6410    19.3100    17.0640    28.4980    24.5470     2.5300   -14.9820 
  143.6250    73.4060    19.5900    17.9020    28.0610    24.5230     2.5580   -14.3090 
  143.7500    72.5090    17.7330    16.7630    25.2630    24.5180     2.5440   -13.7000 
  143.8750    76.8950    14.6020    14.2490    20.6850    24.5180     2.5130   -13.1830 
  144.0000    84.3090    11.6240    11.5960    15.0500    24.5180     2.4840   -12.7610 
  144.1250    87.6530    10.1000     9.9110    11.2870    24.5080     2.4770   -12.4500 
  144.2500    84.8540    10.1120     9.3790    12.1390    24.4850     2.4990   -12.2460 
  144.3750    79.3410    11.5210    10.0010    15.6160    24.4610     2.5390   -12.0960 
  144.5000    75.6400    14.0800    11.7150    17.3450    24.4530     2.5740   -11.9930 
  144.6250    73.6960    17.3640    14.4210    19.1720    24.4540     2.5870   -11.9030 
  144.7500    71.1800    20.3560    17.3100    21.1680    24.4530     2.5870   -11.8160 
  144.8750    70.0020    22.2240    19.5520    22.1950    24.4510     2.5830   -11.7480 
  145.0000    71.1310    22.6900    20.6560    21.7160    24.4500     2.5760   -11.6760 
  145.1250    70.1020    22.1440    20.7170    20.6760    24.4480     2.5680   -11.6270 
  145.2500    66.6990    21.4920    20.4620    21.0210    24.4490     2.5650   -11.5790 
  145.3750    64.8610    21.1550    20.2580    21.9700    24.4480     2.5760   -11.5300 
  145.5000    65.3820    21.2640    20.2850    22.7960    24.4460     2.5990   -11.5120 
  145.6250    65.9580    21.6200    20.5030    24.0700    24.4460     2.6170   -11.5150 
  145.7500    65.9380    21.7850    20.6160    24.9150    24.4460     2.6210   -11.5550 
  145.8750    65.6700    21.5700    20.4460    23.6500    24.4460     2.6140   -11.5860 
  146.0000    65.7510    21.0450    20.0070    21.9250    24.4490     2.6030   -11.6290 
  146.1250    66.0670    20.4870    19.4940    22.7720    24.4870     2.5890   -11.6950 
  146.2500    65.0820    20.1520    19.1410    25.6540    24.5640     2.5660   -11.7330 
  146.3750    63.4460    20.1130    19.0390    26.2870    24.6340     2.5330   -11.7710 
  146.5000    63.3450    20.3150    19.1750    24.6570    24.6620     2.5000   -11.7880 
  146.6250    65.9790    20.6120    19.4510    23.4090    24.6620     2.4790   -11.7910 
  146.7500    68.1700    20.8360    19.7050    23.5010    24.6620     2.4730   -11.7860 
  146.8750    68.3680    20.9420    19.8820    23.5430    24.6610     2.4810   -11.7700 
  147.0000    66.7760    20.9460    19.9950    23.6700    24.6530     2.4990   -11.7580 
  147.1250    64.0220    20.8340    20.0380    24.1730    24.6190     2.5270   -11.7280 
  147.2500    61.8840    20.5840    19.9700    24.9870    24.5670     2.5590   -11.6920 
  147.3750    60.9270    20.2060    19.7570    24.7550    24.5300     2.5850   -11.6600 
  147.5000    61.0190    19.8020    19.4480    23.9670    24.5180     2.5950   -11.6130 
  147.6250    61.6810    19.5480    19.1800    23.0490    24.5180     2.5940   -11.5580 
  147.7500    61.6570    19.4850    19.0420    22.1870    24.5180     2.5930   -11.4790 
  147.8750    60.8220    19.5570    19.0320    21.3100    24.5180     2.5950   -11.3910 
  148.0000    58.7680    19.6500    19.0810    21.0440    24.5180     2.5990   -11.3080 
  148.1250    54.2920    19.6500    19.0910    22.3710    24.5140     2.6020   -11.2280 
  148.2500    50.3490    19.5680    19.0380    23.4130    24.4980     2.5990   -11.1840 
  148.3750    49.9520    19.4590    18.9520    22.2010    24.4700     2.5940   -11.1440 
  148.5000    52.7600    19.3560    18.8620    20.3860    24.4510     2.5870   -11.1380 
  148.6250    55.9720    19.2700    18.7780    19.3300    24.4460     2.5790   -11.1640 
  148.7500    59.2620    19.2340    18.7280    19.1430    24.4460     2.5730   -11.2060 
  148.8750    63.1020    19.2960    18.7570    19.5810    24.4460     2.5670   -11.2930 
  149.0000    64.0400    19.4390    18.8600    20.0430    24.4460     2.5600   -11.3830 
  149.1250    61.4890    19.5420    18.9280    19.7040    24.4460     2.5530   -11.4860 
  149.2500    60.0360    19.4730    18.8310    19.3340    24.4480     2.5470   -11.5790 
  149.3750    61.4370    19.1770    18.5110    18.9880    24.4670     2.5420   -11.6680 
  149.5000    63.9000    18.6980    18.0120    18.3420    24.5210     2.5360   -11.7560 
  149.6250    65.4140    18.1720    17.4570    18.1790    24.5980     2.5270   -11.8250 
  149.7500    67.8710    17.7440    16.9780    18.3150    24.6460     2.5140   -11.9120 
  149.8750    69.0910    17.4670    16.6220    18.9570    24.6600     2.4960   -11.9670 
  150.0000    67.8760    17.3530    16.4040    19.3200    24.6620     2.4790   -11.9950 
  150.1250    67.1010    17.4260    16.3570    19.3900    24.6620     2.4690   -12.0150 
  150.2500    68.1040    17.6080    16.4400    20.0770    24.6620     2.4680   -12.0140 
  150.3750    70.0660    17.7850    16.5740    21.2060    24.6620     2.4770   -12.0220 
  150.5000    71.9140    17.7690    16.5980    22.0280    24.6620     2.4900   -12.0020 
  150.6250    72.8820    17.3040    16.2520    20.0630    24.6600     2.4990   -11.9760 
  150.7500    72.7220    16.4810    15.5490    17.5570    24.6470     2.5040   -11.9470 
  150.8750    72.3190    15.5370    14.6570    16.0450    24.5860     2.5060   -11.9280 
  151.0000    73.1870    14.7360    13.8020    15.5420    24.4460     2.5080   -11.9540 
  151.1250    73.0370    14.2500    13.1550    14.9620    24.3140     2.5120   -11.9790 
  151.2500    69.9540    13.9770    12.6850    14.2170    24.2640     2.5150   -12.0430 
  151.3750    66.6710    13.7960    12.3220    13.8770    24.2570     2.5190   -12.1250 
  151.5000    65.7210    13.6110    11.9970    13.6900    24.2590     2.5210   -12.2420 
  151.6250    66.4890    13.4020    11.6880    13.4090    24.2630     2.5160   -12.4100 
  151.7500    66.7420    13.1960    11.3980    13.1970    24.2630     2.5070   -12.5810 
  151.8750    66.7890    13.0100    11.1340    12.8360    24.2520     2.4930   -12.7980 
  152.0000    67.1390    12.8730    10.9160    12.3420    24.2360     2.4760   -13.0110 
  152.1250    67.0120    12.8540    10.8040    12.6460    24.2080     2.4610   -13.2420 
  152.2500    68.2290    12.9540    10.8060    13.7290    24.1800     2.4520   -13.4820 
  152.3750    71.4990    13.1450    10.9080    15.0200    24.1680     2.4530   -13.6800 
  152.5000    73.9820    13.3670    11.0670    16.7130    24.1660     2.4580   -13.8420 
  152.6250    73.8040    13.4690    11.1840    17.4900    24.1660     2.4620   -13.9080 
  152.7500    74.6410    13.3110    11.1330    17.1790    24.1670     2.4580   -13.8910 
  152.8750    77.2390    12.7990    10.8140    15.4920    24.1680     2.4520   -13.7880 
  153.0000    79.3290    11.9400    10.1950    14.1100    24.1700     2.4470   -13.5990 
  153.1250    79.6510    10.7940     9.2920    13.3640    24.1900     2.4390   -13.3200 
  153.2500    78.4240     9.5370     8.2480    12.2210    24.3010     2.4160   -12.9650 
  153.3750    76.4460     8.2770     7.1590    10.3140    24.5630     2.3670   -12.5910 
  153.5000    77.9450     7.0980     6.1020     8.4610    24.8930     2.3020   -12.2140 
  153.6250    85.7290     6.1410     5.1900     6.6580    24.9600     2.2580   -11.8630 
  153.7500    95.0930     5.4820     4.4910     5.5260    24.8020     2.2530   -11.5770 
  153.8750   101.6180     5.1560     4.0490     5.1770    24.6090     2.2770   -11.3270 
  154.0000   104.2300     5.1190     3.8560     5.1980    24.5040     2.3030   -11.1470 
  154.1250   104.7100     5.2890     3.8790     5.3450    24.4600     2.3220   -11.0430 
