~V
VERS. 2.00: Ver 2.00
~W
STRT.M 54.0000:
STOP.M 226.0000:
STEP.M 0.1250:
NULL. -999.2500:
UWI. F11002:
~C
DEPT.M :
GR.API :
RML.OHMM :
RI. :
RXO.OHMM :
CALI.CM :
DEN.GM/CC :
SP.MV :
~A
# ...
  155.2500    67.7490   231.7020   219.5340   209.4250    23.3620     2.2470   -15.5880 
  155.3750    67.7560   239.9570   230.0750   236.4980    23.1650     2.2450   -14.7630 
  155.5000    66.5860   239.0540   231.9880   241.7910    23.4050     2.2390   -14.3940 
  155.6250    68.1500   227.4370   222.2510   235.8750    24.2800     2.2280   -14.2630 
  155.7500    70.2700   208.2380   203.4850   198.8010    25.5080     2.2150   -14.5400 
  155.8750    69.2730   188.4030   183.1270   160.5100    25.9670     2.2080   -15.7120 
  156.0000    68.6760   174.1210   168.0510   123.1090    25.3740     2.2130   -17.8160 
  156.1250    69.0650   167.8890   160.9970   109.9870    24.3360     2.2250   -20.9490 
  156.2500    68.3940   170.0980   162.5840   121.7220    23.7490     2.2300   -24.6840 
  156.3750    67.3770   181.1550   173.3860   151.7870    23.9250     2.2150   -28.2230 
  156.5000    67.1830   198.3280   190.7090   151.9780    24.7690     2.1830   -31.3030 
  156.6250    66.2190   219.4870   212.8210   123.5120    25.6990     2.1480   -34.0330 
  156.7500    64.0100   240.8440   236.5810    83.3720    24.9030     2.1280   -36.5620 
  156.8750    61.9320   254.4730   254.2670    52.3180    23.8770     2.1350   -38.5520 
  157.0000    61.4680   254.7520   258.3400    32.9320    23.1040     2.1590   -39.6000 
  157.1250    62.8700   240.0470   245.3150    23.2870    22.8590     2.1910   -39.2170 
  157.2500    64.3230   214.5300   219.0530    18.2450    22.8140     2.2210   -37.5850 
  157.3750    63.8660   186.9770   189.4370    15.9370    22.8080     2.2440   -35.3490 
  157.5000    64.6740   165.5720   166.0530    14.9590    22.7650     2.2620   -32.7030 
  157.6250    67.4480   153.5190   152.5210    15.0510    22.6750     2.2750   -29.8630 
  157.7500    69.2250   151.1350   149.2110    15.7890    22.5560     2.2860   -27.3370 
  157.8750    68.6710   158.2650   155.9400    16.4260    22.3960     2.2990   -25.4040 
  158.0000    66.8040   171.3810   168.9730    17.0460    22.2860     2.3180   -23.8750 
  158.1250    64.2400   188.5350   186.1850    17.9280    22.2300     2.3380   -23.1090 
  158.2500    62.9780   208.0090   205.7410    18.9930    22.3500     2.3470   -23.2220 
  158.3750    64.5190   227.8830   226.1280    22.9590    22.7040     2.3240   -23.8880 
  158.5000    64.5590   244.6930   244.8490    34.8540    23.2750     2.2730   -24.8910 
  158.6250    60.0130   253.0750   257.1970    65.2670    24.1360     2.2080   -25.8700 
  158.7500    55.3110   246.3500   255.8310   133.1970    25.1150     2.1500   -26.1460 
  158.8750    56.0180   220.6750   232.0670   210.6130    25.9510     2.1210   -25.7270 
  159.0000    58.9740   187.9320   194.2470   193.9470    26.3790     2.1180   -25.2990 
  159.1250    61.5500   156.5300   153.7050   132.9170    26.4650     2.1370   -24.6180 
  159.2500    63.3240   129.2690   119.6780    87.4250    26.3720     2.1680   -23.5780 
  159.3750    64.1610   107.6010    97.5960    61.8560    26.1350     2.2050   -22.5780 
  159.5000    65.2120    93.3740    85.1110    56.1450    25.8570     2.2400   -21.8920 
  159.6250    69.2180    87.7990    80.4750    62.2020    25.6310     2.2670   -21.5850 
  159.7500    75.0120    88.4210    81.7610    68.6240    25.5280     2.2810   -21.7340 
  159.8750    75.3540    92.4690    86.9320    76.4600    25.5400     2.2800   -21.9520 
  160.0000    70.7180    96.1370    92.1870   101.9700    25.5220     2.2700   -21.8410 
  160.1250    67.0840    97.0360    94.6750   118.5510    25.4510     2.2570   -21.4720 
  160.2500    66.9180    94.1440    92.8700    91.8930    25.3560     2.2450   -20.9120 
  160.3750    68.1440    87.7560    86.9410    58.7580    25.4650     2.2370   -20.2230 
  160.5000    69.0670    80.1390    79.5300    46.4850    25.7030     2.2330   -19.6180 
  160.6250    69.6340    72.6120    72.0560    48.3860    25.8020     2.2380   -19.0770 
  160.7500    70.3280    65.8880    65.2530    50.0690    25.6860     2.2540   -18.3960 
  160.8750    72.6730    60.4450    59.6420    39.1540    25.3310     2.2780   -17.8340 
  161.0000    75.8790    56.2220    55.2030    33.4840    24.7860     2.2980   -17.6000 
  161.1250    78.1450    53.3480    52.0310    30.0940    24.1780     2.3020   -17.5010 
  161.2500    79.0170    52.0050    50.2920    31.4420    23.7210     2.2880   -17.4380 
  161.3750    77.9450    52.6670    50.4620    33.0660    23.5210     2.2640   -17.3770 
  161.5000    75.4330    55.0800    52.2820    33.6540    23.5890     2.2490   -17.2250 
  161.6250    71.8810    59.1130    55.5530    35.0400    23.7760     2.2490   -17.1500 
  161.7500    67.9860    64.5960    60.0170    35.6200    23.7640     2.2620   -17.2440 
  161.8750    66.8420    71.7170    65.6930    34.3270    23.5040     2.2780   -17.0790 
  162.0000    68.7330    80.4340    72.5500    36.0670    23.3430     2.2850   -16.2990 
  162.1250    72.0960    91.4490    80.9360    43.1710    23.4800     2.2810   -15.2240 
  162.2500    72.2730   104.9130    91.2400    66.6890    23.9410     2.2670   -14.2810 
  162.3750    68.4090   117.1920   103.6630    90.6460    24.5020     2.2480   -13.6650 
  162.5000    64.7330   125.6600   116.4020   103.8940    24.9200     2.2300   -13.3590 
  162.6250    62.2630   131.4880   126.9830   109.9990    25.1460     2.2150   -13.3200 
  162.7500    60.3390   136.6030   133.2770   128.6870    25.3670     2.2090   -13.7050 
  162.8750    58.8150   140.3230   134.5380   139.4650    25.5270     2.2120   -14.9310 
  163.0000    60.1040   142.2570   133.8700   108.7880    25.4750     2.2180   -16.5030 
  163.1250    63.6880   145.0400   134.3090    87.5500    25.2650     2.2220   -17.9690 
  163.2500    64.2750   151.1990   138.2970   126.7400    25.1810     2.2190   -19.1780 
  163.3750    60.8520   161.8110   146.9890   191.8190    25.3700     2.2100   -19.9900 
  163.5000    59.0540   174.4490   157.7750   212.8370    25.6130     2.1990   -20.4370 
  163.6250    60.6910   186.2800   167.8290   178.2580    25.7020     2.1910   -20.5000 
  163.7500    62.5440   194.6250   174.4410   175.7910    25.6260     2.1880   -20.0190 
  163.8750    61.7710   197.7470   175.6730   148.7280    25.6130     2.1880   -18.9150 
  164.0000    61.1600   198.0430   174.1350   140.9500    25.6340     2.1870   -17.9460 
  164.1250    60.8950   198.0310   172.6700   160.6390    25.6740     2.1850   -17.2440 
  164.2500    59.3300   199.4670   173.0100   169.6470    25.7410     2.1950   -16.5840 
  164.3750    55.4760   202.2420   175.3430   142.0300    25.7590     2.2400   -15.8720 
  164.5000    53.8240   203.3760   177.4150   141.1600    25.6520     2.3260   -15.0470 
  164.6250    55.5630   199.3790   175.9610   156.8130    25.4910     2.4400   -14.1010 
  164.7500    56.4230   188.1270   168.1550   181.7280    25.4330     2.5540   -13.1030 
  164.8750    53.1920   170.3040   153.6940   171.8490    25.4750     2.6320   -12.0280 
  165.0000    50.3570   151.3890   137.5810   125.7200    25.4240     2.6710   -10.8810 
  165.1250    52.5380   134.6420   123.0970    98.8390    25.2340     2.6860    -9.9280 
  165.2500    58.3810   120.3940   111.1320   104.6110    25.0610     2.6970    -9.2540 
  165.3750    62.4760   105.7490    99.1070   130.4930    24.9870     2.7180    -8.7280 
  165.5000    62.7770    87.9720    83.1410   131.2020    24.9960     2.7380    -8.2480 
  165.6250    61.0920    67.4330    62.8520    91.8000    24.9870     2.7440    -7.7870 
  165.7500    60.2650    47.0730    42.2190    47.7370    24.9500     2.7230    -7.2870 
  165.8750    59.9880    31.0280    26.8020    26.8540    24.8640     2.6760    -6.8080 
  166.0000    59.5540    19.8920    16.9260    15.0350    24.8530     2.6200    -6.4400 
  166.1250    60.1600    12.9620    11.2790     8.1400    24.7130     2.5700    -6.0710 
  166.2500    61.3640     9.1310     8.3170     5.6510    24.4560     2.5340    -5.6890 
  166.3750    62.2160     7.6390     7.1090     4.5900    24.1800     2.5130    -5.4000 
