~V
VERS. 2.00: Ver 2.00
~W
STRT.M 49.0000:
STOP.M 284.0000:
STEP.M 0.1250:
NULL. -999.2500:
UWI. F11034:
~C
DEPT.M :
GR.API :
RML.OHMM :
RI. :
RXO.OHMM :
CALI.CM :
DEN.GM/CC :
SP.MV :
~A
   49.0000  -999.2500  -999.2500  -999.2500  -999.2500  -999.2500  -999.2500   143.4460 
   49.1250  -999.2500  -999.2500  -999.2500  -999.2500  -999.2500  -999.2500   142.6880 
   49.2500  -999.2500  -999.2500  -999.2500  -999.2500  -999.2500  -999.2500   141.6310 
   49.3750  -999.2500  -999.2500  -999.2500  -999.2500  -999.2500  -999.2500   140.1890 
   49.5000  -999.2500  -999.2500  -999.2500  -999.2500  -999.2500  -999.2500   138.2950 
   49.6250  -999.2500  -999.2500  -999.2500  -999.2500  -999.2500  -999.2500   136.1440 
   49.7500  -999.2500  -999.2500  -999.2500  -999.2500  -999.2500  -999.2500   133.9080 
   49.8750  -999.2500  -999.2500  -999.2500  -999.2500  -999.2500  -999.2500   131.7490 
   50.0000  -999.2500  -999.2500  -999.2500  -999.2500  -999.2500  -999.2500   129.7990 
   50.1250  -999.2500  -999.2500  -999.2500  -999.2500  -999.2500  -999.2500   128.0880 
   50.2500  -999.2500  -999.2500  -999.2500  -999.2500  -999.2500  -999.2500   126.6820 
   50.3750  -999.2500  -999.2500  -999.2500  -999.2500  -999.2500  -999.2500   125.6670 
   50.5000  -999.2500  -999.2500  -999.2500  -999.2500  -999.2500  -999.2500   125.0740 
   50.6250  -999.2500  -999.2500  -999.2500  -999.2500  -999.2500  -999.2500   124.7340 
   50.7500  -999.2500  -999.2500  -999.2500  -999.2500  -999.2500  -999.2500   124.5020 
   50.8750  -999.2500  -999.2500  -999.2500  -999.2500  -999.2500  -999.2500   124.3120 
   51.0000  -999.2500  -999.2500  -999.2500  -999.2500  -999.2500  -999.2500   124.1410 
   51.1250  -999.2500  -999.2500  -999.2500  -999.2500  -999.2500  -999.2500   124.0090 
   51.2500  -999.2500  -999.2500  -999.2500  -999.2500  -999.2500  -999.2500   123.9030 
   51.3750  -999.2500  -999.2500  -999.2500  -999.2500  -999.2500  -999.2500   123.8420 
   51.5000  -999.2500  -999.2500  -999.2500  -999.2500  -999.2500  -999.2500   123.8500 
   51.6250  -999.2500  -999.2500  -999.2500  -999.2500  -999.2500  -999.2500   123.8890 
   51.7500  -999.2500  -999.2500  -999.2500  -999.2500  -999.2500  -999.2500   123.9160 
   51.8750  -999.2500  -999.2500  -999.2500  -999.2500  -999.2500  -999.2500   123.8700 
   52.0000  -999.2500  -999.2500  -999.2500  -999.2500  -999.2500  -999.2500   123.6460 
   52.1250  -999.2500  -999.2500  -999.2500  -999.2500  -999.2500  -999.2500   123.2030 
   52.2500  -999.2500  -999.2500  -999.2500  -999.2500  -999.2500  -999.2500   122.5570 
   52.3750  -999.2500  -999.2500  -999.2500  -999.2500  -999.2500  -999.2500   121.7300 
   52.5000  -999.2500  -999.2500  -999.2500  -999.2500  -999.2500  -999.2500   120.7350 
   52.6250  -999.2500  -999.2500  -999.2500  -999.2500  -999.2500  -999.2500   119.5860 
   52.7500  -999.2500  -999.2500  -999.2500  -999.2500  -999.2500  -999.2500   118.2840 
   52.8750    53.9550     0.7060     0.3510     1.8530    25.2850  -999.2500   116.8210 
   53.0000    53.9550     0.7060     0.3510     1.8530    25.2850  -999.2500   115.2580 
   53.1250    53.2390     0.7040     0.3500     1.9390    25.2850  -999.2500   113.7040 
   53.2500    49.8090     0.7010     0.3480     2.2110    25.2850  -999.2500   112.2060 
   53.3750    44.8860     0.7040     0.3500     2.5790    25.2850     0.0000   110.7260 
   53.5000    40.9360     0.7110     0.3560     2.9840    25.2850     0.0000   109.2390 
   53.6250    37.5100     0.7120     0.3700     3.1820    25.2850     0.0000   107.7790 
   53.7500    34.7180     0.7030     0.3870     3.0560    25.2850     1.2170   106.3800 
   53.8750    34.1530     0.6860     0.4040     2.8280    25.2850     1.9230   105.1250 
   54.0000    35.1160     0.6700     0.4220     2.7100    25.2850     2.0200   104.0610 
   54.1250    35.3180     0.6650     0.4350     2.8100    25.2850     2.0130   103.1290 
   54.2500    34.7570     0.6740     0.4440     3.0990    25.2850     2.0060   102.3010 
   54.3750    34.8490     0.7000     0.4470     3.3100    25.2850     2.0040   101.6010 
   54.5000    35.5800     0.7440     0.4470     2.9540    25.2850     2.0060   101.0240 
   54.6250    36.1290     0.8020     0.4480     2.2980    25.2850     2.0090   100.5590 
   54.7500    36.3990     0.8730     0.4500     1.6640    25.2850     2.0100   100.2320 
   54.8750    36.3080     0.9560     0.4520     1.2610    25.2850     2.0090    99.9990 
   55.0000    36.6760     1.0510     0.4510     1.1720    25.2850     2.0110    99.8290 
   55.1250    37.7390     1.1660     0.4430     1.2690    25.2850     2.0170    99.6850 
   55.2500    38.5860     1.3120     0.4270     1.5750    25.2850     2.0280    99.5400 
   55.3750    39.4140     1.4970     0.4060     2.0110    25.2850     2.0390    99.3320 
   55.5000    40.9000     1.6910     0.3860     2.4530    25.2850     2.0440    99.0600 
   55.6250    42.3670     1.8280     0.3720     2.8660    25.2850     2.0430    98.7510 
   55.7500    41.8980     1.8350     0.3670     3.3090    25.2850     2.0360    98.4360 
   55.8750    40.0290     1.6600     0.3740     3.7070    25.2850     2.0290    98.1550 
   56.0000    39.7550     1.3290     0.3920     4.0600    25.2850     2.0210    97.9490 
   56.1250    40.6200     0.9810     0.4120     4.0680    25.2850     2.0100    97.8200 
   56.2500    41.3210     0.7140     0.4270     3.6850    25.2850     1.9980    97.7550 
   56.3750    42.0170     0.5510     0.4320     3.1110    25.2850     1.9820    97.7910 
   56.5000    42.8540     0.4760     0.4270     2.7090    25.2850     1.9690    97.9180 
   56.6250    42.8710     0.4520     0.4150     2.4500    25.2850     1.9570    98.0370 
   56.7500    42.3050     0.4540     0.4070     2.2520    25.2850     1.9490    98.0320 
   56.8750    42.3960     0.4690     0.4080     2.0840    25.2850     1.9430    97.7910 
   57.0000    42.4620     0.4860     0.4240     1.9740    25.2850     1.9420    97.1380 
   57.1250    41.4670     0.4920     0.4480     1.8980    25.2850     1.9480    96.0120 
   57.2500    40.1760     0.4670     0.4660     1.8500    25.2850     1.9660    94.3300 
   57.3750    39.3280     0.3980     0.4600     1.1770    25.2850     2.0080    91.9970 
   57.5000    38.5080     0.2730     0.4120     0.7860    25.2850     2.0960    88.7680 
   57.6250    37.9820     0.1240     0.3320     0.4330    25.2840     2.2260    84.5210 
   57.7500    38.3830    -0.0050     0.2530     0.2880    25.2820     2.3820    79.0680 
   57.8750    40.2950    -0.0740     0.2040     0.2460    25.2570     2.5170    72.2020 
   58.0000    44.4880    -0.0480     0.2210     0.2620    25.0840     2.5670    63.5610 
   58.1250    49.5390     0.0910     0.3280     1.4280    24.6530     2.5270    53.4040 
   58.2500    53.3090     0.3910     0.5770     3.6460    24.0820     2.4340    42.2700 
   58.3750    54.3450     0.9160     1.0410     5.7780    23.6850     2.3270    30.8200 
   58.5000    53.9030     1.7240     1.8200     7.9010    23.5840     2.2360    19.7210 
   58.6250    54.2280     2.7140     2.8620     9.3110    23.5480     2.1750     9.4040 
   58.7500    55.8520     3.6890     4.0180     9.8750    23.4360     2.1430     0.2210 
   58.8750    58.3130     4.3960     5.0540    10.2130    23.2770     2.1320    -7.4980 
   59.0000    61.0570     4.6300     5.7010    10.5650    23.1650     2.1350   -13.2000 
   59.1250    63.3390     4.5660     5.9810    10.7840    23.1030     2.1410   -17.0290 
   59.2500    64.4880     4.4200     6.0320    10.9050    23.0460     2.1470   -19.4170 
   59.3750    63.8790     4.3170     5.9880    10.9210    23.0010     2.1510   -20.8940 
   59.5000    62.3850     4.3080     5.9430    10.8300    22.9830     2.1540   -21.8350 
   59.6250    62.7780     4.3670     5.9330    10.7280    22.9800     2.1560   -22.4530 
   59.7500    65.7270     4.4500     5.9450    10.6680    22.9760     2.1590   -22.8080 
   59.8750    68.3820     4.5100     5.9460    10.6460    22.9570     2.1660   -22.9470 
   60.0000    67.1340     4.5030     5.8850    10.7010    22.9100     2.1760   -22.9090 
   60.1250    64.2420     4.4150     5.7470    10.8040    22.8540     2.1850   -22.7210 
