~V
VERS. 2.00: Ver 2.00
~W
STRT.M 51.0000:
STOP.M 277.0000:
STEP.M 0.1250:
NULL. -999.2500:
UWI. F11053:
~C
DEPT.M :
GR.API :
RML.OHMM :
RI. :
RXO.OHMM :
CALI.CM :
DEN.GM/CC :
SP.MV :
~A
# ...
  152.2500    61.4560    16.3600    13.8470    13.8280    25.7610     2.6060   -14.8770 
  152.3750    67.4010    15.8740    13.3830    12.8710    25.8060     2.5930   -14.8810 
  152.5000    71.0990    15.6500    13.1460    12.4900    25.7690     2.5770   -14.9180 
  152.6250    70.5150    15.7280    13.1870    12.5940    25.6840     2.5640   -14.9800 
  152.7500    68.0930    16.0840    13.4840    13.6180    25.6070     2.5540   -15.0690 
  152.8750    67.1670    16.6360    13.9550    14.6350    25.5780     2.5460   -15.1540 
  153.0000    69.3470    17.2550    14.4750    15.4410    25.6040     2.5390   -15.2330 
  153.1250    71.5920    17.8370    14.9420    15.9160    25.6610     2.5290   -15.2940 
  153.2500    71.2850    18.3690    15.3430    15.8320    25.7120     2.5200   -15.3490 
  153.3750    68.7720    18.9050    15.7280    15.4940    25.7320     2.5120   -15.3910 
  153.5000    67.7100    19.5510    16.1870    15.6970    25.7470     2.5000   -15.4290 
  153.6250    70.6970    20.3770    16.7820    16.5140    25.8080     2.4830   -15.4620 
  153.7500    76.0800    21.4360    17.5600    17.4100    25.8960     2.4540   -15.5120 
  153.8750    78.2460    22.7840    18.5590    18.2130    25.9960     2.4170   -15.5800 
  154.0000    72.8560    24.5370    19.8820    19.3250    26.1460     2.3750   -15.6620 
  154.1250    64.7140    26.7480    21.6060    22.0150    26.3390     2.3340   -15.7530 
  154.2500    60.5720    29.5040    23.8500    26.3740    26.5190     2.3000   -15.8450 
  154.3750    60.8590    32.9210    26.7580    32.1690    26.6600     2.2720   -15.9650 
  154.5000    60.6220    37.1750    30.5530    35.9980    26.7330     2.2500   -16.0440 
  154.6250    59.6270    42.1070    35.1520    39.8840    26.7420     2.2340   -16.1110 
  154.7500    59.6740    47.2670    40.2720    44.0720    26.7310     2.2220   -16.1560 
  154.8750    59.9380    51.6150    45.2370    50.4260    26.7150     2.2140   -16.2020 
  155.0000    58.6260    52.7600    48.3510    58.8090    26.6770     2.2080   -16.2560 
  155.1250    57.5030    49.3400    47.9190    63.0350    26.5980     2.2020   -16.3210 
  155.2500    58.7370    41.7370    43.0710    57.0620    26.4420     2.1990   -16.3780 
  155.3750    62.9680    32.1210    34.8330    44.3360    26.2380     2.2070   -16.4460 
  155.5000    69.3160    23.4740    25.9840    28.8440    26.0580     2.2350   -16.5470 
  155.6250    75.1040    17.1210    18.7330    18.1870    25.9530     2.2810   -16.6560 
  155.7500    78.5490    12.9650    13.6530    11.4060    25.9180     2.3390   -16.7730 
  155.8750    80.9230    10.4460    10.4500     7.9920    25.9110     2.3990   -16.8980 
  156.0000    84.8640     9.1490     8.7490     6.8420    25.9710     2.4500   -17.0440 
  156.1250    89.3000     8.6300     8.0020     6.4490    26.0240     2.4890   -17.2030 
  156.2500    92.1650     8.7040     7.9560     6.3790    26.0130     2.5110   -17.3880 
  156.3750    93.3140     9.3070     8.5120     6.5900    25.9360     2.5160   -17.5660 
  156.5000    93.8140    10.4490     9.6550     7.4170    25.8240     2.4980   -17.7690 
  156.6250    94.3470    11.9770    11.1970     9.0020    25.7120     2.4680   -17.9920 
  156.7500    94.6750    13.6760    12.9200    11.4750    25.6240     2.4340   -18.2510 
  156.8750    94.1430    15.2910    14.5700    14.8040    25.5880     2.4080   -18.5420 
  157.0000    91.3260    16.5790    15.8730    15.9130    25.6090     2.3950   -18.8900 
  157.1250    87.0130    17.6080    16.8440    15.2700    25.6570     2.3900   -19.2670 
  157.2500    82.7420    18.6320    17.7090    15.0020    25.6890     2.3830   -19.6800 
  157.3750    78.7240    19.9740    18.7700    16.2480    25.7090     2.3720   -20.1280 
  157.5000    75.3100    21.9950    20.3430    17.2700    25.7510     2.3570   -20.5890 
  157.6250    74.3660    24.7100    22.4590    18.8740    25.8270     2.3430   -21.0390 
  157.7500    75.7790    27.9380    25.0560    21.5070    25.9530     2.3320   -21.4390 
  157.8750    76.5140    31.2870    27.9610    27.1360    26.0870     2.3250   -21.7950 
  158.0000    74.2780    34.0130    30.6830    33.6010    26.1600     2.3190   -22.0850 
  158.1250    72.3040    35.4190    32.5460    34.6380    26.1980     2.3110   -22.3460 
  158.2500    73.4710    34.9910    32.9070    38.1720    26.2500     2.3030   -22.5800 
  158.3750    75.9010    32.6610    31.3840    41.9150    26.2750     2.3030   -22.8060 
  158.5000    76.7590    28.9770    28.1230    33.4220    26.2250     2.3180   -23.0210 
  158.6250    78.0180    25.2160    24.3940    23.0100    26.1620     2.3490   -23.2430 
  158.7500    82.5340    22.3540    21.3240    18.8310    26.1420     2.3860   -23.4920 
  158.8750    87.4200    20.9390    19.5930    16.9850    26.1590     2.4170   -23.7730 
  159.0000    88.1780    21.6120    20.0660    15.8360    26.2180     2.4210   -24.0800 
  159.1250    85.9090    24.8350    23.5190    19.3970    26.3450     2.3960   -24.3900 
  159.2500    81.6790    31.7640    31.2240    38.1810    26.5690     2.3480   -24.7170 
  159.3750    75.1810    44.2410    44.4890    83.9870    26.8050     2.2960   -25.0420 
  159.5000    69.0980    64.3070    63.9690   121.9700    26.9240     2.2590   -25.3600 
  159.6250    66.5830    88.7230    85.7590   127.5780    26.9460     2.2430   -25.6860 
  159.7500    66.7570   111.8710   104.6540   112.6290    26.9520     2.2430   -26.0230 
  159.8750    66.8170   129.6410   118.2240    96.1660    26.9920     2.2460   -26.3570 
  160.0000    66.4450   142.4090   128.7920   104.9460    27.0600     2.2440   -26.6820 
  160.1250    65.8070   154.0300   140.0140   125.7170    27.1370     2.2330   -26.9900 
  160.2500    64.2730   164.5270   151.6130   143.1030    27.2140     2.2160   -27.2730 
  160.3750    62.6070   169.5140   159.3650   153.2420    27.2790     2.2040   -27.5280 
  160.5000    62.4030   163.1370   156.4870   152.7760    27.3090     2.2060   -27.7920 
  160.6250    62.9570   147.8040   143.3890   138.0640    27.3170     2.2240   -28.0420 
  160.7500    63.8070   129.8020   125.5650   119.2640    27.3280     2.2520   -28.2790 
  160.8750    66.0510   115.2120   109.5960    93.0020    27.3670     2.2800   -28.4800 
  161.0000    69.8980   108.7050   101.4360    66.5070    27.4910     2.2910   -28.6430 
  161.1250    71.8900   110.9190   102.9160    58.2520    27.6690     2.2860   -28.7930 
  161.2500    69.7110   122.4120   114.6850    84.6860    27.8610     2.2680   -28.9470 
  161.3750    65.7150   143.8050   136.3840   143.1230    28.0580     2.2460   -29.1200 
  161.5000    64.3250   174.5200   166.0150   174.6950    28.2730     2.2260   -29.2790 
  161.6250    65.8540   207.7090   196.6080   163.7910    28.4770     2.2110   -29.4120 
  161.7500    67.0960   235.3830   220.8840   143.8330    28.6370     2.2030   -29.5280 
  161.8750    64.8180   252.6350   235.0220   138.9770    28.7220     2.2060   -29.6640 
  162.0000    60.6480   259.6560   240.2540   163.6230    28.7590     2.2210   -29.8310 
  162.1250    58.3310   262.5490   242.0800   196.5720    28.8070     2.2420   -29.9800 
  162.2500    58.9920   265.3710   243.4450   197.5860    28.8940     2.2570   -30.0780 
  162.3750    60.8660   269.3250   245.1900   176.7380    29.0010     2.2600   -30.1170 
  162.5000    62.1770   274.0830   247.4160   158.4320    29.1210     2.2470   -30.1090 
  162.6250    62.6190   278.8140   249.7350   156.6410    29.2400     2.2290   -30.1060 
  162.7500    62.0230   283.2030   251.7730   160.1890    29.3360     2.2140   -30.0890 
  162.8750    60.5260   287.7800   253.7190   162.3510    29.3840     2.2060   -30.0450 
  163.0000    60.2470   294.8090   257.3530   160.4970    29.3950     2.2070   -29.9920 
  163.1250    62.5270   307.3330   265.3490   156.6690    29.4000     2.2110   -29.9710 
  163.2500    65.6250   329.0730   280.8550   137.7950    29.4150     2.2130   -29.9700 
  163.3750    66.0200   363.6340   306.6630   124.1750    29.4400     2.2110   -29.9950 
