~V
VERS. 2.00: Ver 2.00
~W
STRT.M 55.0000:
STOP.M 229.0000:
STEP.M 0.1250:
NULL. -999.2500:
UWI. F11013:
~C
DEPT.M :
DEN.GM/CC :
GR.API :
RML.OHMM :
RI. :
RXO.OHMM :
CALI.CM :
SP.MV :
~A
# ...
  122.5000     2.3180    74.9550     6.1040     5.4870     5.7600    23.0870   -13.2940 
  122.6250     2.3390    83.8350     5.2090     4.6880     4.6380    23.1820   -13.0600 
  122.7500     2.3420    88.8600     4.7450     4.1920     4.0360    23.2500   -12.8990 
  122.8750     2.3240    88.7810     4.8220     4.1010     4.1450    23.3100   -12.7860 
  123.0000     2.2940    86.5570     5.3170     4.3500     4.7190    23.4370   -12.7770 
  123.1250     2.2630    83.3850     6.1160     4.8830     5.4540    23.6120   -12.8090 
  123.2500     2.2420    78.0740     7.0140     5.5800     6.1800    23.7840   -12.9110 
  123.3750     2.2360    72.3030     7.6740     6.2060     6.8520    23.9930   -13.0160 
  123.5000     2.2400    70.0290     7.9120     6.5550     7.2840    24.1080   -13.0940 
  123.6250     2.2450    71.6620     7.7370     6.5660     7.2400    24.0800   -13.1030 
  123.7500     2.2480    75.8030     7.3120     6.3230     6.7740    23.9990   -13.0630 
  123.8750     2.2470    77.3150     6.8480     5.9730     6.1050    23.9820   -12.9970 
  124.0000     2.2440    77.3730     6.4650     5.6440     5.8180    23.9750   -12.9070 
  124.1250     2.2420    78.8020     6.1690     5.3660     6.1280    23.9830   -12.7890 
  124.2500     2.2510    81.3690     5.9430     5.1380     6.2600    23.9130   -12.6040 
  124.3750     2.2760    81.9820     5.8310     4.9850     5.8080    23.7520   -12.4360 
  124.5000     2.3010    82.0500     5.8800     4.9390     5.0680    23.6480   -12.2830 
  124.6250     2.3170    83.6730     6.1270     5.0340     4.6700    23.5050   -12.2080 
  124.7500     2.3260    85.6420     6.5410     5.2690     4.8000    23.3400   -12.1390 
  124.8750     2.3380    83.3690     6.9880     5.5830     5.2820    23.2920   -12.1100 
  125.0000     2.3410    79.4050     7.2590     5.8250     6.0770    23.3390   -12.0690 
  125.1250     2.3280    79.2730     7.2340     5.8860     6.3690    23.4590   -12.0590 
  125.2500     2.3110    83.2300     6.9660     5.7630     6.1470    23.6420   -12.0900 
  125.3750     2.3030    83.2100     6.6880     5.5860     5.7690    23.8590   -12.1490 
  125.5000     2.3000    79.0950     6.6360     5.5300     5.7440    23.9770   -12.2360 
  125.6250     2.2980    76.7460     6.8960     5.6780     6.1710    23.9230   -12.3180 
  125.7500     2.2990    77.1270     7.4290     6.0380     7.4040    23.8060   -12.4310 
  125.8750     2.2880    78.3450     8.0860     6.5420     9.6070    23.7160   -12.4820 
  126.0000     2.2690    78.5580     8.6320     7.0200    10.6320    23.6030   -12.5370 
  126.1250     2.2580    77.2710     8.9290     7.3520     9.2130    23.4450   -12.5230 
  126.2500     2.2720    74.2670     8.9350     7.4770     7.9750    23.3630   -12.4850 
  126.3750     2.3110    74.3910     8.6510     7.3640     7.6860    23.4060   -12.4140 
  126.5000     2.3560    78.2770     8.2030     7.0960     7.6460    23.4940   -12.3010 
  126.6250     2.3880    81.4130     7.6730     6.7290     7.4080    23.5330   -12.1610 
  126.7500     2.3890    83.7570     7.1430     6.3250     6.7360    23.4220   -11.9900 
  126.8750     2.3610    86.9900     6.7210     5.9610     6.0620    23.1570   -11.8430 
  127.0000     2.3370    89.7100     6.4570     5.6880     5.6840    22.9650   -11.6960 
  127.1250     2.3280    90.2340     6.3490     5.5220     5.4730    22.9870   -11.6090 
  127.2500     2.3290    89.9450     6.3320     5.4360     5.2290    23.1040   -11.5620 
  127.3750     2.3290    88.8250     6.2940     5.3680     5.1800    23.1760   -11.5640 
  127.5000     2.3250    87.2040     6.1650     5.2610     5.1970    23.1990   -11.6160 
  127.6250     2.3200    88.5840     5.9660     5.1170     5.2370    23.2860   -11.7090 
  127.7500     2.3140    92.4660     5.7940     4.9870     5.1580    23.5100   -11.8110 
  127.8750     2.3050    93.9550     5.8520     5.0010     4.9750    23.7500   -11.9740 
  128.0000     2.2920    93.6090     6.2800     5.2530     5.1960    23.7490   -12.1740 
  128.1250     2.2670    92.8770     7.1740     5.8280     6.1850    23.5900   -12.4280 
  128.2500     2.2320    89.2720     8.5270     6.7610     8.4150    23.4770   -12.7200 
  128.3750     2.2000    79.7230    10.2240     8.0500    10.0490    23.7200   -13.0280 
  128.5000     2.1810    70.3400    11.9280     9.4650    11.6910    24.1080   -13.3480 
  128.6250     2.1740    65.0030    13.3860    10.7880    13.1940    24.3220   -13.6590 
  128.7500     2.1730    62.6110    14.4610    11.8450    14.1690    24.3660   -13.9820 
  128.8750     2.1800    63.0630    15.1290    12.5470    13.9200    24.3640   -14.2350 
  129.0000     2.1920    65.7810    15.5300    13.0030    13.5300    24.3780   -14.4520 
  129.1250     2.2030    68.8320    15.6340    13.2140    14.6680    24.4130   -14.5720 
  129.2500     2.2040    70.4700    15.3320    13.1060    15.7750    24.4450   -14.6590 
  129.3750     2.1970    69.7350    14.5000    12.5660    15.6380    24.4380   -14.6650 
  129.5000     2.1860    67.8640    13.3890    11.7710    14.0520    24.4140   -14.6100 
  129.6250     2.1760    66.7190    12.3220    10.9560    11.8560    24.3940   -14.4950 
  129.7500     2.1710    68.7720    11.6470    10.3760    10.3800    24.3800   -14.3530 
  129.8750     2.1710    72.4250    11.7400    10.3130     9.7200    24.4400   -14.1560 
  130.0000     2.1750    72.6720    12.5260    10.7740    10.3070    24.5060   -13.9370 
  130.1250     2.1820    67.8110    13.7820    11.6770    12.1670    24.5580   -13.7140 
  130.2500     2.1920    61.9030    15.0270    12.7250    14.0070    24.5430   -13.4240 
  130.3750     2.2010    60.6700    15.3680    13.2140    14.9320    24.5280   -13.1310 
  130.5000     2.2070    64.8150    14.4230    12.6680    14.8410    24.5700   -12.8230 
  130.6250     2.2210    70.4290    12.4280    11.1860    14.0350    24.6200   -12.5460 
  130.7500     2.2540    73.0220    10.1580     9.3800    11.5830    24.4960   -12.2640 
  130.8750     2.3020    76.8570     8.5600     7.9880     7.8820    24.0870   -12.0380 
  131.0000     2.3400    83.0920     7.9400     7.2790     5.9510    23.7720   -11.8120 
  131.1250     2.3560    85.0880     8.3230     7.3120     5.9770    23.5340   -11.6360 
  131.2500     2.3430    78.8370     9.5760     8.0670     8.0720    23.2860   -11.5180 
  131.3750     2.3070    71.0680    11.4910     9.5270    10.9820    23.1950   -11.4710 
  131.5000     2.2740    71.0040    13.5530    11.3300    12.4640    23.3960   -11.4570 
  131.6250     2.2640    73.8590    15.4070    13.1390    13.6140    23.7680   -11.4480 
  131.7500     2.2810    72.3900    16.8780    14.6810    15.5350    24.1960   -11.4500 
  131.8750     2.3260    66.2960    17.9870    15.8490    17.4580    24.5170   -11.4490 
  132.0000     2.3930    61.3480    18.9340    16.8020    18.6420    24.6570   -11.4770 
  132.1250     2.4700    60.2860    19.7080    17.5640    19.4610    24.5900   -11.4600 
  132.2500     2.5360    60.5560    20.1660    18.0360    20.7850    24.4620   -11.4500 
  132.3750     2.5580    57.9990    20.1090    18.0310    21.5740    24.4100   -11.3880 
  132.5000     2.5460    52.2950    19.6770    17.6590    20.9450    24.5230   -11.3420 
  132.6250     2.5260    46.3450    19.0700    17.0910    20.0560    24.6890   -11.3240 
  132.7500     2.5140    44.6390    18.5130    16.5310    19.3600    24.7680   -11.3140 
  132.8750     2.5120    46.9070    18.2190    16.1790    19.2420    24.6890   -11.2980 
  133.0000     2.5140    47.5890    18.1870    16.0670    18.0960    24.5900   -11.2840 
  133.1250     2.5150    47.5690    18.3350    16.1530    17.6440    24.5270   -11.2930 
  133.2500     2.5140    49.5560    18.5370    16.3430    17.7620    24.4890   -11.2830 
  133.3750     2.5040    52.5810    18.6680    16.5240    17.6620    24.4680   -11.2950 
  133.5000     2.4910    54.5170    18.6780    16.6210    17.7240    24.4430   -11.3070 
  133.6250     2.4830    55.7320    18.5500    16.6030    18.0630    24.4250   -11.2960 
