~V
VERS. 2.00: Ver 2.00
~W
STRT.M 58.0000:
STOP.M 277.0000:
STEP.M 0.1250:
NULL. -999.2500:
UWI. F11038:
~C
DEPT.M :
GR.API :
RML.OHMM :
RI. :
RXO.OHMM :
CALI.CM :
DEN.GM/CC :
SP.MV :
~A
# ...
  215.5000    69.6810    80.0910    74.9820    67.9070    25.0380     2.2060   -17.4050 
  215.6250    69.4330    80.6670    76.0900    74.5850    25.1150     2.1980   -17.7270 
  215.7500    66.8630    80.5180    76.4770    73.9340    25.1580     2.1890   -18.0370 
  215.8750    65.1660    79.8430    76.2570    68.3200    25.1830     2.1820   -18.3410 
  216.0000    67.2150    78.9390    75.6340    65.2470    25.1870     2.1800   -18.5910 
  216.1250    72.0400    78.1980    74.9790    65.6180    25.2220     2.1900   -18.8260 
  216.2500    74.5220    77.9170    74.6430    68.5060    25.2740     2.2070   -19.0120 
  216.3750    73.1350    78.3530    74.8730    67.3810    25.2840     2.2240   -19.1110 
  216.5000    70.5380    79.8410    75.9790    60.2600    25.1740     2.2380   -19.1740 
  216.6250    70.5880    83.0280    78.6860    52.5470    25.0360     2.2420   -19.1480 
  216.7500    71.5740    88.5670    83.3340    51.9650    24.9910     2.2420   -19.0930 
  216.8750    69.9700    97.3990    90.3410    59.0000    25.0580     2.2390   -18.9940 
  217.0000    67.0640   109.4570    99.8130    82.9140    25.2040     2.2340   -18.9080 
  217.1250    67.8230   123.5650   111.6020   103.8530    25.2880     2.2250   -18.7610 
  217.2500    70.9450   137.9670   124.4240   113.1860    25.2460     2.2130   -18.6260 
  217.3750    72.3230   151.9450   137.2530   126.0880    25.1690     2.1990   -18.5160 
  217.5000    69.5950   164.5690   148.9940   151.5240    25.2790     2.1870   -18.4090 
  217.6250    64.8690   173.4430   157.8660   166.0830    25.3360     2.1800   -18.3460 
  217.7500    61.6840   177.2500   162.6920   155.5020    25.2690     2.1790   -18.2570 
  217.8750    61.5490   174.8490   162.1840   131.1200    25.1820     2.1830   -18.1920 
  218.0000    63.5350   166.6940   156.1020   102.3560    25.1750     2.1900   -18.1110 
  218.1250    65.1530   155.9990   145.7090    78.7840    25.1630     2.1950   -18.0200 
  218.2500    66.2120   146.4940   134.6910    68.3500    25.1340     2.1970   -17.9070 
  218.3750    66.6970   138.6760   125.2580    64.2210    25.1310     2.1970   -17.7740 
  218.5000    65.6040   131.8870   118.5240    67.8440    25.1370     2.1960   -17.6440 
  218.6250    64.3670   126.0710   114.6210    74.7260    25.1080     2.1970   -17.4600 
  218.7500    65.2100   120.7200   111.5830    80.0110    25.0970     2.1980   -17.3370 
  218.8750    66.9330   114.4230   107.6690    90.7630    25.0920     2.2010   -17.2230 
  219.0000    68.5030   106.4170   101.7910   101.2020    25.0850     2.2060   -17.1650 
  219.1250    71.3610    97.3050    94.0700    94.2690    25.0900     2.2160   -17.0970 
  219.2500    73.3260    88.8130    86.4000    76.3880    25.0790     2.2280   -16.9770 
  219.3750    72.3660    82.1110    80.2230    54.8000    25.0820     2.2390   -16.8960 
  219.5000    69.8850    77.6370    76.2150    42.0630    25.0780     2.2450   -16.8020 
  219.6250    69.7270    75.2620    74.3670    40.7900    25.0750     2.2410   -16.7160 
  219.7500    70.2530    73.7290    73.4130    45.0400    25.0750     2.2300   -16.5300 
  219.8750    68.2250    72.1940    72.4310    48.9410    25.0820     2.2160   -16.3240 
  220.0000    64.1370    70.1840    70.8260    50.8520    25.0950     2.2030   -16.0690 
  220.1250    62.8630    67.7720    68.5610    50.5050    25.1010     2.1910   -15.8600 
  220.2500    66.2310    65.6270    66.3830    44.5720    25.0930     2.1830   -15.6710 
  220.3750    70.3840    64.2840    64.9310    45.3640    25.1090     2.1790   -15.4470 
  220.5000    71.7950    63.9390    64.5060    52.6320    25.1460     2.1790   -15.2460 
  220.6250    70.2220    64.3560    64.9510    59.9660    25.1470     2.1810   -15.1290 
  220.7500    67.6780    64.7310    65.3840    66.9500    25.1150     2.1790   -15.0610 
  220.8750    65.4670    64.5250    65.1330    74.4640    25.0930     2.1720   -15.0130 
  221.0000    64.0400    63.5760    63.9430    85.6770    25.0890     2.1640   -14.9930 
  221.1250    64.5460    62.2060    62.1200    99.2200    25.0740     2.1680   -14.9720 
  221.2500    64.8220    61.1590    60.5530   118.0330    25.0490     2.1850   -15.0480 
  221.3750    64.5970    60.9460    59.8550   170.9950    25.0120     2.2080   -15.1680 
  221.5000    64.4950    61.7810    60.2890   227.4800    24.9570     2.2240   -15.3500 
  221.6250    66.3730    63.7120    61.9080   164.6980    25.0040     2.2260   -15.5570 
  221.7500    69.8160    66.3290    64.2770    93.6850    25.0380     2.2190   -15.8040 
  221.8750    71.6690    69.4810    67.2300    77.9100    25.0890     2.2100   -16.0600 
  222.0000    70.6330    73.1550    70.7170    74.3790    25.1250     2.2050   -16.2640 
  222.1250    69.4790    77.5120    74.9330    70.3860    25.1420     2.2030   -16.4630 
  222.2500    69.9790    82.2700    79.8100    76.8610    25.1660     2.2010   -16.6330 
  222.3750    69.8280    86.6830    84.8410    91.2420    25.2010     2.1980   -16.7790 
  222.5000    68.4130    89.4560    88.6990    99.6910    25.2120     2.1950   -16.8860 
  222.6250    68.9910    88.7100    88.9600    95.4300    25.1860     2.1950   -16.8860 
  222.7500    72.6550    84.7600    85.4160    93.0030    25.1770     2.2000   -16.8860 
  222.8750    75.2100    78.7950    79.2400    91.7210    25.1710     2.2080   -16.8760 
  223.0000    73.9410    72.5870    72.4530    84.8600    25.1700     2.2180   -16.9250 
  223.1250    71.6040    67.9580    67.1040    71.0570    25.1600     2.2250   -17.0010 
  223.2500    70.5000    65.2680    63.6810    64.7130    25.1670     2.2310   -17.1290 
  223.3750    70.0860    64.2960    61.9720    69.7550    25.1940     2.2410   -17.3400 
  223.5000    70.0410    64.5940    61.5110    70.4700    25.2270     2.2630   -17.6380 
  223.6250    71.1330    66.0150    62.1280    63.0110    25.2650     2.2930   -18.0660 
  223.7500    71.4810    68.5500    63.7800    59.1450    25.2700     2.3170   -18.5550 
  223.8750    69.4020    72.7000    66.9380    61.2560    25.2200     2.3210   -19.1510 
  224.0000    67.1740    79.2340    72.2240    64.1850    25.1640     2.3040   -19.7900 
  224.1250    66.5750    88.5270    80.4500    68.7320    25.1800     2.2730   -20.5470 
  224.2500    66.6980    98.4100    90.5960    80.8030    25.2580     2.2460   -21.3490 
  224.3750    66.2710   107.2130   101.0090    95.8380    25.2660     2.2320   -22.1900 
  224.5000    64.7260   114.0810   109.4600   118.0350    25.2830     2.2270   -23.0700 
  224.6250    62.6620   117.8180   113.3170   117.1690    25.3320     2.2260   -23.9630 
  224.7500    62.8400   118.0260   112.8370   109.9040    25.3430     2.2230   -24.9040 
  224.8750    65.1490   114.9720   109.0680   109.1710    25.2430     2.2170   -25.8460 
  225.0000    66.1340   110.2930   103.6750   114.7580    25.1940     2.2100   -26.7520 
  225.1250    65.0700   105.8130    98.4170   113.1400    25.2150     2.2050   -27.5420 
  225.2500    65.4410   102.7030    94.4390   103.5970    25.2720     2.2010   -28.1650 
  225.3750    66.4600   101.5600    92.3070    93.5700    25.3760     2.1980   -28.5970 
  225.5000    66.0850   102.6860    92.3190    90.0020    25.4780     2.1960   -28.7670 
  225.6250    64.9310   106.4540    94.8690    95.6230    25.5920     2.1970   -28.6670 
  225.7500    64.5920   112.0790    99.2480   101.1990    25.6170     2.2010   -28.3070 
  225.8750    63.9680   118.8880   104.8470   108.6250    25.5130     2.2060   -27.6650 
  226.0000    62.6370   126.1120   110.9410   116.9560    25.3860     2.2130   -26.8420 
  226.1250    63.2960   133.0750   116.8570   126.1130    25.4310     2.2220   -25.8150 
  226.2500    66.5910   139.6740   122.4200   133.7160    25.4510     2.2360   -24.7100 
  226.3750    69.1660   146.1800   127.8350   139.2410    25.4710     2.2550   -23.5710 
  226.5000    69.1790   152.9130   133.4510   143.2200    25.5020     2.2740   -22.4610 
  226.6250    69.6910   159.5520   139.3900   158.2150    25.5420     2.2880   -21.3540 
