~V
VERS. 2.00: Ver 2.00
~W
STRT.M 52.0000:
STOP.M 279.0000:
STEP.M 0.1250:
NULL. -999.2500:
UWI. F11031:
~C
DEPT.M :
DEN.GM/CC :
GR.API :
RML.OHMM :
RI. :
RXO.OHMM :
CALI.CM :
SP.MV :
~A
# ...
  108.2500     2.1930    65.7910     8.2820     6.6340     8.6090    21.9950   -23.0600 
  108.3750     2.1930    66.2640     8.1530     6.5340     8.6970    21.9000   -22.9030 
  108.5000     2.1900    63.6440     8.1120     6.4880     8.7780    21.8400   -22.7060 
  108.6250     2.1860    60.6050     8.2110     6.5050     8.6490    21.8760   -22.4970 
  108.7500     2.1810    59.6100     8.4210     6.5730     8.5900    21.8420   -22.3580 
  108.8750     2.1770    60.0550     8.6880     6.6890     8.6600    21.8100   -22.2190 
  109.0000     2.1740    61.2170     8.9420     6.8520     8.8850    21.7960   -22.0400 
  109.1250     2.1750    61.6110     9.1040     7.0400     9.0560    21.7950   -21.8190 
  109.2500     2.1800    61.5040     9.1320     7.1960     9.1710    21.8000   -21.4820 
  109.3750     2.1900    60.3930     8.9880     7.2490     9.2830    21.8050   -20.9470 
  109.5000     2.2030    59.4280     8.6530     7.1400     9.0500    21.7930   -20.2580 
  109.6250     2.2190    62.8620     8.1420     6.8290     8.2580    21.5560   -19.4410 
  109.7500     2.2330    68.1820     7.5850     6.4000     7.4720    20.8150   -18.5150 
  109.8750     2.2400    72.7730     7.1050     5.9470     6.9610    19.7470   -17.5790 
  110.0000     2.2420    74.3210     6.8140     5.5660     6.6510    18.9280   -16.7600 
  110.1250     2.2380    73.6380     6.7980     5.3570     6.4480    18.9830   -16.1660 
  110.2500     2.2310    73.9590     6.9760     5.3200     6.0800    19.2910   -15.8320 
  110.3750     2.2230    75.0070     7.2700     5.4340     6.0240    19.9900   -15.7910 
  110.5000     2.2140    73.9950     7.6030     5.6520     6.3820    20.6290   -16.0450 
  110.6250     2.2030    70.5140     7.8940     5.9090     7.1010    20.8470   -16.5990 
  110.7500     2.1940    68.0860     8.0970     6.1300     7.7520    21.0730   -17.3030 
  110.8750     2.1910    68.6730     8.1920     6.2740     8.0530    21.6270   -18.0790 
  111.0000     2.1940    70.7750     8.1870     6.3310     8.1460    22.1440   -18.8590 
  111.1250     2.2030    70.8370     8.0940     6.3130     8.2040    22.2880   -19.5790 
  111.2500     2.2120    68.6060     7.9810     6.2740     8.1160    22.3070   -20.1890 
  111.3750     2.2180    66.3830     7.9120     6.2430     8.0490    22.3080   -20.7220 
  111.5000     2.2180    64.9960     7.9360     6.2340     8.3520    22.2950   -21.1960 
  111.6250     2.2140    63.6240     8.0860     6.2520     8.4410    22.1140   -21.5420 
  111.7500     2.2070    61.7190     8.3050     6.2870     8.3530    21.5560   -21.8460 
  111.8750     2.2000    60.9400     8.5280     6.3370     8.2140    21.1800   -22.1360 
  112.0000     2.1920    63.1820     8.6860     6.3950     8.2700    21.1340   -22.3670 
  112.1250     2.1830    66.9890     8.7150     6.4440     8.4170    21.0240   -22.4990 
  112.2500     2.1760    67.6360     8.6300     6.4620     8.8640    20.9360   -22.6080 
  112.3750     2.1730    65.7230     8.4650     6.4370     9.3840    21.1490   -22.6590 
  112.5000     2.1750    65.1050     8.2740     6.3750     9.6670    21.5080   -22.5750 
  112.6250     2.1790    66.3230     8.1190     6.2990     9.5720    22.1340   -22.4200 
  112.7500     2.1800    65.2590     8.0540     6.2510     9.2890    22.9590   -22.2540 
  112.8750     2.1750    63.7030     8.1340     6.2750     9.3250    23.3740   -22.0190 
  113.0000     2.1640    64.4100     8.3930     6.4120     9.5900    23.5450   -21.6590 
  113.1250     2.1540    62.5280     8.8050     6.6810     9.6140    23.8090   -21.1150 
  113.2500     2.1490    58.2970     9.1940     6.9840     9.7940    24.1010   -20.3220 
  113.3750     2.1530    58.0810     9.3800     7.1950    11.0020    24.2240   -19.2540 
  113.5000     2.1680    63.6600     9.2490     7.2020    13.4990    23.9650   -17.9720 
  113.6250     2.1940    68.7650     8.8320     6.9620    14.4730    23.5280   -16.4950 
  113.7500     2.2330    72.4040     8.4190     6.6440    10.5710    22.9850   -14.8740 
  113.8750     2.2830    77.0700     8.2100     6.3970     7.3880    22.6500   -13.1940 
  114.0000     2.3370    80.6490     8.2590     6.3080     6.7980    22.4790   -11.5750 
  114.1250     2.3820    83.9420     8.4530     6.3700     7.8760    22.5550   -10.0790 
  114.2500     2.4060    89.6350     8.5210     6.4330     8.9020    22.9100    -8.7610 
  114.3750     2.4070    94.5280     8.2600     6.3550     8.6140    23.1990    -7.7170 
  114.5000     2.3890    94.1700     7.6300     6.0620     7.1930    23.2970    -6.9720 
  114.6250     2.3650    90.5330     6.8120     5.6050     5.8550    23.2340    -6.4750 
  114.7500     2.3430    88.8070     6.1190     5.1610     5.1520    23.0720    -6.1150 
  114.8750     2.3260    88.9200     5.6900     4.8320     4.7720    23.0790    -5.8740 
  115.0000     2.3140    89.6900     5.5410     4.6520     4.6440    23.3900    -5.7030 
  115.1250     2.3080    90.6750     5.6190     4.6180     4.6720    23.8550    -5.5940 
  115.2500     2.3050    91.8400     5.7750     4.6600     4.6700    24.3930    -5.5250 
  115.3750     2.3040    94.7310     5.9180     4.7390     4.6960    24.7210    -5.4750 
  115.5000     2.3030    98.5690     6.0100     4.8260     4.8830    24.7860    -5.4340 
  115.6250     2.3010    98.9560     6.0590     4.8980     5.0380    24.7510    -5.3790 
  115.7500     2.3000    95.4500     6.0950     4.9440     4.9140    24.7340    -5.3270 
  115.8750     2.3000    91.3850     6.1180     4.9590     4.7740    24.7070    -5.2880 
  116.0000     2.2990    89.6530     6.1080     4.9410     4.6780    24.4890    -5.2560 
  116.1250     2.2940    90.3120     6.0510     4.8910     4.5960    24.2810    -5.2030 
  116.2500     2.2810    91.2680     5.9880     4.8310     4.5430    24.5480    -5.1610 
  116.3750     2.2620    92.1000     5.9640     4.7790     4.5240    24.6130    -5.1200 
  116.5000     2.2400    92.8370     5.9970     4.7470     4.5160    24.6200    -5.0420 
  116.6250     2.2250    91.3280     6.0570     4.7410     4.4990    24.5990    -4.9840 
  116.7500     2.2210    89.3180     6.0750     4.7400     4.4720    24.6080    -4.9840 
  116.8750     2.2290    90.0340     6.0160     4.7190     4.4630    24.5420    -4.9750 
  117.0000     2.2410    92.3630     5.8850     4.6560     4.4830    24.4650    -4.9500 
  117.1250     2.2480    92.9230     5.7120     4.5450     4.4340    24.4600    -5.0110 
  117.2500     2.2470    94.8370     5.5420     4.4130     4.3460    24.5050    -5.1060 
  117.3750     2.2410   101.4060     5.4050     4.2840     4.2460    24.5730    -5.2000 
  117.5000     2.2380   105.0400     5.3220     4.1740     4.2010    24.5870    -5.3400 
  117.6250     2.2460    97.5890     5.2980     4.0990     4.2210    24.4500    -5.5140 
  117.7500     2.2630    91.7100     5.3000     4.0540     4.2560    24.4110    -5.6450 
  117.8750     2.2860    94.3230     5.2970     4.0340     4.2660    24.4110    -5.7770 
  118.0000     2.3070    98.9830     5.2730     4.0270     4.2690    24.4180    -5.9500 
  118.1250     2.3210    98.0630     5.2420     4.0220     4.2610    24.4280    -6.1030 
  118.2500     2.3250    97.7560     5.2330     4.0130     4.2650    24.4510    -6.2400 
  118.3750     2.3170    99.9800     5.2490     4.0010     4.2860    24.4500    -6.4180 
  118.5000     2.2980    98.7220     5.2750     3.9860     4.2970    24.4480    -6.6270 
  118.6250     2.2700    92.7730     5.2940     3.9730     4.3120    24.3970    -6.8440 
  118.7500     2.2390    91.2880     5.3080     3.9690     4.3310    24.3760    -7.0940 
  118.8750     2.2090    96.1850     5.3310     3.9850     4.3380    24.2900    -7.3950 
  119.0000     2.1880   101.9590     5.4010     4.0360     4.3410    24.1560    -7.7200 
  119.1250     2.1790   102.6630     5.5820     4.1480     4.3890    23.9650    -8.0350 
  119.2500     2.1810    99.6280     5.8780     4.3220     4.5360    23.7250    -8.3880 
  119.3750     2.1870    93.8720     6.2600     4.5550     4.7990    23.4900    -8.7720 
