~V
VERS. 2.00: Ver 2.00
~W
STRT.M 55.0000:
STOP.M 229.0000:
STEP.M 0.1250:
NULL. -999.2500:
UWI. F11013:
~C
DEPT.M :
DEN.GM/CC :
GR.API :
RML.OHMM :
RI. :
RXO.OHMM :
CALI.CM :
SP.MV :
~A
# ...
  111.2500     2.4470    74.1690     8.2800     7.6220    12.3610    23.6790   -13.3940 
  111.3750     2.3970    79.8830     6.2040     5.9200     6.1310    23.7600   -13.3360 
  111.5000     2.3640    83.7700     5.0160     4.8040     4.4910    23.7470   -13.4430 
  111.6250     2.3330    86.0350     4.6130     4.2700     4.1160    23.7230   -13.7050 
  111.7500     2.2990    85.8520     4.8050     4.2330     4.1920    23.7220   -14.1260 
  111.8750     2.2690    83.4340     5.4320     4.6270     4.7460    23.6800   -14.6450 
  112.0000     2.2470    80.1550     6.2180     5.2430     5.6220    23.6000   -15.2490 
  112.1250     2.2320    76.7560     7.0000     5.9510     6.4170    23.4830   -15.8340 
  112.2500     2.2190    75.9870     7.6590     6.6310     6.8220    23.4090   -16.4080 
  112.3750     2.2100    78.0040     8.1190     7.1720     6.9780    23.3280   -16.9050 
  112.5000     2.2080    77.7730     8.4240     7.5610     7.1420    23.2520   -17.3540 
  112.6250     2.2060    74.1080     8.6100     7.8100     7.4600    23.1350   -17.7010 
  112.7500     2.1960    69.2270     8.7010     7.9400     7.8260    22.9610   -17.9390 
  112.8750     2.1780    66.3760     8.7000     7.9460     8.0770    22.8410   -18.0730 
  113.0000     2.1680    64.3390     8.6420     7.8630     8.0990    22.8270   -18.1310 
  113.1250     2.1700    61.8740     8.5630     7.7230     7.9370    22.8650   -18.1980 
  113.2500     2.1770    59.6410     8.4950     7.5660     7.7660    22.8740   -18.2250 
  113.3750     2.1840    57.9780     8.4460     7.4240     7.6810    22.8780   -18.2770 
  113.5000     2.1940    57.5870     8.3960     7.2970     7.6790    22.9000   -18.2580 
  113.6250     2.2080    59.3650     8.3210     7.1770     7.6660    22.9280   -18.2400 
  113.7500     2.2240    63.6070     8.2240     7.0640     7.5620    22.9480   -18.2180 
  113.8750     2.2360    66.7900     8.1660     6.9890     7.4320    22.9700   -18.2000 
  114.0000     2.2430    66.2890     8.2420     7.0040     7.3250    23.0130   -18.1960 
  114.1250     2.2430    65.1850     8.5250     7.1610     7.3000    23.0800   -18.1570 
  114.2500     2.2350    67.0220     9.0250     7.4860     7.5230    23.2220   -18.1320 
  114.3750     2.2110    69.1690     9.6730     7.9640     8.2000    23.4410   -18.0810 
  114.5000     2.1790    68.1220    10.2660     8.4610    10.3750    23.7650   -18.0610 
  114.6250     2.1520    65.1760    10.6180     8.8350    14.5210    23.9820   -18.0180 
  114.7500     2.1420    62.7900    10.6060     8.9650    16.3230    23.8500   -17.9790 
  114.8750     2.1510    62.1620    10.2050     8.7840    12.4410    23.3640   -17.9010 
  115.0000     2.1670    63.7190     9.6490     8.4410     9.7650    22.9580   -17.8100 
  115.1250     2.1850    67.0400     9.1120     8.0610     8.6070    22.7390   -17.7250 
  115.2500     2.2020    69.4270     8.7040     7.7350     8.2360    22.6770   -17.6480 
  115.3750     2.2130    68.9380     8.4730     7.5170     8.1280    22.6730   -17.5550 
  115.5000     2.2190    67.1120     8.3440     7.3740     8.0840    22.7070   -17.4490 
  115.6250     2.2190    64.3290     8.2660     7.2770     7.9530    22.7420   -17.3350 
  115.7500     2.2170    61.0790     8.2220     7.2160     7.7090    22.7480   -17.2200 
  115.8750     2.2140    60.0700     8.2450     7.2140     7.5430    22.7260   -17.1660 
  116.0000     2.2110    60.7480     8.3500     7.2780     7.6260    22.7550   -17.1070 
  116.1250     2.2100    61.6860     8.5400     7.4090     7.7710    22.8410   -17.0700 
  116.2500     2.2090    62.1700     8.7900     7.5880     7.9310    22.9380   -17.0120 
  116.3750     2.2110    61.2500     9.0280     7.7720     8.1210    22.9940   -16.9980 
  116.5000     2.2180    60.6640     9.1800     7.9030     8.4290    23.0000   -17.0080 
  116.6250     2.2280    62.2730     9.2270     7.9570     8.7200    22.9570   -17.0550 
  116.7500     2.2380    65.1210     9.2210     7.9610     8.8050    22.8640   -17.1020 
  116.8750     2.2560    64.4810     9.3400     8.0290     8.6480    22.8600   -17.1180 
  117.0000     2.2980    59.8800     9.7910     8.3070     8.4820    22.8330   -17.1420 
  117.1250     2.3640    56.3800    10.7810     8.9450     8.6710    22.7260   -17.1570 
  117.2500     2.4280    56.5100    12.4570    10.0720     9.9280    22.6090   -17.1870 
  117.3750     2.4620    56.4410    14.9280    11.8540    13.0240    22.8170   -17.1840 
  117.5000     2.4810    52.5630    17.8150    14.1120    16.4370    23.1940   -17.1780 
  117.6250     2.4950    48.5390    20.5970    16.5180    20.0110    23.5490   -17.1440 
  117.7500     2.4960    48.6260    22.5370    18.4800    22.4790    23.7550   -17.1440 
  117.8750     2.4660    51.0490    22.6500    19.0660    22.4420    23.8040   -17.1400 
  118.0000     2.4160    52.2660    21.1160    18.2270    20.7290    23.7660   -17.1610 
  118.1250     2.3620    54.0220    18.5250    16.3670    17.7460    23.6730   -17.1780 
  118.2500     2.3130    56.7120    15.6750    14.1370    15.2450    23.4470   -17.1790 
  118.3750     2.2690    56.9460    13.2970    12.1540    12.3120    23.1780   -17.1910 
  118.5000     2.2310    55.8720    11.5970    10.6450     9.6320    23.0770   -17.1550 
  118.6250     2.2060    55.8740    10.5530     9.6290     7.9730    23.0830   -17.1130 
  118.7500     2.1950    55.9020    10.0210     9.0270     7.6520    23.0350   -17.0080 
  118.8750     2.1970    56.0140     9.8270     8.7420     8.0100    22.8480   -16.8930 
  119.0000     2.2030    58.7620     9.7210     8.5870     8.1030    22.6800   -16.7200 
  119.1250     2.2120    61.8790     9.5810     8.4620     7.9200    22.6450   -16.5570 
  119.2500     2.2250    61.0280     9.3580     8.3100     7.5870    22.7530   -16.3840 
  119.3750     2.2440    59.0190     9.0860     8.1290     7.0770    22.8890   -16.1980 
  119.5000     2.2710    60.2050     8.8610     7.9730     6.7400    22.8590   -16.0330 
  119.6250     2.2980    60.9840     8.7460     7.8930     6.9840    22.6460   -15.8450 
  119.7500     2.3120    58.9960     8.7730     7.9150     7.2970    22.3490   -15.6750 
  119.8750     2.3020    59.1960     8.9690     8.0590     7.3330    22.1030   -15.5100 
  120.0000     2.2850    61.8420     9.2740     8.2790     7.3970    22.0610   -15.3640 
  120.1250     2.2770    62.9200     9.6020     8.5140     7.7270    22.1730   -15.1620 
  120.2500     2.2810    61.4610     9.8230     8.6690     8.1220    22.3810   -14.9670 
  120.3750     2.2910    61.4940     9.7230     8.5720     8.4870    22.5650   -14.7510 
  120.5000     2.3010    64.2450     9.2470     8.1690     8.7900    22.7150   -14.5390 
  120.6250     2.3130    67.6180     8.4430     7.4950     8.9450    22.8600   -14.3540 
  120.7500     2.3260    69.3090     7.4920     6.6920     8.4390    22.9740   -14.1850 
  120.8750     2.3290    71.4500     6.6800     5.9820     6.9790    23.0660   -14.0390 
  121.0000     2.3200    76.4880     6.1890     5.5070     5.9780    23.1470   -13.9520 
  121.1250     2.3010    81.5100     6.0870     5.3290     5.7070    23.1870   -13.9430 
  121.2500     2.2790    80.4300     6.3640     5.4570     5.9050    23.1590   -13.9640 
  121.3750     2.2530    77.0740     6.9940     5.9010     6.4730    23.0770   -14.0450 
  121.5000     2.2310    77.7750     7.8160     6.5450     7.5450    23.0330   -14.1310 
  121.6250     2.2180    79.3890     8.7070     7.2940     8.6650    23.0350   -14.2140 
  121.7500     2.2120    77.6850     9.5190     8.0180     9.3780    23.0660   -14.2620 
  121.8750     2.2050    73.3370    10.0150     8.5080     9.6350    23.0680   -14.2770 
  122.0000     2.2030    68.6320    10.0580     8.6260     9.6000    23.0420   -14.1790 
  122.1250     2.2170    63.9500     9.5620     8.2850     9.1370    22.9980   -14.0310 
  122.2500     2.2480    62.4260     8.5780     7.5190     8.2050    22.9390   -13.8220 
  122.3750     2.2860    66.6700     7.3040     6.4890     7.0560    22.9990   -13.5550 
