~V
VERS. 2.00: Ver 2.00
~W
STRT.M 50.0000:
STOP.M 278.0000:
STEP.M 0.1250:
NULL. -999.2500:
UWI. F11029:
~C
DEPT.M :
SP.MV :
DEN.GM/CC :
GR.API :
RML.OHMM :
RI. :
RXO.OHMM :
CALI.CM :
~A
# ...
  196.2500    -3.8880     2.5470    44.3740     5.1580     4.5590     3.8520    23.0090 
  196.3750    -4.1070     2.5000    44.5200     4.9400     4.3430     3.7890    22.8090 
  196.5000    -4.3160     2.4580    45.9380     4.6980     4.1020     3.7070    22.7830 
  196.6250    -4.5040     2.4270    46.9580     4.4660     3.8630     3.6730    22.7840 
  196.7500    -4.7490     2.3960    47.9820     4.2910     3.6700     3.7630    22.6560 
  196.8750    -4.9980     2.3610    50.1430     4.2070     3.5450     3.9060    22.8780 
  197.0000    -5.1870     2.3260    51.9870     4.2320     3.4900     3.8340    23.6460 
  197.1250    -5.3180     2.3060    51.5080     4.4030     3.5250     3.9920    24.5020 
  197.2500    -5.4160     2.3080    49.9240     4.7150     3.6590     3.9710    24.3310 
  197.3750    -5.5240     2.3300    49.5000     5.1780     3.9210     3.9390    23.7340 
  197.5000    -5.6390     2.3620    50.7620     5.7740     4.3310     3.9750    23.3500 
  197.6250    -5.6630     2.3880    51.0950     6.4290     4.8890     4.1980    23.2700 
  197.7500    -5.6010     2.4030    48.6590     6.9860     5.4740     5.0270    23.2270 
  197.8750    -5.5490     2.4110    45.3330     7.3120     5.9390     5.8470    23.1830 
  198.0000    -5.5380     2.4150    44.0970     7.3420     6.1530     5.9690    23.2780 
  198.1250    -5.5150     2.4150    46.1510     7.1010     6.0460     5.7210    23.3540 
  198.2500    -5.4690     2.4110    49.1920     6.7880     5.7830     5.4740    23.3800 
  198.3750    -5.3850     2.4020    51.3070     6.5420     5.5070     5.2680    23.4010 
  198.5000    -5.2850     2.3900    52.5710     6.4450     5.3210     5.1070    23.5010 
  198.6250    -5.2460     2.3820    53.9340     6.5180     5.2820     5.0640    23.7410 
  198.7500    -5.2700     2.3770    55.8840     6.6630     5.3330     5.1460    24.1350 
  198.8750    -5.2850     2.3760    58.5670     6.7790     5.3970     5.2410    24.4860 
  199.0000    -5.2170     2.3770    61.0090     6.7710     5.3800     5.2510    24.6320 
  199.1250    -5.0490     2.3820    60.8020     6.5740     5.1940     5.2950    24.5390 
  199.2500    -4.8390     2.3910    56.8590     6.2700     4.8820     5.2960    24.3120 
  199.3750    -4.7250     2.4050    52.2930     5.9720     4.5320     4.9670    24.1230 
  199.5000    -4.7800     2.4200    52.7050     5.7980     4.2490     4.4930    23.9160 
  199.6250    -4.9720     2.4340    61.2970     5.8710     4.1540     4.2320    23.4210 
  199.7500    -5.2750     2.4430    72.0160     6.1790     4.2590     4.0510    22.9460 
  199.8750    -5.8070     2.4450    78.6570     6.6930     4.5650     4.0020    22.7460 
  200.0000    -6.6530     2.4430    80.0730     7.3540     5.0390     4.2050    22.7650 
  200.1250    -7.8340     2.4410    81.3800     8.0660     5.6160     4.5870    22.8380 
  200.2500    -9.1830     2.4450    85.0630     8.7020     6.1750     5.0860    22.9140 
  200.3750   -10.6040     2.4570    88.1360     9.1670     6.6200     5.8040    23.1760 
  200.5000   -12.1070     2.4700    89.3410     9.4040     6.8860     6.7670    23.6520 
  200.6250   -13.6530     2.4760    92.8100     9.3800     6.9150     7.0350    24.0760 
  200.7500   -15.1160     2.4740    97.5750     9.2040     6.7890     6.6190    24.1350 
  200.8750   -16.5270     2.4670    97.4580     8.9730     6.5810     6.0930    23.6920 
  201.0000   -17.9350     2.4560    94.0230     8.7720     6.3690     5.6890    23.0720 
  201.1250   -19.3470     2.4300    95.6630     8.6590     6.2170     5.4780    23.0710 
  201.2500   -20.7700     2.3790   101.0300     8.6110     6.1290     5.5800    24.0400 
  201.3750   -22.1060     2.3010   101.2980     8.6050     6.0920     5.9700    25.8440 
  201.5000   -23.2490     2.2160    93.6910     8.6600     6.0970     6.0200    27.5850 
  201.6250   -24.1790     2.1630    85.4400     8.9140     6.2070     6.2020    28.4740 
  201.7500   -24.9060     2.1610    81.0960     9.5010     6.5150     6.8950    28.1940 
  201.8750   -25.2480     2.2150    80.1940    10.5140     7.1300     7.9230    27.0520 
  202.0000   -25.1540     2.3110    80.4400    11.8930     8.0970     9.7230    25.7310 
  202.1250   -24.6860     2.4220    78.3260    13.2780     9.3050    13.1260    25.0220 
  202.2500   -23.9710     2.5140    74.7310    14.1010    10.2890    17.1660    24.7220 
  202.3750   -23.0320     2.5670    73.0290    13.9720    10.5610    18.4000    24.6360 
  202.5000   -21.8920     2.5740    75.6800    12.8870     9.9320    14.7610    24.5670 
  202.6250   -20.6580     2.5390    80.9460    11.2950     8.7020     9.7590    24.3920 
  202.7500   -19.5570     2.4910    86.6930     9.9490     7.5480     6.7690    24.1000 
  202.8750   -18.6990     2.4530    91.1740     9.2510     6.8040     5.9830    24.0180 
  203.0000   -18.1290     2.4370    91.4570     9.3380     6.5980     6.5230    24.3080 
  203.1250   -17.7270     2.4530    85.2560    10.2960     7.0360     7.4880    24.6600 
  203.2500   -17.3240     2.4930    77.0820    11.8730     8.0060     9.0950    24.7720 
  203.3750   -16.9880     2.5460    73.3610    13.8470     9.4650    12.2440    24.7000 
  203.5000   -16.7850     2.6060    75.1640    15.8000    11.2530    16.7890    24.4120 
  203.6250   -16.6630     2.6640    76.4510    16.8630    12.7920    18.3690    24.0500 
  203.7500   -16.4260     2.7090    74.1260    16.4790    13.2700    21.4430    23.6670 
  203.8750   -16.0090     2.7100    71.2870    14.5590    12.2190    24.7750    23.8330 
  204.0000   -15.3510     2.6300    71.2270    11.6420     9.9760    20.1010    24.0000 
  204.1250   -14.4470     2.4250    69.6980     8.7100     7.4970    11.2550    24.1330 
  204.2500   -13.4310     2.1450    63.4770     6.4870     5.5230     5.5720    23.8670 
  204.3750   -12.3110     1.8700    55.9700     5.1370     4.2040     3.5870    23.6000 
  204.5000   -11.1690     1.6970    51.7160     4.5350     3.4740     3.2720    23.6000 
  204.6250   -10.1920     1.7090    53.6200     4.5150     3.2690     3.3480    23.4670 
  204.7500    -9.4300     1.8490    58.3630     4.7590     3.3690     3.4430    23.3330 
  204.8750    -8.8640     2.0410    64.2680     5.1030     3.6490     3.6630    23.2000 
  205.0000    -8.4530     2.2140    70.3780     5.4300     3.9990     3.8170    22.5890 
  205.1250    -8.2330     2.3170    74.4590     5.6750     4.3310     3.9230    22.0540 
  205.2500    -8.2160     2.3660    77.1050     5.8550     4.6160     4.1300    21.5170 
  205.3750    -8.4270     2.3790    78.7070     5.9970     4.8510     4.3800    21.0430 
  205.5000    -8.7140     2.3710    78.8440     6.1200     5.0420     4.4260    21.1900 
  205.6250    -8.8210     2.3480    79.0790     6.2190     5.1810     4.5010    22.3110 
  205.7500    -8.7020     2.3240    81.2610     6.2830     5.2670     4.7840    23.6900 
  205.8750    -8.4410     2.3120    83.1690     6.2970     5.2850     5.0100    24.5590 
  206.0000    -8.1700     2.3180    83.6650     6.2540     5.2300     4.9880    24.7220 
  206.1250    -8.0170     2.3390    82.4760     6.1590     5.1030     4.8040    24.6000 
  206.2500    -7.9510     2.3610    80.9420     6.0560     4.9510     4.6100    24.5150 
  206.3750    -7.8850     2.3740    79.1470     5.9810     4.8130     4.4570    24.4150 
  206.5000    -7.8090     2.3760    78.3170     5.9610     4.7200     4.3920    24.2890 
  206.6250    -7.7900     2.3710    77.9140     6.0020     4.7000     4.4950    24.1970 
  206.7500    -7.8730     2.3670    76.1370     6.0660     4.7290     4.6390    24.4170 
  206.8750    -7.9890     2.3660    76.6650     6.1250     4.7810     4.8820    24.7220 
  207.0000    -7.9750     2.3700    80.2320     6.1680     4.8340     5.1300    24.8800 
  207.1250    -7.7020     2.3740    83.6370     6.2190     4.8840     5.2710    24.8650 
  207.2500    -7.2830     2.3740    84.8620     6.3290     4.9610     5.4520    24.7940 
  207.3750    -6.8170     2.3690    84.4420     6.5470     5.1090     5.5830    24.7640 
