~V
VERS. 2.00: Ver 2.00
~W
STRT.M 50.0000:
STOP.M 283.0000:
STEP.M 0.1250:
NULL. -999.2500:
UWI. F11058:
~C
DEPT.M :
DEN.GM/CC :
GR.API :
RML.OHMM :
RI. :
RXO.OHMM :
CALI.CM :
SP.MV :
~A
# ...
  230.0000     2.1750    68.5230    67.6180    67.4260    68.8340    24.2420   -20.9790 
  230.1250     2.1960    67.4140    65.9450    65.6520    70.8160    24.1890   -20.9950 
  230.2500     2.2240    68.1840    64.9110    64.4330    78.2720    24.2260   -21.0500 
  230.3750     2.2500    68.5980    64.7760    64.1360    75.3940    24.3210   -21.1460 
  230.5000     2.2640    66.2980    65.5190    64.8320    66.6970    24.3210   -21.2600 
  230.6250     2.2600    61.8070    66.8300    66.2990    62.3310    24.3770   -21.3150 
  230.7500     2.2420    58.5920    68.0220    67.8160    64.9660    24.4420   -21.3180 
  230.8750     2.2170    59.2660    68.5770    68.7790    68.2530    24.4770   -21.3760 
  231.0000     2.1940    63.3170    68.1640    68.7020    69.7050    24.4650   -21.5040 
  231.1250     2.1850    66.3870    66.6430    67.2130    66.8230    24.4610   -21.6020 
  231.2500     2.1900    68.2410    64.5860    64.8310    65.2140    24.4430   -21.5410 
  231.3750     2.2060    70.0340    62.5910    62.1610    63.5450    24.4030   -21.3700 
  231.5000     2.2240    69.9620    61.3340    59.9170    60.6090    24.3780   -21.2850 
  231.6250     2.2350    67.4550    61.7740    59.1050    55.0300    24.3650   -21.3060 
  231.7500     2.2330    65.7020    64.1810    60.1810    54.1890    24.3510   -21.2720 
  231.8750     2.2180    65.4090    68.6620    63.4200    60.1410    24.3600   -21.2300 
  232.0000     2.1990    64.4780    74.8440    68.5920    68.8910    24.4130   -21.2240 
  232.1250     2.1870    62.6100    81.7250    74.7440    80.8200    24.4330   -21.2310 
  232.2500     2.1860    63.0250    87.7900    80.1100    92.3310    24.3800   -21.3550 
  232.3750     2.1910    65.7020    92.2300    83.6520    96.9950    24.2820   -21.5790 
  232.5000     2.1940    68.2330    95.1870    85.4350    87.6350    24.1700   -21.7180 
  232.6250     2.1860    69.4360    97.9170    86.7570    83.2470    24.1810   -21.6400 
  232.7500     2.1700    68.5760   102.2510    89.3280    83.4050    24.2300   -21.4740 
  232.8750     2.1550    65.6780   107.1640    93.9460    95.2550    24.2530   -21.2110 
  233.0000     2.1480    64.1310   110.3020   100.4190   111.2090    24.2090   -20.8020 
  233.1250     2.1520    65.8850   111.4620   107.4420   116.9570    24.1940   -20.3360 
  233.2500     2.1590    66.8520   113.0090   113.0170   110.0760    24.1130   -19.8810 
  233.3750     2.1670    65.4880   114.5490   115.7380    99.5780    24.0310   -19.3760 
  233.5000     2.1720    64.5560   113.6720   114.9950    92.0450    23.9410   -18.8860 
  233.6250     2.1720    65.9750   109.1690   110.8060    92.5890    23.9530   -18.5590 
  233.7500     2.1700    66.5160   103.1600   104.9000    95.1000    23.9950   -18.3270 
  233.8750     2.1710    66.5360    96.6540    98.3480    92.6540    24.0430   -18.2050 
  234.0000     2.1780    67.0320    90.4160    91.9150    82.4370    24.0550   -18.2020 
  234.1250     2.1880    67.2100    85.0100    86.2160    68.5180    23.9520   -18.1820 
  234.2500     2.1990    67.2000    80.4080    81.2980    56.4360    23.6890   -18.0890 
  234.3750     2.2110    66.4880    76.4520    77.0190    48.4250    23.3990   -18.0920 
  234.5000     2.2220    64.7280    72.8840    73.1250    45.4400    23.2340   -18.2270 
  234.6250     2.2290    63.1710    69.4560    69.3830    48.4750    23.3210   -18.3900 
  234.7500     2.2280    64.6540    66.0110    65.6560    53.7560    23.5700   -18.5140 
  234.8750     2.2200    68.7440    62.5650    61.9820    58.3700    23.8870   -18.5910 
  235.0000     2.2100    70.4950    59.2340    58.4830    57.2320    24.1500   -18.6910 
  235.1250     2.2040    67.7510    56.3680    55.4170    56.0690    24.2390   -18.7870 
  235.2500     2.2050    65.5450    54.4010    53.0970    57.0260    24.3190   -18.8770 
  235.3750     2.2190    65.9980    53.9890    52.1590    58.6230    24.4380   -18.9350 
  235.5000     2.2550    68.0830    55.8940    53.4960    59.0900    24.5400   -18.8550 
  235.6250     2.3210    68.0620    61.3450    58.7320    61.2340    24.5540   -18.6770 
  235.7500     2.4060    65.8720    69.8200    67.8240    74.6990    24.5260   -18.5780 
  235.8750     2.4950    62.5280    79.6460    79.7980   118.2830    24.4770   -18.4790 
  236.0000     2.5720    59.2840    86.8470    91.2680   184.9020    24.4470   -18.2330 
  236.1250     2.6190    59.7350    84.4960    93.6250   198.5470    24.4350   -17.9690 
  236.2500     2.6330    63.0370    72.1710    82.3860   146.1430    24.4200   -17.7840 
  236.3750     2.6130    66.9110    53.8200    61.2730    86.4680    24.3780   -17.6000 
  236.5000     2.5660    71.1420    35.6070    39.7100    49.7490    24.3170   -17.4760 
  236.6250     2.5100    75.6040    22.7030    24.9330    38.2830    24.2770   -17.4120 
  236.7500     2.4670    78.6440    14.7260    15.9650    24.7890    24.3020   -17.1950 
  236.8750     2.4420    79.6710    10.3260    10.9640    13.2320    24.3780   -16.7360 
  237.0000     2.4270    79.8850     8.1900     8.3540     8.9450    24.4300   -16.1450 
  237.1250     2.4050    82.0410     7.5020     7.2700     8.1740    24.4250   -15.5320 
  237.2500     2.3770    85.1600     7.4230     6.9280     8.0320    24.3970   -14.7970 
  237.3750     2.3520    87.0580     7.6010     7.0310     7.8770    24.4190   -13.9600 
  237.5000     2.3430    86.3770     7.7990     7.3280     7.7020    24.4720   -13.0750 
  237.6250     2.3520    87.4110     7.8700     7.5890     7.6720    24.4820   -12.2130 
  237.7500     2.3670    94.7060     7.8270     7.7360     7.7600    24.4820   -11.5190 
  237.8750     2.3780   105.5140     7.7290     7.7910     7.7930    24.4650   -11.1130 
  238.0000     2.3830   114.5020     7.6330     7.7970     7.6940    24.4630   -11.0000 
  238.1250     2.3790   119.1640     7.5790     7.7910     7.7260    24.4870   -10.9790 
  238.2500     2.3710   121.8520     7.5710     7.7930     7.8840    24.5020   -10.9760 
  238.3750     2.3610   123.6900     7.6100     7.8000     8.0620    24.5030   -11.0140 
  238.5000     2.3520   124.9810     7.6970     7.8100     8.2560    24.4930   -11.1100 
  238.6250     2.3450   124.7890     7.8450     7.8420     8.4290    24.5010   -11.2170 
  238.7500     2.3430   121.6930     8.0400     7.9170     8.7130    24.5010   -11.2810 
  238.8750     2.3460   117.8330     8.2670     8.0410     8.9980    24.4870   -11.2490 
  239.0000     2.3580   115.6370     8.4980     8.2010     9.3240    24.4520   -11.0060 
  239.1250     2.3790   115.1400     8.6860     8.3510     9.7650    24.4210   -10.6550 
  239.2500     2.4050   115.7450     8.8040     8.4350    10.0280    24.3930   -10.3350 
  239.3750     2.4260   116.7130     8.8630     8.4290    10.2310    24.3810    -9.9600 
  239.5000     2.4370   116.1540     8.9270     8.3690    10.2750    24.3850    -9.4930 
  239.6250     2.4320   112.2230     9.1360     8.3770    10.3010    24.4040    -9.0620 
  239.7500     2.4180   108.5580     9.5810     8.5680    10.1790    24.4170    -8.6870 
  239.8750     2.4020   106.5400    10.2790     9.0060    10.6230    24.4400    -8.3480 
  240.0000     2.3870   105.5890    11.1270     9.6660    11.9760    24.4530    -8.1010 
  240.1250     2.3710   105.7100    11.8450    10.3510    14.3200    24.4190    -7.9580 
  240.2500     2.3530   105.9990    12.1920    10.7340    15.7830    24.3850    -7.8660 
  240.3750     2.3360   105.7160    12.1240    10.6570    15.1290    24.3700    -7.8520 
  240.5000     2.3280   104.6260    11.8750    10.2640    12.9690    24.3690    -7.9300 
  240.6250     2.3310   102.6810    12.0630    10.0170    11.6490    24.3690    -7.9670 
  240.7500     2.3270   100.8050    13.3040    10.3940    11.0500    24.3600    -7.9850 
  240.8750     2.3010    98.0330    16.1750    11.8880    12.7480    24.3240    -8.0900 
  241.0000     2.2480    92.5940    21.1720    15.1190    19.9460    24.2660    -8.3090 
  241.1250     2.1840    84.2370    28.9220    21.2970    35.3770    24.2120    -8.5300 
