~V
VERS. 2.00: Ver 2.00
~W
STRT.M 47.0000:
STOP.M 270.0000:
STEP.M 0.1250:
NULL. -999.2500:
UWI. F11075:
~C
DEPT.M :
GR.API :
RML.OHMM :
RI. :
RXO.OHMM :
CALI.CM :
DEN.GM/CC :
SP.MV :
~A
# ...
  137.0000    64.2740    15.7650    13.4750    12.0270    24.7700     2.1820   -15.8520 
  137.1250    63.8560    15.4010    13.3750    11.9110    24.7570     2.2150   -15.8490 
  137.2500    64.5710    15.1580    13.3070    12.4270    24.7720     2.2430   -15.8600 
  137.3750    66.8460    15.2350    13.4580    12.9720    24.8480     2.2500   -15.8730 
  137.5000    68.3440    15.5420    13.8020    14.4160    24.9800     2.2370   -15.8780 
  137.6250    67.4320    15.9130    14.2180    19.2090    25.0780     2.2080   -15.8840 
  137.7500    64.3790    16.1520    14.5190    27.0130    25.1110     2.1730   -15.9040 
  137.8750    60.0320    16.0840    14.4870    24.9850    25.1490     2.1410   -15.9570 
  138.0000    57.5920    15.7800    14.1710    16.7650    25.2620     2.1190   -16.0180 
  138.1250    59.8170    15.3710    13.7130    13.3290    25.4080     2.1090   -16.0790 
  138.2500    63.8420    15.0030    13.2770    12.7000    25.4850     2.1080   -16.1390 
  138.3750    65.2510    14.8010    13.0020    12.8310    25.4660     2.1140   -16.2000 
  138.5000    64.3170    14.7540    12.8800    12.8930    25.3890     2.1230   -16.2600 
  138.6250    62.9500    14.8160    12.8610    13.1190    25.3030     2.1340   -16.3210 
  138.7500    62.2860    14.9230    12.8910    13.2580    25.2600     2.1450   -16.3810 
  138.8750    62.1630    15.0200    12.9440    13.2690    25.2600     2.1550   -16.4310 
  139.0000    61.6460    15.0820    13.0150    13.3080    25.2690     2.1640   -16.4730 
  139.1250    60.1320    15.0990    13.0980    13.6940    25.2710     2.1700   -16.5150 
  139.2500    59.3580    15.0590    13.1660    14.2580    25.2690     2.1740   -16.5580 
  139.3750    61.2820    14.9330    13.1710    14.6230    25.2710     2.1770   -16.6070 
  139.5000    62.8130    14.7290    13.1030    14.7770    25.2850     2.1790   -16.6420 
  139.6250    62.8650    14.4780    12.9710    14.8080    25.3080     2.1820   -16.6830 
  139.7500    63.3210    14.2370    12.8010    14.5390    25.3260     2.1830   -16.7490 
  139.8750    66.1380    14.0960    12.6460    14.1330    25.3130     2.1850   -16.7850 
  140.0000    66.8650    14.0930    12.5650    13.8430    25.2400     2.1940   -16.8040 
  140.1250    63.9240    14.2300    12.5940    13.6860    25.1050     2.2230   -16.8390 
  140.2500    60.1200    14.4700    12.7250    13.6650    25.0230     2.2710   -16.8740 
  140.3750    58.4500    14.7490    12.9200    13.7310    25.0870     2.3220   -16.8870 
  140.5000    57.5100    14.9810    13.0910    13.6840    25.1490     2.3510   -16.8890 
  140.6250    56.2470    15.1090    13.1690    13.4230    25.1720     2.3430   -16.8690 
  140.7500    56.0330    15.0980    13.1210    13.3140    25.1730     2.3010   -16.8300 
  140.8750    58.1460    14.9360    12.9470    13.3990    25.1710     2.2440   -16.8230 
  141.0000    61.1300    14.6920    12.7120    13.5060    25.1680     2.1950   -16.8340 
  141.1250    62.8660    14.4170    12.4720    13.5240    25.1660     2.1630   -16.8230 
  141.2500    61.9050    14.1460    12.2730    13.5910    25.1650     2.1490   -16.8020 
  141.3750    59.3530    13.8930    12.1500    13.5880    25.1610     2.1470   -16.7910 
  141.5000    57.2460    13.6550    12.0860    13.5640    25.1620     2.1490   -16.7910 
  141.6250    56.8760    13.4420    12.0680    13.4990    25.1660     2.1500   -16.7910 
  141.7500    58.2610    13.2730    12.0790    13.3830    25.1740     2.1480   -16.7730 
  141.8750    59.9440    13.1720    12.0930    13.2990    25.1560     2.1440   -16.7400 
  142.0000    60.4020    13.1280    12.0870    13.2710    25.1200     2.1410   -16.6960 
  142.1250    60.0110    13.1320    12.0500    13.1570    25.0660     2.1390   -16.6520 
  142.2500    59.2350    13.1750    11.9860    13.1360    25.0180     2.1410   -16.6120 
  142.3750    57.5860    13.2540    11.9320    13.2450    24.9950     2.1450   -16.5590 
  142.5000    56.2910    13.3580    11.9160    13.3960    24.9890     2.1510   -16.4880 
  142.6250    57.0460    13.4890    11.9460    13.7140    24.9890     2.1600   -16.4220 
  142.7500    58.7950    13.6500    12.0160    14.1300    24.9890     2.1720   -16.3710 
  142.8750    58.5510    13.8220    12.1020    14.3240    24.9920     2.1850   -16.3240 
  143.0000    57.3740    13.9520    12.1750    14.3840    25.0010     2.1950   -16.2870 
  143.1250    58.4180    13.9890    12.2290    14.4470    25.0100     2.1980   -16.2560 
  143.2500    62.7120    13.9130    12.2670    14.6040    25.0130     2.1940   -16.2180 
  143.3750    65.5710    13.7520    12.2880    14.4620    25.0120     2.1850   -16.1740 
  143.5000    64.5030    13.5940    12.2990    14.2250    25.0090     2.1750   -16.1590 
  143.6250    62.0450    13.4830    12.3100    14.0070    25.0060     2.1670   -16.1500 
  143.7500    61.4520    13.4080    12.3220    13.8730    24.9990     2.1610   -16.1380 
  143.8750    63.7600    13.3030    12.3000    13.7580    24.9680     2.1610   -16.0920 
  144.0000    66.5750    13.1170    12.2030    13.6240    24.8930     2.1680   -16.0280 
  144.1250    69.1660    12.8530    11.9920    13.4500    24.7730     2.1790   -15.9750 
  144.2500    70.6200    12.5690    11.6620    13.2360    24.7010     2.1900   -15.9480 
  144.3750    70.5200    12.3680    11.3030    12.3390    24.7500     2.1970   -15.9540 
  144.5000    68.4280    12.3170    11.0500    11.6850    24.9480     2.1990   -15.9630 
  144.6250    64.7610    12.4440    10.9720    11.7660    25.0920     2.2000   -15.9890 
  144.7500    63.2610    12.7380    11.0910    12.1070    25.1580     2.2000   -16.0440 
  144.8750    65.1920    13.1590    11.4050    12.5560    25.1970     2.2000   -16.1240 
  145.0000    65.9820    13.5940    11.8070    13.2340    25.2200     2.1960   -16.2200 
  145.1250    64.3580    13.9530    12.2260    13.8750    25.2390     2.1900   -16.3320 
  145.2500    62.7930    14.1700    12.6020    14.2210    25.2660     2.1840   -16.4250 
  145.3750    61.4380    14.1920    12.8470    14.4760    25.2770     2.1810   -16.4820 
  145.5000    58.2710    14.0720    12.9350    14.7100    25.2580     2.1840   -16.5130 
  145.6250    56.2560    13.8560    12.8710    14.6930    25.2000     2.1910   -16.5230 
  145.7500    58.6710    13.5970    12.6910    14.3990    25.1400     2.1990   -16.5060 
  145.8750    62.7940    13.3550    12.4380    13.6460    25.1240     2.2000   -16.4770 
  146.0000    63.6550    13.1820    12.1890    13.3010    25.1360     2.1940   -16.4480 
  146.1250    61.6320    13.1140    11.9990    13.2010    25.1420     2.1820   -16.4020 
  146.2500    59.5250    13.1630    11.8960    13.4520    25.1070     2.1730   -16.3460 
  146.3750    58.9480    13.3170    11.8860    13.7670    25.0470     2.1690   -16.2890 
  146.5000    58.7320    13.5090    11.9200    13.6900    24.9630     2.1680   -16.2430 
  146.6250    58.5330    13.7040    11.9650    13.5170    24.8910     2.1650   -16.1980 
  146.7500    59.0770    13.8890    11.9960    13.1700    24.7960     2.1580   -16.1410 
  146.8750    59.9980    14.0560    12.0120    12.8040    24.6080     2.1520   -16.0940 
  147.0000    60.0710    14.1860    12.0250    13.1130    24.4500     2.1530   -16.0570 
  147.1250    58.7850    14.2420    12.0350    13.6090    24.4740     2.1600   -16.0260 
  147.2500    58.1340    14.1890    12.0410    13.8920    24.6650     2.1700   -16.0020 
  147.3750    58.9160    14.0030    12.0170    13.9320    24.8210     2.1770   -15.9700 
  147.5000    60.1290    13.7510    11.9610    13.8400    24.9120     2.1780   -15.9330 
  147.6250    61.5390    13.5060    11.8960    13.7650    24.9310     2.1770   -15.9130 
  147.7500    63.2110    13.3420    11.8560    13.6760    24.8740     2.1780   -15.9150 
  147.8750    63.3120    13.3410    11.8960    13.6160    24.7260     2.1830   -15.9060 
  148.0000    60.6500    13.4880    12.0160    13.5570    24.6170     2.1920   -15.8680 
  148.1250    57.4060    13.7430    12.1820    13.5600    24.5760     2.2030   -15.8190 
