~V
VERS. 2.00: Ver 2.00
~W
STRT.M 52.0000:
STOP.M 279.0000:
STEP.M 0.1250:
NULL. -999.2500:
UWI. F11031:
~C
DEPT.M :
DEN.GM/CC :
GR.API :
RML.OHMM :
RI. :
RXO.OHMM :
CALI.CM :
SP.MV :
~A
# ...
  119.5000     2.1910    86.9910     6.6680     4.8270     4.9850    23.3320    -9.1290 
  119.6250     2.1910    82.7920     7.0130     5.0980     5.2990    23.2910    -9.4880 
  119.7500     2.1870    80.9660     7.2560     5.3230     5.8590    23.4550    -9.8920 
  119.8750     2.1860    79.0990     7.3670     5.4690     6.4760    23.5310   -10.2910 
  120.0000     2.1910    78.6120     7.3150     5.5100     6.5020    23.4880   -10.6610 
  120.1250     2.2110    81.8230     7.0660     5.4290     6.0830    23.1820   -11.0540 
  120.2500     2.2380    83.4650     6.7080     5.2770     5.8900    23.0300   -11.4110 
  120.3750     2.2650    81.0770     6.3590     5.1100     5.7130    23.0190   -11.6900 
  120.5000     2.2840    81.1560     6.1470     4.9920     5.5830    23.1190   -11.9730 
  120.6250     2.2930    87.8480     6.1890     4.9880     5.4110    23.2590   -12.2990 
  120.7500     2.2990    92.8160     6.4330     5.0890     5.4350    23.4370   -12.6250 
  120.8750     2.3040    90.1970     6.7830     5.2640     5.8060    23.6970   -12.9880 
  121.0000     2.3070    84.4530     7.1080     5.4590     6.3890    23.6420   -13.4670 
  121.1250     2.2970    81.4260     7.2560     5.5950     6.4410    23.2820   -14.0620 
  121.2500     2.2710    79.5720     7.2220     5.6460     6.4000    22.8790   -14.7150 
  121.3750     2.2380    76.1270     7.0930     5.6330     6.4810    22.7130   -15.4280 
  121.5000     2.2070    72.1700     7.0010     5.6100     6.5650    22.5680   -16.1590 
  121.6250     2.1860    70.1330     7.0550     5.6370     6.6390    22.4710   -16.8800 
  121.7500     2.1740    70.1230     7.2030     5.7150     6.8700    22.4310   -17.5320 
  121.8750     2.1670    70.7440     7.3360     5.8120     7.2130    22.4030   -18.0870 
  122.0000     2.1650    72.0730     7.3680     5.8850     7.4030    22.3510   -18.5390 
  122.1250     2.1670    73.6740     7.2760     5.9050     6.9530    22.1530   -18.8530 
  122.2500     2.1740    76.4580     7.1510     5.8960     6.4550    21.8740   -19.1090 
  122.3750     2.1850    78.9440     7.0860     5.8920     6.1990    21.7270   -19.3430 
  122.5000     2.1960    79.1180     7.1380     5.9180     6.1940    21.4600   -19.5510 
  122.6250     2.2020    75.6250     7.3180     5.9870     6.4130    21.1040   -19.6950 
  122.7500     2.2000    73.4170     7.5470     6.0710     6.6550    20.7230   -19.8560 
  122.8750     2.1930    75.8720     7.7550     6.1370     6.7720    20.4020   -20.0270 
  123.0000     2.1820    78.5940     7.8860     6.1580     6.8770    20.1060   -20.1310 
  123.1250     2.1730    75.0440     7.8950     6.1190     7.0400    20.0890   -20.1860 
  123.2500     2.1710    71.8910     7.8310     6.0390     7.0890    20.2500   -20.1980 
  123.3750     2.1740    72.8610     7.7210     5.9340     7.0240    20.3820   -20.1090 
  123.5000     2.1770    75.0740     7.5690     5.8250     7.0940    20.4500   -19.8920 
  123.6250     2.1750    72.4900     7.4280     5.7730     7.3000    20.6440   -19.5280 
  123.7500     2.1690    69.4460     7.4760     5.8650     7.3700    20.8850   -18.9920 
  123.8750     2.1710    69.1670     7.9560     6.2150     7.4050    20.8950   -18.2960 
  124.0000     2.1960    68.8910     9.1140     6.9450     7.7520    20.9040   -17.4870 
  124.1250     2.2560    65.5960    11.2780     8.2860     9.0910    20.9180   -16.6080 
  124.2500     2.3350    60.6940    14.3080    10.2760    12.5290    21.1450   -15.6960 
  124.3750     2.4120    55.6580    17.9660    12.9140    17.1580    21.8130   -14.7970 
  124.5000     2.4630    53.1270    21.7810    15.9920    21.4370    22.8810   -13.9650 
  124.6250     2.4770    52.7460    24.9730    18.9830    24.0010    23.5610   -13.2910 
  124.7500     2.4710    51.2490    27.1370    21.3570    26.8030    23.7520   -12.7440 
  124.8750     2.4590    47.2200    28.2440    22.9010    29.5020    23.8360   -12.3400 
  125.0000     2.4500    42.6290    28.5970    23.7030    29.9260    23.8470   -12.0850 
  125.1250     2.4470    40.1190    28.5990    23.9790    26.1710    23.8300   -11.9310 
  125.2500     2.4490    39.3430    28.5790    24.0680    23.1970    23.7610   -11.8280 
  125.3750     2.4540    40.5650    28.6220    24.1310    21.9860    23.7370   -11.8080 
  125.5000     2.4610    43.1720    28.7140    24.2680    23.4700    23.8810   -11.8590 
  125.6250     2.4670    44.5030    28.7160    24.4740    24.9060    23.9570   -11.8710 
  125.7500     2.4720    44.5970    28.4590    24.5960    24.5910    23.9740   -11.8950 
  125.8750     2.4770    45.6820    27.9150    24.5240    22.3580    24.0050   -11.9560 
  126.0000     2.4880    47.9260    27.2690    24.2830    20.6610    23.9790   -11.9990 
  126.1250     2.5080    47.8230    26.8170    24.0200    20.5410    23.9040   -11.9890 
  126.2500     2.5310    45.8070    26.6210    23.8420    21.0740    23.9060   -11.9770 
  126.3750     2.5460    43.5960    26.5600    23.7270    21.5180    23.8210   -11.9100 
  126.5000     2.5450    42.7610    26.4140    23.5820    23.2960    23.7030   -11.7360 
  126.6250     2.5230    43.4250    25.9640    23.2800    24.0950    23.6900   -11.5080 
  126.7500     2.4940    46.3340    25.3030    22.8420    20.8940    23.6420   -11.2470 
  126.8750     2.4680    50.9520    24.6310    22.3730    17.6200    23.4140   -10.9500 
  127.0000     2.4530    53.0720    24.1020    21.9820    16.3400    23.1290   -10.6310 
  127.1250     2.4490    49.3340    23.7700    21.7370    16.2920    23.1720   -10.2890 
  127.2500     2.4520    43.0920    23.5420    21.5870    16.3260    23.3270    -9.9190 
  127.3750     2.4550    38.7740    23.3580    21.4720    16.4060    23.3940    -9.5360 
  127.5000     2.4570    38.7060    23.1950    21.3560    17.2570    23.4110    -9.1410 
  127.6250     2.4590    42.2540    23.1120    21.2650    18.1290    23.6040    -8.7300 
  127.7500     2.4620    45.8400    23.1490    21.2610    18.1090    23.5720    -8.3170 
  127.8750     2.4680    46.7720    23.3000    21.3830    17.9270    23.5540    -7.8350 
  128.0000     2.4740    46.4150    23.4910    21.6150    19.7030    23.7170    -7.3030 
  128.1250     2.4800    47.6230    23.5470    21.8460    21.6880    23.7550    -6.8000 
  128.2500     2.4830    48.3340    23.3480    21.9400    21.3140    23.6340    -6.2870 
  128.3750     2.4820    46.9610    22.8800    21.8290    18.8680    23.5200    -5.7560 
  128.5000     2.4800    47.1380    22.2400    21.5180    18.0450    23.5750    -5.2950 
  128.6250     2.4770    51.0690    21.6360    21.0730    17.8340    23.6190    -4.9010 
  128.7500     2.4770    53.0240    21.2400    20.6510    16.6180    23.6980    -4.5070 
  128.8750     2.4830    51.6780    21.1010    20.3520    15.6330    23.8360    -4.1910 
  129.0000     2.4940    50.5710    21.1590    20.2090    15.8500    23.9420    -3.9640 
  129.1250     2.5100    51.3930    21.3010    20.2020    16.0440    24.0490    -3.7470 
  129.2500     2.5260    50.2430    21.3870    20.2410    16.5180    24.0590    -3.5400 
  129.3750     2.5390    46.8700    21.3400    20.2470    16.5860    24.0190    -3.3820 
  129.5000     2.5440    45.6190    21.1510    20.1680    16.4770    23.9270    -3.2500 
  129.6250     2.5400    47.6940    20.9230    20.0260    17.0030    24.0080    -3.1300 
  129.7500     2.5340    49.3140    20.8180    19.9330    17.0350    24.0040    -3.0390 
  129.8750     2.5280    49.2690    20.9370    19.9910    16.3180    23.9480    -2.9750 
  130.0000     2.5280    47.7610    21.2840    20.2620    16.0280    23.8830    -2.9380 
  130.1250     2.5330    46.8840    21.7600    20.7370    16.5610    23.8070    -2.9220 
  130.2500     2.5390    47.0000    22.1430    21.2220    17.2740    23.6230    -2.9650 
  130.3750     2.5410    47.7360    22.2630    21.5140    17.8820    23.4310    -3.0400 
  130.5000     2.5370    47.8060    22.0480    21.4770    18.1900    23.1430    -3.1020 
  130.6250     2.5270    46.5850    21.5690    21.1090    17.6370    22.6080    -3.1660 
