~V
VERS. 2.00: Ver 2.00
~W
STRT.M 53.0000:
STOP.M 257.0000:
STEP.M 0.1250:
NULL. -999.2500:
UWI. F11022:
~C
DEPT.M :
GR.API :
RML.OHMM :
RI. :
RXO.OHMM :
CALI.CM :
SP.MV :
DEN.GM/CC :
~A
# ...
   86.7500    71.6670     8.8860     7.8390     9.7680    26.2880   -26.1280     2.1600 
   86.8750    70.0030     8.7140     7.7000    10.6820    26.2160   -26.4240     2.1550 
   87.0000    68.8620     8.5900     7.5490    10.7240    26.1550   -26.7380     2.1570 
   87.1250    69.7240     8.8600     7.6400     9.9010    26.0760   -26.8720     2.1790 
   87.2500    70.7560     9.6310     8.0920     9.8870    25.9750   -27.0760     2.2220 
   87.3750    71.2350    10.8710     8.9150    11.7720    25.8620   -27.2840     2.2830 
   87.5000    69.6950    12.3400     9.9910    16.9980    25.7720   -27.3650     2.3520 
   87.6250    67.2080    13.4220    10.9470    25.7450    25.7470   -27.5310     2.3950 
   87.7500    65.4730    13.5880    11.3490    23.5940    25.8540   -27.8130     2.3750 
   87.8750    63.2510    12.7850    11.0590    15.9110    26.2060   -27.9890     2.2940 
   88.0000    59.0810    11.4820    10.3160    12.0290    26.7490   -28.1630     2.1980 
   88.1250    55.5400    10.3370     9.5340    11.7780    27.2720   -28.4930     2.1340 
   88.2500    55.1850     9.6500     8.9780    11.7090    27.6960   -28.7360     2.1000 
   88.3750    55.0980     9.4130     8.6990    11.6420    28.0240   -28.8860     2.0870 
   88.5000    53.2640     9.4640     8.6300    11.5690    28.1690   -29.0520     2.0830 
   88.6250    53.6280     9.6110     8.6600    11.3720    27.9600   -29.1970     2.0860 
   88.7500    55.3490     9.7250     8.6990    11.1150    27.4770   -29.2220     2.0990 
   88.8750    55.8060     9.7770     8.7240    11.1580    27.0480   -29.2020     2.1180 
   89.0000    55.6660     9.7610     8.7300    11.4310    26.9130   -29.2400     2.1330 
   89.1250    57.6650     9.6740     8.7030    11.6570    26.9750   -29.2160     2.1320 
   89.2500    59.8330     9.5600     8.6500    11.4990    27.0000   -29.1040     2.1270 
   89.3750    60.2800     9.4570     8.5780    11.2160    26.9580   -29.1250     2.1260 
   89.5000    60.0320     9.3890     8.4900    11.2590    26.9190   -29.1710     2.1290 
   89.6250    60.5850     9.3570     8.3870    11.4580    26.9090   -29.0440     2.1320 
   89.7500    60.6970     9.3310     8.2750    11.5490    26.9230   -29.0080     2.1350 
   89.8750    59.7090     9.2800     8.1590    11.4910    26.9620   -29.0640     2.1330 
   90.0000    58.9430     9.1890     8.0460    11.3020    27.0180   -28.9860     2.1240 
   90.1250    59.5070     9.0850     7.9490    11.1610    27.0750   -28.9080     2.1080 
   90.2500    60.3840     9.0430     7.8880    11.0710    27.0900   -28.9420     2.0950 
   90.3750    60.7290     9.1320     7.8940    10.9910    27.0440   -28.8580     2.0890 
   90.5000    60.7050     9.3980     8.0080    10.8550    26.9300   -28.7830     2.0930 
   90.6250    61.5940     9.8880     8.2910    10.8440    26.7530   -28.8890     2.1060 
   90.7500    64.1590    10.5030     8.7150    11.0700    26.5730   -28.8830     2.1220 
   90.8750    65.9890    11.1060     9.2010    11.4170    26.3900   -28.8120     2.1340 
   91.0000    64.4710    11.5150     9.6060    12.1640    26.1890   -28.9090     2.1450 
   91.1250    59.9270    11.5040     9.7250    14.3250    26.0780   -29.0320     2.1640 
   91.2500    56.5890    11.1140     9.5350    16.4020    26.0500   -29.0550     2.1850 
   91.3750    56.6930    10.4890     9.1130    15.3610    26.0240   -29.1640     2.1860 
   91.5000    58.5890     9.8410     8.6130    13.3900    25.9050   -29.3100     2.1600 
   91.6250    60.4640     9.3660     8.1860    12.3860    25.7480   -29.3010     2.1310 
   91.7500    61.7710     9.0800     7.8780    12.3260    25.6800   -29.3160     2.1180 
   91.8750    62.8470     8.9420     7.6830    12.4240    25.6670   -29.4310     2.1180 
   92.0000    63.2820     8.8860     7.5660    12.6430    25.6750   -29.4250     2.1290 
   92.1250    63.4270     8.8500     7.4900    12.1840    25.6980   -29.2700     2.1440 
   92.2500    66.4970     8.8190     7.4320    11.1270    25.7270   -29.2590     2.1510 
   92.3750    70.6110     8.8240     7.4010    11.1750    25.7380   -29.2390     2.1490 
   92.5000    70.0870     8.8820     7.4100    11.8340    25.7470   -29.0870     2.1430 
   92.6250    65.4490     8.9840     7.4600    11.9050    25.7680   -29.0380     2.1410 
   92.7500    61.9440     9.0930     7.5310    11.5100    25.7940   -29.0440     2.1430 
   92.8750    61.0790     9.1920     7.6040    11.7460    25.8080   -28.9160     2.1480 
   93.0000    60.4180     9.2730     7.6660    12.1660    25.8210   -28.8410     2.1530 
   93.1250    60.7640     9.3330     7.7060    12.6380    25.8500   -28.8910     2.1580 
   93.2500    62.5680     9.3730     7.7270    13.0300    25.8970   -28.7920     2.1650 
   93.3750    63.4640     9.3790     7.7330    13.4060    25.9520   -28.7290     2.1740 
   93.5000    63.3540     9.3470     7.7250    13.5790    26.0120   -28.6990     2.1770 
   93.6250    64.1130     9.2840     7.7100    13.1740    26.0570   -28.5690     2.1690 
   93.7500    64.1180     9.1920     7.6850    12.7770    26.0980   -28.4940     2.1580 
   93.8750    61.5350     9.0550     7.6340    12.5690    26.1460   -28.4960     2.1540 
   94.0000    59.0880     8.8650     7.5370    12.4580    26.2400   -28.3860     2.1590 
   94.1250    59.7900     8.6360     7.3880    12.3130    26.3720   -28.2090     2.1630 
   94.2500    60.4020     8.4140     7.2220    12.2260    26.4860   -28.1840     2.1610 
   94.3750    59.4420     8.2350     7.0700    12.0490    26.5820   -28.1270     2.1560 
   94.5000    58.5660     8.1210     6.9530    11.5480    26.7030   -28.0120     2.1540 
   94.6250    58.4450     8.0600     6.8640    11.8320    26.8430   -27.9320     2.1530 
   94.7500    57.5930     7.9920     6.7680    11.9350    26.9710   -27.8400     2.1530 
   94.8750    57.7730     7.8740     6.6430    11.9330    27.0600   -27.7030     2.1580 
   95.0000    60.6560     7.6870     6.4820    11.2080    27.1060   -27.5650     2.1660 
   95.1250    65.8980     7.4520     6.3080     9.8550    27.1200   -27.5050     2.1720 
   95.2500    70.8790     7.2450     6.1560     9.0650    27.1570   -27.3870     2.1690 
   95.3750    72.8100     7.1130     6.0490     9.0520    27.2660   -27.2100     2.1510 
   95.5000    70.3940     7.0540     5.9770     9.2910    27.4690   -27.1850     2.1230 
   95.6250    66.5670     7.0250     5.9110     9.3620    27.7320   -27.2740     2.0930 
   95.7500    65.4500     7.0000     5.8430     9.2960    27.9590   -27.2540     2.0680 
   95.8750    66.4240     7.0520     5.8320     9.2040    28.0410   -27.3070     2.0500 
   96.0000    66.7470     7.3140     5.9750     9.1310    27.9410   -27.5370     2.0510 
   96.1250    66.2920     7.9510     6.3980     9.3610    27.6630   -27.6510     2.0820 
   96.2500    65.9410     8.8630     7.0540    10.5040    27.3160   -27.7800     2.1400 
   96.3750    65.0380     9.8100     7.8070    13.8290    26.9820   -28.0380     2.2180 
   96.5000    63.2030    10.4210     8.4030    19.9570    26.7710   -28.1940     2.2950 
   96.6250    62.3170    10.2610     8.4840    19.6310    26.6670   -28.2990     2.3190 
   96.7500    62.4250     9.5280     8.0920    14.5650    26.6030   -28.5630     2.2750 
   96.8750    61.7630     8.5990     7.4460    11.2200    26.6090   -28.7810     2.2050 
   97.0000    58.9800     7.8280     6.8070    10.1040    26.7580   -28.8880     2.1570 
   97.1250    56.6970     7.4460     6.3860    10.0920    27.1060   -29.1440     2.1340 
   97.2500    58.0680     7.3680     6.1890    10.2510    27.6000   -29.3610     2.1110 
   97.3750    61.9210     7.4700     6.1580    10.2050    28.0690   -29.4300     2.0830 
   97.5000    64.4420     7.6170     6.2030    10.1750    28.3780   -29.5830     2.0610 
   97.6250    64.2640     7.6910     6.2500    10.2830    28.4680   -29.7550     2.0580 
   97.7500    62.1710     7.6690     6.2660    10.5730    28.5330   -29.7250     2.0650 
   97.8750    58.8450     7.5750     6.2540    10.8610    28.6830   -29.6820     2.0690 
