~V
VERS. 2.00: Ver 2.00
~W
STRT.M 55.0000:
STOP.M 274.0000:
STEP.M 0.1250:
NULL. -999.2500:
UWI. F11049:
~C
DEPT.M :
SP.MV :
GR.API :
RML.OHMM :
RI. :
RXO.OHMM :
CALI.CM :
DEN.GM/CC :
~A
   55.0000    32.2540    61.3910     0.1600     0.2130     0.4670    25.3330     2.5570 
   55.1250    24.5690    70.5340     0.3310     0.2160     2.9720    25.3370     2.4200 
   55.2500    16.6060    72.7010     1.3820     0.1970     6.1070    25.3600     2.3170 
   55.3750     8.8030    71.0260     2.9930     0.1410     8.0010    25.4130     2.2600 
   55.5000     1.4520    68.6190     4.7880     0.4660     9.0640    25.4530     2.2350 
   55.6250    -5.1290    67.7940     5.9450     3.9550     9.5320    25.4630     2.2160 
   55.7500   -10.9250    68.9110     6.4320     4.9960     9.8520    25.4330     2.1960 
   55.8750   -15.8250    69.5450     6.6770     5.7390    10.3140    25.3430     2.1780 
   56.0000   -19.6160    65.9890     6.9760     6.2330    10.8530    25.2130     2.1680 
   56.1250   -21.9880    61.0140     7.3050     6.5110    11.1340    25.1100     2.1720 
   56.2500   -23.4700    61.5500     7.5130     6.6490    11.2060    25.0240     2.1840 
   56.3750   -24.4470    64.1190     7.5410     6.6960    11.1260    24.5970     2.1970 
   56.5000   -25.1380    62.9230     7.4250     6.6850    10.9270    24.4090     2.2050 
   56.6250   -25.5740    60.3660     7.2800     6.6410    10.6970    24.3130     2.2060 
   56.7500   -25.7600    62.4830     7.2210     6.5940    10.5740    24.2130     2.2010 
   56.8750   -25.6300    68.5920     7.2920     6.5710    10.5750    24.1530     2.1940 
   57.0000   -25.2040    74.3540     7.5080     6.6070    10.4980    24.1330     2.1890 
   57.1250   -24.6140    76.8120     7.8920     6.7480    10.4480    24.1130     2.1900 
   57.2500   -23.9550    76.1470     8.3330     6.9550    10.5030    24.0670     2.1950 
   57.3750   -23.1990    72.7930     8.6720     7.1380    10.5930    24.0280     2.2010 
   57.5000   -22.3090    69.6150     8.7110     7.1580    10.4680    24.1040     2.2130 
   57.6250   -21.2300    70.9430     8.2310     6.8480    10.2530    24.1110     2.2380 
   57.7500   -20.0040    76.3060     7.3600     6.2670     8.8460    24.1170     2.2720 
   57.8750   -18.7420    84.5260     6.3340     5.5520     6.3900    24.1210     2.3030 
   58.0000   -17.5950    92.7520     5.4320     4.8810     4.1280    24.1200     2.3190 
   58.1250   -16.6000    98.1980     4.9120     4.4230     3.4220    24.0970     2.3180 
   58.2500   -15.6750   100.5660     4.7750     4.1980     3.1010    24.0830     2.3150 
   58.3750   -14.8500   101.8810     4.9870     4.1990     3.1140    24.0680     2.3140 
   58.5000   -14.1630   104.1730     5.4770     4.3920     3.7070    24.0390     2.3150 
   58.6250   -13.7340   106.0510     6.1880     4.7310     4.4220    24.0110     2.3160 
   58.7500   -13.6010   105.6680     6.9810     5.1110     4.5340    23.9970     2.3180 
   58.8750   -13.6780   101.4710     7.6950     5.4480     4.4800    23.9790     2.3150 
   59.0000   -13.8020    94.3040     8.1060     5.6620     4.6910    23.9400     2.3030 
   59.1250   -13.9100    86.8970     8.0060     5.7070     5.2100    23.9220     2.2860 
   59.2500   -14.0630    82.4190     7.6750     5.6810     5.6980    23.9150     2.2760 
   59.3750   -14.2440    83.3240     7.4470     5.6840     5.5990    23.9300     2.2820 
   59.5000   -14.4470    88.5020     7.5440     5.7850     5.0010    23.9300     2.3080 
   59.6250   -14.6310    93.1110     8.0210     6.0100     5.8400    23.9760     2.3530 
   59.7500   -14.7240    92.6420     8.6250     6.2800     7.5550    23.9980     2.3950 
   59.8750   -14.7480    89.0720     9.1240     6.5090     9.0280    24.0060     2.4060 
   60.0000   -14.7750    87.3410     9.3520     6.6280     7.5500    24.0070     2.3750 
   60.1250   -14.9150    86.9580     9.2350     6.6020     5.9670    23.9970     2.3250 
   60.2500   -15.1370    85.4120     8.9150     6.4820     5.7820    23.9720     2.2900 
   60.3750   -15.3870    84.6900     8.4950     6.3090     6.3400    23.9530     2.2750 
   60.5000   -15.5850    86.6370     8.0550     6.1230     6.4940    23.9600     2.2720 
   60.6250   -15.6910    89.9020     7.6490     5.9410     6.6510    23.9890     2.2770 
   60.7500   -15.8130    93.5310     7.3270     5.7690     5.2310    24.0010     2.2840 
   60.8750   -16.0220    98.3440     7.1390     5.6160     4.6040    24.0050     2.2910 
   61.0000   -16.2850   101.7770     7.0790     5.4930     4.7640    24.0000     2.2970 
   61.1250   -16.4630    99.8270     7.0820     5.3980     4.7100    24.0090     2.2970 
   61.2500   -16.5290    95.5020     7.0700     5.3250     4.6880    24.0400     2.2910 
   61.3750   -16.5480    92.9900     7.0620     5.2870     5.0200    24.0690     2.2830 
   61.5000   -16.6310    93.5270     7.1620     5.3260     5.1900    24.0590     2.2770 
   61.6250   -16.8630    92.6730     7.5740     5.5380     4.8400    24.0060     2.2740 
   61.7500   -17.1620    86.5330     8.2910     5.9410     5.0820    23.9930     2.2720 
   61.8750   -17.3920    78.7500     9.1620     6.4860     6.0470    23.9830     2.2730 
   62.0000   -17.4900    75.4910     9.8840     7.0310     7.4200    23.9790     2.2840 
   62.1250   -17.5420    77.2270     9.9950     7.3060     8.8570    23.9850     2.3000 
   62.2500   -17.6150    79.7730     9.4300     7.1890     8.9260    23.9880     2.3060 
   62.3750   -17.6690    84.7210     8.4160     6.7340     6.7820    23.9740     2.3000 
   62.5000   -17.6470    93.1320     7.3740     6.1430     4.9730    23.9670     2.2860 
   62.6250   -17.4980    99.7320     6.7230     5.6610     4.5590    23.9780     2.2720 
   62.7500   -17.2410   101.8230     6.5230     5.3880     4.5550    23.9960     2.2610 
   62.8750   -17.0020   101.5020     6.7110     5.3390     4.6260    24.0040     2.2490 
   63.0000   -16.9070   101.6120     7.1420     5.4750     4.9160    24.0010     2.2350 
   63.1250   -16.9070   101.6170     7.6100     5.7170     5.2870    23.9900     2.2250 
   63.2500   -16.8850    98.4820     7.9240     5.9370     5.3300    23.9730     2.2290 
   63.3750   -16.8180    93.0570     7.9960     6.0500     5.2630    23.9630     2.2470 
   63.5000   -16.7160    89.9890     7.8080     6.0010     4.9870    23.9600     2.2740 
   63.6250   -16.6120    94.8080     7.3730     5.7560     4.5160    23.9660     2.3060 
   63.7500   -16.5780   103.0620     6.8080     5.3850     4.2730    23.9690     2.3430 
   63.8750   -16.6080   108.7570     6.1910     4.9510     3.9710    23.9700     2.3790 
   64.0000   -16.5990   111.1820     5.6140     4.5280     3.4430    23.9690     2.4080 
   64.1250   -16.5110   112.5450     5.2170     4.2090     3.2240    23.9650     2.4180 
   64.2500   -16.4790   112.7930     5.0600     4.0370     3.2180    23.9610     2.4080 
   64.3750   -16.6020   108.5260     5.1880     4.0420     3.2530    23.9590     2.3830 
   64.5000   -16.9210    98.9870     5.6520     4.2550     3.9300    23.9650     2.3510 
   64.6250   -17.4080    88.5740     6.6610     4.7860     5.7430    23.9680     2.3210 
   64.7500   -17.8960    81.9880     8.3450     5.6940     7.6480    23.9670     2.3000 
   64.8750   -18.3250    79.1590    10.8480     7.0850     9.0360    23.9620     2.2940 
   65.0000   -18.7740    77.1370    14.0940     8.9960    13.2420    23.9590     2.3050 
   65.1250   -19.3430    71.0730    17.4580    11.2290    24.5710    23.9570     2.3370 
   65.2500   -19.9450    63.6390    19.6870    13.0250    42.7560    23.9590     2.3690 
   65.3750   -20.4970    61.2120    19.7870    13.6170    53.2170    23.9640     2.3680 
   65.5000   -20.9330    66.5710    17.7680    12.8080    35.5320    23.9690     2.3140 
   65.6250   -21.2170    72.3320    14.7870    11.1660    16.6870    23.9700     2.2400 
   65.7500   -21.4300    72.0990    12.2940     9.6170    10.3550    23.9680     2.1930 
   65.8750   -21.6390    70.2840    10.7520     8.4930     8.7580    23.9630     2.1710 
   66.0000   -21.8530    71.2610    10.1100     7.8410     8.5390    23.9520     2.1590 
   66.1250   -21.9690    73.9450    10.1130     7.6000     8.2510    23.9510     2.1520 
