~V
VERS. 2.00: Ver 2.00
~W
STRT.M 57.0000:
STOP.M 226.0000:
STEP.M 0.1250:
NULL. -999.2500:
UWI. F11011:
~C
DEPT.M :
GR.API :
RML.OHMM :
RI. :
RXO.OHMM :
CALI.CM :
SP.MV :
DEN.GM/CC :
~A
# ...
  158.2500    71.9960    76.3620    74.6190    66.6970    24.2390   -16.9660     2.2320 
  158.3750    70.1380    70.0880    68.1260    64.7440    24.5460   -17.1640     2.2340 
  158.5000    68.0910    65.5080    63.2470    63.2200    24.8070   -17.3880     2.2420 
  158.6250    69.2080    63.9150    61.2550    61.4450    24.9080   -17.6370     2.2520 
  158.7500    71.5270    64.8320    61.7280    59.6420    24.9320   -17.8930     2.2590 
  158.8750    72.3130    67.6750    64.2120    57.6230    24.9370   -18.0790     2.2610 
  159.0000    71.8590    71.5850    67.9050    55.7430    24.9530   -18.2780     2.2600 
  159.1250    71.0240    75.6800    71.8010    55.3700    25.0000   -18.4350     2.2590 
  159.2500    71.3280    79.6230    75.3820    55.7560    25.0360   -18.6410     2.2600 
  159.3750    72.0900    83.9490    79.0670    56.2180    25.0500   -18.8170     2.2600 
  159.5000    72.5380    89.7570    83.8870    59.9200    25.0520   -18.9700     2.2580 
  159.6250    71.2490    98.7780    91.5910    67.3830    25.0600   -19.1370     2.2510 
  159.7500    67.5890   110.8840   102.4030    81.2130    25.0920   -19.2270     2.2420 
  159.8750    63.9460   124.8240   115.3920   102.8380    25.1440   -19.2840     2.2340 
  160.0000    62.8440   137.9490   127.9990   141.9290    25.1780   -19.3460     2.2300 
  160.1250    66.0290   146.1500   135.7860   145.2640    25.1850   -19.4290     2.2320 
  160.2500    69.3780   148.5520   137.3830   123.1900    25.1790   -19.4420     2.2360 
  160.3750    69.4550   146.4880   134.0900   106.7350    25.1880   -19.4990     2.2410 
  160.5000    67.2960   143.0810   129.2870   102.4540    25.2860   -19.5440     2.2430 
  160.6250    65.2730   142.4580   127.2380    95.4510    25.4780   -19.5880     2.2390 
  160.7500    63.5360   146.6080   129.8270    89.1950    25.7400   -19.7350     2.2300 
  160.8750    62.2980   156.1000   137.6720    92.8720    25.9290   -19.9510     2.2190 
  161.0000    62.1290   170.0830   150.3710   107.9600    26.0080   -20.1640     2.2090 
  161.1250    62.2290   185.7760   166.0420   155.7350    26.0350   -20.3070     2.2030 
  161.2500    62.1900   198.3910   179.9040   218.0620    26.0150   -20.4770     2.2020 
  161.3750    62.8300   204.4020   187.8750   237.4720    25.9580   -20.5620     2.2040 
  161.5000    63.5470   202.5620   188.0170   221.2970    25.9240   -20.6450     2.2090 
  161.6250    64.0220   193.6910   180.8570   188.4900    25.8780   -20.6430     2.2140 
  161.7500    64.4820   181.8550   170.7210   137.0710    25.7590   -20.5720     2.2180 
  161.8750    64.2310   168.8070   159.5170    94.9450    25.6110   -20.4520     2.2210 
  162.0000    63.6620   155.0850   147.5670    77.2660    25.4150   -20.2950     2.2250 
  162.1250    63.4590   140.9840   134.6770    72.2830    25.1190   -20.2180     2.2320 
  162.2500    64.1670   127.7660   122.1260    62.5450    24.9080   -20.1110     2.2410 
  162.3750    64.6120   117.1810   111.8130    52.4870    24.8550   -20.0830     2.2470 
  162.5000    64.6840   110.9280   105.5150    46.4750    24.8710   -20.0840     2.2450 
  162.6250    64.9200   111.0620   105.4210    45.7920    24.9160   -20.1980     2.2340 
  162.7500    64.9430   116.6770   110.9550    49.9160    25.0060   -20.4010     2.2200 
  162.8750    64.6800   126.6140   121.2100    58.5800    25.1040   -20.5890     2.2090 
  163.0000    64.3670   138.6810   134.0480    68.9680    25.1950   -20.7570     2.2040 
  163.1250    64.8120   149.4680   145.7640    89.9230    25.2020   -20.8460     2.2020 
  163.2500    66.2680   156.5110   153.3090   106.2200    25.1400   -20.8920     2.2010 
  163.3750    68.2810   159.0980   155.7500   114.7010    25.0110   -20.9030     2.2030 
  163.5000    69.8920   158.0840   154.1710   117.4050    24.8780   -20.8620     2.2080 
  163.6250    70.0790   155.0950   150.5460   117.3470    24.7280   -20.8230     2.2170 
  163.7500    68.7430   152.0410   146.8740   116.6000    24.6000   -20.7300     2.2270 
  163.8750    67.8500   149.6760   143.8800   111.9950    24.5410   -20.7170     2.2330 
  164.0000    68.7830   148.2810   141.8690   109.5610    24.5370   -20.7240     2.2350 
  164.1250    71.8450   148.0190   141.0760   109.9790    24.5840   -20.8060     2.2340 
  164.2500    74.9870   148.6230   141.2900   106.9980    24.6090   -20.9940     2.2330 
  164.3750    76.2230   150.0210   142.4890   105.4060    24.6260   -21.2210     2.2330 
  164.5000    74.5530   152.1990   144.6810   106.8070    24.6760   -21.4490     2.2340 
  164.6250    71.3270   155.2360   147.9750   115.3980    24.7660   -21.6070     2.2360 
  164.7500    69.6920   158.7250   151.9350   122.9190    24.7780   -21.7490     2.2370 
  164.8750    69.3420   162.0510   155.9380   134.2950    24.7690   -21.8510     2.2380 
  165.0000    69.2920   164.3340   159.0520   146.6750    24.7910   -21.9430     2.2380 
  165.1250    70.1820   164.3430   159.9890   152.0220    24.8100   -21.9520     2.2380 
  165.2500    72.7420   162.0880   158.7040   145.7740    24.7840   -21.9800     2.2410 
  165.3750    74.6830   157.9890   155.5750   138.3700    24.7440   -21.9190     2.2440 
  165.5000    72.3330   152.8960   151.4220   132.8490    24.7100   -21.8580     2.2470 
  165.6250    67.6880   147.8010   147.2550   132.2930    24.6720   -21.7540     2.2480 
  165.7500    65.8040   143.3280   143.7080   135.9140    24.5850   -21.5540     2.2460 
  165.8750    67.2710   139.6720   140.9320   138.3130    24.4870   -21.3150     2.2420 
  166.0000    67.5650   136.9060   138.9910   139.0460    24.4150   -21.0530     2.2400 
  166.1250    65.2370   135.2360   138.1780   131.4370    24.3980   -20.7160     2.2390 
  166.2500    64.9610   134.3480   138.2580   125.7660    24.4850   -20.3050     2.2380 
  166.3750    67.7460   133.6810   138.6030   120.8700    24.5910   -19.8850     2.2360 
  166.5000    70.0840   132.2980   138.0270   117.2170    24.6590   -19.4650     2.2340 
  166.6250    67.5720   128.9620   134.7420   119.3660    24.5670   -19.0590     2.2340 
  166.7500    64.9840   123.9130   128.8680   136.6180    24.4290   -18.7660     2.2350 
  166.8750    66.9890   118.2460   121.7280   153.0180    24.3100   -18.5670     2.2380 
  167.0000    73.9550   113.7230   115.4740   133.6810    24.2940   -18.4430     2.2430 
  167.1250    82.8410   112.9310   112.9570    90.2580    24.3240   -18.4740     2.2460 
  167.2500    89.6800   116.8170   115.2030    74.8370    24.3540   -18.5220     2.2460 
  167.3750    91.4440   125.9030   122.7670    78.6100    24.3420   -18.6340     2.2440 
  167.5000    87.2380   139.8240   135.3020    95.5480    24.3140   -18.7660     2.2390 
  167.6250    79.0070   157.3240   151.5490   111.0010    24.3100   -18.9930     2.2330 
  167.7500    73.0140   174.9700   168.1110   115.1510    24.2990   -19.1580     2.2270 
  167.8750    69.3200   189.8670   182.3190   131.1890    24.3090   -19.2440     2.2210 
  168.0000    65.2760   199.6780   192.0230   162.6500    24.3510   -19.2600     2.2140 
  168.1250    61.0580   202.2780   195.0580   178.5590    24.3510   -19.2420     2.2090 
  168.2500    60.3220   199.4790   192.7740   178.1840    24.3640   -19.3100     2.2050 
  168.3750    63.0480   193.1630   186.9170   180.5730    24.4600   -19.3430     2.2030 
  168.5000    65.1040   185.0060   179.6620   179.3510    24.5830   -19.3590     2.2030 
  168.6250    62.6180   174.1670   171.2510   169.0720    24.6760   -19.3760     2.2030 
  168.7500    58.0080   158.2470   158.4750   143.0370    24.7070   -19.4150     2.2050 
  168.8750    54.5020   135.7870   137.7800   128.8220    24.6600   -19.3860     2.2150 
  169.0000    55.1700   108.9640   110.3440   128.5600    24.6090   -19.2670     2.2380 
  169.1250    60.6150    83.9780    83.6450   117.0840    24.6230   -19.0130     2.2710 
  169.2500    65.8810    65.6750    63.8620    69.7460    24.6900   -18.6970     2.2990 
  169.3750    67.9630    55.6300    52.5640    33.0530    24.7110   -18.4000     2.3050 
