~V
VERS. 2.00: Ver 2.00
~W
STRT.M 60.0000:
STOP.M 276.0000:
STEP.M 0.1250:
NULL. -999.2500:
UWI. F11026:
~C
DEPT.M :
DEN.GM/CC :
GR.API :
RML.OHMM :
RI. :
RXO.OHMM :
CALI.CM :
SP.MV :
~A
# ...
  138.7500     2.4640    77.6950     9.4060    10.3400     8.3460    23.6820    -9.6740 
  138.8750     2.4030    84.1130     7.7370     8.4510     6.1430    23.8790    -9.8150 
  139.0000     2.3580    84.7280     6.8680     7.3560     6.1090    24.0160   -10.1090 
  139.1250     2.3340    83.5540     6.6920     6.9790     6.6790    24.0500   -10.4480 
  139.2500     2.3250    84.0610     6.9300     7.0860     6.8270    23.8980   -10.8500 
  139.3750     2.3280    85.1280     7.4630     7.5750     6.7290    23.5060   -11.2970 
  139.5000     2.3390    84.3670     8.1710     8.3210     7.1360    23.0320   -11.7500 
  139.6250     2.3470    83.2030     8.9050     9.1530     8.0550    22.6710   -12.1820 
  139.7500     2.3430    82.2780     9.5120     9.8700     9.8540    22.4390   -12.5050 
  139.8750     2.3220    80.3220     9.8970    10.3380    10.8910    22.3700   -12.6300 
  140.0000     2.2860    77.1480    10.0510    10.5150     9.9970    22.5120   -12.6140 
  140.1250     2.2470    76.1440    10.0540    10.4690     9.1210    22.5930   -12.6090 
  140.2500     2.2180    77.6950    10.0960    10.4120     8.9780    22.7100   -12.4880 
  140.3750     2.2030    79.9060    10.3090    10.4680     9.4320    22.7490   -12.2540 
  140.5000     2.2010    81.3230    10.7710    10.7160    10.3130    22.8000   -12.0730 
  140.6250     2.2100    81.5730    11.5350    11.2330    11.2790    22.9830   -11.9920 
  140.7500     2.2290    79.1860    12.5100    11.9740    11.8760    23.1660   -12.0430 
  140.8750     2.2630    74.8100    13.6240    12.9000    12.0900    23.2060   -12.2430 
  141.0000     2.3190    70.6160    14.7920    13.9450    12.6290    23.2010   -12.4680 
  141.1250     2.3930    66.9050    15.8990    15.0050    14.1090    23.1060   -12.6280 
  141.2500     2.4690    63.5100    16.8660    15.9550    15.9460    22.8940   -12.8340 
  141.3750     2.5350    61.2480    17.6660    16.7330    16.3500    22.8390   -13.0800 
  141.5000     2.5830    60.0650    18.3310    17.3670    16.5800    23.1080   -13.2270 
  141.6250     2.6080    57.9890    18.9210    17.9410    17.7270    23.6300   -13.2330 
  141.7500     2.6160    55.8650    19.4880    18.5380    18.8360    24.1210   -13.0580 
  141.8750     2.6070    54.9790    20.0150    19.1580    19.5530    24.4390   -12.7110 
  142.0000     2.5840    54.1720    20.4530    19.7330    19.7660    24.4900   -12.3370 
  142.1250     2.5530    52.2970    20.7400    20.1320    20.6720    24.3120   -12.0200 
  142.2500     2.5310    50.8590    20.9090    20.3370    20.8070    24.0200   -11.7730 
  142.3750     2.5290    50.5470    21.0000    20.3940    19.7760    23.7590   -11.5800 
  142.5000     2.5490    49.9120    21.0420    20.3720    20.6900    23.6870   -11.4930 
  142.6250     2.5810    48.8870    21.0270    20.3090    22.1250    23.7520   -11.5370 
  142.7500     2.6020    48.9980    20.9500    20.2220    23.0810    23.7690   -11.7170 
  142.8750     2.5990    49.5010    20.8100    20.1120    21.7520    23.7860   -12.0300 
  143.0000     2.5730    49.1660    20.6300    19.9880    20.3060    23.9430   -12.3370 
  143.1250     2.5400    48.7260    20.4430    19.8710    19.5900    24.1200   -12.4570 
  143.2500     2.5140    49.5870    20.2770    19.7820    19.6370    24.0490   -12.4620 
  143.3750     2.4980    50.6530    20.1360    19.7200    19.2520    23.9370   -12.4770 
  143.5000     2.4820    53.0310    20.0100    19.6640    19.0250    23.9520   -12.4420 
  143.6250     2.4640    57.2730    19.8900    19.6040    19.2360    24.0990   -12.2770 
  143.7500     2.4510    60.3000    19.7490    19.5330    19.9230    24.3360   -12.0930 
  143.8750     2.4550    61.9320    19.5280    19.4140    20.4360    24.6020   -11.9630 
  144.0000     2.4810    64.0540    19.1250    19.1430    20.3290    24.6090   -11.8880 
  144.1250     2.5150    65.6220    18.3830    18.5220    19.2810    24.2570   -11.8650 
  144.2500     2.5300    65.2200    17.3320    17.5340    18.4020    23.9240   -11.8290 
  144.3750     2.5080    64.9750    16.0900    16.2840    16.2850    23.9790   -11.7380 
  144.5000     2.4530    65.8390    14.8620    14.9980    13.2980    24.3160   -11.6050 
  144.6250     2.3940    64.6700    13.9290    13.9700    11.6210    24.5750   -11.4500 
  144.7500     2.3660    63.1600    13.4030    13.3070    10.9390    24.5880   -11.2690 
  144.8750     2.3840    63.7260    13.2970    13.0270    11.5110    24.1950   -10.9740 
  145.0000     2.4350    65.1600    13.5190    13.0690    12.8800    23.4420   -10.6230 
  145.1250     2.4850    64.2770    13.9140    13.3170    13.6050    22.9840   -10.3310 
  145.2500     2.5020    61.9480    14.2880    13.5740    13.7290    23.0630   -10.1120 
  145.3750     2.4770    59.1430    14.5770    13.7570    13.3120    23.7150    -9.9720 
  145.5000     2.4250    55.6880    14.8070    13.8820    13.4410    24.7760    -9.9500 
  145.6250     2.3800    54.0060    15.0570    14.0300    13.8460    25.8800   -10.0150 
  145.7500     2.3680    56.3010    15.3750    14.2580    14.1630    26.4440   -10.1450 
  145.8750     2.3900    59.6100    15.7510    14.5710    15.2130    26.6340   -10.3890 
  146.0000     2.4320    59.9210    16.1440    14.9250    17.1750    26.7420   -10.6620 
  146.1250     2.4690    55.5090    16.5160    15.2460    19.1310    26.8860   -10.8700 
  146.2500     2.4830    52.5810    16.8810    15.5150    17.8840    27.1440   -11.0410 
  146.3750     2.4750    53.3770    17.2860    15.7840    16.7980    27.4390   -11.1440 
  146.5000     2.4570    54.9930    17.7740    16.1290    17.7490    27.6660   -11.1570 
  146.6250     2.4490    55.2930    18.3340    16.6160    19.1640    27.6970   -11.2010 
  146.7500     2.4620    55.3760    18.8300    17.1650    21.0250    27.5840   -11.2230 
  146.8750     2.4960    56.2470    19.0680    17.5980    23.2570    27.3340   -11.1550 
  147.0000     2.5370    54.9450    18.8550    17.6830    22.3730    27.2600   -11.1240 
  147.1250     2.5600    51.9700    18.0150    17.1710    20.9110    27.3980   -11.1980 
  147.2500     2.5590    52.7350    16.7460    16.1950    19.9480    27.5840   -11.2720 
  147.3750     2.5420    57.4720    15.2710    14.9420    18.7120    27.6730   -11.3560 
  147.5000     2.5260    62.9590    13.8130    13.6290    16.2730    27.6100   -11.4400 
  147.6250     2.5270    65.1570    12.5300    12.4290    14.4360    27.5110   -11.4680 
  147.7500     2.5340    65.6690    11.3730    11.3290    12.5740    27.4860   -11.4340 
  147.8750     2.5280    66.3030    10.2500    10.2410    11.2240    27.5350   -11.3740 
  148.0000     2.4910    67.2250     9.0870     9.0830    10.9670    27.5850   -11.2490 
  148.1250     2.4190    69.3560     7.8870     7.8490    10.6330    27.5880   -11.0840 
  148.2500     2.3420    73.1420     6.7540     6.6620     8.5050    27.4940   -10.9390 
  148.3750     2.2860    80.6880     5.7980     5.6460     6.0150    27.2070   -10.7200 
  148.5000     2.2670    88.8060     5.0970     4.8870     4.6390    26.6330   -10.4320 
  148.6250     2.2870    91.6550     4.7140     4.4390     4.3430    25.8470   -10.1710 
  148.7500     2.3180    90.4460     4.5500     4.2050     4.3840    25.2610   -10.0430 
  148.8750     2.3470    90.0170     4.5220     4.1150     4.4640    24.9100   -10.0280 
  149.0000     2.3650    91.5860     4.5490     4.0910     4.5060    24.7330   -10.0490 
  149.1250     2.3770    91.3530     4.5750     4.0700     4.4310    24.7520   -10.0710 
  149.2500     2.3860    88.9820     4.5950     4.0350     4.2780    24.8570   -10.0820 
  149.3750     2.3920    87.9000     4.6270     4.0040     4.1920    24.7230   -10.1480 
  149.5000     2.3960    90.1690     4.6840     3.9980     4.2710    24.4770   -10.3260 
  149.6250     2.3980    92.6650     4.7590     4.0320     4.4690    24.3630   -10.5450 
  149.7500     2.4000    91.2100     4.8250     4.0860     4.5870    24.4280   -10.7020 
  149.8750     2.4040    87.8540     4.8600     4.1350     4.7330    24.4580   -10.8630 
