~V
VERS. 2.00: Ver 2.00
~W
STRT.M 50.0000:
STOP.M 283.0000:
STEP.M 0.1250:
NULL. -999.2500:
UWI. F11066:
~C
DEPT.M :
GR.API :
RML.OHMM :
RI. :
RXO.OHMM :
CALI.CM :
DEN.GM/CC :
SP.MV :
~A
# ...
  275.0000    54.7410     9.1170     7.7570     9.0660    24.6990     2.4580     2.3790 
  275.1250    54.7410     9.2850     7.9310     9.3610    24.6970     2.4610     2.3680 
  275.2500    54.7410     9.3160     7.9910    10.0780    24.7080     2.4600     2.3600 
  275.3750    54.7410     9.2430     7.9600    10.8120    24.7210     2.4560     2.3290 
  275.5000    54.7410     9.1700     7.9090    10.5740    24.7880     2.4490     2.1940 
  275.6250    54.7410     9.2480     7.9540    10.8250    24.8560     2.4460     2.0910 
  275.7500    54.7410     9.5200     8.1560    11.6910    24.9130     2.4510     2.0770 
  275.8750    54.7410     9.9450     8.5170    13.1280    24.9400     2.4590     2.0630 
  276.0000    54.7410    10.4020     8.9660    13.4180    25.0590     2.4640     2.0820 
  276.1250    54.7410    10.6770     9.3320    11.3060    25.2230     2.4700     2.1500 
  276.2500    54.7410    10.6680     9.4740    10.3710    25.2680     2.4810     2.1790 
  276.3750    54.7410    10.3860     9.3470    10.3370    25.0080     2.4870     2.2800 
  276.5000    54.7410     9.9360     9.0090    10.4010    24.7570     2.4800     2.4700 
  276.6250    54.7410     9.4680     8.5830    10.0810    24.7580     2.4670     2.5950 
  276.7500    54.7410     9.0740     8.1990    10.2930    24.8360     2.4590     2.7380 
  276.8750    54.7410     8.7660     7.9120    11.2290    24.8930     2.4570     2.8440 
  277.0000    54.7410     8.5320     7.7310    12.3840    24.9320     2.4550     2.8770 
  277.1250    54.7410     8.3730     7.6460    12.4200    24.9340     2.4530     2.8900 
  277.2500    54.7410     8.2770     7.6130    11.3610    24.9330     2.4520     2.9040 
  277.3750    54.7410     8.2270     7.6050    10.2360    24.9360     2.4500     2.9080 
  277.5000    54.7410     8.1950     7.6060     9.5270    24.9030     2.4460     2.9000 
  277.6250    54.7410     8.1650     7.6070     9.3040    24.8990     2.4450  -999.2500 
  277.7500    54.7410     8.1410     7.6080     9.4630    24.8830     2.4470  -999.2500 
  277.8750    54.7410     8.1300     7.6080     9.7370    24.8910     2.4550  -999.2500 
  278.0000    54.7410     8.1340     7.6080     9.7540    24.8740     2.4720  -999.2500 
  278.1250    54.7410     8.1570     7.6090     9.6000    24.8940     2.4890  -999.2500 
  278.2500    54.7410     8.1960     7.6110     9.8500    24.9170     2.4910  -999.2500 
  278.3750    54.7410     8.2400     7.6120    10.6270    24.8950     2.4780  -999.2500 
  278.5000    54.7410     8.2810     7.6120    11.4620    24.8870     2.4550  -999.2500 
  278.6250    54.7410     8.3040     7.6130    11.3160    24.9690     2.4310  -999.2500 
  278.7500    54.7410     8.3040     7.6130    10.2540    24.9390     2.4150  -999.2500 
  278.8750    54.7410     8.3040     7.6130    10.0840    24.5860     2.4120  -999.2500 
  279.0000    54.7410     8.3040     7.6130    10.0420    24.0690     2.4170  -999.2500 
  279.1250    54.7410     8.3040     7.6130    10.2740    24.0050     2.4180  -999.2500 
  279.2500    54.7410     8.3040     7.6130    10.7600    24.3390     2.4150  -999.2500 
  279.3750    54.7410     8.3040     7.6130    11.3160    24.7950     2.4090  -999.2500 
  279.5000    54.7410     8.3040     7.6130    11.5630    25.1510     2.4030  -999.2500 
  279.6250    54.7410     8.3040     7.6130    11.4570    25.0420     2.4020  -999.2500 
  279.7500    54.7410     8.3040     7.6130    11.2770    24.9470     2.4110  -999.2500 
  279.8750    54.7410     8.3040     7.6130    11.1000    24.9000     2.4280  -999.2500 
  280.0000    54.7410     8.3040     7.6130    10.8540    25.0520     2.4470  -999.2500 
  280.1250    54.7410     8.3040     7.6130    10.5350    25.4640     2.4640  -999.2500 
  280.2500    54.7410     8.3040     7.6130    10.1650    25.7520     2.4780  -999.2500 
  280.3750    54.7410     8.3040     7.6130     9.7190    25.3690     2.4900  -999.2500 
  280.5000    54.7410     8.3040     7.6130    10.2190    24.9390     2.5000  -999.2500 
  280.6250    54.7410     8.3040     7.6130    11.2870    24.7960     2.5060  -999.2500 
  280.7500    54.7410     8.3040     7.6130    12.1380    24.8390     2.5050  -999.2500 
  280.8750    54.7410     8.3040     7.6130    13.4450    24.8560     2.4910  -999.2500 
  281.0000    54.7410     8.3040     7.6130    14.6190    24.6830     2.4530  -999.2500 
  281.1250    54.7410     8.3040     7.6130    15.7840    24.5150     2.3770  -999.2500 
  281.2500    54.7410     8.3040     7.6130    16.1180    24.4300     2.2650  -999.2500 
  281.3750    54.7410     8.3040     7.6130    14.8180    24.3260     2.1260  -999.2500 
  281.5000    54.7410     8.3040     7.6130    12.5030    24.0910     1.9600  -999.2500 
  281.6250    54.7410     8.3040     7.6130    10.6690    23.4680     1.7600  -999.2500 
  281.7500    54.7410     8.3040     7.6130     9.0900    22.4340     1.5920  -999.2500 
  281.8750    54.7410     8.3040     7.6130     8.1640    21.5910     1.4950  -999.2500 
  282.0000    54.7410     8.3040     7.6130     7.8650    21.2670     1.4610  -999.2500 
  282.1250    54.7410     8.3040     7.6130     7.8670    21.2480     1.4600  -999.2500 
  282.2500    54.7410     8.3040     7.6130     7.8660    21.2460     1.4610  -999.2500 
  282.3750    54.7410     8.3040     7.6130     7.8660    21.2510     1.4600  -999.2500 
  282.5000    54.7410     8.3040     7.6130     7.8670    21.2310     1.4720  -999.2500 
  282.6250    54.7410     8.3040     7.6130     7.8650    21.2170     1.4920  -999.2500 
  282.7500    54.7410     8.3040     7.6130     7.8640    21.1630     1.5330  -999.2500 
  282.8750    54.7410     8.3040     7.6130     7.8620    21.1420     1.5910  -999.2500 
  283.0000    54.7410     8.3040     7.6130     7.8600    21.1370     1.6660  -999.2500 
