~V
VERS. 2.00: Ver 2.00
~W
STRT.M 50.0000:
STOP.M 283.0000:
STEP.M 0.1250:
NULL. -999.2500:
UWI. F11066:
~C
DEPT.M :
GR.API :
RML.OHMM :
RI. :
RXO.OHMM :
CALI.CM :
DEN.GM/CC :
SP.MV :
~A
# ...
  241.2500   110.5180     7.9130     6.9400     9.1770    24.3880     2.4050    -1.8150 
  241.3750   116.7030     7.8930     6.8760     9.1470    24.3390     2.4080    -1.7290 
  241.5000   120.9770     7.8980     6.8370     8.9930    24.2970     2.4130    -1.6550 
  241.6250   124.3440     7.9160     6.8190     8.8300    24.3470     2.4140    -1.6150 
  241.7500   126.1130     7.9280     6.8090     8.7190    24.3700     2.4130    -1.5760 
  241.8750   124.1040     7.9260     6.7940     8.6570    24.3820     2.4110    -1.5460 
  242.0000   118.8980     7.9080     6.7680     8.6430    24.4040     2.4090    -1.5220 
  242.1250   115.7050     7.8860     6.7420     8.6680    24.3930     2.4060    -1.4820 
  242.2500   113.7700     7.9050     6.7470     8.6200    24.3790     2.4020    -1.4440 
  242.3750   111.1480     8.0270     6.8270     8.3830    24.3940     2.4000    -1.3930 
  242.5000   110.0210     8.3030     7.0120     8.2540    24.4030     2.4020    -1.3410 
  242.6250   112.0230     8.7510     7.3240     8.5630    24.3860     2.4080    -1.2810 
  242.7500   113.8270     9.2660     7.6930     9.1250    24.3460     2.4210    -1.2200 
  242.8750   112.9400     9.7180     8.0250     9.6760    24.3000     2.4380    -1.1650 
  243.0000   111.3700     9.9550     8.2000    10.1330    24.2650     2.4510    -1.1060 
  243.1250   112.3300     9.8180     8.0790     9.6790    24.2340     2.4490    -1.0590 
  243.2500   114.6710     9.4000     7.7270     9.4460    24.2540     2.4350    -1.0090 
  243.3750   117.5810     8.8850     7.2820     9.5000    24.2640     2.4180    -0.9910 
  243.5000   119.8240     8.5480     6.9470     9.1130    24.2310     2.4060    -0.9860 
  243.6250   118.4820     8.7610     6.9860     8.3540    24.2170     2.3970    -0.9940 
  243.7500   113.3970     9.6230     7.4820     8.2080    24.2150     2.3910    -1.0050 
  243.8750   106.5190    11.2000     8.5120     9.0600    24.1850     2.3950    -1.0120 
  244.0000    99.1290    13.4560    10.1280    11.7720    24.1010     2.4100    -1.0180 
  244.1250    92.3940    16.1490    12.3150    16.7060    24.0560     2.4200    -1.0310 
  244.2500    89.0420    18.6120    14.5930    18.3220    24.0530     2.4110    -1.0380 
  244.3750    90.5050    20.2870    16.4210    16.9830    24.0910     2.3900    -1.0030 
  244.5000    93.9340    20.8830    17.3720    17.8830    24.0580     2.3710    -0.9290 
  244.6250    96.7900    20.3120    17.1900    19.9150    23.9890     2.3550    -0.8390 
  244.7500    98.3720    19.0740    16.2850    19.3320    23.9490     2.3390    -0.7190 
  244.8750    98.5120    17.5110    14.9930    17.2950    23.9650     2.3260    -0.5900 
  245.0000    97.1220    15.9360    13.6250    15.0140    24.0480     2.3220    -0.4730 
  245.1250    92.3160    14.7850    12.5280    13.6240    24.0800     2.3210    -0.3450 
  245.2500    85.2170    14.3450    11.9170    12.9580    24.0850     2.3170    -0.2700 
  245.3750    79.8850    14.7810    11.9310    12.7160    24.0920     2.3100    -0.2400 
  245.5000    78.8620    16.0990    12.6240    13.6180    24.0880     2.3010    -0.2620 
  245.6250    78.2100    18.2180    14.0350    15.9670    24.0440     2.2920    -0.3050 
  245.7500    73.2370    20.6220    15.8370    18.2260    24.0030     2.2820    -0.3720 
  245.8750    67.6920    22.8080    17.6670    20.1140    23.9970     2.2700    -0.4580 
  246.0000    66.4680    24.3040    19.1040    22.2220    24.0220     2.2590    -0.5260 
  246.1250    68.2300    24.7860    19.7800    22.7660    24.0500     2.2500    -0.5920 
  246.2500    68.8560    24.6450    19.9020    21.2810    24.0630     2.2420    -0.6130 
  246.3750    68.3170    24.2070    19.6970    20.6580    24.0690     2.2350    -0.5830 
  246.5000    67.1690    23.6840    19.3390    21.6890    24.0670     2.2320    -0.5100 
  246.6250    66.2170    23.2480    18.9690    23.4040    24.0580     2.2350    -0.4050 
  246.7500    66.2670    23.1310    18.7920    23.1150    24.0350     2.2420    -0.2970 
  246.8750    67.9070    23.6220    19.0370    20.5970    23.9910     2.2500    -0.1620 
  247.0000    70.1000    24.9130    19.8840    18.7820    23.9450     2.2550    -0.0180 
  247.1250    71.4880    26.8620    21.3470    21.8260    23.9610     2.2540     0.1420 
  247.2500    71.7800    28.4800    22.7620    28.0760    24.0040     2.2510     0.3230 
  247.3750    70.4040    28.6720    23.2730    32.8110    24.0130     2.2500     0.5090 
  247.5000    68.3820    26.8560    22.2830    31.2710    23.9800     2.2540     0.7000 
  247.6250    69.3640    23.4520    19.9130    23.1860    24.0050     2.2630     0.9060 
  247.7500    71.0220    19.9840    17.2790    16.6810    24.0380     2.2710     1.1080 
  247.8750    70.4890    17.2070    14.9890    13.7570    24.0580     2.2710     1.2970 
  248.0000    67.1120    15.2700    13.2380    13.9150    24.0460     2.2670     1.4800 
  248.1250    65.2730    14.0100    12.0140    14.5390    23.9880     2.2650     1.6640 
  248.2500    66.4820    13.0650    11.1010    13.0320    23.8990     2.2670     1.8510 
  248.3750    68.7750    12.3770    10.4590    10.8100    23.8090     2.2700     2.0380 
  248.5000    71.6750    12.0010    10.1070    10.0300    23.7430     2.2700     2.2220 
  248.6250    74.3620    12.0400    10.1130    10.2590    23.6680     2.2700     2.3910 
  248.7500    77.2430    12.3690    10.3950    10.7390    23.6240     2.2730     2.5600 
  248.8750    78.9080    12.8430    10.8560    11.3890    23.6130     2.2830     2.7240 
  249.0000    77.4970    13.2740    11.3460    12.0280    23.5770     2.3010     2.8790 
  249.1250    73.3320    13.4390    11.6480    12.0740    23.5030     2.3290     3.0050 
  249.2500    70.9090    13.2890    11.6650    11.5180    23.5320     2.3640     3.0770 
  249.3750    72.3660    12.8020    11.3560    11.3460    23.6500     2.3970     3.1070 
  249.5000    74.9700    12.0100    10.7460    11.9960    23.8390     2.4070     3.0850 
  249.6250    74.8610    11.0750     9.9630    12.4730    24.0000     2.3780     3.0200 
  249.7500    74.3810    10.3200     9.2830    11.4030    24.1570     2.3310     2.9160 
  249.8750    76.0610     9.9840     8.9030    10.1950    24.2190     2.2940     2.7930 
  250.0000    78.7790    10.2150     8.9490     9.9230    24.2290     2.2770     2.6430 
  250.1250    79.1050    11.1340     9.5580    11.0480    24.2330     2.2710     2.4750 
  250.2500    75.0600    12.4740    10.5950    13.2200    24.2130     2.2610     2.3000 
  250.3750    68.7340    13.9070    11.8570    15.1420    24.1360     2.2480     2.1170 
  250.5000    65.6410    15.0280    13.0160    15.4670    24.0790     2.2450     1.9330 
  250.6250    69.7080    15.4060    13.6380    15.0480    24.0710     2.2590     1.7220 
  250.7500    75.1750    15.1400    13.6850    14.9670    24.0880     2.2790     1.5110 
  250.8750    76.9340    14.4820    13.3120    14.9220    24.1310     2.2940     1.2680 
  251.0000    74.1610    13.7570    12.7700    14.4940    24.2830     2.2980     0.9910 
  251.1250    70.3990    13.2860    12.3160    13.7150    24.5100     2.2910     0.6700 
  251.2500    70.3570    13.1840    12.0870    13.3220    24.6640     2.2820     0.3060 
  251.3750    71.8950    13.4970    12.1610    13.6280    24.7090     2.2760    -0.0990 
  251.5000    70.6940    14.2030    12.5680    14.8840    24.6810     2.2770    -0.5310 
  251.6250    67.1860    15.2270    13.3180    16.5900    24.6050     2.2780    -0.9650 
  251.7500    67.2890    16.3320    14.2370    17.6470    24.6940     2.2750    -1.4230 
  251.8750    68.9400    17.3020    15.1490    18.3630    25.0020     2.2700    -1.8810 
  252.0000    67.3820    17.9460    15.8620    20.2060    24.5390     2.2680    -2.3340 
  252.1250    65.1760    18.2000    16.2540    19.9870    24.4740     2.2770    -2.7740 
  252.2500    65.6250    18.4060    16.5400    20.2130    24.4170     2.2940    -3.2010 
  252.3750    67.6500    18.9910    17.0330    20.2720    24.4120     2.3160    -3.6340 
