~V
VERS. 2.00: Ver 2.00
~W
STRT.M 55.0000:
STOP.M 283.0000:
STEP.M 0.1250:
NULL. -999.2500:
UWI. F11062:
~C
DEPT.M :
SP.MV :
GR.API :
RML.OHMM :
RI. :
RXO.OHMM :
CALI.CM :
DEN.GM/CC :
~A
# ...
  145.0000    -9.4330    56.4980    10.5550     9.3160    10.2890    24.5240     2.1740 
  145.1250    -9.1080    56.6180    10.8960     9.6020    10.2900    24.4240     2.1830 
  145.2500    -8.7120    57.0460    11.4710    10.0700    10.3900    24.2610     2.2030 
  145.3750    -8.2520    56.1250    12.1280    10.6280    10.7670    24.0400     2.2370 
  145.5000    -7.7520    53.8050    12.5940    11.0740    11.6050    23.8380     2.2770 
  145.6250    -7.1980    53.1770    12.4560    11.0680    12.8400    23.6950     2.3080 
  145.7500    -6.6250    56.8440    11.6490    10.5030    13.8510    23.5500     2.3200 
  145.8750    -6.0560    63.3770    10.3020     9.4400    13.3280    23.4030     2.3110 
  146.0000    -5.4970    69.9980     8.7400     8.1270    10.3740    23.2940     2.2910 
  146.1250    -4.9840    74.4590     7.3880     6.9170     7.5910    23.2700     2.2750 
  146.2500    -4.5250    76.9620     6.4280     5.9960     6.3210    23.3700     2.2690 
  146.3750    -4.1270    78.6190     5.8580     5.3940     5.7370    23.5250     2.2710 
  146.5000    -3.7860    78.4400     5.5900     5.0640     5.4480    23.6330     2.2780 
  146.6250    -3.5260    77.2310     5.5250     4.9480     5.3670    23.6590     2.2880 
  146.7500    -3.3240    77.6430     5.5380     4.9340     5.3490    23.6680     2.2950 
  146.8750    -3.1720    78.8840     5.5830     4.9730     5.2850    23.6820     2.2980 
  147.0000    -3.0630    78.9980     5.6430     5.0390     5.3230    23.6800     2.2970 
  147.1250    -3.0000    75.0570     5.6990     5.1120     5.3980    23.6470     2.2940 
  147.2500    -2.9730    69.9550     5.7230     5.1640     5.5190    23.5950     2.2930 
  147.3750    -2.9650    68.0700     5.6860     5.1680     5.6150    23.5330     2.2960 
  147.5000    -2.9560    72.0040     5.5660     5.0980     5.6300    23.4760     2.2990 
  147.6250    -2.9830    79.8770     5.3630     4.9390     5.5520    23.4270     2.3000 
  147.7500    -3.0100    87.1690     5.1360     4.7380     5.3930    23.3750     2.2990 
  147.8750    -3.0550    91.4090     4.9450     4.5450     5.1490    23.3400     2.2990 
  148.0000    -3.1250    90.9850     4.8420     4.4080     4.9110    23.3130     2.3020 
  148.1250    -3.2140    87.1080     4.8740     4.3780     4.8340    23.2840     2.3050 
  148.2500    -3.3130    85.0180     5.0190     4.4490     4.9410    23.2610     2.3040 
  148.3750    -3.4380    86.6260     5.2510     4.6080     5.2020    23.2480     2.2950 
  148.5000    -3.6040    87.9840     5.5270     4.8270     5.4390    23.2340     2.2780 
  148.6250    -3.7530    85.0470     5.7840     5.0570     5.5460    23.2190     2.2570 
  148.7500    -3.9230    81.2690     5.9710     5.2490     5.6580    23.1950     2.2390 
  148.8750    -4.0800    78.7880     6.0640     5.3730     5.8580    23.1660     2.2270 
  149.0000    -4.2000    78.1230     6.0670     5.4230     6.1170    23.1340     2.2240 
  149.1250    -4.3040    77.6350     6.0120     5.4130     6.1060    23.0850     2.2310 
  149.2500    -4.4000    78.0730     5.9730     5.3970     5.9020    23.0300     2.2460 
  149.3750    -4.4540    79.2760     6.0040     5.4170     5.8850    23.0100     2.2630 
  149.5000    -4.4660    79.0700     6.1320     5.5020     6.1110    23.0160     2.2730 
  149.6250    -4.4600    77.4590     6.3490     5.6590     6.3410    22.9890     2.2720 
  149.7500    -4.4460    75.2430     6.5740     5.8390     6.5340    22.9710     2.2610 
  149.8750    -4.4130    74.5250     6.7310     5.9870     6.4240    22.9640     2.2470 
  150.0000    -4.3470    75.4500     6.7610     6.0500     6.3050    22.9570     2.2380 
  150.1250    -4.2780    75.4210     6.6330     5.9880     6.3050    22.9460     2.2390 
  150.2500    -4.2020    75.1870     6.4290     5.8460     6.1500    22.9580     2.2450 
  150.3750    -4.1180    77.4280     6.2510     5.6920     5.8790    23.0210     2.2510 
  150.5000    -4.0700    82.9680     6.2140     5.6140     5.6870    23.1720     2.2520 
  150.6250    -4.0220    85.1050     6.4490     5.7270     5.7730    23.3800     2.2460 
  150.7500    -3.9400    81.5260     6.9210     6.0350     6.0070    23.5380     2.2370 
  150.8750    -3.8770    77.8560     7.5340     6.4910     6.4500    23.6160     2.2310 
  151.0000    -3.8530    75.3940     8.1250     6.9850     7.2550    23.6570     2.2320 
  151.1250    -3.7670    71.6990     8.4760     7.3520     8.2820    23.6970     2.2420 
  151.2500    -3.6630    67.7870     8.5680     7.5260     9.2330    23.7200     2.2550 
  151.3750    -3.5770    66.7630     8.5330     7.5680     9.7000    23.7180     2.2700 
  151.5000    -3.4660    68.5360     8.6370     7.6550     8.8530    23.7060     2.2900 
  151.6250    -3.3400    69.6020     9.2480     8.0770     8.1840    23.6840     2.3230 
  151.7500    -3.2360    67.2150    10.4110     8.9330     9.0030    23.6620     2.3680 
  151.8750    -3.1270    60.1790    12.0230    10.2120    11.2530    23.6300     2.4190 
  152.0000    -3.0000    50.5240    13.8270    11.7740    15.3620    23.6070     2.4650 
  152.1250    -2.9240    46.0710    15.4300    13.3400    18.2840    23.5980     2.4950 
  152.2500    -2.8580    47.7600    16.5980    14.6290    17.8830    23.5870     2.5120 
  152.3750    -2.7830    48.8050    17.3230    15.5360    15.8790    23.5670     2.5220 
  152.5000    -2.6920    46.1240    17.7910    16.1520    14.6300    23.5480     2.5320 
  152.6250    -2.6070    42.1910    18.2680    16.6850    15.8450    23.5360     2.5410 
  152.7500    -2.5380    39.8260    18.8710    17.2870    16.4680    23.5180     2.5460 
  152.8750    -2.4820    38.6980    19.5140    17.9210    16.5900    23.4840     2.5460 
  153.0000    -2.4630    39.4830    20.0060    18.4440    16.8390    23.4420     2.5420 
  153.1250    -2.4610    42.7050    20.0900    18.6260    17.8450    23.4020     2.5390 
  153.2500    -2.4500    45.1980    19.7680    18.4400    18.5550    23.3720     2.5360 
  153.3750    -2.4390    45.9430    19.1550    17.9610    17.9800    23.3370     2.5320 
  153.5000    -2.4420    45.2480    18.4840    17.3740    16.6620    23.2980     2.5260 
  153.6250    -2.4780    43.8920    18.0990    16.9740    15.6710    23.2720     2.5220 
  153.7500    -2.5140    43.3820    18.1790    16.9490    14.8810    23.2740     2.5240 
  153.8750    -2.5640    43.2290    18.7680    17.3780    15.1100    23.2980     2.5340 
  154.0000    -2.6290    41.3950    19.7870    18.2340    16.5000    23.3560     2.5510 
  154.1250    -2.6850    38.2430    21.0820    19.4290    17.5890    23.4390     2.5680 
  154.2500    -2.7470    36.7940    22.3860    20.7180    19.0960    23.4760     2.5770 
  154.3750    -2.8410    38.5510    23.5290    21.9280    20.1010    23.4830     2.5780 
  154.5000    -2.9500    41.9780    24.4020    22.9280    20.7440    23.4830     2.5720 
  154.6250    -3.0480    46.0040    24.9170    23.5970    21.8130    23.4750     2.5640 
  154.7500    -3.1560    48.2540    25.1330    23.9660    23.0170    23.4530     2.5590 
  154.8750    -3.2590    47.5530    25.0650    24.0380    23.5590    23.4080     2.5580 
  155.0000    -3.3260    45.1400    24.7190    23.8210    23.1890    23.3350     2.5590 
  155.1250    -3.4100    42.8020    24.0750    23.2870    23.1610    23.2500     2.5560 
  155.2500    -3.5040    42.7430    23.2510    22.5480    22.6830    23.1540     2.5480 
  155.3750    -3.5850    44.6580    22.3630    21.7110    21.3870    23.0500     2.5380 
  155.5000    -3.6460    47.2190    21.5400    20.9030    19.1160    22.9680     2.5290 
  155.6250    -3.6960    50.1590    20.9200    20.2620    17.1030    22.9140     2.5250 
  155.7500    -3.7370    52.1650    20.5250    19.8300    16.2860    22.8720     2.5240 
  155.8750    -3.7630    53.9630    20.3520    19.6210    16.6880    22.8300     2.5260 
  156.0000    -3.8020    55.0670    20.3750    19.6200    17.5030    22.7940     2.5280 
  156.1250    -3.8130    54.1130    20.5860    19.8250    17.2880    22.7630     2.5320 
