~V
VERS. 2.00: Ver 2.00
~W
STRT.M 60.0000:
STOP.M 274.0000:
STEP.M 0.1250:
NULL. -999.2500:
UWI. F11079:
~C
DEPT.M :
GR.API :
RML.OHMM :
RI. :
RXO.OHMM :
CALI.CM :
DEN.GM/CC :
SP.MV :
~A
# ...
  240.0000    71.5970     4.3770     3.9070     3.7690    23.8230     2.3710     5.6400 
  240.1250    77.5230     3.9720     3.5830     3.7460    23.8170     2.3670     5.6960 
  240.2500    82.6550     3.5440     3.1860     3.6080    23.7650     2.3700     5.7760 
  240.3750    88.2990     3.2410     2.8420     3.3960    23.6190     2.3770     5.8340 
  240.5000    94.2890     3.1550     2.6490     3.1850    23.4210     2.3840     5.8270 
  240.6250    94.9780     3.3470     2.6870     3.5980    23.4190     2.3880     5.7380 
  240.7500    89.9280     3.7470     2.9140     3.8920    23.6680     2.3920     5.6580 
  240.8750    84.8940     4.2950     3.3000     4.1030    23.9690     2.3960     5.6100 
  241.0000    84.6440     4.9080     3.7940     4.5110    24.1600     2.4000     5.5680 
  241.1250    85.8170     5.4690     4.3130     5.1330    24.2480     2.4030     5.5230 
  241.2500    85.5060     5.9050     4.7580     5.7060    24.2730     2.4050     5.4570 
  241.3750    85.8420     6.1850     5.0630     5.9990    24.2720     2.4080     5.3640 
  241.5000    88.3670     6.3040     5.2040     6.0020    24.2660     2.4160     5.2300 
  241.6250    89.6550     6.2750     5.1780     6.0130    24.2670     2.4280     5.0860 
  241.7500    87.3380     6.1860     5.0830     5.8260    24.2780     2.4360     4.9670 
  241.8750    83.7640     6.1220     5.0000     5.5450    24.2810     2.4350     4.8610 
  242.0000    81.5090     6.1700     4.9970     5.5260    24.2630     2.4240     4.7400 
  242.1250    81.3560     6.4150     5.1280     5.9500    24.2090     2.4110     4.5480 
  242.2500    82.7720     6.8180     5.3620     6.5480    24.1660     2.3980     4.2930 
  242.3750    84.4840     7.3030     5.6610     7.0310    24.1390     2.3860     4.0010 
  242.5000    85.1770     7.7700     5.9680     7.2340    24.1270     2.3780     3.7180 
  242.6250    85.3600     8.1010     6.2130     7.4150    24.1460     2.3740     3.5380 
  242.7500    84.7910     8.2870     6.3720     7.5550    24.1930     2.3710     3.4240 
  242.8750    83.1170     8.3650     6.4580     7.5000    24.2320     2.3700     3.3290 
  243.0000    82.8190     8.3990     6.5080     7.4000    24.2410     2.3700     3.2220 
  243.1250    85.0870     8.4410     6.5630     7.6540    24.2450     2.3740     3.1220 
  243.2500    86.2440     8.5010     6.6390     7.9470    24.2680     2.3780     3.0370 
  243.3750    83.2920     8.5640     6.7250     8.0630    24.2770     2.3800     2.9800 
  243.5000    79.0730     8.6140     6.7990     8.0480    24.2780     2.3770     2.9690 
  243.6250    78.1640     8.6260     6.8320     7.8870    24.2880     2.3710     2.9880 
  243.7500    77.7970     8.6040     6.8330     7.7260    24.2960     2.3640     2.9920 
  243.8750    76.9420     8.5670     6.8210     7.6130    24.2850     2.3600     2.9410 
  244.0000    75.9580     8.5300     6.8110     7.5900    24.2720     2.3590     2.8450 
  244.1250    74.4100     8.5020     6.8140     7.5300    24.2760     2.3590     2.7480 
  244.2500    73.0680     8.4740     6.8180     7.3770    24.2680     2.3590     2.6940 
  244.3750    72.5150     8.4430     6.8130     7.2340    24.2390     2.3570     2.6860 
  244.5000    73.8770     8.4090     6.7930     7.2060    24.2260     2.3520     2.7080 
  244.6250    76.3680     8.3880     6.7680     7.1900    24.2370     2.3490     2.7120 
  244.7500    77.3380     8.3860     6.7490     7.0640    24.2230     2.3510     2.6800 
  244.8750    76.5300     8.3920     6.7330     6.8400    24.1770     2.3590     2.6470 
  245.0000    74.2220     8.3770     6.7080     6.7190    24.1560     2.3680     2.6330 
  245.1250    73.1650     8.3070     6.6490     6.7900    24.1900     2.3710     2.6340 
  245.2500    74.4590     8.1740     6.5450     6.8540    24.2370     2.3650     2.6620 
  245.3750    78.0200     7.9850     6.3960     6.7610    24.2660     2.3520     2.7090 
  245.5000    81.3720     7.7700     6.2220     6.4590    24.2080     2.3350     2.7580 
  245.6250    82.3630     7.5930     6.0640     6.0830    24.0330     2.3180     2.7690 
  245.7500    84.2780     7.5130     5.9690     5.9770    23.8380     2.3100     2.7390 
  245.8750    88.9680     7.5860     5.9850     6.3710    23.7130     2.3170     2.7280 
  246.0000    92.5400     7.8650     6.1640     7.0050    23.7200     2.3370     2.7870 
  246.1250    90.1410     8.3980     6.5760     7.6960    23.8860     2.3610     2.9160 
  246.2500    85.8890     9.0850     7.1680     8.4910    23.9950     2.3780     3.0510 
  246.3750    82.9170     9.8210     7.8670     9.7310    23.9480     2.3870     3.1590 
  246.5000    81.9960    10.4860     8.5660    11.6680    23.9270     2.3880     3.2240 
  246.6250    81.4510    10.9450     9.1350    11.5640    23.9680     2.3860     3.2520 
  246.7500    81.1200    11.1950     9.5240    10.2240    23.8690     2.3900     3.2960 
  246.8750    82.5450    11.2690     9.7210     9.5790    23.7420     2.4020     3.3630 
  247.0000    83.8450    11.2130     9.7450    10.7130    23.7320     2.4190     3.4350 
  247.1250    80.3560    11.0210     9.5820    11.2040    23.8010     2.4320     3.4900 
  247.2500    74.3830    10.6890     9.2620    10.4970    23.9000     2.4390     3.5290 
  247.3750    72.4780    10.2000     8.7960     9.0020    24.0330     2.4370     3.5540 
  247.5000    75.4920     9.5810     8.2280     8.3750    24.1590     2.4310     3.5370 
  247.6250    79.1100     8.9070     7.6370     8.1070    24.2460     2.4270     3.4950 
  247.7500    82.3480     8.2980     7.1130     7.4740    24.2830     2.4230     3.4960 
  247.8750    84.6380     7.8680     6.7280     7.2660    24.2740     2.4090     3.5110 
  248.0000    82.6600     7.7510     6.5730     8.2650    24.2050     2.3820     3.4980 
  248.1250    76.7980     8.2150     6.8430    10.4550    24.0420     2.3490     3.4130 
  248.2500    72.7440     9.3780     7.6450    11.1980    23.8880     2.3240     3.2650 
  248.3750    72.3380    11.3600     9.1300    12.8180    23.8300     2.3120     3.0930 
  248.5000    73.0740    14.0890    11.3510    20.7160    23.8090     2.3120     2.9650 
  248.6250    72.7340    16.9990    14.0380    31.4310    23.7500     2.3200     2.9230 
  248.7500    71.1300    18.8940    16.1620    29.7920    23.6710     2.3320     2.9210 
  248.8750    69.2030    18.8310    16.7230    22.2080    23.6270     2.3420     2.9280 
  249.0000    69.5960    16.8300    15.5070    15.1910    23.5860     2.3450     2.9200 
  249.1250    74.4560    13.9860    13.3210    11.0880    23.5000     2.3450     2.9270 
  249.2500    79.1670    11.6250    11.3590    10.3490    23.4880     2.3450     2.9460 
  249.3750    79.4220    10.1630    10.0380     9.0610    23.6630     2.3460     2.9610 
  249.5000    74.6650     9.5870     9.4150     7.7980    23.9930     2.3470     2.9600 
  249.6250    71.9070     9.7720     9.4730     8.6350    24.1850     2.3470     2.9620 
  249.7500    73.1230    10.3070     9.9270    10.8450    24.2050     2.3460     2.9370 
  249.8750    74.7080    10.9270    10.5650    11.6490    24.1670     2.3410     2.8480 
  250.0000    74.2800    11.4250    11.1660    10.8260    24.1310     2.3360     2.7010 
  250.1250    74.6090    11.6340    11.4990    11.4820    24.1260     2.3340     2.5150 
  250.2500    77.2760    11.6010    11.5370    11.8940    24.1210     2.3370     2.3340 
  250.3750    78.2360    11.4200    11.3520    11.1910    24.1160     2.3430     2.1760 
  250.5000    75.7080    11.1860    11.0480    10.4420    24.0730     2.3490     2.0460 
  250.6250    73.3510    10.9160    10.6660    10.5940    23.9380     2.3560     1.8930 
  250.7500    74.3010    10.5520    10.1880    10.8420    23.7740     2.3630     1.6630 
  250.8750    76.3150    10.0400     9.5920    10.4460    23.7290     2.3690     1.3700 
  251.0000    77.3030     9.4470     8.9530     9.3760    23.8290     2.3670     1.0610 
  251.1250    78.8360     9.1030     8.5320     8.4160    23.9260     2.3580     0.7520 
