~V
VERS. 2.00: Ver 2.00
~W
STRT.M 55.0000:
STOP.M 277.0000:
STEP.M 0.1250:
NULL. -999.2500:
UWI. F11037:
~C
DEPT.M :
SP.MV :
GR.API :
RML.OHMM :
RI. :
RXO.OHMM :
CALI.CM :
DEN.GM/CC :
~A
# ...
  257.5000    -3.2870    58.0690     9.0870     6.9100     8.5400    25.1520     2.4340 
  257.6250    -3.2860    60.0420     8.9860     6.9490     8.6440    25.1340     2.4400 
  257.7500    -3.2780    62.6710     8.8530     7.0170     9.1740    25.1140     2.4490 
  257.8750    -3.1860    63.3910     8.7470     7.0980     9.9660    25.0930     2.4560 
  258.0000    -3.0940    62.3800     8.7160     7.1690    10.4940    25.0450     2.4580 
  258.1250    -3.1020    61.9980     8.7760     7.2130    10.4590    24.8230     2.4520 
  258.2500    -3.2160    62.5450     8.8630     7.2300    10.1240    24.3110     2.4450 
  258.3750    -3.4410    62.9180     8.9320     7.2380     9.9320    23.8140     2.4420 
  258.5000    -3.6860    63.6050     8.9800     7.2650    10.1170    23.9660     2.4450 
  258.6250    -3.8370    64.1070     9.0700     7.3470    10.6490    24.5450     2.4540 
  258.7500    -3.9310    64.5410     9.2430     7.4890    12.3370    24.9290     2.4670 
  258.8750    -4.0220    65.2080     9.4830     7.6720    15.5770    25.0960     2.4820 
  259.0000    -4.1400    66.2130     9.7180     7.8640    19.6780    25.1600     2.4940 
  259.1250    -4.2550    65.8160     9.8610     8.0120    20.4920    25.1880     2.4980 
  259.2500    -4.2860    64.4120     9.9140     8.1080    18.5030    25.2130     2.4940 
  259.3750    -4.2050    64.3370     9.9220     8.1730    14.2790    25.2250     2.4850 
  259.5000    -4.1030    67.0980     9.9260     8.2330    11.8740    25.2280     2.4720 
  259.6250    -3.9750    69.8930     9.9200     8.3030    11.3630    25.2280     2.4580 
  259.7500    -3.7980    69.7940     9.8710     8.3650    11.5120    25.2350     2.4480 
  259.8750    -3.6670    66.0590     9.7570     8.3850    11.3730    25.2600     2.4440 
  260.0000    -3.6110    61.7620     9.5840     8.3370    10.9970    25.3180     2.4510 
  260.1250    -3.4300    61.9930     9.3820     8.2160     9.9510    25.3370     2.4680 
  260.2500    -3.2470    66.1500     9.1950     8.0760     9.5360    25.3240     2.4850 
  260.3750    -3.2640    70.6940     9.0490     7.9630     9.7390    25.3030     2.4930 
  260.5000    -3.3180    72.6710     8.9610     7.9000     9.9050    25.2960     2.4880 
  260.6250    -3.2810    73.2800     8.9460     7.8810    10.0540    25.2960     2.4730 
  260.7500    -3.2810    73.8980     9.0010     7.8660    10.4440    25.3010     2.4580 
  260.8750    -3.3700    73.6540     9.1260     7.8470    10.9290    25.3180     2.4520 
  261.0000    -3.4860    71.6230     9.3080     7.8430    10.2820    25.3350     2.4590 
  261.1250    -3.6000    69.4760     9.4970     7.8720     9.3100    25.3170     2.4780 
  261.2500    -3.6820    69.6370     9.6190     7.9110     9.1070    25.2830     2.4990 
  261.3750    -3.7230    71.0590     9.6160     7.9340     9.9540    25.2880     2.5160 
  261.5000    -3.7660    71.2750     9.4780     7.9200    10.7640    25.3210     2.5250 
  261.6250    -3.8330    69.5620     9.2450     7.8540    10.7570    25.3220     2.5240 
  261.7500    -3.8880    68.4800     9.0140     7.7520    10.0140    25.2900     2.5210 
  261.8750    -3.9380    69.3640     8.8420     7.6240     9.1780    25.2540     2.5180 
  262.0000    -4.0030    70.4390     8.7440     7.4890     8.7500    25.2340     2.5190 
  262.1250    -4.1040    69.9830     8.7050     7.3910     9.0390    25.2270     2.5190 
  262.2500    -4.2020    69.4660     8.6760     7.3520     9.6960    25.2260     2.5110 
  262.3750    -4.2960    69.3780     8.6270     7.3560    10.1750    25.2260     2.4930 
  262.5000    -4.3830    68.6780     8.5410     7.3630    10.1350    25.2270     2.4680 
  262.6250    -4.4590    66.7020     8.4310     7.3460    10.0270    25.2360     2.4460 
  262.7500    -4.5170    64.8080     8.3470     7.3210     9.7900    25.2540     2.4380 
  262.8750    -4.5560    63.7270     8.3420     7.3120     9.5890    25.2580     2.4460 
  263.0000    -4.5510    62.2650     8.4500     7.3410     9.1670    25.2070     2.4650 
  263.1250    -4.5040    59.7660     8.6660     7.4320     9.1080    25.1780     2.4870 
  263.2500    -4.5320    58.8230     8.8940     7.5620     9.4260    25.1720     2.5020 
  263.3750    -4.5370    61.0360     9.0510     7.7100     9.9090    25.1770     2.5110 
  263.5000    -4.4950    64.6950     9.0940     7.8450    10.3980    25.1750     2.5150 
  263.6250    -4.5380    66.9650     9.0280     7.9020    10.9980    25.1880     2.5130 
  263.7500    -4.6500    67.0490     8.9260     7.8660    11.6370    25.2090     2.5050 
  263.8750    -4.6650    65.8240     8.8150     7.7420    11.4760    25.2220     2.4900 
  264.0000    -4.5880    64.8240     8.6850     7.5560     9.1390    25.2240     2.4710 
  264.1250    -4.5180    65.9260     8.5170     7.3600     8.2710    25.2250     2.4610 
  264.2500    -4.5070    67.5600     8.3420     7.2060     8.1490    25.2140     2.4660 
  264.3750    -4.5430    67.5260     8.2090     7.1190     8.4770    25.1880     2.4850 
  264.5000    -4.5940    65.6930     8.1570     7.0940     8.8090    25.1670     2.5090 
  264.6250    -4.6320    64.2450     8.1840     7.1040     8.6130    25.1600     2.5210 
  264.7500    -4.6750    64.5100     8.2100     7.1020     8.2770    25.1600     2.5190 
  264.8750    -4.8590    66.1910     8.1770     7.0650     8.4260    25.1600     2.5080 
  265.0000    -5.0800    68.1620     8.0600     7.0010     9.2230    25.1600     2.4950 
  265.1250    -5.2150    69.8140     7.8800     6.9360     9.7310    25.1600     2.4870 
  265.2500    -5.2390    70.1460     7.7150     6.8840     8.8050    25.1600     2.4810 
  265.3750    -5.2390    67.8750     7.6350     6.8480     8.0460    25.1600     2.4760 
  265.5000    -5.2360    63.7600     7.6920     6.8340     7.5900    25.1600     2.4720 
  265.6250    -5.1810    62.3560     7.9010     6.8550     7.3450    25.1600     2.4710 
  265.7500    -5.1390    63.3130     8.1580     6.9070     7.5230    25.1600     2.4730 
  265.8750    -5.0130    65.2470     8.3550     6.9730     8.0940    25.1600     2.4750 
  266.0000    -4.8500    66.9460     8.4060     7.0090     8.8440    25.1660     2.4750 
  266.1250    -4.7770    66.8350     8.2650     6.9450    10.0000    25.1840     2.4710 
  266.2500    -4.7840    66.8350     8.0150     6.7860    10.7160    25.2080     2.4650 
  266.3750    -4.7500    66.8350     7.7340     6.5660     9.5790    25.2180     2.4550 
  266.5000    -4.7440    66.8350     7.4870     6.3390     7.4820    25.2210     2.4410 
  266.6250    -4.8570    66.8350     7.3350     6.1650     6.8820    25.2220     2.4260 
  266.7500    -4.9400    66.8350     7.2870     6.0680     6.5440    25.2230     2.4190 
  266.8750    -5.0080    66.8350     7.3470     6.0500     6.0760    25.2170     2.4240 
  267.0000    -5.1360    66.8350     7.5000     6.0950     5.7710    25.2050     2.4330 
  267.1250    -5.3310    66.8350     7.7010     6.1810     5.9080    25.2450     2.4330 
  267.2500    -5.4630    66.8350     7.8650     6.2770     5.9690    25.4910     2.4220 
  267.3750    -5.5490    66.8350     7.9320     6.3650     5.8600    25.9300     2.4110 
  267.5000    -5.6710    66.8350     7.8820     6.4180     5.7630    26.1920     2.4170 
  267.6250    -5.8120    66.8350     7.7340     6.4100     5.7640    25.8490     2.4470 
  267.7500    -5.9140    66.8350     7.5720     6.3540     5.7510    25.3910     2.4830 
  267.8750    -5.9840    66.8350     7.4570     6.2800     5.8660    25.1780     2.5080 
  268.0000    -5.9890    66.8350     7.4290     6.2310     6.0500    25.2560     2.5150 
  268.1250    -5.9630    66.8350     7.5110     6.2440     6.2300    25.5200     2.5010 
  268.2500    -5.9770    66.8350     7.6470     6.2980     6.1710    25.6990     2.4710 
  268.3750    -6.0610    66.8350     7.7810     6.3560     6.1030    25.7490     2.4150 
  268.5000    -6.1200    66.8350     7.8610     6.3880     6.1810    25.8880     2.3230 
  268.6250    -6.1140    66.8350     7.8630     6.3860     6.2330    26.2710     2.1900 
