~V
VERS. 2.00: Ver 2.00
~W
STRT.M 59.0000:
STOP.M 230.0000:
STEP.M 0.1250:
NULL. -999.2500:
UWI. F11001:
~C
DEPT.M :
GR.API :
RML.OHMM :
RI. :
RXO.OHMM :
CALI.CM :
SP.MV :
DEN.GM/CC :
~A
# ...
   81.5000    75.0040    10.5280     8.2920    10.7760    25.8840   -24.4680     2.0700 
   81.6250    71.9340    10.8040     8.5640    10.8220    25.6520   -23.9100     2.1310 
   81.7500    70.8220    10.9160     8.6850    10.9670    25.1130   -23.3320     2.2040 
   81.8750    70.2750    10.8950     8.6620    11.1240    24.6280   -22.9060     2.2570 
   82.0000    68.9960    10.7450     8.5030    11.2570    24.2440   -22.5880     2.2750 
   82.1250    68.6330    10.4540     8.2110    11.2730    24.0950   -22.2250     2.2560 
   82.2500    69.6480     9.9790     7.7720    11.1970    24.2850   -21.6250     2.2160 
   82.3750    70.5050     9.3730     7.2350    10.9610    24.6820   -20.8220     2.1820 
   82.5000    71.2260     8.7480     6.6800    10.2920    24.9480   -19.9040     2.1740 
   82.6250    72.6310     8.2860     6.2360     9.0480    24.7370   -18.9440     2.1910 
   82.7500    76.5600     8.2690     6.0930     8.7170    24.1640   -17.8800     2.2100 
   82.8750    80.5160     8.7580     6.2950     8.4760    23.8110   -16.7070     2.2030 
   83.0000    81.4670     9.7050     6.8500     9.6900    23.7880   -15.6090     2.1640 
   83.1250    78.2670    10.8970     7.6760    15.5600    23.9280   -14.7800     2.1090 
   83.2500    73.7140    11.9180     8.5320    28.2410    24.1090   -14.4210     2.0700 
   83.3750    71.3420    12.4300     9.0860    25.3510    24.1350   -14.4620     2.0640 
   83.5000    71.8320    12.3280     9.1750    15.6670    24.1460   -14.8080     2.0850 
   83.6250    73.6700    11.7540     8.8640    11.5020    24.2400   -15.3820     2.1180 
   83.7500    73.6730    11.0120     8.3690    11.1610    24.3770   -16.1820     2.1450 
   83.8750    71.4800    10.4010     7.9250    11.4710    24.4620   -17.1630     2.1620 
   84.0000    68.7920    10.0150     7.6150    11.6870    24.5080   -18.2180     2.1690 
   84.1250    68.5640     9.8340     7.4390    11.7690    24.5430   -19.2670     2.1720 
   84.2500    71.2050     9.8160     7.3770    11.6520    24.5900   -20.2380     2.1750 
   84.3750    73.4860     9.8870     7.3850    11.5270    24.6280   -21.1070     2.1810 
   84.5000    72.4470    10.0150     7.4470    11.5810    24.7020   -21.8470     2.1880 
   84.6250    67.0130    10.1560     7.5360    11.7860    24.8620   -22.4260     2.1960 
   84.7500    63.6800    10.2340     7.6030    11.9530    24.8900   -22.7910     2.2040 
   84.8750    67.2370    10.2060     7.6130    11.9630    24.7390   -22.9150     2.2120 
   85.0000    72.7000    10.0720     7.5530    11.8530    24.4490   -22.7770     2.2170 
   85.1250    73.5640     9.8740     7.4420    11.5790    24.2460   -22.4150     2.2170 
   85.2500    69.4990     9.6970     7.3290    11.3660    24.2430   -21.9020     2.2090 
   85.3750    67.6740     9.6000     7.2640    11.3270    24.3670   -21.3450     2.1970 
   85.5000    69.8150     9.5930     7.2650    11.3440    24.4410   -20.7940     2.1900 
   85.6250    72.6530     9.6410     7.3160    11.6450    24.3960   -20.2820     2.1930 
   85.7500    75.1840     9.6750     7.3760    13.4960    24.1640   -19.8970     2.2060 
   85.8750    77.5780     9.6340     7.3960    15.2270    23.8850   -19.6990     2.2180 
   86.0000    77.1840     9.4920     7.3470    13.8270    23.6100   -19.7050     2.2210 
   86.1250    73.2470     9.2520     7.2210    11.2220    23.4740   -19.8090     2.2130 
   86.2500    69.1270     8.9500     7.0320    10.5170    23.7570   -19.8630     2.2020 
   86.3750    68.4660     8.6600     6.8370    11.0100    23.9760   -19.7210     2.1950 
   86.5000    71.2480     8.4290     6.6810    11.0410    24.0950   -19.3680     2.1930 
   86.6250    75.1420     8.2720     6.5850     9.2040    24.1320   -18.9020     2.1930 
   86.7500    76.5800     8.1620     6.5360     7.6250    24.2150   -18.3010     2.1950 
   86.8750    73.9490     8.0360     6.4780     7.5530    24.3970   -17.4160     2.2030 
   87.0000    72.0570     7.8630     6.3760     8.1810    24.6110   -16.1510     2.2200 
   87.1250    76.6440     7.6570     6.2290     8.0100    24.7420   -14.5860     2.2410 
   87.2500    84.2820     7.4880     6.0840     6.4470    24.8120   -13.0200     2.2560 
   87.3750    87.4190     7.4240     5.9960     5.7440    24.8120   -11.7200     2.2590 
   87.5000    87.3670     7.4780     5.9820     5.9800    24.7330   -10.6480     2.2530 
   87.6250    87.4110     7.5900     6.0160     6.5780    24.6240    -9.5720     2.2480 
   87.7500    87.7980     7.6120     6.0050     6.9020    24.6760    -8.3250     2.2530 
   87.8750    88.7090     7.4400     5.8620     6.6200    24.8430    -7.0810     2.2700 
   88.0000    90.4380     7.0760     5.5690     6.0710    24.9780    -6.0550     2.2900 
   88.1250    91.7040     6.6430     5.2060     5.4860    25.0290    -5.4080     2.3070 
   88.2500    90.1920     6.4030     4.9500     5.2030    24.9840    -5.1650     2.3170 
   88.3750    87.3040     6.5410     4.9290     5.2530    24.9240    -5.2210     2.3260 
   88.5000    82.7990     7.1480     5.2140     5.8260    24.8610    -5.6880     2.3330 
   88.6250    76.8710     8.1900     5.8340     7.6670    24.8480    -6.6890     2.3370 
   88.7500    72.2980     9.4950     6.7600    11.0250    24.8460    -8.3130     2.3240 
   88.8750    70.3080    10.7110     7.7400    13.0150    24.8110   -10.2790     2.2890 
   89.0000    70.8710    11.6140     8.5460    11.6660    24.7580   -12.3740     2.2350 
   89.1250    73.0840    12.1380     9.0610    10.2360    24.6870   -14.3840     2.1770 
   89.2500    75.2620    12.3580     9.3100     9.8470    24.5830   -16.0920     2.1500 
   89.3750    76.2710    12.4760     9.4670     9.5790    24.5790   -17.4570     2.1720 
   89.5000    76.9120    12.5380     9.5920     9.5300    24.6390   -18.4460     2.2340 
   89.6250    77.9560    12.4960     9.6520     9.4830    24.6320   -19.1120     2.3060 
   89.7500    78.6060    12.2660     9.5490     9.5330    24.4800   -19.5730     2.3400 
   89.8750    79.3100    11.9440     9.3220     9.6860    24.3330   -20.0060     2.3250 
   90.0000    79.2990    11.6900     9.0850     9.9420    24.1870   -20.4600     2.2810 
   90.1250    77.1400    11.6610     8.9540    10.2930    24.0960   -20.9730     2.2360 
   90.2500    73.4340    11.9380     9.0210    11.4500    24.0950   -21.6030     2.2130 
   90.3750    71.0720    12.3240     9.2050    12.8390    24.1080   -22.2270     2.2050 
   90.5000    69.1990    12.5800     9.3620    12.8280    24.1250   -22.7270     2.1990 
   90.6250    66.0650    12.5000     9.3180    12.0620    24.1580   -22.9590     2.1890 
   90.7500    66.6620    11.9880     8.9650    11.4580    24.2500   -22.7140     2.1780 
   90.8750    72.4240    11.3000     8.4680    10.7850    24.3780   -22.1700     2.1710 
   91.0000    79.4960    10.7090     8.0100     9.4870    24.4120   -21.5900     2.1710 
   91.1250    81.9560    10.4580     7.7570     8.5020    24.3200   -21.1030     2.1770 
   91.2500    79.1910    10.7560     7.8680     9.2470    24.2340   -20.6530     2.1880 
   91.3750    77.3100    11.4520     8.2820    10.4230    24.1690   -20.2440     2.2010 
   91.5000    76.9710    12.3130     8.8870    11.3670    24.1430   -19.9030     2.2160 
   91.6250    76.0220    13.0180     9.4740    12.1010    24.1260   -19.7070     2.2310 
   91.7500    73.2030    13.1910     9.7140    12.3860    24.0470   -19.7610     2.2410 
   91.8750    71.2520    12.8470     9.5350    11.7310    23.9560   -19.8830     2.2480 
   92.0000    71.8490    12.1800     9.0590    10.6820    23.9400   -19.9070     2.2520 
   92.1250    75.3260    11.4840     8.5120    10.0940    24.0210   -19.8280     2.2540 
   92.2500    80.0280    11.0600     8.1160     9.6080    24.1960   -19.7970     2.2500 
   92.3750    83.9190    10.9490     7.9300     9.4360    24.4300   -19.8950     2.2340 
   92.5000    85.0690    11.0750     7.9310    10.2230    24.6940   -20.1070     2.2080 
   92.6250    82.0810    11.2930     8.0320    11.0620    24.9940   -20.3050     2.1770 
