~V
VERS. 2.00: Ver 2.00
~W
STRT.M 57.0000:
STOP.M 280.0000:
STEP.M 0.1250:
NULL. -999.2500:
UWI. F11041:
~C
DEPT.M :
SP.MV :
GR.API :
RML.OHMM :
RI. :
RXO.OHMM :
CALI.CM :
DEN.GM/CC :
~A
# ...
  270.7500     3.6390    65.5970     9.1240     7.5270     8.1320    24.6280     2.4410 
  270.8750     3.6020    65.5970     9.2820     7.6430     8.8570    24.6270     2.4470 
  271.0000     3.5750    65.5970     9.4520     7.7690     9.9840    24.6240     2.4500 
  271.1250     3.5530    65.5970     9.5930     7.8730    10.2950    24.6220     2.4530 
  271.2500     3.5320    65.5970     9.7010     7.9520    10.0550    24.6210     2.4570 
  271.3750     3.4790    65.5970     9.7710     8.0040    10.1010    24.6200     2.4610 
  271.5000     3.4710    65.5970     9.7780     8.0090    10.1520    24.6180     2.4600 
  271.6250     3.4710    65.5970     9.6520     7.9160     9.4580    24.6220     2.4540 
  271.7500     3.4380    65.5970     9.3980     7.7290     8.8920    24.6330     2.4470 
  271.8750     3.3950    65.5970     9.0790     7.4940     8.3580    24.6540     2.4450 
  272.0000     3.3310    65.5970     8.7940     7.2840     8.2200    24.6590     2.4520 
  272.1250     3.3110    65.5970     8.6630     7.1870     8.2020    24.6490     2.4670 
  272.2500     3.3400    65.5970     8.6870     7.2050     8.1210    24.6540     2.4810 
  272.3750     3.3650    65.5970     8.8020     7.2900     8.1260    24.6650     2.4940 
  272.5000     3.3860    65.5970     8.9120     7.3710     8.2110    24.6600     2.5030 
  272.6250     3.4310    65.5970     8.9580     7.4040     8.3220    24.6890     2.5060 
  272.7500     3.4960    65.5970     9.0580     7.4780     8.4620    24.7300     2.5040 
  272.8750     3.5670    65.5970     9.4260     7.7490     8.6940    24.7580     2.5020 
  273.0000     3.6550    65.5970    10.1320     8.2700     9.0680    24.7440     2.5010 
  273.1250     3.6580    65.5970    10.9230     8.8530     9.5380    24.6840     2.4950 
  273.2500     3.5760    65.5970    11.3280     9.1510     9.7700    24.6340     2.4880 
  273.3750     3.5390    65.5970    11.1210     8.9990     9.3980    24.5940     2.4840 
  273.5000     3.5270    65.5970    10.4610     8.5120     8.9720    24.5660     2.4870 
  273.6250     3.4650    65.5970     9.7820     8.0120     8.7840    24.5320     2.4930 
  273.7500     3.4110    65.5970     9.3790     7.7150     8.8110    24.5510     2.4960 
  273.8750     3.4220    65.5970     9.2310     7.6050     8.9000    24.5570     2.4950 
  274.0000     3.4420    65.5970     9.1790     7.5680     9.0600    24.5160     2.4900 
  274.1250     3.5060    65.5970     9.1490     7.5450     9.3270    24.5390     2.4790 
  274.2500     3.5610    65.5970     9.1440     7.5420     9.6060    24.5960     2.4640 
  274.3750     3.5930    65.5970     9.1690     7.5600     9.7780    24.6250     2.4560 
  274.5000     3.6250    65.5970     9.2350     7.6080     9.7670    24.6140     2.4660 
  274.6250     3.6040    65.5970     9.3630     7.7030     9.4820    24.5840     2.4860 
  274.7500     3.5740    65.5970     9.5070     7.8090     9.0400    24.5330     2.5000 
  274.8750     3.5200    65.5970     9.5590     7.8480     8.7790    24.4720     2.5070 
  275.0000     3.4670    65.5970     9.5590     7.8480     8.5730    24.4070     2.5130 
  275.1250     3.4140    65.5970     9.5590     7.8480     8.4030    24.4010     2.5200 
  275.2500     3.4370    65.5970     9.5590     7.8480     8.2750    24.4430     2.5280 
  275.3750     3.4730    65.5970     9.5590     7.8480     8.0430    24.4950     2.5350 
  275.5000     3.4310    65.5970     9.5590     7.8480     7.7340    24.5310     2.5410 
  275.6250     3.3990    65.5970     9.5590     7.8480     7.5580    24.5200     2.5380 
  275.7500     3.4580    65.5970     9.5590     7.8480     7.4600    24.4710     2.5250 
  275.8750     3.4950    65.5970     9.5590     7.8480     7.0540    24.4470     2.5100 
  276.0000     3.5530    65.5970     9.5590     7.8480     6.7010    24.5110     2.5010 
  276.1250     3.6230    65.5970     9.5590     7.8480     6.5330    24.5600     2.5010 
  276.2500     3.6480    65.5970     9.5590     7.8480     6.5220    24.5680     2.5010 
  276.3750     3.7270    65.5970     9.5590     7.8480     6.5500    24.5640     2.4950 
  276.5000     3.8220    65.5970     9.5590     7.8480     6.5890    24.5800     2.4900 
  276.6250     3.9000    65.5970     9.5590     7.8480     6.8870    24.5780     2.4910 
  276.7500     3.8860    65.5970     9.5590     7.8480     7.1730    24.5670     2.4940 
  276.8750     3.8720    65.5970     9.5590     7.8480     7.2940    24.5790     2.4960 
  277.0000  -999.2500    65.5970     9.5590     7.8480     7.3150    24.5820     2.4990 
  277.1250  -999.2500    65.5970     9.5590     7.8480     7.2810    24.5850     2.5040 
  277.2500  -999.2500    65.5970     9.5590     7.8480     7.2270    24.6420     2.5060 
  277.3750  -999.2500    65.5970     9.5590     7.8480     7.1900    24.7160     2.4980 
  277.5000  -999.2500    65.5970     9.5590     7.8480     7.2100    24.7600     2.4740 
  277.6250  -999.2500    65.5970     9.5590     7.8480     7.4050    24.8170     2.4210 
  277.7500  -999.2500    65.5970     9.5590     7.8480     7.6360    24.9310     2.3330 
  277.8750  -999.2500    65.5970     9.5590     7.8480     7.6570    25.1180     2.2010 
  278.0000  -999.2500    65.5970     9.5590     7.8480     7.1460    25.2270     2.0330 
  278.1250  -999.2500    65.5970     9.5590     7.8480     6.1380    23.7620     1.8960 
  278.2500  -999.2500    65.5970     9.5590     7.8480     5.1390    20.2020     1.8120 
  278.3750  -999.2500    65.5970     9.5590     7.8480     4.5340    16.7030     1.7850 
  278.5000  -999.2500    65.5970     9.5590     7.8480     4.3600    15.1670     1.7400 
  278.6250  -999.2500    65.5970     9.5590     7.8480     4.3640    15.0840     1.7750 
  278.7500  -999.2500    65.5970     9.5590     7.8480     4.3610    15.0790     1.7910 
  278.8750  -999.2500    65.5970     9.5590     7.8480     4.3440    15.0770     1.8420 
  279.0000  -999.2500    65.5970     9.5590     7.8480     4.3280    15.0790     1.9830 
  279.1250  -999.2500    65.5970     9.5590     7.8480     4.3180    15.0840     2.0970 
  279.2500  -999.2500    65.5970     9.5590     7.8480     4.3060    15.0890     2.2680 
  279.3750  -999.2500    65.5970     9.5590     7.8480     4.2870    15.0860     2.3240 
  279.5000  -999.2500    65.5970     9.5590     7.8480     4.2870    15.0850     2.8320 
  279.6250  -999.2500    65.5970     9.5590     7.8480     4.3430    15.0880     2.4520 
  279.7500  -999.2500  -999.2500  -999.2500  -999.2500  -999.2500  -999.2500     2.3260 
  279.8750  -999.2500  -999.2500  -999.2500  -999.2500  -999.2500  -999.2500     2.3190 
  280.0000  -999.2500  -999.2500  -999.2500  -999.2500  -999.2500  -999.2500  -999.2500 
