~V
VERS. 2.00: Ver 2.00
~W
STRT.M 57.0000:
STOP.M 278.0000:
STEP.M 0.1250:
NULL. -999.2500:
UWI. F11043:
~C
DEPT.M :
SP.MV :
GR.API :
RML.OHMM :
RI. :
RXO.OHMM :
CALI.CM :
DEN.GM/CC :
~A
# ...
  169.5000   -30.9520    56.3240   269.1210   241.7530   222.1470    23.8650     2.2290 
  169.6250   -30.7770    58.9180   292.3330   262.5510   246.2930    23.8660     2.2240 
  169.7500   -30.5620    60.9330   315.6140   285.1700   294.3620    23.8670     2.2150 
  169.8750   -30.3300    59.8110   327.3350   299.8950   351.0610    23.8670     2.2050 
  170.0000   -30.1060    57.7400   317.3460   297.2350   389.0120    23.8670     2.1970 
  170.1250   -29.9100    58.5830   282.7690   271.5680   308.6700    23.8690     2.1980 
  170.2500   -29.7470    61.4110   245.8520   235.1250   207.5790    23.8700     2.2070 
  170.3750   -29.6110    63.0260   212.4500   199.3880   159.1940    23.8680     2.2190 
  170.5000   -29.4840    62.5500   184.0520   172.0260   136.3940    23.8670     2.2320 
  170.6250   -29.3350    61.2070   168.5760   156.3380   114.7190    23.8640     2.2450 
  170.7500   -29.1470    59.7090   159.6040   147.4310   100.0820    23.8640     2.2550 
  170.8750   -28.9190    59.2280   152.3130   140.9380   113.2980    23.8630     2.2550 
  171.0000   -28.6660    61.6210   143.4440   133.5080   166.2840    23.8620     2.2450 
  171.1250   -28.4150    66.4880   133.0130   124.5730   130.0780    23.8640     2.2330 
  171.2500   -28.1940    69.6480   124.6450   117.0790    82.3020    23.8640     2.2300 
  171.3750   -28.0180    69.8710   121.6730   114.1380    52.9300    23.8630     2.2350 
  171.5000   -27.8950    68.5550   125.9410   117.8320    50.8570    23.8620     2.2450 
  171.6250   -27.8340    67.1350   137.7070   129.0120    75.6360    23.8630     2.2510 
  171.7500   -27.8120    65.9370   151.1740   142.6360   121.9380    23.8650     2.2530 
  171.8750   -27.8110    64.7680   158.6410   151.6580   146.9790    23.8680     2.2550 
  172.0000   -27.8170    62.4150   153.2180   149.0780   130.8240    23.8670     2.2600 
  172.1250   -27.8230    60.1350   134.7060   132.9220    87.8610    23.8720     2.2710 
  172.2500   -27.8330    61.1290   114.5510   113.1900    65.4250    23.9020     2.2850 
  172.3750   -27.8520    64.4440    99.8240    97.0560    54.7080    23.9660     2.2980 
  172.5000   -27.8880    67.3820    93.4970    88.0700    53.9310    24.0170     2.3080 
  172.6250   -27.9480    68.0040    97.9340    88.7750    58.8900    24.0410     2.3110 
  172.7500   -28.0220    66.7200   112.3070    98.4890    70.6940    24.0370     2.3050 
  172.8750   -28.0960    64.5290   137.8730   118.3270    98.4420    24.0300     2.2910 
  173.0000   -28.1570    64.2690   176.1220   149.4580   147.9920    24.0330     2.2690 
  173.1250   -28.2010    66.7990   229.4650   193.2420   237.0520    24.0440     2.2430 
  173.2500   -28.2420    67.0820   291.7040   243.4670   282.0530    24.0400     2.2210 
  173.3750   -28.2960    62.5410   354.4450   292.6950   314.0360    24.0360     2.2030 
  173.5000   -28.3760    57.1560   408.5910   333.6430   406.5740    24.0430     2.1880 
  173.6250   -28.4490    55.7210   449.3240   362.3870   517.0500    24.0500     2.1740 
  173.7500   -28.5470    56.4330   484.2880   385.2020   539.6160    24.0480     2.1660 
  173.8750   -28.6390    56.2030   520.3970   408.0000   480.6170    24.0360     2.1640 
  174.0000   -28.7200    54.2370   561.3920   434.7520   468.6420    24.0300     2.1680 
  174.1250   -28.7890    51.9310   603.6990   464.6060   568.4630    24.0360     2.1730 
  174.2500   -28.8510    51.3050   633.5340   488.5640   723.3030    24.0420     2.1750 
  174.3750   -28.9110    52.5970   635.4620   495.7810   812.1970    24.0330     2.1760 
  174.5000   -29.0180    55.2210   602.5760   479.4530   827.0150    24.0240     2.1790 
  174.6250   -29.1260    55.8640   541.6340   440.2060   696.8260    24.0330     2.1890 
  174.7500   -29.1450    54.9320   475.7560   393.5640   521.9270    24.0420     2.2010 
  174.8750   -29.0040    54.8770   415.6970   348.9390   403.6550    24.0360     2.2120 
  175.0000   -28.7780    57.4740   362.7070   309.2210   339.3840    24.0300     2.2180 
  175.1250   -28.6530    59.8370   312.9750   271.9390   305.9190    24.0350     2.2150 
  175.2500   -28.6370    59.3120   263.4580   233.7640   297.2570    24.0400     2.2090 
  175.3750   -28.5750    58.6720   215.1330   194.6370   286.1540    24.0330     2.2050 
  175.5000   -28.3550    60.7240   170.8150   156.7640   237.2960    24.0270     2.2070 
  175.6250   -28.0270    64.6520   133.8120   124.7190   138.3050    24.0240     2.2180 
  175.7500   -27.7200    67.9310   103.5560   100.1790    88.8200    24.0200     2.2350 
  175.8750   -27.6650    70.1550    86.4620    83.1300    75.3170    24.0220     2.2560 
  176.0000   -27.5770    71.6390    76.1060    72.3750    68.1820    24.0240     2.2780 
  176.1250   -27.5110    71.1320    71.5840    67.0910    63.6240    24.0190     2.2960 
  176.2500   -27.4560    68.4650    70.2460    64.9520    67.1600    24.0080     2.3060 
  176.3750   -27.3790    64.9730    70.5690    64.6840    69.9480    24.0110     2.3040 
  176.5000   -27.2740    63.7990    71.3390    65.2450    70.3240    24.0150     2.2900 
  176.6250   -27.1380    64.2800    71.6980    65.8510    71.8790    23.9990     2.2710 
  176.7500   -26.9800    64.4750    71.5190    66.0980    74.6310    23.9610     2.2590 
  176.8750   -26.8160    64.5460    71.1820    66.0400    74.7520    23.9250     2.2540 
  177.0000   -26.6730    66.0650    71.3730    66.0580    71.5660    23.8900     2.2550 
  177.1250   -26.5970    68.7410    72.8540    66.7450    69.3660    23.8850     2.2620 
  177.2500   -26.5860    69.9570    75.5520    68.2780    69.5340    23.8920     2.2740 
  177.3750   -26.6070    69.0490    79.2490    70.6660    73.1090    23.8920     2.2850 
  177.5000   -26.6090    66.0720    83.4810    73.6560    81.9790    23.8770     2.2890 
  177.6250   -26.5500    64.7970    87.3950    76.5600    89.7470    23.8680     2.2830 
  177.7500   -26.4510    67.3140    90.1670    78.5670    85.7740    23.8630     2.2730 
  177.8750   -26.3460    70.1740    91.3470    79.2310    78.3910    23.8630     2.2680 
  178.0000   -26.2690    69.7210    90.9630    78.5740    75.3120    23.8620     2.2680 
  178.1250   -26.2370    66.3720    89.2520    76.8420    74.7930    23.8560     2.2690 
  178.2500   -26.2230    65.2610    86.9440    74.6170    70.7990    23.8270     2.2680 
  178.3750   -26.2020    67.4430    84.4920    72.2250    62.4890    23.7520     2.2650 
  178.5000   -26.1610    70.6480    82.3170    69.9800    52.5420    23.6380     2.2630 
  178.6250   -26.1010    70.9010    81.0670    68.3740    45.2610    23.4840     2.2610 
  178.7500   -26.0380    68.6750    81.1140    67.7540    41.0480    23.3380     2.2600 
  178.8750   -25.9840    67.6930    82.7210    68.3970    38.7740    23.2510     2.2590 
  179.0000   -25.9400    69.2600    85.7500    70.2590    37.0630    23.2220     2.2590 
  179.1250   -25.9070    70.5860    89.5900    72.8870    36.6200    23.2180     2.2580 
  179.2500   -25.8840    70.3570    93.1710    75.3540    37.5220    23.2370     2.2550 
  179.3750   -25.8830    70.6290    95.8970    77.1260    40.7480    23.2860     2.2500 
  179.5000   -25.9050    72.2580    97.7240    78.1460    44.2930    23.3450     2.2460 
  179.6250   -25.9470    75.5810    99.3900    78.9730    45.6020    23.3720     2.2420 
  179.7500   -25.9910    79.3690   102.0500    80.5270    45.8300    23.3910     2.2360 
  179.8750   -26.0280    79.1440   106.3730    83.3900    48.5600    23.4520     2.2300 
  180.0000   -26.0600    71.9230   112.2960    87.6260    54.9700    23.5990     2.2290 
  180.1250   -26.0880    63.4390   118.9440    92.7220    67.5060    23.7760     2.2340 
  180.2500   -26.1670    62.2940   124.5950    97.4280    83.4920    23.8510     2.2390 
  180.3750   -26.4140    66.5770   127.5870   100.5730    95.4320    23.8700     2.2410 
  180.5000   -26.6180    70.6300   126.5440   101.0350    94.2700    23.8720     2.2410 
  180.6250   -26.7210    73.1380   120.4120    97.5770    86.2650    23.8470     2.2390 
