~V
VERS. 2.00: Ver 2.00
~W
STRT.M 52.0000:
STOP.M 286.0000:
STEP.M 0.1250:
NULL. -999.2500:
UWI. F11061:
~C
DEPT.M :
GR.API :
RML.OHMM :
RI. :
RXO.OHMM :
CALI.CM :
DEN.GM/CC :
SP.MV :
~A
# ...
  187.0000    65.0330    46.7050    45.8860    30.0350    23.2240     2.3210   -24.9970 
  187.1250    62.9560    44.8540    43.7920    28.5690    23.1320     2.3200   -24.7810 
  187.2500    61.1250    45.1990    43.7690    28.7290    23.0760     2.3140   -24.6080 
  187.3750    61.1030    47.4150    45.5210    29.6290    23.0460     2.3060   -24.4850 
  187.5000    63.2820    51.5620    49.1230    30.8280    23.0570     2.2960   -24.4080 
  187.6250    64.8090    57.2900    54.2850    34.0250    23.0990     2.2840   -24.3770 
  187.7500    64.1010    64.0560    60.5720    40.0810    23.1550     2.2690   -24.4000 
  187.8750    61.6050    70.8300    67.1080    49.3490    23.2320     2.2520   -24.4720 
  188.0000    58.2360    75.6030    72.0630    63.2710    23.3700     2.2380   -24.5670 
  188.1250    55.1380    76.8750    73.8890    80.1920    23.6300     2.2300   -24.6750 
  188.2500    53.8510    74.1230    71.8870    89.3240    24.0600     2.2340   -24.8020 
  188.3750    54.4020    68.2410    66.7180    84.4210    24.6140     2.2470   -24.9340 
  188.5000    56.7780    61.5000    60.4150    78.0800    25.0000     2.2640   -25.0590 
  188.6250    59.4170    56.2060    55.2360    68.7660    25.0940     2.2780   -25.1800 
  188.7500    60.3410    53.3660    52.2360    57.8700    25.0110     2.2840   -25.2950 
  188.8750    58.1620    52.8340    51.4020    51.8870    24.9390     2.2790   -25.3980 
  189.0000    54.4940    53.6820    52.0170    51.3990    24.9680     2.2680   -25.5030 
  189.1250    53.6440    54.3680    52.6830    54.8180    25.0670     2.2600   -25.6120 
  189.2500    56.5160    53.7420    52.2600    60.0060    25.1730     2.2580   -25.7080 
  189.3750    62.1450    51.3090    50.1410    64.1700    25.2200     2.2660   -25.7700 
  189.5000    66.6880    47.3410    46.4200    59.7280    25.1680     2.2810   -25.7720 
  189.6250    67.0240    43.1610    42.3070    48.4330    25.0390     2.2960   -25.7170 
  189.7500    63.8980    40.0220    38.9790    38.3920    24.8550     2.3070   -25.6070 
  189.8750    63.2720    38.8380    37.2630    33.6830    24.6690     2.3100   -25.4500 
  190.0000    68.8400    40.6270    38.0430    33.0470    24.5600     2.3040   -25.2540 
  190.1250    71.4270    45.5930    41.5670    35.1760    24.4930     2.2890   -25.0330 
  190.2500    65.6410    53.9170    48.1340    40.8090    24.4300     2.2700   -24.8100 
  190.3750    57.3010    65.5130    57.8680    49.8910    24.3550     2.2510   -24.6160 
  190.5000    56.4740    79.6520    70.3940    65.0300    24.3050     2.2360   -24.4800 
  190.6250    60.1160    93.9430    83.6000    86.7930    24.3080     2.2260   -24.3900 
  190.7500    61.3330   105.6320    94.8610   110.9900    24.3630     2.2220   -24.3430 
  190.8750    59.2250   112.3540   101.7780   124.7890    24.4340     2.2210   -24.3410 
  191.0000    56.1150   112.5920   102.6650   120.3980    24.5030     2.2230   -24.3680 
  191.1250    53.5310   108.6340    99.4120   108.4230    24.5360     2.2280   -24.4030 
  191.2500    51.7820   103.3430    94.5770    95.7300    24.5350     2.2350   -24.4420 
  191.3750    52.0920    98.7530    90.1490    84.7550    24.5150     2.2420   -24.4850 
  191.5000    54.1040    95.7160    87.1750    75.6120    24.5000     2.2490   -24.5110 
  191.6250    54.2600    93.5190    85.2040    69.6510    24.4940     2.2530   -24.5180 
  191.7500    51.9020    91.1310    83.3660    67.6700    24.4930     2.2550   -24.5050 
  191.8750    50.5710    87.6890    80.8260    67.4220    24.4930     2.2560   -24.4700 
  192.0000    52.3840    82.6220    76.9250    66.9080    24.4910     2.2580   -24.4210 
  192.1250    53.8890    76.4380    71.9300    64.0250    24.4880     2.2640   -24.3780 
  192.2500    52.7760    69.9780    66.4860    59.6200    24.4840     2.2710   -24.3340 
  192.3750    51.4240    64.0510    61.3130    55.4060    24.4810     2.2790   -24.2740 
  192.5000    51.3730    59.3030    57.0440    52.5680    24.4740     2.2820   -24.2070 
  192.6250    50.4480    55.6150    53.6730    51.5350    24.4630     2.2810   -24.1480 
  192.7500    49.4380    52.6800    50.9940    50.9800    24.4620     2.2790   -24.1000 
  192.8750    51.7680    50.2470    48.8140    48.4640    24.4760     2.2790   -24.0650 
  193.0000    58.4960    48.3070    47.1480    46.4520    24.4950     2.2820   -24.0570 
  193.1250    64.3910    46.9610    46.0720    44.9750    24.4750     2.2880   -24.0780 
  193.2500    66.6860    46.3900    45.7410    43.4090    24.4150     2.2920   -24.1240 
  193.3750    66.3770    46.6740    46.2500    39.6330    24.3550     2.2930   -24.2070 
  193.5000    64.7960    47.6850    47.5370    39.9980    24.3380     2.2910   -24.3450 
  193.6250    62.6110    48.8440    49.0840    43.9170    24.3500     2.2890   -24.5150 
  193.7500    61.1110    49.5500    50.2900    47.8250    24.3690     2.2900   -24.6960 
  193.8750    61.3390    49.3450    50.6230    50.1680    24.3850     2.2920   -24.8780 
  194.0000    62.8230    47.9760    49.6700    50.2560    24.3950     2.2950   -25.0540 
  194.1250    65.6160    45.8610    47.7620    47.5840    24.3880     2.2970   -25.2130 
  194.2500    69.4360    43.5170    45.4120    43.4960    24.3550     2.2960   -25.3600 
  194.3750    72.3330    41.3480    43.0700    38.8080    24.2900     2.2940   -25.5030 
  194.5000    71.5720    39.6430    41.0720    34.8980    24.2000     2.2930   -25.6300 
  194.6250    68.6530    38.4200    39.4950    32.8940    24.1230     2.2950   -25.7460 
  194.7500    66.4240    37.7090    38.3810    31.9000    24.1070     2.2970   -25.8700 
  194.8750    64.9830    37.6560    37.8450    30.7530    24.1660     2.3010   -26.0050 
  195.0000    64.5340    38.8180    38.3330    30.2280    24.2700     2.3010   -26.1540 
  195.1250    64.6150    41.7450    40.3100    31.6710    24.3340     2.2950   -26.3260 
  195.2500    64.9390    47.1720    44.4560    34.2870    24.3140     2.2820   -26.5250 
  195.3750    65.4370    55.8930    51.6020    39.0730    24.2030     2.2650   -26.7400 
  195.5000    65.2850    69.0530    63.0430    51.3400    24.0230     2.2470   -26.9530 
  195.6250    62.8380    86.0780    78.4480    72.3860    23.8590     2.2340   -27.1690 
  195.7500    57.1180   105.4750    96.5170   102.6410    23.8190     2.2250   -27.3940 
  195.8750    51.1300   124.6980   114.7920   146.9210    23.9350     2.2170   -27.6260 
  196.0000    49.7520   139.7010   129.2780   166.0980    24.2290     2.2090   -27.8610 
  196.1250    51.7580   148.3780   137.8170   145.8690    24.6100     2.2000   -28.0960 
  196.2500    54.1420   150.9170   140.4860   118.9960    24.8950     2.1920   -28.3170 
  196.3750    56.7270   149.4750   139.2010   100.9370    25.0040     2.1870   -28.5100 
  196.5000    58.4620   146.8410   136.5130    90.1890    24.9500     2.1850   -28.6920 
  196.6250    56.8840   144.9040   134.3380    79.5470    24.8050     2.1870   -28.8670 
  196.7500    51.9240   144.3390   133.4530    68.2590    24.5930     2.1920   -29.0210 
  196.8750    48.0930   145.4020   134.1880    62.5370    24.3100     2.1990   -29.1550 
  197.0000    49.5370   148.4160   136.9550    64.2900    23.9310     2.2070   -29.2690 
  197.1250    52.9960   152.8240   141.3180    65.2290    23.5200     2.2140   -29.3600 
  197.2500    56.3560   157.6050   146.4000    67.4350    23.1910     2.2180   -29.4230 
  197.3750    57.9150   161.3350   150.9210    75.5400    23.0040     2.2220   -29.4720 
  197.5000    56.1620   162.0210   152.9970    91.3550    22.9460     2.2280   -29.5170 
  197.6250    53.4720   159.1790   151.9120   107.7480    22.9570     2.2330   -29.5610 
  197.7500    52.8110   153.6390   148.1220   120.6140    23.0160     2.2380   -29.6160 
  197.8750    54.1700   147.3690   143.2230   123.1410    23.1320     2.2410   -29.6970 
  198.0000    52.7490   143.0700   139.7300   117.0940    23.3520     2.2390   -29.8080 
  198.1250    49.2600   141.8830   139.0690   109.0410    23.5920     2.2350   -29.9360 
