~V
VERS. 2.00: Ver 2.00
~W
STRT.M 47.0000:
STOP.M 272.0000:
STEP.M 0.1250:
NULL. -999.2500:
UWI. F11040:
~C
DEPT.M :
DEN.GM/CC :
GR.API :
RML.OHMM :
RI. :
RXO.OHMM :
CALI.CM :
SP.MV :
~A
# ...
  204.5000     2.5630    73.1710    13.3390    10.7410    11.4060    24.1090    -8.9520 
  204.6250     2.6020    70.2370    13.3160    10.6660    12.3600    24.0890    -8.7580 
  204.7500     2.6380    69.0630    12.7670    10.1800    13.7910    24.0840    -8.5070 
  204.8750     2.6550    72.0120    11.4910     9.1510    14.8860    24.0830    -8.2150 
  205.0000     2.6350    77.7600     9.5880     7.6580    14.8200    24.1030    -7.8740 
  205.1250     2.5600    78.4950     7.5410     6.0640    11.6870    24.1210    -7.5390 
  205.2500     2.4440    73.6110     5.9310     4.7870     7.9970    24.1470    -7.1940 
  205.3750     2.3060    67.0070     4.9960     3.9960     5.5040    24.2020    -6.8870 
  205.5000     2.1770    60.8600     4.7210     3.7010     4.6390    24.2900    -6.6250 
  205.6250     2.0950    57.5110     5.0070     3.8860     4.8770    24.5080    -6.4130 
  205.7500     2.0730    57.8880     5.5680     4.3610     5.1480    24.9420    -6.2570 
  205.8750     2.0960    61.2380     6.2220     4.9910     5.4220    25.4080    -6.1230 
  206.0000     2.1490    66.3540     6.8050     5.6230     5.7390    25.2890    -6.0410 
  206.1250     2.2350    71.1820     7.1610     6.0810     6.0770    24.5810    -5.9790 
  206.2500     2.3370    72.8380     7.3000     6.3170     6.3400    24.1050    -5.9360 
  206.3750     2.3950    71.9460     7.2790     6.3540     6.5180    23.9190    -5.9100 
  206.5000     2.4170    72.1650     7.1790     6.2650     6.6150    23.8580    -5.9280 
  206.6250     2.4200    75.0970     7.0750     6.1250     6.6120    23.8530    -6.0230 
  206.7500     2.4170    76.7310     7.0080     5.9940     6.6240    23.8750    -6.1610 
  206.8750     2.4100    75.7420     6.9900     5.8910     6.6620    23.9240    -6.3310 
  207.0000     2.4010    73.5690     7.0280     5.8240     6.8050    23.9710    -6.5340 
  207.1250     2.3910    71.2450     7.1580     5.8200     6.9170    23.9780    -6.7710 
  207.2500     2.3850    70.3260     7.4190     5.9090     6.9310    23.9630    -7.0330 
  207.3750     2.3800    70.3180     7.8690     6.1380     7.1560    23.9510    -7.2990 
  207.5000     2.3740    70.0510     8.5600     6.5490     7.6790    23.9510    -7.5680 
  207.6250     2.3640    70.0820     9.5350     7.1990     8.5920    23.9570    -7.7750 
  207.7500     2.3520    69.9070    10.6720     8.0210     9.5990    23.9700    -7.9320 
  207.8750     2.3380    68.6160    11.8150     8.9270    10.7050    23.9890    -8.0580 
  208.0000     2.3250    67.3070    12.7850     9.7950    12.0520    23.9920    -8.1380 
  208.1250     2.3150    68.3140    13.4040    10.4720    13.3440    23.9650    -8.2060 
  208.2500     2.3100    70.3670    13.7570    10.9490    13.9990    23.9080    -8.2890 
  208.3750     2.3080    70.9430    14.0110    11.2940    13.7450    23.8050    -8.3990 
  208.5000     2.3090    69.8770    14.3780    11.6390    13.2020    23.6860    -8.4880 
  208.6250     2.3100    68.4680    15.0590    12.1400    13.2420    23.6820    -8.5740 
  208.7500     2.3080    66.8040    16.0030    12.8190    14.0670    23.8060    -8.6820 
  208.8750     2.3040    65.7780    17.0700    13.6170    15.6480    23.9060    -8.8030 
  209.0000     2.3010    66.0120    18.0710    14.4170    17.6630    23.9240    -8.9610 
  209.1250     2.3010    67.7110    18.8310    15.0860    18.5830    23.8740    -9.1230 
  209.2500     2.3030    69.7610    19.4790    15.6610    19.1170    23.8350    -9.2820 
  209.3750     2.3070    71.1480    20.3820    16.3560    19.4380    23.8730    -9.4280 
  209.5000     2.3120    70.2340    22.0930    17.5410    19.4330    23.9460    -9.5800 
  209.6250     2.3160    66.2210    25.5130    19.8930    20.2990    24.0350    -9.7220 
  209.7500     2.3180    61.9510    30.7990    23.6800    23.8350    24.1310    -9.8430 
  209.8750     2.3150    59.1240    37.8000    29.0070    31.9840    24.2200    -9.9550 
  210.0000     2.3060    58.1790    45.7720    35.5310    47.0910    24.2930   -10.0400 
  210.1250     2.2920    57.5490    53.2210    42.2810    61.2770    24.3630   -10.1210 
  210.2500     2.2750    58.8970    58.8520    47.9630    66.2270    24.4510   -10.2090 
  210.3750     2.2570    62.5490    62.2880    51.8910    65.3270    24.5180   -10.2960 
  210.5000     2.2430    65.8630    64.3350    54.3530    64.3940    24.5550   -10.3780 
  210.6250     2.2340    65.7770    66.7900    56.6350    60.7390    24.5540   -10.4880 
  210.7500     2.2290    64.0380    70.7590    59.9190    60.2800    24.5090   -10.5990 
  210.8750     2.2240    63.0410    76.1700    64.4040    66.5090    24.4550   -10.7270 
  211.0000     2.2200    62.3460    82.1730    69.5900    79.0810    24.4370   -10.8560 
  211.1250     2.2150    60.7800    87.2950    74.4080    92.9620    24.4880   -10.9710 
  211.2500     2.2110    60.0350    90.5430    77.9430    98.7170    24.5350   -11.0770 
  211.3750     2.2100    60.7500    91.5750    79.7830    98.6940    24.5790   -11.2100 
  211.5000     2.2110    61.5810    90.7490    80.0730    94.2880    24.6090   -11.3770 
  211.6250     2.2140    60.1410    88.8590    79.2870    90.4300    24.6080   -11.5470 
  211.7500     2.2160    56.5000    87.0210    78.1570    87.9180    24.6040   -11.7420 
  211.8750     2.2160    53.3330    85.3350    76.8780    86.2720    24.6000   -11.9270 
  212.0000     2.2130    53.4800    83.6820    75.4300    85.3300    24.5760   -12.1240 
  212.1250     2.2080    54.6960    82.3550    73.7310    83.1860    24.5790   -12.3520 
  212.2500     2.2050    54.0560    79.5560    71.8870    81.4900    24.5980   -12.6320 
  212.3750     2.2040    53.7130    76.9330    70.0720    78.9930    24.6080   -12.9260 
  212.5000     2.2060    56.5890    74.7660    68.5280    76.5240    24.6060   -13.2130 
  212.6250     2.2090    59.3500    73.4650    67.6090    73.6430    24.5950   -13.4870 
  212.7500     2.2120    57.3610    73.0630    67.4050    71.3890    24.5630   -13.7360 
  212.8750     2.2160    54.4820    73.5870    67.9860    69.8970    24.5210   -13.9850 
  213.0000     2.2190    55.8530    75.0220    69.3840    69.0580    24.4870   -14.2470 
  213.1250     2.2260    59.7660    77.5550    71.7910    70.9290    24.4790   -14.5100 
  213.2500     2.2370    61.4460    81.1710    75.1880    74.9160    24.4680   -14.7330 
  213.3750     2.2490    59.4870    86.0690    79.7530    80.5410    24.4350   -14.9380 
  213.5000     2.2570    55.5150    92.4270    85.6540    88.4150    24.3880   -15.1340 
  213.6250     2.2530    51.4420   100.5970    93.2290   101.3120    24.3830   -15.3190 
  213.7500     2.2340    49.4990   110.2600   102.1970   117.7700    24.4480   -15.4960 
  213.8750     2.2050    51.0740   121.1830   112.3460   135.2360    24.5700   -15.6530 
  214.0000     2.1780    53.3930   132.9770   123.3060   145.7720    24.6820   -15.7650 
  214.1250     2.1630    53.6250   145.1840   134.6410   155.9810    24.6650   -15.8040 
  214.2500     2.1630    52.3330   157.3050   145.8950   176.4170    24.5530   -15.8180 
  214.3750     2.1740    51.3330   169.0970   156.8480   197.0680    24.4550   -15.8100 
  214.5000     2.1910    51.3310   180.4630   167.4150   208.7400    24.4260   -15.8160 
  214.6250     2.2060    51.3310   191.3200   177.5700   203.3630    24.3830   -15.8230 
  214.7500     2.2160    50.8960   201.5660   187.3140   198.9350    24.3770   -15.8050 
  214.8750     2.2190    51.3140   210.6680   196.2660   194.3190    24.5260   -15.7510 
  215.0000     2.2170    52.0890   217.7940   203.7190   193.1560    24.6820   -15.6720 
  215.1250     2.2090    51.5760   221.4950   208.3620   207.7660    24.7700   -15.5920 
  215.2500     2.2000    50.2230   221.8720   210.1370   230.0910    24.7960   -15.4870 
  215.3750     2.1910    49.1220   219.8630   209.3900   240.7680    24.8410   -15.3870 
  215.5000     2.1860    48.1570   216.5890   207.0050   238.3360    24.9030   -15.2840 
  215.6250     2.1900    47.0510   213.5580   203.7300   230.1700    24.8960   -15.2080 
