~V
VERS. 2.00: Ver 2.00
~W
STRT.M 62.0000:
STOP.M 272.0000:
STEP.M 0.1250:
NULL. -999.2500:
UWI. F11076:
~C
DEPT.M :
GR.API :
RML.OHMM :
RI. :
RXO.OHMM :
CALI.CM :
DEN.GM/CC :
SP.MV :
~A
# ...
  129.5000    75.5810    10.3260     8.4300     8.9070    25.9530     2.1680   -18.1150 
  129.6250    73.4190    10.5030     8.6030     9.1330    26.1190     2.1520   -18.0550 
  129.7500    73.2310    10.6010     8.7240     9.2200    26.1840     2.1430   -18.1150 
  129.8750    72.9850    10.6640     8.8150     9.2960    26.2700     2.1390   -18.2630 
  130.0000    71.8110    10.7350     8.9010     9.4120    26.3590     2.1360   -18.5220 
  130.1250    71.6960    10.8430     9.0100     9.5460    26.4040     2.1320   -18.9010 
  130.2500    72.9200    10.9770     9.1440     9.7550    26.4190     2.1300   -19.3820 
  130.3750    73.5020    11.1130     9.2950     9.9870    26.3950     2.1310   -19.8860 
  130.5000    73.1100    11.2210     9.4480    10.2150    26.3330     2.1360   -20.3650 
  130.6250    73.7900    11.2540     9.5630    10.3570    26.1610     2.1440   -20.7460 
  130.7500    76.3530    11.1830     9.6000    10.4650    25.8170     2.1510   -20.9790 
  130.8750    79.2470    10.9670     9.5160    10.5590    25.3850     2.1580   -20.9940 
  131.0000    80.0370    10.5550     9.2700    10.5370    25.1240     2.1680   -20.6860 
  131.1250    78.4400     9.9410     8.8080     9.6770    24.9850     2.1900   -19.9860 
  131.2500    79.4260     9.2930     8.1920     8.3660    24.8000     2.2260   -18.9080 
  131.3750    85.2450     8.6900     7.4940     7.2940    24.6010     2.2730   -17.5380 
  131.5000    94.0240     8.1160     6.8080     6.5410    24.4570     2.3210   -16.0010 
  131.6250    99.4070     7.5800     6.2430     5.9930    24.4830     2.3500   -14.4310 
  131.7500   100.3120     7.1910     5.8440     5.6360    24.6380     2.3570   -12.9130 
  131.8750    99.1360     7.0340     5.6340     5.6950    24.8600     2.3450   -11.5240 
  132.0000    97.4930     7.0880     5.6170     5.8070    25.0820     2.3240   -10.3480 
  132.1250    95.1110     7.3060     5.7930     5.8790    25.2690     2.3010    -9.4670 
  132.2500    91.8710     7.5550     6.0680     6.0370    25.4340     2.2810    -8.8990 
  132.3750    89.1550     7.7180     6.3450     6.4480    25.5490     2.2660    -8.5910 
  132.5000    89.2650     7.6920     6.5070     6.8290    25.5960     2.2570    -8.4120 
  132.6250    91.1650     7.4060     6.4290     6.8180    25.5830     2.2590    -8.2610 
  132.7500    93.9090     6.9660     6.1620     6.3400    25.5620     2.2700    -8.0860 
  132.8750    98.1650     6.4980     5.8110     5.5740    25.5390     2.2870    -7.9010 
  133.0000   102.7670     6.1310     5.5050     4.9210    25.4710     2.3050    -7.6850 
  133.1250   104.4710     5.9710     5.3670     4.8840    25.3180     2.3210    -7.4510 
  133.2500   103.0550     5.9690     5.3870     5.0730    25.1480     2.3310    -7.2260 
  133.3750    99.5590     6.0340     5.5050     5.4400    25.0180     2.3340    -7.0290 
  133.5000    96.4760     6.0600     5.6160     5.6150    24.9560     2.3310    -6.9080 
  133.6250    98.8830     5.9430     5.5890     5.4940    25.0070     2.3280    -6.8530 
  133.7500   105.9940     5.7100     5.4070     4.9530    25.1430     2.3320    -6.8930 
  133.8750   111.8590     5.4280     5.1260     4.4270    25.2470     2.3460    -6.9930 
  134.0000   113.3430     5.1850     4.8360     4.2070    25.2720     2.3680    -7.1670 
  134.1250   113.9490     5.0530     4.6260     4.1960    25.1980     2.3870    -7.4260 
  134.2500   115.8820     5.0020     4.5030     4.3140    25.1530     2.3960    -7.7190 
  134.3750   116.6520     4.9650     4.4260     4.3880    25.0800     2.3940    -8.0440 
  134.5000   116.0580     4.8740     4.3210     4.4080    24.9030     2.3870    -8.3750 
  134.6250   116.4530     4.7280     4.1300     4.3410    24.5920     2.3830    -8.7380 
  134.7500   116.7250     4.6990     3.9430     4.2790    24.3140     2.3840    -9.0940 
  134.8750   115.2900     5.0710     3.9420     4.2680    24.1290     2.3910    -9.4870 
  135.0000   111.3030     6.2120     4.3780     4.4630    24.0700     2.4170    -9.9290 
  135.1250   103.1790     8.7980     5.8030     6.4160    24.1520     2.4760   -10.4700 
  135.2500    90.3440    12.9600     8.6140    14.8410    24.3420     2.5570   -11.1310 
  135.3750    78.0250    18.3800    13.1560    38.8790    24.5580     2.6290   -11.9220 
  135.5000    71.2740    23.6200    18.9010    69.8830    24.6780     2.6540   -12.8260 
  135.6250    68.9140    25.8730    22.7620    56.0520    24.7080     2.5970   -13.7940 
  135.7500    65.9750    24.5520    22.5260    28.2300    24.7380     2.4870   -14.7770 
  135.8750    63.0100    20.9510    19.5390    15.9430    24.8150     2.3600   -15.7330 
  136.0000    61.7060    17.1940    16.2850    12.5640    24.8970     2.2550   -16.6240 
  136.1250    62.1210    14.9040    14.1750    12.2240    24.9440     2.1950   -17.3510 
  136.2500    64.0980    13.9020    13.0690    12.0220    24.9740     2.1710   -17.8970 
  136.3750    65.7630    13.7250    12.6860    11.9240    25.0190     2.1670   -18.2480 
  136.5000    64.6610    13.9470    12.7440    11.9590    25.0650     2.1700   -18.4360 
  136.6250    61.8930    14.2520    12.9940    12.0770    25.0850     2.1670   -18.5050 
  136.7500    62.5590    14.4540    13.2210    12.3030    25.0990     2.1600   -18.5500 
  136.8750    66.7870    14.5100    13.3480    12.4640    25.1160     2.1500   -18.5760 
  137.0000    71.2300    14.4350    13.3560    12.4800    25.0990     2.1430   -18.6090 
  137.1250    72.0820    14.2760    13.2460    12.3420    25.0160     2.1420   -18.6610 
  137.2500    70.2260    14.1130    13.0750    12.2060    24.9230     2.1450   -18.7230 
  137.3750    68.6430    13.9900    12.8800    12.1080    24.8640     2.1490   -18.7700 
  137.5000    68.6470    13.9310    12.6950    12.0100    24.8410     2.1520   -18.7940 
  137.6250    69.2460    13.9330    12.5430    11.9670    24.8410     2.1580   -18.8260 
  137.7500    69.1620    13.9510    12.4190    11.9990    24.8510     2.1670   -18.8340 
  137.8750    67.8760    13.9500    12.3100    12.2420    24.8610     2.1820   -18.8140 
  138.0000    66.2680    13.9020    12.1980    13.1580    24.8320     2.1980   -18.7570 
  138.1250    65.4920    13.8100    12.0610    14.5470    24.7620     2.2040   -18.7090 
  138.2500    66.3940    13.7390    11.9250    14.3060    24.6820     2.1850   -18.6430 
  138.3750    68.4300    13.7810    11.8550    12.8270    24.7070     2.1380   -18.6040 
  138.5000    67.8720    14.0220    11.9420    11.8770    24.8870     2.0880   -18.6090 
  138.6250    64.6550    14.5330    12.2930    11.7450    25.1680     2.0900   -18.6590 
  138.7500    62.7760    15.1790    12.8440    12.1440    25.3680     2.1680   -18.7040 
  138.8750    62.9300    15.7730    13.4520    13.1530    25.3490     2.3000   -18.7670 
  139.0000    63.3070    16.0940    13.8920    14.0930    25.0650     2.4300   -18.8550 
  139.1250    63.5890    15.9360    13.8920    13.9100    24.8560     2.4800   -18.9450 
  139.2500    65.8240    15.4280    13.5090    13.2310    24.7880     2.4470   -19.0620 
  139.3750    68.2940    14.7670    12.9120    12.6270    24.8020     2.3650   -19.1930 
  139.5000    68.2960    14.1610    12.3080    12.2240    24.8220     2.2830   -19.3240 
  139.6250    65.9160    13.7840    11.8810    12.0470    24.8420     2.2330   -19.4360 
  139.7500    64.9890    13.6120    11.6500    11.8980    24.8780     2.2100   -19.6040 
  139.8750    66.6610    13.5870    11.5780    11.8360    24.8960     2.2000   -19.7860 
  140.0000    68.3460    13.6370    11.6060    11.9710    24.8030     2.1930   -19.9770 
  140.1250    68.2440    13.7060    11.6770    12.0780    24.5310     2.1870   -20.1610 
  140.2500    68.9240    13.7610    11.7470    12.0710    24.3080     2.1800   -20.3530 
  140.3750    71.9940    13.7930    11.8010    12.0130    24.2020     2.1740   -20.5270 
  140.5000    73.7630    13.8000    11.8340    12.0120    24.1770     2.1720   -20.6610 
  140.6250    71.5260    13.7710    11.8380    12.0470    24.1770     2.1720   -20.7570 
