~V
VERS. 2.00: Ver 2.00
~W
STRT.M 62.0000:
STOP.M 272.0000:
STEP.M 0.1250:
NULL. -999.2500:
UWI. F11076:
~C
DEPT.M :
GR.API :
RML.OHMM :
RI. :
RXO.OHMM :
CALI.CM :
DEN.GM/CC :
SP.MV :
~A
# ...
   84.5000   105.6640     7.1200     4.9750     4.6620    24.2030     2.4160    -3.6840 
   84.6250    96.6690     9.3240     6.3050     6.0700    24.2510     2.5030    -3.2220 
   84.7500    87.3560    12.0190     8.3610    10.8280    24.2690     2.5770    -3.2500 
   84.8750    77.8900    14.4160    10.7560    19.9460    24.2750     2.5960    -3.8180 
   85.0000    66.8390    15.5730    12.5390    22.8490    24.3990     2.5380    -4.8860 
   85.1250    61.2580    14.7680    12.4900    14.8710    24.9210     2.4150    -6.3170 
   85.2500    63.9250    12.8790    11.2190     9.8590    25.7880     2.2840    -7.9440 
   85.3750    67.8210    10.8890     9.6870     8.4980    26.6980     2.1820    -9.6550 
   85.5000    66.9520     9.5030     8.5180     8.4890    27.3350     2.1190   -11.3900 
   85.6250    64.9790     8.9980     7.9600     8.7740    27.5600     2.0920   -13.0500 
   85.7500    65.6860     8.9970     7.8090     8.9520    27.5180     2.0840   -14.5950 
   85.8750    67.1320     9.2140     7.8830     9.1430    27.3200     2.0890   -15.9660 
   86.0000    68.0070     9.4250     8.0120     9.3410    27.0840     2.1030   -17.0920 
   86.1250    68.3600     9.4830     8.0620     9.1280    26.7750     2.1190   -17.9640 
   86.2500    68.2140     9.3910     8.0040     8.7360    26.5430     2.1300   -18.6790 
   86.3750    68.7870     9.1960     7.8530     8.6580    26.5320     2.1360   -19.3160 
   86.5000    70.9660     8.9710     7.6520     8.8630    26.5360     2.1380   -19.8780 
   86.6250    73.2490     8.8420     7.4750     8.9010    26.1880     2.1350   -20.3950 
   86.7500    72.1270     8.9070     7.4170     8.6440    25.7740     2.1330   -20.8830 
   86.8750    68.8410     9.2150     7.5480     8.4030    25.8420     2.1440   -21.4270 
   87.0000    66.2270     9.7390     7.8820     8.6640    26.2910     2.1830   -22.0670 
   87.1250    64.8450    10.3370     8.3590     8.8580    26.5100     2.2470   -22.7760 
   87.2500    63.6330    10.7720     8.7920     8.4650    26.4550     2.3000   -23.5680 
   87.3750    61.7990    10.8840     9.0060     7.8520    26.3910     2.3100   -24.3970 
   87.5000    60.2310    10.6360     8.8970     7.8420    26.4370     2.2680   -25.2540 
   87.6250    59.4000    10.1330     8.5080     8.8950    26.4010     2.1960   -26.0710 
   87.7500    59.6180     9.6370     8.0720    10.1860    26.1790     2.1370   -26.7860 
   87.8750    60.2810     9.2930     7.7230    11.1320    25.9310     2.1060   -27.3390 
   88.0000    61.3840     9.1460     7.5310    10.5890    25.8320     2.0960   -27.7380 
   88.1250    62.9510     9.1680     7.5150    10.1240    26.0110     2.0930   -28.0220 
   88.2500    64.5630     9.2520     7.5920     9.9950    26.2000     2.0900   -28.1450 
   88.3750    65.0780     9.3430     7.7060     9.9100    26.2410     2.0930   -28.1440 
   88.5000    63.6290     9.4170     7.8250     9.9230    26.1600     2.1060   -28.0160 
   88.6250    61.7340     9.4610     7.9290    10.2060    26.0320     2.1270   -27.7770 
   88.7500    61.9470     9.4750     7.9950    10.3760    25.9650     2.1470   -27.4700 
   88.8750    66.3460     9.4590     8.0090    10.2120    25.9130     2.1590   -27.0850 
   89.0000    73.2910     9.4230     7.9680     9.7350    25.8040     2.1600   -26.6230 
   89.1250    77.2570     9.3810     7.8780     9.1930    25.5930     2.1530   -26.1090 
   89.2500    77.1330     9.3440     7.7680     9.0370    25.4790     2.1470   -25.6150 
   89.3750    74.3860     9.3020     7.6500     9.1200    25.4440     2.1460   -25.1340 
   89.5000    72.7420     9.2320     7.5240     9.4130    25.4070     2.1500   -24.7180 
   89.6250    74.1420     9.0890     7.3710     9.6150    25.3860     2.1570   -24.3800 
   89.7500    75.9090     8.8810     7.1770     9.6600    25.4280     2.1610   -24.1040 
   89.8750    75.0720     8.6840     6.9650     9.6750    25.5080     2.1640   -23.9020 
   90.0000    71.5810     8.6650     6.8270     9.8150    25.5900     2.1680   -23.7250 
   90.1250    69.8850     9.2020     6.9890     9.9380    25.6560     2.1830   -23.4910 
   90.2500    70.2670    10.5670     7.6480    10.0820    25.7440     2.2130   -23.1400 
   90.3750    69.9130    13.0230     9.0700    10.6710    25.7870     2.2600   -22.6540 
   90.5000    67.0510    16.6210    11.5370    13.2880    25.6940     2.3240   -22.0480 
   90.6250    63.5840    20.8020    15.2270    22.6360    25.5890     2.4080   -21.4100 
   90.7500    62.6420    23.9500    18.9980    43.3780    25.6480     2.4900   -20.8400 
   90.8750    63.2030    24.6160    21.0040    77.9570    25.6000     2.5440   -20.4180 
   91.0000    63.1420    22.3710    19.9570    93.8210    25.3810     2.5410   -20.2550 
   91.1250    62.0440    18.2260    16.5650    54.8770    25.3340     2.4620   -20.4230 
   91.2500    60.0110    14.3600    13.1560    24.7370    25.4830     2.3530   -20.8740 
   91.3750    56.6530    11.7120    10.5950    13.5450    25.7360     2.2610   -21.5570 
   91.5000    54.2080    10.3350     8.9920    10.4690    25.9770     2.2130   -22.4060 
   91.6250    55.9070     9.9560     8.2600     9.8580    25.9620     2.2070   -23.3290 
   91.7500    58.8390    10.0190     8.0340     9.8050    25.7480     2.2050   -24.2490 
   91.8750    60.3180    10.2420     8.1040     9.9530    25.6940     2.1860   -25.0860 
   92.0000    61.9470    10.4090     8.2700    10.6490    25.8280     2.1540   -25.7350 
   92.1250    64.6210    10.4020     8.3750    10.9690    25.9220     2.1290   -26.1620 
   92.2500    66.5480    10.2800     8.3920    10.9980    25.8950     2.1250   -26.3850 
   92.3750    67.4470    10.1120     8.3490    10.9850    25.7580     2.1400   -26.4880 
   92.5000    66.8460     9.9520     8.2810    10.6560    25.5600     2.1610   -26.5050 
   92.6250    64.9050     9.8360     8.2080    10.3410    25.5230     2.1740   -26.5100 
   92.7500    64.2420     9.7670     8.1370    10.1860    25.6240     2.1750   -26.5020 
   92.8750    65.0260     9.7400     8.0750    10.3010    25.7560     2.1660   -26.5180 
   93.0000    65.8380     9.7470     8.0240    10.4340    25.8880     2.1540   -26.5550 
   93.1250    66.0920     9.7770     7.9900    10.6410    25.9750     2.1470   -26.6350 
   93.2500    66.0720     9.8170     7.9770    10.7390    26.0640     2.1490   -26.7670 
   93.3750    64.4540     9.8590     7.9880    10.6910    26.1530     2.1580   -26.9280 
   93.5000    63.0800     9.8960     8.0120    10.8050    26.2250     2.1700   -27.1160 
   93.6250    64.5810     9.9160     8.0320    11.0540    26.2530     2.1810   -27.2590 
   93.7500    66.0430     9.9200     8.0360    11.1580    26.3370     2.1910   -27.3710 
   93.8750    65.4090     9.9110     8.0220    11.0700    26.4940     2.1980   -27.4240 
   94.0000    64.5240     9.8980     7.9960    10.9740    26.6430     2.1970   -27.4490 
   94.1250    63.9940     9.8900     7.9620    11.1900    26.8410     2.1790   -27.4330 
   94.2500    63.5020     9.8900     7.9300    11.3620    27.3270     2.1510   -27.3870 
   94.3750    63.8260     9.8910     7.9040    11.1800    28.0880     2.1220   -27.3220 
   94.5000    64.2600     9.8810     7.8790    10.6370    28.6640     2.1040   -27.2140 
   94.6250    64.4090     9.8360     7.8390    10.4360    28.4890     2.0990   -27.0710 
   94.7500    65.3730     9.7620     7.7750    10.5360    27.9870     2.0980   -26.8910 
   94.8750    67.4800     9.6860     7.6940    10.2390    27.6100     2.0960   -26.6960 
   95.0000    68.5790     9.6540     7.6290     9.7910    27.3030     2.0980   -26.4810 
   95.1250    66.3820     9.7170     7.6320     9.3260    26.8590     2.1080   -26.2900 
   95.2500    63.5330     9.8500     7.6980     9.8040    26.3190     2.1200   -26.1230 
   95.3750    61.9430     9.9940     7.7940    10.0160    25.8490     2.1260   -25.9570 
   95.5000    62.9790    10.0680     7.8620    10.2820    25.6730     2.1200   -25.8150 
   95.6250    65.1020     9.9840     7.8260    10.4150    25.7180     2.1130   -25.6960 
