~V
VERS. 2.00: Ver 2.00
~W
STRT.M 62.0000:
STOP.M 273.0000:
STEP.M 0.1250:
NULL. -999.2500:
UWI. F11050:
~C
DEPT.M :
SP.MV :
GR.API :
RML.OHMM :
RI. :
RXO.OHMM :
CALI.CM :
DEN.GM/CC :
~A
# ...
  197.0000   -20.9440    58.4190   225.2800   209.4070   189.9880    24.9340     2.2230 
  197.1250   -20.9710    59.4480   202.8960   184.2750   219.8790    24.9260     2.2310 
  197.2500   -21.0290    59.9170   167.3180   155.1960   249.1180    24.9070     2.2410 
  197.3750   -21.0600    60.1230   135.9340   127.7810   168.6660    24.8630     2.2590 
  197.5000   -21.1400    61.9890   111.3320   105.5430    85.3890    24.8330     2.2850 
  197.6250   -21.1580    62.7690    94.1020    89.8670    66.0070    24.8450     2.3060 
  197.7500   -21.1950    60.7570    82.0240    78.7710    67.2260    24.8740     2.3190 
  197.8750   -21.2270    59.4210    74.5460    71.7100    64.5940    24.8290     2.3270 
  198.0000   -21.2750    60.8150    71.0960    68.3700    58.6650    24.7480     2.3330 
  198.1250   -21.2980    63.6010    70.9310    68.3480    52.9330    24.6650     2.3290 
  198.2500   -21.3540    63.3720    72.0470    69.7690    66.3700    24.5860     2.3150 
  198.3750   -21.4200    60.3390    73.0540    71.2260   112.0960    24.4970     2.2980 
  198.5000   -21.5070    57.2730    72.6300    71.2910   124.3260    24.4640     2.2850 
  198.6250   -21.5960    57.1080    69.7910    68.7660    81.7220    24.5460     2.2830 
  198.7500   -21.6750    59.5400    65.8780    64.8450    56.2980    24.6360     2.2840 
  198.8750   -21.7370    61.4800    62.6330    61.1650    51.7260    24.7420     2.2800 
  199.0000   -21.7700    60.9270    61.5800    59.1660    47.4280    24.8380     2.2710 
  199.1250   -21.8160    60.0540    64.1280    60.1790    50.3910    24.8600     2.2680 
  199.2500   -21.8350    59.6350    69.7900    63.9490    64.8920    24.8470     2.2680 
  199.3750   -21.8670    60.0410    77.8960    70.0050    86.9300    24.8450     2.2660 
  199.5000   -21.8690    60.7520    87.2770    77.3720    98.7930    24.8220     2.2620 
  199.6250   -21.9210    61.2290    96.2220    84.5250    90.5380    24.8380     2.2640 
  199.7500   -21.9820    61.4740   100.9020    90.1200    97.6150    24.8820     2.2690 
  199.8750   -22.0750    61.7110   103.5090    93.7830   109.8330    24.9180     2.2710 
  200.0000   -22.1750    62.3410   107.7680    96.3310   107.3600    24.9330     2.2680 
  200.1250   -22.2970    62.6110   111.5670    99.8650    98.2890    24.9360     2.2600 
  200.2500   -22.3800    61.6650   114.3370   106.3860    98.4800    24.9400     2.2510 
  200.3750   -22.4530    59.4020   127.8770   117.2540   120.3480    24.9310     2.2370 
  200.5000   -22.4740    57.0260   145.5930   132.3690   169.4170    24.9110     2.2200 
  200.6250   -22.4770    57.1450   163.4390   148.1510   212.9960    24.8880     2.2090 
  200.7500   -22.4420    58.1160   173.5400   157.7030   212.0950    24.8870     2.2070 
  200.8750   -22.3710    58.8170   169.9820   155.9240   202.0130    24.8650     2.2090 
  201.0000   -22.2820    59.1000   153.4190   142.6190   183.8860    24.7610     2.2130 
  201.1250   -22.1530    58.2000   130.7160   122.5690   138.6460    24.5810     2.2250 
  201.2500   -22.0210    57.8880   109.6870   103.0150    99.3180    24.3890     2.2470 
  201.3750   -21.8710    60.0650    92.3760    86.4550    81.7970    24.2410     2.2720 
  201.5000   -21.7540    64.2890    78.6220    73.1040    73.9670    24.1530     2.2880 
  201.6250   -21.6070    66.6050    68.1590    62.8590    61.7930    24.2000     2.2910 
  201.7500   -21.4780    66.3760    59.9760    54.8670    56.1710    24.3080     2.2870 
  201.8750   -21.3670    66.9160    53.8450    48.8860    51.3760    24.4880     2.2850 
  202.0000   -21.2810    68.1230    49.7960    44.8290    42.3010    24.6750     2.2860 
  202.1250   -21.1770    66.7750    48.4120    43.1030    40.0540    24.8000     2.2920 
  202.2500   -21.0810    63.7760    49.3510    43.3740    41.9590    24.8560     2.2960 
  202.3750   -20.9490    62.5680    52.3690    45.4410    45.4830    24.8710     2.2990 
  202.5000   -20.8140    64.4410    56.9900    48.9280    49.3230    24.8830     2.3040 
  202.6250   -20.6500    66.6720    62.3020    53.1350    52.6830    24.8540     2.3140 
  202.7500   -20.4620    66.8220    66.4440    56.5160    57.5740    24.7910     2.3280 
  202.8750   -20.2280    65.4150    67.4660    57.4380    60.6950    24.7370     2.3410 
  203.0000   -19.9510    63.9640    64.1450    54.8090    59.7470    24.7180     2.3540 
  203.1250   -19.6460    64.0680    56.9210    48.8190    55.0400    24.6420     2.3610 
  203.2500   -19.3020    64.2180    49.2250    42.2160    45.2720    24.5710     2.3540 
  203.3750   -18.9490    63.5610    43.4470    36.9570    33.9580    24.6210     2.3290 
  203.5000   -18.5310    63.1440    40.9340    34.1370    28.3860    24.8230     2.2950 
  203.6250   -18.0610    65.3060    42.8490    34.6750    33.6750    24.8920     2.2720 
  203.7500   -17.5590    68.5340    48.6360    38.2810    48.6660    24.8120     2.2690 
  203.8750   -17.0120    69.3290    57.9220    44.8890    66.3080    24.7060     2.2850 
  204.0000   -16.4170    66.9680    69.2430    53.5650    70.6770    24.7290     2.3220 
  204.1250   -15.8020    64.3430    77.7850    60.7850    72.0770    24.7670     2.3930 
  204.2500   -15.1460    63.0110    77.6470    61.6640    76.4910    24.7770     2.4900 
  204.3750   -14.4700    62.4890    66.6990    53.8380    81.4950    24.7660     2.5870 
  204.5000   -13.8070    62.5080    49.3870    40.2490    61.8360    24.7480     2.6470 
  204.6250   -13.1840    65.6010    33.4430    27.3200    33.4610    24.7080     2.6490 
  204.7500   -12.6130    72.6290    21.0150    18.2100    18.2350    24.6900     2.6250 
  204.8750   -12.1140    81.6290    13.6020    12.7500    10.3810    24.7150     2.5930 
  205.0000   -11.6920    90.4550    10.9810     9.9720     8.0460    24.7400     2.5630 
  205.1250   -11.3330    94.7220    10.9270     9.3040     8.3680    24.7610     2.5470 
  205.2500   -11.0350    92.6490    12.4050     9.9750    10.7070    24.7620     2.5540 
  205.3750   -10.8100    86.6020    14.7610    11.6470    15.2960    24.7560     2.5810 
  205.5000   -10.6210    81.3250    16.9890    13.6640    20.0010    24.7430     2.6160 
  205.6250   -10.4880    81.2620    17.4710    14.5950    19.5330    24.7170     2.6410 
  205.7500   -10.3390    83.5390    15.9050    13.7540    18.1880    24.6730     2.6520 
  205.8750   -10.1950    85.9610    13.0440    11.6120    15.6530    24.6330     2.6520 
  206.0000   -10.0570    86.0110    10.0690     9.1730    10.9400    24.6200     2.6370 
  206.1250    -9.9220    79.9530     7.9310     7.2560     7.4530    24.6420     2.6050 
  206.2500    -9.8230    71.4300     6.6480     5.9720     5.9310    24.6770     2.5620 
  206.3750    -9.7340    64.8870     6.0320     5.2370     5.7850    24.6920     2.5170 
  206.5000    -9.6810    61.6810     5.8630     4.9190     5.9610    24.6790     2.4790 
  206.6250    -9.6480    59.6470     5.9480     4.9070     5.9680    24.6390     2.4600 
  206.7500    -9.6550    59.8990     6.0600     5.0060     5.8700    24.5790     2.4560 
  206.8750    -9.6940    64.7790     6.1050     5.1220     5.6740    24.5570     2.4530 
  207.0000    -9.7640    72.5570     6.0860     5.2220     5.5060    24.5700     2.4440 
  207.1250    -9.8560    79.9140     6.0510     5.3030     5.4240    24.5920     2.4320 
  207.2500    -9.9730    84.9560     6.0270     5.3630     5.5220    24.5850     2.4200 
  207.3750   -10.0800    86.8090     5.9980     5.3850     5.9400    24.5210     2.4070 
  207.5000   -10.2000    84.3810     5.9310     5.3430     6.4780    24.4050     2.3990 
  207.6250   -10.2720    79.9930     5.8000     5.2140     6.4220    24.2760     2.4010 
  207.7500   -10.3200    78.6050     5.6290     5.0310     5.8100    24.2610     2.4050 
  207.8750   -10.3090    79.5070     5.4490     4.8340     5.4000    24.3230     2.4060 
  208.0000   -10.2270    80.4530     5.2930     4.6640     5.4480    24.4360     2.4050 
  208.1250   -10.0910    79.4680     5.2010     4.5560     5.5230    24.5100     2.4040 
