~V
VERS. 2.00: Ver 2.00
~W
STRT.M 59.0000:
STOP.M 291.0000:
STEP.M 0.1250:
NULL. -999.2500:
UWI. F11077:
~C
DEPT.M :
DEN.GM/CC :
GR.API :
RML.OHMM :
RI. :
RXO.OHMM :
CALI.CM :
SP.MV :
~A
# ...
  160.2500     2.2710   102.3150     6.7230     6.0430     5.7810    25.7930    -6.7400 
  160.3750     2.2610    99.1620     6.8450     6.0840     5.9010    25.8250    -6.7440 
  160.5000     2.2570    97.8720     6.9790     6.1440     6.0240    25.8060    -6.8000 
  160.6250     2.2580    98.5820     7.0580     6.1770     6.0820    25.7130    -6.8580 
  160.7500     2.2630    98.9750     7.0060     6.1340     6.0390    25.5570    -6.8940 
  160.8750     2.2720    98.3620     6.7910     5.9900     5.9640    25.3990    -6.9080 
  161.0000     2.2830    99.0010     6.4730     5.7780     5.8630    25.2850    -6.9220 
  161.1250     2.2960   101.7880     6.1870     5.5840     5.6640    25.2380    -6.9380 
  161.2500     2.3170   104.9570     6.1550     5.5590     5.5040    25.2660    -6.9500 
  161.3750     2.3510   106.4450     6.5690     5.8480     5.7080    25.3530    -6.9590 
  161.5000     2.3990   105.2520     7.4440     6.4920     6.5150    25.4580    -7.0160 
  161.6250     2.4510   101.1470     8.6480     7.4420     8.6950    25.5270    -7.1010 
  161.7500     2.4810    95.4730     9.7980     8.4520    12.5370    25.5080    -7.2000 
  161.8750     2.4730    91.1730    10.3790     9.0950    15.1230    25.4100    -7.2950 
  162.0000     2.4300    89.5070    10.1410     9.0660    13.2540    25.3100    -7.3620 
  162.1250     2.3730    90.0580     9.2400     8.4300     9.5790    25.2970    -7.4280 
  162.2500     2.3290    92.4990     8.1630     7.5570     7.5390    25.4280    -7.5250 
  162.3750     2.3130    95.2260     7.4260     6.8620     6.8090    25.6580    -7.6350 
  162.5000     2.3190    96.3970     7.2970     6.5850     6.5110    25.8470    -7.7220 
  162.6250     2.3330    95.1080     7.7970     6.7920     6.6080    25.8820    -7.7830 
  162.7500     2.3380    91.6900     8.7180     7.4050     7.9950    25.8720    -7.7900 
  162.8750     2.3270    86.9100     9.6460     8.1580    14.2230    26.0360    -7.7360 
  163.0000     2.3040    83.1270    10.1610     8.7030    26.6820    26.3490    -7.6820 
  163.1250     2.2880    84.0930    10.1590     8.8890    31.5760    26.6100    -7.6110 
  163.2500     2.2950    88.4980     9.9370     8.8540    20.1180    26.7080    -7.4730 
  163.3750     2.3350    89.6110     9.9970     8.9300     9.9970    26.6580    -7.2740 
  163.5000     2.4000    83.8470    10.6230     9.3750     9.2720    26.4860    -7.0330 
  163.6250     2.4640    74.9730    11.7430    10.2390    13.9040    26.2630    -6.7830 
  163.7500     2.4960    69.2110    12.9680    11.3510    19.4840    26.1500    -6.5590 
  163.8750     2.4890    69.3100    13.8140    12.3700    18.6250    26.1410    -6.3610 
  164.0000     2.4590    72.1750    14.1550    13.0630    13.9020    26.1760    -6.1430 
  164.1250     2.4370    72.4610    14.3340    13.5510    11.1410    26.2370    -5.8980 
  164.2500     2.4480    69.1000    14.9000    14.1980    11.8610    26.2520    -5.6430 
  164.3750     2.4890    66.3760    16.0290    15.2110    14.4600    26.2020    -5.4090 
  164.5000     2.5440    66.6450    17.1950    16.2700    16.7350    26.1560    -5.1800 
  164.6250     2.5820    67.4740    17.5570    16.6720    18.0310    26.1150    -4.9650 
  164.7500     2.5820    68.0120    16.3970    15.7030    17.6700    26.0470    -4.8120 
  164.8750     2.5460    71.2200    13.8900    13.4610    14.7570    25.9560    -4.7090 
  165.0000     2.4840    78.3790    11.0660    10.8820    10.5400    25.8860    -4.6410 
  165.1250     2.4160    86.5230     8.6550     8.6420     7.5010    25.8630    -4.6160 
  165.2500     2.3630    91.8140     7.0320     7.0930     6.3590    25.8750    -4.6200 
  165.3750     2.3360    92.6190     6.2840     6.3150     6.0910    25.9130    -4.6320 
  165.5000     2.3380    89.8720     6.3570     6.2480     6.0530    25.9670    -4.6660 
  165.6250     2.3700    85.3200     7.3420     6.9470     6.4340    26.0120    -4.7110 
  165.7500     2.4280    80.8020     9.3730     8.5760     8.3020    26.0340    -4.7270 
  165.8750     2.4970    76.6590    12.2600    11.1230    12.6850    26.0330    -4.7500 
  166.0000     2.5590    72.5050    15.1220    13.9570    18.0210    26.0240    -4.8090 
  166.1250     2.5930    69.6560    16.7410    15.9080    21.3730    26.0250    -4.8670 
  166.2500     2.5850    69.7270    16.1140    15.7510    21.1350    26.0250    -4.9240 
  166.3750     2.5400    72.8940    13.6110    13.6360    16.8310    25.9910    -4.9690 
  166.5000     2.4740    78.6970    10.7810    11.0510    11.0410    25.9090    -4.9920 
  166.6250     2.4120    86.1800     8.5670     8.9170     7.4660    25.7920    -4.9880 
  166.7500     2.3750    91.4720     7.2700     7.5520     6.7080    25.6540    -4.9740 
  166.8750     2.3660    91.8240     6.7360     6.8880     6.7780    25.5210    -4.9500 
  167.0000     2.3760    89.2350     6.6570     6.7030     6.8230    25.4310    -4.9110 
  167.1250     2.3910    86.6820     6.9220     6.9050     7.2560    25.3930    -4.8650 
  167.2500     2.4040    85.5560     7.6090     7.5210     7.7150    25.4140    -4.8240 
  167.3750     2.4220    84.5630     8.9260     8.6760     7.9320    25.4920    -4.7640 
  167.5000     2.4570    82.0830    10.9640    10.4730     8.8790    25.5800    -4.6730 
  167.6250     2.5100    79.2300    13.5350    12.8740    11.5240    25.6540    -4.5850 
  167.7500     2.5630    77.3790    15.8140    15.2550    16.9460    25.6940    -4.4840 
  167.8750     2.5910    75.9210    16.5900    16.3790    23.0880    25.7000    -4.3560 
  168.0000     2.5790    75.6640    15.3330    15.4650    23.6890    25.7050    -4.2250 
  168.1250     2.5280    80.0850    12.6080    12.9790    16.6120    25.7310    -4.0990 
  168.2500     2.4580    87.6470     9.6650    10.1840     9.8240    25.7620    -3.9810 
  168.3750     2.3920    93.2320     7.4740     8.0250     7.2500    25.7810    -3.9140 
  168.5000     2.3450    96.3090     6.2590     6.7110     6.6060    25.8080    -3.9320 
  168.6250     2.3250    99.3150     5.9470     6.1950     6.4930    25.8800    -4.0190 
  168.7500     2.3370   100.4500     6.4510     6.4330     6.2760    26.0040    -4.1640 
  168.8750     2.3740    95.6430     7.6330     7.3530     6.6490    26.1230    -4.3610 
  169.0000     2.4240    85.3320     9.1760     8.7290     8.9650    26.1630    -4.5590 
  169.1250     2.4690    73.6510    10.7050    10.2640    13.2190    26.1120    -4.7310 
  169.2500     2.4930    65.5440    11.7500    11.4920    16.1540    25.9820    -4.8540 
  169.3750     2.4990    63.7950    12.0950    12.0930    15.0090    25.8240    -4.9120 
  169.5000     2.4970    67.3920    12.0370    12.2180    12.4710    25.7100    -4.8990 
  169.6250     2.5010    73.4600    12.0380    12.2420    11.3800    25.6790    -4.8220 
  169.7500     2.5180    77.0440    12.5570    12.5770    11.8670    25.7470    -4.6950 
  169.8750     2.5450    75.1920    13.7830    13.4570    14.2000    25.8390    -4.5300 
  170.0000     2.5730    70.8530    15.4950    14.7990    17.0100    25.8980    -4.3450 
  170.1250     2.5970    68.2010    17.3240    16.3550    18.5910    25.9380    -4.1930 
  170.2500     2.6100    68.3450    18.7970    17.7280    19.4910    26.0190    -4.0840 
  170.3750     2.6080    69.2950    19.5900    18.5810    20.5390    26.1570    -4.0210 
  170.5000     2.5970    69.4190    19.7520    18.8820    20.9420    26.2600    -4.0070 
  170.6250     2.5830    69.3240    19.5110    18.7910    20.2500    26.2970    -3.9960 
  170.7500     2.5770    70.2630    19.1930    18.5770    19.1720    26.2900    -3.9800 
  170.8750     2.5840    71.7130    19.0920    18.5030    18.5180    26.2750    -3.9890 
  171.0000     2.5990    71.6700    19.3450    18.7110    18.4530    26.2890    -4.0310 
  171.1250     2.6110    70.2680    19.9530    19.2290    18.6870    26.3340    -4.0810 
  171.2500     2.6110    69.9480    20.7700    19.9610    19.5300    26.3590    -4.1330 
  171.3750     2.5990    71.1830    21.4810    20.6610    21.5770    26.3420    -4.1890 
