~V
VERS. 2.00: Ver 2.00
~W
STRT.M 53.0000:
STOP.M 279.0000:
STEP.M 0.1250:
NULL. -999.2500:
UWI. F11068:
~C
DEPT.M :
GR.API :
RML.OHMM :
RI. :
RXO.OHMM :
CALI.CM :
SP.MV :
DEN.GM/CC :
~A
# ...
  266.7500    61.2850     7.2750     5.7950     5.6730    27.7320    -5.6390     2.2920 
  266.8750    60.2160     7.3150     5.8200     5.9410    27.5660    -5.5350     2.2520 
  267.0000    59.7410     7.3600     5.8480     5.9010    27.5720    -5.4520     2.2020 
  267.1250    59.3180     7.3980     5.8730     5.6430    27.5670    -5.3950     2.1650 
  267.2500    58.4010     7.4200     5.8890     5.4330    28.3200    -5.3630     2.1450 
  267.3750    58.2790     7.4270     5.8970     5.2100    29.4400    -5.3580     2.1390 
  267.5000    60.0940     7.4180     5.8970     5.0390    30.0960    -5.3530     2.1360 
  267.6250    62.1210     7.3930     5.8920     5.0310    30.2270    -5.4550     2.1340 
  267.7500    61.4300     7.3590     5.8850     5.0770    30.1970    -5.6060     2.1390 
  267.8750    59.0020     7.3280     5.8790     5.1030    30.2750    -5.6560     2.1560 
  268.0000    57.1760     7.3100     5.8760     5.2720    30.5580    -5.5780     2.1780 
  268.1250    57.5820     7.3200     5.8810     5.5860    30.8250    -5.4680     2.1890 
  268.2500    57.8090     7.3510     5.8970     5.6510    30.8370    -5.2720     2.1880 
  268.3750    57.5710     7.3940     5.9250     5.6010    30.4920    -5.0630     2.1820 
  268.5000    57.4630     7.4340     5.9610     5.6850    30.0710    -4.8260     2.1840 
  268.6250    57.4610     7.4560     5.9960     5.6790    29.4480    -4.4750     2.1980 
  268.7500    57.7100     7.4600     6.0210     5.4740    28.4720    -4.1390     2.2120 
  268.8750    58.5710     7.4490     6.0310     5.3010    27.6910    -3.8580     2.2160 
  269.0000    58.8840     7.4270     6.0230     5.3030    27.4620    -3.7510     2.2080 
  269.1250    58.8840     7.4000     5.9990     5.4530    27.8190    -3.7770     2.1960 
  269.2500    58.8840     7.3760     5.9720     5.4490    28.0230    -3.8210     2.1890 
  269.3750    58.8840     7.3630     5.9530     5.4070    27.8920    -3.8560     2.1860 
  269.5000    58.8840     7.3670     5.9490     5.3330    27.4840    -3.9210     2.1810 
  269.6250    58.8840     7.4000     5.9720     5.3240    26.8610    -4.0170     2.1630 
  269.7500    58.8840     7.4580     6.0180     5.2510    26.2920    -4.1430     2.1300 
  269.8750    58.8840     7.5380     6.0830     5.1910    26.2940    -4.3470     2.0880 
  270.0000    58.8840     7.6320     6.1650     5.2420    26.6960    -4.4690     2.0490 
  270.1250    58.8840     7.7320     6.2580     5.2870    27.2320    -4.4370     2.0440 
  270.2500    58.8840     7.8250     6.3530     5.2970    28.1500    -4.3950     2.0850 
  270.3750    58.8840     7.9060     6.4470     5.3540    29.0610    -4.2940     2.1660 
  270.5000    58.8840     7.9690     6.5400     5.4480    28.7060    -4.2120     2.2590 
  270.6250    58.8840     8.0150     6.6330     5.5430    27.2370    -4.2080     2.3120 
  270.7500    58.8840     8.0650     6.7330     5.9580    25.9630    -4.1810     2.3040 
  270.8750    58.8840     8.1490     6.8540     6.7720    25.4570    -4.1120     2.2480 
  271.0000    58.8840     8.2900     7.0160     7.2320    25.4150    -4.0820     2.1760 
  271.1250    58.8840     8.4930     7.2280     6.4930    25.5800    -4.0840     2.1330 
  271.2500    58.8840     8.6950     7.4510     6.0260    25.9690    -4.0850     2.1320 
  271.3750    58.8840     8.8230     7.6300     5.9950    26.1800    -4.1270     2.1650 
  271.5000    58.8840     8.8100     7.7060     6.4860    25.9920    -4.1000     2.2080 
  271.6250    58.8840     8.6130     7.6270     6.8710    25.7610    -3.9530     2.2260 
  271.7500    58.8840     8.3080     7.4360     6.9870    25.7260    -3.7790     2.2060 
  271.8750    58.8840     7.9730     7.1930     6.9030    25.4630    -3.5950     2.1600 
  272.0000    58.8840     7.6850     6.9590     7.1590    24.9600    -3.3780     2.1190 
  272.1250    58.8840     7.5100     6.7920     6.9610    25.1860    -3.2590     2.1190 
  272.2500    58.8840     7.4350     6.7010     5.9870    25.8960    -3.2040     2.1500 
  272.3750    58.8840     7.4320     6.6760     5.4670    26.3000    -3.1260     2.1880 
  272.5000    58.8840     7.4650     6.6930     5.5100    25.9680    -3.0480     2.2040 
  272.6250    58.8840     7.5000     6.7270     5.7780    25.5250    -3.1050     2.1820 
  272.7500    58.8840     7.5180     6.7610     5.9070    25.3430    -3.1200     2.1490 
  272.8750    58.8840     7.5140     6.7860     5.7200    25.3620    -3.1170     2.1390 
  273.0000    58.8840     7.4890     6.7910     5.7410    25.8000    -3.0890     2.1740 
  273.1250    58.8840     7.4460     6.7690     5.9070    26.7750    -3.0390     2.2540 
  273.2500    58.8840     7.3990     6.7340     5.9930    27.3920    -3.0060     2.3310 
  273.3750    58.8840     7.3660     6.7040     5.9340    27.4410    -2.9970     2.3620 
  273.5000    58.8840     7.3660     6.6950     6.1530    26.7990    -3.0330     2.3380 
  273.6250    58.8840     7.4310     6.7270     6.7590    26.0150    -2.9900     2.2960 
  273.7500    58.8840     7.5740     6.8170     6.8880    25.7290    -2.9410     2.2970 
  273.8750    58.8840     7.7970     6.9930     6.4180    25.7530    -2.8970     2.3560 
  274.0000    58.8840     8.0790     7.2620     6.0510    25.7620    -2.8980     2.4420 
  274.1250    58.8840     8.3600     7.5930     6.5430    25.4400    -2.8640     2.4960 
  274.2500    58.8840     8.5790     7.8990     7.9720    25.1170    -2.8090     2.4970 
  274.3750    58.8840     8.7030     8.1170     9.7200    24.9600    -2.7400     2.4630 
  274.5000    58.8840     8.7390     8.2220    11.6290    24.9340    -2.6650     2.4250 
  274.6250    58.8840     8.7200     8.2380    13.9880    24.9180    -2.6330     2.3980 
  274.7500    58.8840     8.6970     8.2320    15.5880    24.8610    -2.6550     2.3780 
  274.8750    58.8840     8.6850     8.2280    14.6430    24.7250    -2.6600     2.3570 
  275.0000    58.8840     8.6830     8.2270    14.8050    24.6530    -2.5970     2.3430 
  275.1250    58.8840     8.6830     8.2270    15.7000    24.8700    -2.5000     2.3540 
  275.2500    58.8840     8.6830     8.2270    15.8830    24.9860    -2.3340     2.3990 
  275.3750    58.8840     8.6830     8.2270    15.7650    24.9850    -2.2270     2.4680 
  275.5000    58.8840     8.6830     8.2270    16.4110    24.8970    -2.1260     2.5430 
  275.6250    58.8840     8.6830     8.2270    18.3990    24.8170    -1.9190     2.5960 
  275.7500    58.8840     8.6830     8.2270    20.5200    24.7970    -1.6950     2.6180 
  275.8750    58.8840     8.6830     8.2270    22.9190    24.8210    -1.4840     2.6100 
  276.0000    58.8840     8.6830     8.2270    23.2670    24.8550    -1.2880     2.5820 
  276.1250    58.8840     8.6830     8.2270    21.8950    24.8690    -1.1520     2.5480 
  276.2500    58.8840     8.6830     8.2270    18.0640    24.9240    -1.0770     2.5210 
  276.3750    58.8840     8.6830     8.2270    16.6010    25.1670    -1.0160     2.5060 
  276.5000    58.8840     8.6830     8.2270    16.7900    25.6060    -0.9880     2.5040 
  276.6250    58.8840     8.6830     8.2270    19.2920    25.6220    -0.9450     2.5120 
  276.7500    58.8840     8.6830     8.2270    18.0290    25.2240    -0.8870     2.5230 
  276.8750    58.8840     8.6830     8.2270    16.9210    24.9570    -0.8790     2.5290 
  277.0000    58.8840     8.6830     8.2270    14.8610    24.9170    -0.8530     2.5220 
  277.1250    58.8840     8.6830     8.2270    12.9570    24.8890    -0.8430     2.4880 
  277.2500    58.8840     8.6830     8.2270    12.3440    24.7530    -0.9260     2.4370 
  277.3750    58.8840     8.6830     8.2270    12.1640    24.5640    -1.0720     2.3860 
  277.5000    58.8840     8.6830     8.2270    11.2750    24.3830    -1.2730     2.3570 
  277.6250    58.8840     8.6830     8.2270     9.8300    24.2410    -1.6330     2.3690 
  277.7500    58.8840     8.6830     8.2270     8.4880    24.5480    -1.9990     2.4060 
  277.8750    58.8840     8.6830     8.2270     7.9790    24.8720    -2.3230     2.4500 
