~V
VERS. 2.00: Ver 2.00
~W
STRT.M 55.0000:
STOP.M 275.0000:
STEP.M 0.1250:
NULL. -999.2500:
UWI. F11036:
~C
DEPT.M :
GR.API :
RML.OHMM :
RI. :
RXO.OHMM :
CALI.CM :
DEN.GM/CC :
SP.MV :
~A
# ...
  167.5000    79.4020    36.3870    31.1820    42.7040    25.0820     2.2630   -17.5460 
  167.6250    77.6670    38.3930    33.9430    41.1070    25.0820     2.2660   -17.8890 
  167.7500    79.7300    38.1040    34.5250    42.0930    25.0820     2.2710   -18.2330 
  167.8750    84.6420    36.2570    33.4800    43.0910    25.0800     2.2720   -18.5540 
  168.0000    88.0470    34.2540    32.1210    37.4630    25.0670     2.2670   -18.8180 
  168.1250    85.7250    33.7760    31.9860    30.8000    25.0280     2.2570   -18.9930 
  168.2500    81.3230    35.2930    33.6620    29.8760    24.9790     2.2470   -19.1050 
  168.3750    78.7920    38.6170    37.2200    34.3760    24.9300     2.2410   -19.1720 
  168.5000    78.3650    42.9380    42.1570    41.7420    24.8910     2.2400   -19.2240 
  168.6250    76.4660    46.6030    47.0180    45.6640    24.8980     2.2420   -19.2730 
  168.7500    74.9540    47.9660    49.6710    40.9980    24.9480     2.2460   -19.3220 
  168.8750    75.7940    46.0650    48.4900    33.7540    25.0040     2.2530   -19.3710 
  169.0000    78.2780    41.0100    43.2350    30.3290    25.0530     2.2670   -19.3840 
  169.1250    81.2030    33.9650    35.4170    27.8920    25.0650     2.2880   -19.3840 
  169.2500    85.0750    27.1590    28.0200    26.7040    25.0370     2.3080   -19.3980 
  169.3750    88.9720    21.9750    22.5190    20.5970    24.9930     2.3190   -19.4490 
  169.5000    90.8000    19.2300    19.4320    13.9090    24.9380     2.3170   -19.5740 
  169.6250    90.1440    20.2070    19.3860    11.5270    24.8690     2.3000   -19.8410 
  169.7500    87.6200    25.4870    22.5860    13.2610    24.7350     2.2780   -20.2280 
  169.8750    81.9910    35.8950    30.2330    21.3970    24.6250     2.2580   -20.7140 
  170.0000    74.6720    51.3130    43.6200    31.1400    24.6630     2.2470   -21.3430 
  170.1250    70.6470    69.8610    63.0540    36.9360    24.8290     2.2450   -22.1130 
  170.2500    70.0470    86.6010    82.4320    35.4620    25.0130     2.2440   -22.9220 
  170.3750    70.1010    97.8010    95.1660    32.3180    25.1570     2.2360   -23.7210 
  170.5000    70.2440   102.6700    99.4300    29.6060    25.2900     2.2200   -24.4700 
  170.6250    73.0690   104.2100    99.6560    23.3810    25.3800     2.2020   -25.0980 
  170.7500    74.1110   107.1300   101.7060    22.3690    25.4310     2.1960   -25.6090 
  170.8750    70.5020   112.7540   106.8820    32.0960    25.4440     2.2090   -26.0210 
  171.0000    65.1620   120.0490   113.9800    48.5760    25.4120     2.2400   -26.3410 
  171.1250    64.4750   126.5710   120.3950    55.1410    25.3050     2.2740   -26.5980 
  171.2500    66.7560   130.6320   124.3720    56.9240    25.1850     2.2950   -26.8460 
  171.3750    69.1340   131.7450   125.5960    49.1640    25.0650     2.2970   -27.1070 
  171.5000    71.2040   130.1580   124.4750    38.8490    24.9970     2.2840   -27.3620 
  171.6250    72.1670   126.1550   121.2680    32.6940    25.0000     2.2650   -27.5880 
  171.7500    72.4010   120.8640   116.7540    33.0500    25.0130     2.2520   -27.8430 
  171.8750    71.8470   115.2610   111.6760    30.5930    25.0370     2.2460   -28.1610 
  172.0000    70.8680   110.5620   107.2610    27.0400    25.0810     2.2460   -28.5450 
  172.1250    73.3370   108.3890   105.2900    25.9790    25.1230     2.2480   -28.9340 
  172.2500    76.6600   109.0160   106.1290    36.7660    25.1420     2.2510   -29.2770 
  172.3750    75.0980   112.2240   109.6390    48.5830    25.1510     2.2560   -29.5310 
  172.5000    69.7350   117.0120   115.0010    54.1870    25.1470     2.2630   -29.6810 
  172.6250    68.8060   121.3150   120.1880    61.1570    25.1430     2.2720   -29.7680 
  172.7500    71.2290   123.1410   122.7010    61.6000    25.1390     2.2780   -29.8080 
  172.8750    72.0900   121.6800   121.3460    56.3220    25.1320     2.2820   -29.7990 
  173.0000    72.0100   117.5230   116.7090    52.9130    25.1250     2.2830   -29.7570 
  173.1250    72.7680   112.5140   110.7550    57.7470    25.1250     2.2810   -29.6700 
  173.2500    71.9870   109.0390   106.0120    62.9170    25.1190     2.2780   -29.5320 
  173.3750    71.4990   108.7320   104.1370    72.0980    25.1250     2.2740   -29.4170 
  173.5000    72.2740   113.0130   106.3290    77.2180    25.1780     2.2700   -29.3790 
  173.6250    71.1710   123.0640   114.1140    87.5980    25.2420     2.2660   -29.3590 
  173.7500    67.3210   136.3630   126.4790    93.5210    25.2710     2.2620   -29.3150 
  173.8750    65.4620   151.1860   141.8340   102.5010    25.2790     2.2570   -29.2180 
  174.0000    67.2780   166.1890   157.0880   123.4070    25.2810     2.2530   -29.0480 
  174.1250    68.1950   178.7600   167.6230   148.0570    25.2950     2.2500   -28.9200 
  174.2500    67.1020   186.8450   172.4630   158.9140    25.3250     2.2490   -28.8500 
  174.3750    65.9980   190.7350   173.3140   152.6210    25.3670     2.2480   -28.7450 
  174.5000    65.5620   193.6680   173.6910   145.0580    25.3920     2.2470   -28.6050 
  174.6250    63.8150   200.1010   178.1600   148.1640    25.4000     2.2440   -28.5280 
  174.7500    62.2360   211.2440   188.3840   165.4250    25.4130     2.2400   -28.4870 
  174.8750    62.2030   225.0690   203.3430   195.4290    25.4450     2.2360   -28.4730 
  175.0000    62.2600   236.2580   218.2410   225.8680    25.4790     2.2330   -28.5310 
  175.1250    61.8730   236.4650   223.6020   237.6220    25.5160     2.2310   -28.5830 
  175.2500    63.1720   225.0780   216.1920   223.0450    25.5300     2.2290   -28.5910 
  175.3750    67.5060   205.7940   199.1090   183.8700    25.5330     2.2240   -28.6200 
  175.5000    72.1680   183.9860   178.9420   134.7750    25.5330     2.2160   -28.5960 
  175.6250    73.5920   162.3160   159.5900   103.7060    25.5450     2.2150   -28.4360 
  175.7500    72.9880   139.4060   138.9080   102.5380    25.5820     2.2300   -28.1770 
  175.8750    72.2620   114.2280   114.4200   111.3990    25.6380     2.2620   -27.7960 
  176.0000    73.1780    88.4830    87.8250   107.2630    25.6580     2.3040   -27.2310 
  176.1250    77.2890    66.8620    65.2790    58.7400    25.5300     2.3350   -26.5200 
  176.2500    84.3190    51.9430    49.8530    27.1640    25.3250     2.3430   -25.8240 
  176.3750    90.1000    44.5600    41.8720    16.1360    25.2260     2.3270   -25.1650 
  176.5000    92.0690    44.5960    40.7120    15.9640    25.2380     2.2970   -24.5800 
  176.6250    89.3400    53.1770    47.3120    25.2730    25.3110     2.2690   -24.0080 
  176.7500    84.3340    69.1800    61.2420    39.5960    25.3550     2.2520   -23.4040 
  176.8750    77.9020    91.8210    82.5910    67.9740    25.3560     2.2460   -22.8440 
  177.0000    71.8000   118.1100   108.7870   101.3420    25.3430     2.2450   -22.3710 
  177.1250    70.1410   141.3770   131.9930   126.6220    25.3320     2.2440   -21.9360 
  177.2500    72.2990   156.0650   145.4470   129.0270    25.3270     2.2390   -21.4370 
  177.3750    75.6770   160.3330   148.0960   132.6230    25.3450     2.2340   -20.8630 
  177.5000    77.3800   155.8410   142.7470   138.9490    25.3920     2.2320   -20.2580 
  177.6250    75.2120   145.6250   132.7960   122.4660    25.4250     2.2370   -19.7270 
  177.7500    72.4710   133.9640   122.1090    85.3970    25.3660     2.2440   -19.3160 
  177.8750    71.4630   122.7920   112.5280    53.5900    25.1870     2.2520   -18.9490 
  178.0000    71.9950   113.0290   104.8980    37.8660    24.9400     2.2610   -18.5880 
  178.1250    72.7730   104.9180    99.4450    37.8140    24.8000     2.2700   -18.2230 
  178.2500    74.1270    97.7050    95.1680    47.5140    24.8520     2.2810   -17.8880 
  178.3750    76.2860    90.9530    91.3290    59.5170    25.0570     2.2940   -17.5970 
  178.5000    78.1280    84.4270    87.3930    64.7570    25.2600     2.3070   -17.3250 
  178.6250    77.8750    77.8360    83.0080    63.3570    25.2980     2.3200   -17.0390 
