~V
VERS. 2.00: Ver 2.00
~W
STRT.M 55.0000:
STOP.M 236.0000:
STEP.M 0.1250:
NULL. -999.2500:
UWI. F11015:
~C
DEPT.M :
GR.API :
RML.OHMM :
RI. :
RXO.OHMM :
CALI.CM :
DEN.GM/CC :
SP.MV :
~A
# ...
  212.5000   100.9200    14.4610    10.5500    18.5350    24.1090     2.3070   -21.1080 
  212.6250    96.8020    17.3100    12.7180    22.5690    24.1400     2.2840   -20.7630 
  212.7500    93.8930    20.4070    16.6110    24.7170    24.1410     2.2740   -20.4340 
  212.8750    93.5050    23.5520    20.8890    25.0520    24.1160     2.2780   -20.0400 
  213.0000    92.9960    26.4440    23.7530    27.0500    24.0980     2.2880   -19.5090 
  213.1250    88.5400    28.4520    25.8820    31.4560    24.1010     2.2990   -18.8540 
  213.2500    82.4200    29.1550    26.8680    36.5630    24.1000     2.3090   -18.1260 
  213.3750    79.3270    28.3290    26.4420    33.7570    24.0880     2.3160   -17.3940 
  213.5000    79.4770    26.2780    24.7820    26.7510    24.0880     2.3210   -16.7010 
  213.6250    79.2200    23.8010    22.5280    22.8710    24.1040     2.3340   -16.0660 
  213.7500    77.0540    21.6920    20.4540    21.0780    24.1150     2.3640   -15.4460 
  213.8750    73.9590    20.1380    18.7970    19.7260    24.1090     2.4050   -14.8310 
  214.0000    70.6230    19.0060    17.5110    18.9330    24.1170     2.4400   -14.2530 
  214.1250    69.2920    17.9990    16.4130    19.3400    24.1360     2.4520   -13.7520 
  214.2500    70.2950    16.8430    15.2770    18.3470    24.1180     2.4500   -13.3590 
  214.3750    71.4460    15.5190    14.0610    15.0940    24.0660     2.4420   -13.0840 
  214.5000    71.2700    14.1790    12.8540    12.5780    24.0020     2.4340   -12.8850 
  214.6250    72.1500    13.0910    11.8540    12.1460    24.0020     2.4250   -12.6810 
  214.7500    75.5110    12.3410    11.1260    12.0770    24.0650     2.4130   -12.4180 
  214.8750    78.3940    11.8870    10.6430    10.9340    24.1470     2.3920   -12.1010 
  215.0000    77.9870    11.5710    10.2820    10.1370    24.1730     2.3620   -11.7990 
  215.1250    75.3770    11.1430     9.8440    11.2290    24.1110     2.3360   -11.5320 
  215.2500    72.8660    10.4760     9.2190    12.3340    24.0460     2.3220   -11.3040 
  215.3750    70.8330     9.6170     8.4400    10.5120    23.9910     2.3230   -11.0950 
  215.5000    68.8850     8.7400     7.6460     7.2310    23.9580     2.3320   -10.8520 
  215.6250    67.1200     8.0720     7.0190     5.7280    23.9470     2.3420   -10.5730 
  215.7500    65.7530     7.6820     6.6150     5.5250    23.9410     2.3510   -10.3400 
  215.8750    65.6790     7.5590     6.4370     5.7470    23.9260     2.3590   -10.2340 
  216.0000    67.3520     7.6210     6.4400     5.9690    23.9050     2.3650   -10.2170 
  216.1250    69.1110     7.7510     6.5450     6.0760    23.8930     2.3680   -10.2420 
  216.2500    68.0110     7.8390     6.6360     6.1120    23.9230     2.3670   -10.2450 
  216.3750    65.7480     7.8530     6.6650     5.9320    23.9290     2.3610   -10.1790 
  216.5000    65.4260     7.8070     6.6250     6.0100    23.8850     2.3500   -10.0700 
  216.6250    67.3460     7.7340     6.5420     6.5070    23.7890     2.3440    -9.9790 
  216.7500    68.5160     7.6860     6.4700     7.0610    23.6920     2.3500    -9.9180 
  216.8750    69.1340     7.6940     6.4360     7.3430    23.5940     2.3600    -9.8570 
  217.0000    69.1410     7.7500     6.4390     7.2900    23.5180     2.3670    -9.7710 
  217.1250    68.1400     7.8040     6.4430     7.2810    23.5670     2.3670    -9.6460 
  217.2500    66.6270     7.8000     6.4010     7.4330    23.7210     2.3590    -9.4900 
  217.3750    64.9420     7.7230     6.2950     7.4870    23.9050     2.3380    -9.3070 
  217.5000    63.4610     7.5870     6.1360     7.2200    24.0000     2.3080    -9.1600 
  217.6250    63.4830     7.4370     5.9660     6.5360    24.0260     2.2870    -9.0890 
  217.7500    65.3250     7.3260     5.8340     6.1780    24.0200     2.2830    -9.0050 
  217.8750    65.9990     7.2720     5.7620     6.1790    24.0020     2.2940    -8.8290 
  218.0000    63.3060     7.2740     5.7490     6.2360    23.9580     2.3100    -8.5800 
  218.1250    59.7000     7.3260     5.7870     6.3000    23.9090     2.3240    -8.3270 
  218.2500    58.2720     7.4150     5.8580     6.3420    23.8650     2.3370    -8.1250 
  218.3750    58.5210     7.5430     5.9640     6.3320    23.8230     2.3520    -8.0200 
  218.5000    58.5560     7.7120     6.1030     6.2450    23.8240     2.3720    -7.9270 
  218.6250    56.8540     7.9010     6.2590     6.2770    23.8030     2.4000    -7.7480 
  218.7500    55.7940     8.0550     6.3930     6.4880    23.7800     2.4270    -7.5180 
  218.8750    56.2520     8.1180     6.4670     6.9040    23.7910     2.4440    -7.3060 
  219.0000    56.5580     8.0640     6.4530     7.3350    23.8480     2.4470    -7.1450 
  219.1250    55.8500     7.9050     6.3460     7.3710    23.8790     2.4350    -7.0260 
  219.2500    55.4430     7.7340     6.2130     6.9500    23.9010     2.4180    -6.9100 
  219.3750    56.7290     7.6410     6.1250     6.5180    23.9340     2.4040    -6.7800 
  219.5000    58.1590     7.6970     6.1420     6.4190    24.0000     2.4000    -6.6380 
  219.6250    57.3140     7.9630     6.3220     6.8430    24.0110     2.4150    -6.4770 
  219.7500    56.5200     8.3790     6.6300     7.6440    23.9710     2.4440    -6.3120 
  219.8750    56.0320     8.8680     7.0150     8.3740    23.9290     2.4780    -6.1790 
  220.0000    55.3420     9.3250     7.4060     8.4580    23.9210     2.5050    -6.0770 
  220.1250    54.3580     9.6310     7.7130     8.4500    23.9180     2.5180    -5.9820 
  220.2500    55.5710     9.7670     7.9030     8.6500    23.9100     2.5210    -5.8510 
  220.3750    58.3630     9.7660     7.9840     9.1500    23.9230     2.5120    -5.6640 
  220.5000    59.8910     9.7050     7.9970     9.4170    23.9670     2.4950    -5.4480 
  220.6250    58.2480     9.6820     8.0040     8.9560    23.9780     2.4760    -5.2830 
  220.7500    56.0870     9.7410     8.0600     8.7810    23.9750     2.4570    -5.2180 
  220.8750    55.8710     9.8770     8.1820     9.0240    23.9980     2.4400    -5.2180 
  221.0000    58.2130    10.0570     8.3560     9.7640    24.0290     2.4290    -5.1850 
  221.1250    60.0690    10.2320     8.5460    11.7500    24.0460     2.4320    -5.1100 
  221.2500    59.0650    10.3660     8.7000    14.4240    24.0280     2.4430    -5.0350 
  221.3750    57.7210    10.4450     8.7890    14.7840    23.9770     2.4560    -4.9790 
  221.5000    57.8240    10.4700     8.8100    13.2600    23.9400     2.4660    -4.9650 
  221.6250    57.3830    10.4420     8.7740    10.9570    23.9410     2.4790    -5.0180 
  221.7500    56.0910    10.3810     8.7100     9.5150    23.9660     2.4900    -5.0710 
  221.8750    56.3150    10.3000     8.6290     9.0220    23.9840     2.4950    -5.0470 
  222.0000    58.5350    10.2120     8.5410     9.2230    24.0320     2.4930    -4.9890 
  222.1250    59.0360    10.1320     8.4610     9.6940    24.0610     2.4870    -4.9310 
  222.2500    58.3440    10.0710     8.4030     9.6810    24.0830     2.4790    -4.8910 
  222.3750    58.4690    10.0430     8.3770     9.6140    24.0820     2.4700    -4.8740 
  222.5000    58.7240    10.0620     8.3910     9.6540    24.0720     2.4620    -4.8720 
  222.6250    58.9940    10.1520     8.4600     9.8390    24.0600     2.4590    -4.8770 
  222.7500    60.9970    10.3220     8.5890    10.0850    24.0310     2.4590    -4.8540 
  222.8750    61.6880    10.5750     8.7840     9.8690    23.9810     2.4630    -4.8080 
  223.0000    58.9120    10.8750     9.0290     9.6650    23.9510     2.4700    -4.7620 
  223.1250    56.7790    11.1350     9.2690     9.6650    23.9500     2.4830    -4.7330 
  223.2500    58.0720    11.2870     9.4470     9.7480    23.9440     2.5000    -4.7100 
  223.3750    59.3470    11.3230     9.5420     9.7050    23.9040     2.5180    -4.7190 
  223.5000    57.6410    11.2980     9.5840     9.5930    23.8310     2.5300    -4.7440 
  223.6250    55.7170    11.3240     9.6430     9.5270    23.6090     2.5340    -4.6900 
