~V
VERS. 2.00: Ver 2.00
~W
STRT.M 58.0000:
STOP.M 271.0000:
STEP.M 0.1250:
NULL. -999.2500:
UWI. F11072:
~C
DEPT.M :
DEN.GM/CC :
GR.API :
RML.OHMM :
RI. :
RXO.OHMM :
CALI.CM :
SP.MV :
~A
# ...
  215.5000     2.2110    60.6610    26.1180    24.9190    32.2110    24.0240   -22.3810 
  215.6250     2.2190    61.8050    26.0020    24.7460    32.6900    24.1030   -22.1380 
  215.7500     2.2250    62.4430    25.8450    24.5040    32.4460    24.1910   -21.8400 
  215.8750     2.2290    62.9170    25.5570    24.1820    31.9450    24.2490   -21.4940 
  216.0000     2.2300    62.8100    25.2150    23.8310    31.3790    24.3050   -21.0990 
  216.1250     2.2300    61.9780    25.0500    23.6060    30.7780    24.3410   -20.6540 
  216.2500     2.2360    60.3760    25.3650    23.7210    30.5810    24.3510   -20.1570 
  216.3750     2.2540    57.4140    26.5050    24.4410    30.8210    24.4010   -19.6090 
  216.5000     2.2930    53.1500    28.7110    25.9810    30.3710    24.4980   -19.0230 
  216.6250     2.3570    50.6640    31.9370    28.3760    31.0580    24.5920   -18.4210 
  216.7500     2.4280    51.0660    35.1340    30.8340    35.6960    24.7070   -17.8220 
  216.8750     2.4860    52.3330    37.0180    32.3220    46.7290    24.8320   -17.2490 
  217.0000     2.5110    52.8240    36.3470    31.7570    65.4100    24.9150   -16.7250 
  217.1250     2.4930    52.9160    32.1670    28.2240    74.1680    24.9620   -16.2710 
  217.2500     2.4500    54.0930    26.1390    23.1200    52.4200    24.9630   -15.8790 
  217.3750     2.4020    57.1820    20.1530    18.0840    29.5700    24.9220   -15.5420 
  217.5000     2.3630    61.9780    15.6310    14.2480    17.3760    24.9000   -15.2410 
  217.6250     2.3420    66.2290    13.3070    12.1240    12.8200    24.8740   -14.9410 
  217.7500     2.3390    66.9980    12.6170    11.2640    11.7540    24.8550   -14.6160 
  217.8750     2.3530    64.9900    13.2240    11.4530    12.0270    24.8650   -14.2470 
  218.0000     2.3860    63.9270    14.7910    12.4810    12.8760    24.8760   -13.8210 
  218.1250     2.4310    65.1960    16.8690    14.0650    14.4060    24.8980   -13.3240 
  218.2500     2.4730    65.5550    18.6550    15.5600    16.8780    24.9750   -12.7750 
  218.3750     2.4930    64.7680    19.4650    16.3740    20.4980    25.0540   -12.1940 
  218.5000     2.4830    63.9110    18.8590    16.0540    25.1130    25.1190   -11.6080 
  218.6250     2.4460    63.7500    16.7700    14.4430    25.5890    25.1750   -11.0580 
  218.7500     2.4030    66.0190    14.1970    12.3660    18.4000    25.2140   -10.5690 
  218.8750     2.3700    72.0370    11.9530    10.5050    10.8200    25.2660   -10.1510 
  219.0000     2.3540    79.4110    10.5310     9.2570     8.2210    25.3400    -9.8100 
  219.1250     2.3560    84.2200    10.1710     8.8290     8.4870    25.3210    -9.5540 
  219.2500     2.3700    86.9310    10.5560     9.0180     9.2500    25.2520    -9.3590 
  219.3750     2.3900    87.5410    11.4630     9.6870     9.4940    25.1850    -9.2030 
  219.5000     2.4110    85.2180    12.6270    10.6500     9.4800    25.1250    -9.0650 
  219.6250     2.4290    80.2810    13.6410    11.5960    10.2040    25.1010    -8.9190 
  219.7500     2.4380    75.7530    14.1040    12.1580    11.7770    25.0820    -8.7430 
  219.8750     2.4350    73.1360    13.7340    12.0550    13.1460    25.0270    -8.5280 
  220.0000     2.4220    73.2080    12.4750    11.1770    14.2150    24.9690    -8.2770 
  220.1250     2.4020    74.5510    10.5400     9.6430    12.7660    24.8920    -7.9930 
  220.2500     2.3840    71.7020     8.5790     8.0010     9.9540    24.8080    -7.7040 
  220.3750     2.3700    64.7570     7.0120     6.6130     7.1140    24.7690    -7.4330 
  220.5000     2.3620    57.3600     6.0240     5.6560     5.5160    24.7650    -7.1920 
  220.6250     2.3570    54.9230     5.6510     5.1970     5.0020    24.7370    -6.9980 
  220.7500     2.3550    56.1190     5.6350     5.0680     4.9880    24.7230    -6.8600 
  220.8750     2.3570    60.2890     5.8110     5.1570     5.0860    24.6820    -6.7810 
  221.0000     2.3610    66.1250     6.0360     5.3520     5.1370    24.6420    -6.7630 
  221.1250     2.3650    69.2490     6.1850     5.5400     5.2060    24.7590    -6.8080 
  221.2500     2.3650    69.7110     6.2140     5.6510     5.2910    24.8790    -6.8860 
  221.3750     2.3600    70.1500     6.1400     5.6690     5.3650    24.9330    -6.9850 
  221.5000     2.3490    72.7940     6.0230     5.6230     5.3760    24.9680    -7.0970 
  221.6250     2.3370    76.3810     5.9740     5.5820     5.3440    24.9860    -7.2130 
  221.7500     2.3270    78.4850     6.0820     5.6220     5.3300    25.0000    -7.3240 
  221.8750     2.3220    78.0900     6.3850     5.7870     5.4760    25.0540    -7.4210 
  222.0000     2.3220    74.6880     6.8640     6.0820     5.8300    25.0990    -7.4880 
  222.1250     2.3270    69.4540     7.4210     6.4710     6.5170    25.1460    -7.5080 
  222.2500     2.3320    66.0900     7.8920     6.8450     7.2680    25.2050    -7.4770 
  222.3750     2.3350    66.7070     8.1590     7.1120     7.7330    25.2170    -7.3960 
  222.5000     2.3370    69.3230     8.1710     7.2010     7.7570    25.2010    -7.2660 
  222.6250     2.3400    69.9740     7.9440     7.0730     7.4520    25.2030    -7.0930 
  222.7500     2.3440    69.8700     7.6450     6.8250     7.0800    25.1590    -6.8980 
  222.8750     2.3500    71.4830     7.3970     6.5530     6.7920    25.1190    -6.6920 
  223.0000     2.3570    74.0510     7.2790     6.3390     6.6660    25.1080    -6.4910 
  223.1250     2.3640    75.3590     7.3420     6.2530     6.7370    25.0680    -6.3360 
  223.2500     2.3670    76.7110     7.5700     6.3030     7.1190    25.0710    -6.2460 
  223.3750     2.3650    78.7800     8.0120     6.5220     7.9120    25.1060    -6.2260 
  223.5000     2.3530    80.9990     8.7960     6.9840     8.8590    25.1070    -6.2770 
  223.6250     2.3330    81.4230    10.2880     7.9190     8.7450    25.1060    -6.4080 
  223.7500     2.3080    79.7960    12.7290     9.5030     9.6390    25.1040    -6.5900 
  223.8750     2.2830    76.9710    16.4030    11.9990    12.2870    25.1080    -6.8090 
  224.0000     2.2620    73.2760    21.4540    15.6450    17.3530    25.1650    -7.0500 
  224.1250     2.2490    68.4810    27.8870    20.6960    24.4770    25.2300    -7.2920 
  224.2500     2.2440    63.2100    34.8960    26.6260    32.9190    25.2740    -7.5220 
  224.3750     2.2440    60.1240    41.6960    32.7840    40.3380    25.3110    -7.7360 
  224.5000     2.2450    59.7670    47.5260    38.3560    45.8290    25.3040    -7.9290 
  224.6250     2.2440    60.4630    51.7260    42.4590    48.4760    25.2820    -8.0990 
  224.7500     2.2420    60.4260    54.6450    45.2270    49.4540    25.2640    -8.2510 
  224.8750     2.2410    58.5650    56.5430    46.9180    50.2260    25.2170    -8.3860 
  225.0000     2.2430    56.3320    57.5000    47.7130    50.6180    25.1720    -8.5080 
  225.1250     2.2450    57.2020    57.2930    47.5310    51.4750    25.1660    -8.6120 
  225.2500     2.2470    58.8480    56.1720    46.6210    54.7770    25.1400    -8.6860 
  225.3750     2.2480    59.0820    54.4380    45.2310    57.6010    25.1320    -8.7440 
  225.5000     2.2470    58.3410    52.4880    43.6830    54.0700    25.1440    -8.7810 
  225.6250     2.2470    59.4270    50.7050    42.3160    46.0860    25.1220    -8.7870 
  225.7500     2.2470    60.7030    49.2070    41.2630    43.4870    25.1260    -8.7740 
  225.8750     2.2500    60.0770    48.0150    40.5630    43.7590    25.1290    -8.7510 
  226.0000     2.2540    58.2340    47.1790    40.2340    43.3260    25.0870    -8.7190 
  226.1250     2.2570    57.5330    46.9040    40.3870    39.8490    25.0940    -8.6800 
  226.2500     2.2570    58.1930    47.2020    40.9770    36.5350    25.1040    -8.6420 
  226.3750     2.2520    58.4610    47.9800    41.9170    37.3440    25.0880    -8.5950 
  226.5000     2.2430    57.3770    48.8670    42.9270    41.0530    25.0900    -8.5400 
  226.6250     2.2350    55.4220    49.0160    43.3420    44.6030    25.0750    -8.4910 
