~V
VERS. 2.00: Ver 2.00
~W
STRT.M 55.0000:
STOP.M 286.0000:
STEP.M 0.1250:
NULL. -999.2500:
UWI. F11067:
~C
DEPT.M :
GR.API :
RML.OHMM :
RI. :
RXO.OHMM :
CALI.CM :
DEN.GM/CC :
SP.MV :
~A
# ...
  100.0000    81.7860     9.5580     7.6360     8.3900    24.6980     2.2500    -1.8470 
  100.1250    84.0010     8.9660     7.1980     8.2160    24.6930     2.2300    -1.9240 
  100.2500    84.8630     8.6980     7.0060     7.9410    24.6940     2.2320    -1.9540 
  100.3750    85.9500     8.6110     6.9530     7.6090    24.6950     2.2420    -1.9500 
  100.5000    87.5960     8.5930     6.9590     7.2960    24.6990     2.2530    -1.8870 
  100.6250    89.3830     8.5790     6.9860     7.0860    24.6990     2.2620    -1.7900 
  100.7500    90.7990     8.5530     7.0270     7.1040    24.7030     2.2700    -1.6780 
  100.8750    91.2830     8.5260     7.0770     7.2870    24.7350     2.2790    -1.5470 
  101.0000    93.0290     8.5050     7.1190     7.3200    24.8160     2.2860    -1.4150 
  101.1250    96.2090     8.4820     7.1230     7.2660    24.9170     2.2850    -1.2920 
  101.2500    96.9900     8.4410     7.0810     7.1600    24.9670     2.2780    -1.2100 
  101.3750    94.8450     8.3750     6.9990     7.1430    24.9960     2.2670    -1.1560 
  101.5000    92.1570     8.2890     6.9030     7.1470    25.0120     2.2580    -1.1530 
  101.6250    90.1970     8.2050     6.8260     7.1790    25.0320     2.2580    -1.1470 
  101.7500    87.2250     8.1450     6.7840     7.2010    25.0550     2.2660    -1.1450 
  101.8750    84.0380     8.1140     6.7710     7.1460    25.0760     2.2750    -1.1510 
  102.0000    82.5480     8.1050     6.7740     7.0120    25.1040     2.2800    -1.1740 
  102.1250    82.0960     8.0950     6.7650     7.0270    25.1320     2.2730    -1.2000 
  102.2500    80.8260     8.0720     6.7360     6.9650    25.1570     2.2580    -1.2170 
  102.3750    79.1150     8.0350     6.6900     6.8910    25.1710     2.2410    -1.2200 
  102.5000    78.2360     7.9960     6.6450     6.8800    25.1530     2.2260    -1.2140 
  102.6250    79.2390     7.9640     6.6120     7.0360    25.0690     2.2190    -1.2080 
  102.7500    79.5260     7.9400     6.5950     7.1120    24.9620     2.2180    -1.2160 
  102.8750    79.1130     7.9190     6.5880     7.1440    24.9310     2.2200    -1.2510 
  103.0000    80.6740     7.8910     6.5920     7.2130    24.9420     2.2230    -1.3000 
  103.1250    85.6220     7.8530     6.5950     7.2950    24.9560     2.2270    -1.3600 
  103.2500    89.9700     7.8130     6.5950     7.2790    24.9560     2.2300    -1.4210 
  103.3750    90.7690     7.7840     6.5910     7.2190    24.9580     2.2340    -1.5020 
  103.5000    87.6310     7.7710     6.5880     7.1730    24.9570     2.2380    -1.5960 
  103.6250    82.8080     7.7780     6.5820     7.2160    24.9560     2.2370    -1.7160 
  103.7500    78.6110     7.7970     6.5700     7.2060    24.9580     2.2310    -1.8410 
  103.8750    77.7040     7.8150     6.5430     7.1750    24.9570     2.2210    -1.9790 
  104.0000    80.8100     7.8150     6.4890     7.1550    24.9580     2.2100    -2.1220 
  104.1250    83.8770     7.7680     6.3850     7.1860    24.9570     2.2050    -2.2920 
  104.2500    84.7450     7.6730     6.2500     7.1550    24.9450     2.2060    -2.4900 
  104.3750    85.6470     7.5570     6.1260     7.0720    24.9190     2.2150    -2.7220 
  104.5000    87.7190     7.4860     6.0930     7.0030    24.8740     2.2310    -2.9860 
  104.6250    88.2930     7.5710     6.2470     6.9800    24.7470     2.2610    -3.3070 
  104.7500    85.8280     7.8300     6.5620     7.3170    24.5700     2.2990    -3.6650 
  104.8750    81.3790     8.2220     6.9660     8.7190    24.4460     2.3360    -4.0500 
  105.0000    76.5870     8.6750     7.3900    11.9160    24.4300     2.3600    -4.4450 
  105.1250    73.6970     9.1590     7.8540    14.2260    24.4470     2.3670    -4.8490 
  105.2500    72.0300     9.7380     8.4660    12.8190    24.4380     2.3770    -5.2290 
  105.3750    69.8260    10.5180     9.3110    10.7160    24.4330     2.4000    -5.5690 
  105.5000    67.1940    11.5410    10.3690    11.1400    24.4400     2.4290    -5.8670 
  105.6250    67.7410    12.6370    11.3590    15.9620    24.4790     2.4360    -6.1060 
  105.7500    69.3200    13.3920    11.8250    21.9100    24.5070     2.4020    -6.3090 
  105.8750    68.2910    13.4510    11.4980    19.8350    24.4930     2.3350    -6.4830 
  106.0000    63.7420    12.7200    10.5290    13.0730    24.4650     2.2590    -6.6490 
  106.1250    59.3010    11.4550     9.4040    10.6940    24.4510     2.2040    -6.7830 
  106.2500    60.4480    10.2730     8.5670    10.1430    24.4490     2.1740    -6.8700 
  106.3750    65.7240     9.5200     8.1570    10.3040    24.4490     2.1630    -6.9380 
  106.5000    69.7830     9.2970     8.1450    10.6520    24.4510     2.1630    -6.9450 
  106.6250    70.6650     9.5100     8.3800    10.9420    24.4810     2.1750    -6.8890 
  106.7500    72.2550     9.8180     8.5840    11.0220    24.5450     2.1970    -6.7820 
  106.8750    75.8920     9.9990     8.6040    10.7670    24.6190     2.2270    -6.5930 
  107.0000    78.8700     9.9350     8.3980    10.0260    24.6720     2.2580    -6.3630 
  107.1250    79.5770     9.6150     8.0130     8.9990    24.6970     2.2810    -6.1260 
  107.2500    79.9550     9.2090     7.6100     8.4390    24.7180     2.2930    -5.9430 
  107.3750    79.8950     8.8550     7.3050     8.0230    24.7310     2.2970    -5.8160 
  107.5000    77.6830     8.6620     7.1710     8.1040    24.7250     2.2960    -5.7890 
  107.6250    74.1190     8.6960     7.2420     8.1120    24.6950     2.2850    -5.8640 
  107.7500    73.2520     8.8590     7.4170     9.0060    24.6510     2.2610    -6.0200 
  107.8750    73.9980     9.0520     7.6160    10.1510    24.5880     2.2290    -6.2730 
  108.0000    71.4730     9.2280     7.8450    11.2760    24.5270     2.2030    -6.5710 
  108.1250    65.4520     9.5200     8.3020    12.1740    24.5080     2.2170    -6.8720 
  108.2500    62.2690    10.2020     9.2220    13.1320    24.5340     2.2800    -7.1500 
  108.3750    62.4980    11.5710    10.8340    17.4260    24.6100     2.3810    -7.3790 
  108.5000    62.8830    13.8000    13.2450    31.8070    24.7250     2.4910    -7.5630 
  108.6250    61.9890    16.7110    16.1250    78.1820    24.8660     2.5690    -7.6990 
  108.7500    61.4420    19.2810    18.1860    95.0240    24.9380     2.6000    -7.7980 
  108.8750    60.8380    20.4350    18.2520    55.9380    24.8990     2.5850    -7.8700 
  109.0000    60.0220    19.5810    16.3200    21.8360    24.7600     2.5320    -7.9420 
  109.1250    60.3970    16.9760    13.5530    14.3080    24.5870     2.4540    -8.0390 
  109.2500    61.4150    14.0940    11.1720    12.1710    24.4950     2.3690    -8.1450 
  109.3750    61.1770    11.7930     9.4900    12.0390    24.4970     2.2940    -8.2720 
  109.5000    59.6680    10.3740     8.4790    12.0570    24.5300     2.2380    -8.3940 
  109.6250    59.1600     9.8270     8.0760    12.1160    24.5570     2.2050    -8.5230 
  109.7500    60.5810     9.7890     8.0890    12.1770    24.5770     2.1920    -8.6380 
  109.8750    61.8300    10.1210     8.4650    12.1940    24.5880     2.2060    -8.7470 
  110.0000    61.7820    10.7470     9.1490    12.3200    24.5910     2.2480    -8.8370 
  110.1250    62.3590    11.5910    10.0220    13.2790    24.6030     2.3050    -8.9060 
  110.2500    65.0320    12.4130    10.8060    17.4170    24.6120     2.3440    -8.9490 
  110.3750    67.9690    12.9470    11.2170    25.3800    24.5680     2.3450    -8.9770 
  110.5000    68.5260    12.9680    11.0800    24.2380    24.4820     2.3060    -8.9870 
  110.6250    68.0600    12.3690    10.4370    15.1580    24.4390     2.2480    -8.9670 
  110.7500    69.4040    11.4890     9.6780    11.2510    24.4280     2.2030    -8.9340 
  110.8750    70.5850    10.6390     9.0400    10.2760    24.4350     2.1810    -8.9000 
  111.0000    69.0070    10.0460     8.6490    10.4500    24.4460     2.1800    -8.8620 
  111.1250    66.2640     9.8190     8.5390    10.7210    24.4740     2.1870    -8.8100 
