~V
VERS. 2.00: Ver 2.00
~W
STRT.M 55.0000:
STOP.M 286.0000:
STEP.M 0.1250:
NULL. -999.2500:
UWI. F11067:
~C
DEPT.M :
GR.API :
RML.OHMM :
RI. :
RXO.OHMM :
CALI.CM :
DEN.GM/CC :
SP.MV :
~A
# ...
  235.0000    61.8440   112.1860   112.1180   148.6880    25.0880     2.1970    -1.7450 
  235.1250    61.1580   122.3460   121.3450   148.3070    25.0780     2.1990    -1.8330 
  235.2500    60.7310   131.4560   128.3470   137.9200    25.0770     2.2040    -1.9250 
  235.3750    60.6550   138.2830   132.7090   133.5820    25.0790     2.2090    -1.9970 
  235.5000    60.9540   142.6530   135.0790   139.2360    25.0800     2.2140    -2.0600 
  235.6250    61.3050   145.0780   136.3960   145.9410    25.0800     2.2210    -2.1090 
  235.7500    62.7380   146.6690   137.2560   146.9700    25.0790     2.2300    -2.1480 
  235.8750    64.2140   147.5980   137.3630   140.9920    25.0760     2.2400    -2.1810 
  236.0000    63.3240   147.5940   136.2860   140.6850    25.0700     2.2460    -2.1910 
  236.1250    59.3750   146.0620   133.6330   139.0490    25.0540     2.2480    -2.1740 
  236.2500    56.2310   143.1220   129.7380   136.6150    25.0360     2.2470    -2.1610 
  236.3750    57.0340   138.9470   124.8170   130.1920    25.0260     2.2490    -2.1550 
  236.5000    59.8120   133.8720   119.2350   123.2760    25.0210     2.2570    -2.1310 
  236.6250    60.8280   128.3720   113.5640   117.8960    25.0110     2.2680    -2.1020 
  236.7500    59.8520   123.1140   108.4190   111.5240    24.9810     2.2680    -2.0680 
  236.8750    58.8570   118.6220   104.3030   106.4180    24.9440     2.2510    -2.0140 
  237.0000    60.3900   115.4450   101.8900   105.5020    24.9200     2.2250    -1.9420 
  237.1250    63.5520   114.8120   102.8420   109.0240    24.9160     2.2210    -1.8760 
  237.2500    65.3950   117.6690   108.3940   108.9070    24.9150     2.2650    -1.7880 
  237.3750    64.6620   125.6790   120.6220   105.9820    24.8960     2.3610    -1.6720 
  237.5000    62.3450   141.1150   142.2580   113.1950    24.8350     2.4840    -1.5420 
  237.6250    59.3460   169.1080   178.6360   163.0830    24.7330     2.5960    -1.3880 
  237.7500    56.3600   208.2000   226.1270   291.8150    24.6720     2.6760    -1.2240 
  237.8750    56.3700   246.4960   267.9550   441.8820    24.6510     2.7270    -1.0390 
  238.0000    59.8570   259.3170   267.3300   475.1490    24.6440     2.7540    -0.8590 
  238.1250    64.3480   221.1520   197.7830   369.1640    24.6360     2.7400    -0.6400 
  238.2500    66.6850   154.7250   116.9760   229.7000    24.6220     2.6720    -0.3940 
  238.3750    66.7170    90.6680    60.5620   107.4210    24.6160     2.5460    -0.1410 
  238.5000    63.9670    47.6810    30.3010    37.7160    24.6230     2.3940     0.1170 
  238.6250    56.7890    27.1250    17.7180    15.8270    24.6620     2.2720     0.3790 
  238.7500    48.7610    16.8470    11.9050     9.6520    24.7640     2.2140     0.6550 
  238.8750    44.1190    11.8490     9.2320     8.2600    24.9630     2.2140     0.9040 
  239.0000    43.2830     9.5160     8.0850     8.0730    25.1580     2.2420     1.1390 
  239.1250    44.9120     8.6430     7.7880     7.8710    25.1390     2.2680     1.3580 
  239.2500    47.7780     8.3480     7.7340     7.7900    25.0760     2.2800     1.5580 
  239.3750    50.1590     8.2360     7.6510     7.3140    25.0020     2.2870     1.7520 
  239.5000    49.6160     8.0210     7.4550     6.6250    24.8340     2.2960     1.9410 
  239.6250    46.8190     7.6510     7.2200     6.1960    24.7410     2.3130     2.1050 
  239.7500    46.0960     7.3210     7.0640     6.3100    24.7250     2.3320     2.1960 
  239.8750    47.4570     7.1550     7.0520     6.7000    24.7770     2.3480     2.2660 
  240.0000    48.1560     7.2100     7.1960     7.1360    24.8570     2.3630     2.3220 
  240.1250    48.3190     7.4860     7.4630     7.6160    24.8640     2.3790     2.3260 
  240.2500    49.6460     7.8590     7.7390     7.8720    24.8200     2.3980     2.3110 
  240.3750    51.8430     8.2250     7.9330     8.1910    24.7690     2.4160     2.2630 
  240.5000    53.9460     8.4940     7.9810     8.4060    24.7310     2.4240     2.1820 
  240.6250    56.1990     8.5790     7.8400     8.3000    24.6820     2.4200     2.1010 
  240.7500    60.0960     8.5000     7.5790     7.9600    24.6520     2.4150     2.0470 
  240.8750    63.6680     8.2950     7.2640     7.8540    24.6230     2.4140     2.0140 
  241.0000    63.9870     8.0570     6.9670     7.8610    24.5700     2.4210     1.9770 
  241.1250    62.0110     7.8450     6.7710     7.8110    24.5480     2.4270     1.9530 
  241.2500    62.3550     7.5910     6.7060     7.6400    24.5480     2.4240     1.9430 
  241.3750    65.4410     7.3300     6.7730     7.3680    24.5970     2.4090     1.9260 
  241.5000    69.5290     7.2290     6.9470     7.4280    24.7250     2.3860     1.9280 
  241.6250    73.0060     7.4220     7.1860     7.9890    24.8860     2.3660     1.9200 
  241.7500    76.8220     7.7300     7.4320     9.0640    24.9790     2.3560     1.9120 
  241.8750    83.4590     8.0040     7.6490     9.4940    24.9850     2.3620     1.9250 
  242.0000    92.7370     8.2270     7.8220     9.4390    24.9710     2.3800     1.9520 
  242.1250   101.7640     8.3930     7.9390     9.6480    24.9620     2.4050     1.9780 
  242.2500   106.7990     8.5180     8.0130     9.8670    24.9580     2.4270     1.9960 
  242.3750   109.8790     8.6010     8.0390     9.9610    24.9570     2.4430     2.0130 
  242.5000   114.3330     8.6320     8.0040    10.0420    24.9620     2.4510     2.0210 
  242.6250   119.4740     8.5800     7.8790    10.2160    24.9630     2.4480     2.0160 
  242.7500   123.8310     8.4480     7.6880    10.0960    24.9640     2.4370     2.0110 
  242.8750   124.6330     8.2580     7.4750     9.6650    24.9650     2.4230     1.9980 
  243.0000   121.8210     8.0630     7.2950     9.2110    24.9620     2.4130     1.9720 
  243.1250   119.4570     7.9560     7.2220     9.0510    24.9610     2.4140     1.9420 
  243.2500   119.0760     7.9810     7.2690     9.0760    24.9610     2.4240     1.9020 
  243.3750   118.8530     8.1400     7.4220     9.3150    24.9510     2.4370     1.8760 
  243.5000   116.5660     8.3860     7.6440     9.8010    24.9240     2.4460     1.8680 
  243.6250   115.4600     8.6360     7.8660    10.4600    24.8590     2.4490     1.8630 
  243.7500   116.2050     8.8270     8.0460    10.6090    24.8130     2.4500     1.8530 
  243.8750   116.2230     8.9630     8.2000    10.1450    24.7670     2.4530     1.8290 
  244.0000   114.9410     9.0990     8.3840    10.0390    24.7120     2.4570     1.8010 
  244.1250   113.4900     9.3240     8.6610    10.1820    24.6720     2.4600     1.7770 
  244.2500   111.0730     9.6560     9.0060    10.7430    24.7950     2.4560     1.7760 
  244.3750   107.4270    10.0470     9.3420    11.9210    24.8940     2.4440     1.7610 
  244.5000   106.1580    10.3930     9.5490    13.4620    24.9420     2.4250     1.7150 
  244.6250   107.7820    10.5320     9.4730    12.5990    24.9550     2.4020     1.6890 
  244.7500   107.4950    10.4150     9.1510    11.1580    24.9580     2.3830     1.6670 
  244.8750   105.0640    10.0590     8.6670    10.8110    24.9580     2.3700     1.6460 
  245.0000   104.7680     9.5630     8.1510    10.6570    24.9590     2.3650     1.6290 
  245.1250   107.2370     9.1130     7.8100    10.2230    24.9570     2.3700     1.6050 
  245.2500   106.3990     8.8980     7.7650     9.4520    24.9560     2.3840     1.5400 
  245.3750   103.9510     9.0500     8.0800     9.2650    24.9560     2.4030     1.4750 
  245.5000   103.1860     9.6330     8.7730    10.0160    24.9560     2.4190     1.4420 
  245.6250   102.3680    10.6690     9.8630    13.6250    24.9560     2.4220     1.3890 
  245.7500    97.4860    11.9090    11.1140    18.3120    24.9540     2.4130     1.3310 
  245.8750    90.1550    13.0860    12.2460    17.1410    24.9590     2.3970     1.2660 
  246.0000    84.7470    13.9220    12.9840    15.2670    24.9720     2.3810     1.1920 
  246.1250    81.7900    14.1670    13.1350    16.3960    25.0000     2.3690     1.1290 
