~V
VERS. 2.00: Ver 2.00
~W
STRT.M 49.0000:
STOP.M 284.0000:
STEP.M 0.1250:
NULL. -999.2500:
UWI. F11034:
~C
DEPT.M :
GR.API :
RML.OHMM :
RI. :
RXO.OHMM :
CALI.CM :
DEN.GM/CC :
SP.MV :
~A
# ...
   82.7500    60.5480     9.4800     7.8980     8.9560    23.4500     2.1800   -17.6050 
   82.8750    63.4140     8.7420     7.3020     8.8680    23.5710     2.1970   -17.4640 
   83.0000    66.6570     8.0120     6.6870     8.6770    23.7920     2.2020   -17.2370 
   83.1250    70.0820     7.6230     6.2630     8.3600    24.0830     2.1920   -17.0150 
   83.2500    72.2570     7.9480     6.2580     8.1620    24.2510     2.1740   -16.8930 
   83.3750    70.0120     9.3470     6.9140     8.8170    24.1680     2.1640   -16.8930 
   83.5000    62.6770    12.1910     8.5710    12.3640    24.0470     2.1860   -16.9960 
   83.6250    55.7920    16.0330    11.1110    20.3700    24.1270     2.2460   -17.2060 
   83.7500    52.6070    19.9340    14.0580    31.3230    24.3260     2.3290   -17.5500 
   83.8750    52.7700    22.6230    16.5950    42.4160    24.4240     2.4010   -18.0580 
   84.0000    54.3520    22.4840    17.4110    47.6320    24.2870     2.4170   -18.6880 
   84.1250    56.4380    19.6490    16.1380    38.7420    23.9330     2.3730   -19.3200 
   84.2500    58.1180    15.5220    13.5170    23.0260    23.3980     2.3000   -19.8890 
   84.3750    58.2480    11.7660    10.7810    12.9050    22.9580     2.2310   -20.3850 
   84.5000    58.0690     9.4290     8.8120     9.7160    22.7790     2.1860   -20.7910 
   84.6250    58.4620     8.3090     7.6420     8.9930    22.8430     2.1640   -21.1020 
   84.7500    58.9910     7.9720     7.0730     8.8290    22.9890     2.1550   -21.3140 
   84.8750    58.7490     8.0380     6.8930     8.7480    23.0880     2.1520   -21.4320 
   85.0000    57.2490     8.2220     6.9210     8.6620    23.1110     2.1480   -21.4620 
   85.1250    55.7300     8.3620     6.9980     8.5910    23.0950     2.1450   -21.4220 
   85.2500    55.1000     8.4180     7.0520     8.5430    23.0450     2.1440   -21.3040 
   85.3750    55.8990     8.4130     7.0650     8.5120    22.9590     2.1460   -21.1070 
   85.5000    58.4110     8.3780     7.0410     8.4820    22.8840     2.1490   -20.8780 
   85.6250    60.8170     8.3340     6.9930     8.4540    22.8210     2.1540   -20.6580 
   85.7500    61.3600     8.2860     6.9290     8.4270    22.7810     2.1570   -20.4390 
   85.8750    59.4950     8.2380     6.8550     8.3590    22.7560     2.1600   -20.1850 
   86.0000    57.1790     8.2050     6.7820     8.2400    22.7030     2.1630   -19.8920 
   86.1250    56.0230     8.2020     6.7250     8.1160    22.5990     2.1660   -19.6110 
   86.2500    55.1430     8.2420     6.6970     8.0380    22.4910     2.1720   -19.3920 
   86.3750    54.1750     8.3300     6.7070     8.0430    22.4310     2.1800   -19.2260 
   86.5000    54.3170     8.4640     6.7610     8.1750    22.4150     2.1900   -19.0720 
   86.6250    56.8640     8.6280     6.8460     8.3370    22.4140     2.1990   -18.9150 
   86.7500    60.2220     8.7960     6.9450     8.4360    22.4200     2.2080   -18.7650 
   86.8750    61.7530     8.9330     7.0300     8.4100    22.4470     2.2170   -18.6260 
   87.0000    60.9920     8.9740     7.0560     8.2290    22.5140     2.2260   -18.4850 
   87.1250    59.7710     8.8880     6.9990     8.0330    22.5820     2.2340   -18.3090 
   87.2500    59.6560     8.6780     6.8540     7.8270    22.6150     2.2370   -18.0980 
   87.3750    60.6620     8.3950     6.6500     7.4930    22.6220     2.2360   -17.8930 
   87.5000    63.3580     8.1460     6.4560     7.1100    22.6140     2.2250   -17.7540 
   87.6250    67.2250     8.0310     6.3390     6.9060    22.5930     2.2070   -17.6890 
   87.7500    70.1560     8.0940     6.3390     6.9800    22.5690     2.1870   -17.6630 
   87.8750    70.1150     8.3170     6.4540     7.2750    22.5550     2.1680   -17.6410 
   88.0000    67.4040     8.6140     6.6470     7.4910    22.5540     2.1540   -17.6430 
   88.1250    63.9980     8.8540     6.8340     7.5620    22.5600     2.1470   -17.6790 
   88.2500    60.2510     8.9450     6.9470     7.5450    22.5880     2.1490   -17.6950 
   88.3750    57.5060     8.8540     6.9420     7.5000    22.6710     2.1600   -17.6550 
   88.5000    58.8050     8.5930     6.8020     7.4620    22.8000     2.1800   -17.5400 
   88.6250    63.1360     8.2600     6.5810     7.4110    22.9330     2.2050   -17.3650 
   88.7500    67.2730     7.9390     6.3340     7.3360    23.0100     2.2280   -17.1720 
   88.8750    69.7270     7.6930     6.1130     7.2710    23.0290     2.2450   -17.0150 
   89.0000    71.8800     7.5670     5.9660     7.2890    23.0080     2.2470   -16.9260 
   89.1250    72.4460     7.5450     5.9020     7.3890    22.9530     2.2360   -16.9180 
   89.2500    69.7880     7.5940     5.9120     7.5520    22.8710     2.2150   -17.0110 
   89.3750    64.0760     7.6890     5.9830     7.6820    22.7510     2.1940   -17.1750 
   89.5000    57.7590     7.8340     6.1220     7.7190    22.6680     2.1800   -17.3310 
   89.6250    54.3660     8.0680     6.3440     7.7750    22.6580     2.1760   -17.4190 
   89.7500    55.2270     8.4370     6.6780     7.9660    22.7370     2.1800   -17.4100 
   89.8750    58.6970     8.9450     7.1350     8.4470    22.9010     2.1910   -17.3140 
   90.0000    61.9820     9.5090     7.6610     9.2220    23.1300     2.2070   -17.1050 
   90.1250    63.1790     9.9520     8.1290    10.1960    23.3450     2.2240   -16.7500 
   90.2500    62.2980    10.1060     8.3970    11.0080    23.3970     2.2370   -16.2680 
   90.3750    59.5460     9.8780     8.3680    10.8140    23.2500     2.2370   -15.6880 
   90.5000    56.3760     9.2850     8.0080    10.0770    23.0190     2.2240   -15.0200 
   90.6250    54.9030     8.5540     7.4710     9.4640    22.9260     2.2070   -14.2770 
   90.7500    57.0360     7.8990     6.9200     9.0160    23.0220     2.1970   -13.4700 
   90.8750    62.2510     7.4410     6.4680     8.5420    23.3480     2.1980   -12.6200 
   91.0000    69.2420     7.2200     6.1700     7.9290    23.8850     2.2100   -11.7940 
   91.1250    77.3610     7.1330     5.9830     7.3020    24.4470     2.2240   -11.0440 
   91.2500    84.2480     7.0720     5.8440     6.9250    24.8730     2.2340   -10.3710 
   91.3750    87.5770     6.9510     5.6960     6.8190    25.0910     2.2390    -9.7950 
   91.5000    88.3130     6.7270     5.5120     6.7620    25.1680     2.2430    -9.4040 
   91.6250    90.1750     6.4670     5.3230     6.6300    25.2240     2.2520    -9.2440 
   91.7500    92.9900     6.3160     5.2140     6.4820    25.2760     2.2700    -9.3160 
   91.8750    93.2420     6.4660     5.2980     6.5240    25.2770     2.2990    -9.5780 
   92.0000    90.3240     7.1270     5.7180     7.4960    25.2130     2.3350   -10.0020 
   92.1250    84.6330     8.2260     6.4410     9.8650    25.1180     2.3680   -10.5810 
   92.2500    77.5640     9.5160     7.3370    13.1960    24.9360     2.3820   -11.3060 
   92.3750    72.8820    10.6330     8.1880    16.3850    24.5730     2.3690   -12.1210 
   92.5000    72.0130    11.1010     8.6720    17.6260    24.0160     2.3270   -12.9510 
   92.6250    71.3430    10.8440     8.6820    14.2830    23.5320     2.2780   -13.7600 
   92.7500    70.0780    10.1110     8.3310    10.6910    23.2290     2.2360   -14.5500 
   92.8750    71.2400     9.3240     7.8760     9.1420    23.0870     2.2100   -15.3170 
   93.0000    74.5580     8.8990     7.6000     8.9000    23.0500     2.1990   -15.9970 
   93.1250    74.8800     8.8930     7.5780     9.1000    23.0520     2.1960   -16.5230 
   93.2500    71.9510     9.1620     7.7500     9.4330    23.0760     2.1940   -16.8930 
   93.3750    69.5440     9.4960     7.9980     9.7160    23.0930     2.1890   -17.1680 
   93.5000    67.8670     9.7030     8.1890     9.8550    23.0740     2.1800   -17.3860 
   93.6250    66.4200     9.7380     8.2700     9.9010    23.0270     2.1690   -17.5390 
   93.7500    65.6180     9.6420     8.2470     9.8860    23.0100     2.1590   -17.5960 
   93.8750    65.6830     9.4900     8.1590     9.8000    23.0650     2.1520   -17.5490 
