~V
VERS. 2.00: Ver 2.00
~W
STRT.M 50.0000:
STOP.M 229.0000:
STEP.M 0.1250:
NULL. -999.2500:
UWI. F11009:
~C
DEPT.M :
DEN.GM/CC :
GR.API :
RML.OHMM :
RI. :
RXO.OHMM :
CALI.CM :
SP.MV :
~A
# ...
   61.2500     2.0070    57.5000     0.2350     0.3230     0.2300    25.8060   134.4050 
   61.3750     2.0040    57.6060     4.3640     0.3230     0.2300    25.8080   129.7660 
   61.5000     2.0040    56.7840   -23.4100     0.3250     0.2300    25.8060   125.2710 
   61.6250     2.0130    54.9710    61.2920     0.3300     0.2300    25.7970   120.9310 
   61.7500     2.0300    53.6080   365.0130     0.3350     0.2300    25.7920   116.6270 
   61.8750     2.0520    53.1220   621.2950     0.3360     0.2300    25.7890   112.5150 
   62.0000     2.0710    52.6560   525.2920     0.3270     0.2300    25.7860   108.6610 
   62.1250     2.0820    52.0080   181.3620     0.2990     0.2300    25.7820   105.1280 
   62.2500     2.0940    52.6070    -4.9610     0.2560     0.2300    25.7870   101.6960 
   62.3750     2.1300    54.7670    -3.6260     0.2080     0.2310    25.7920    98.1880 
   62.5000     2.2160    57.2820     0.3000     0.1670     0.2360    25.7930    94.3660 
   62.6250     2.3680    56.2340    -0.3130     0.1400     0.2770    25.7950    89.6930 
   62.7500     2.5340    51.6570    -0.3690     0.1280     0.3920    25.8120    83.7570 
   62.8750     2.6430    48.0090    -0.3020     0.1370     0.6650    25.8570    75.9260 
   63.0000     2.6340    48.9610    -0.1290     0.1910     1.2560    26.0390    66.1260 
   63.1250     2.4740    54.6200     0.2480     0.3560     2.2780    26.6660    55.0900 
   63.2500     2.2450    61.7780     0.8820     0.6830     3.4570    27.9530    43.9880 
   63.3750     2.0250    67.7630     1.7860     1.2170     4.7130    29.8070    33.1740 
   63.5000     1.8710    69.6810     2.8350     1.9440     5.8530    31.9910    22.8680 
   63.6250     1.8120    67.8400     3.7370     2.7770     6.5800    33.1800    13.7370 
   63.7500     1.8210    66.5580     4.3380     3.5600     7.0760    33.4610     6.2620 
   63.8750     1.8770    67.7570     4.7110     4.2110     7.0630    32.8270     0.8380 
   64.0000     1.9630    70.3610     5.0420     4.7020     6.5120    31.0680    -2.5860 
   64.1250     2.0530    74.7310     5.4450     5.0070     6.5040    28.8800    -4.6560 
   64.2500     2.1210    79.2810     5.8710     5.1550     7.6770    27.7810    -6.4620 
   64.3750     2.1560    82.9240     6.2340     5.1660     8.8040    27.4640    -8.1590 
   64.5000     2.1610    84.6350     6.4660     5.0860     9.3270    27.3590    -9.6780 
   64.6250     2.1550    82.4320     6.5650     5.0080     9.5070    27.1430   -10.9630 
   64.7500     2.1580    78.9160     6.6840     5.0330     9.5880    26.8810   -12.0130 
   64.8750     2.1810    78.1580     6.9210     5.2250     9.7710    26.6760   -12.7230 
   65.0000     2.2230    79.7650     7.2200     5.5890    10.3290    26.5990   -13.1100 
   65.1250     2.2800    81.3100     7.4080     6.0550    11.5760    26.6390   -13.2370 
   65.2500     2.3310    82.7860     7.4870     6.4420    13.7340    26.7100   -13.1070 
   65.3750     2.3580    84.2970     7.5300     6.5950    16.6500    26.7500   -12.8350 
   65.5000     2.3520    84.6300     7.5770     6.4360    18.5560    26.7750   -12.5320 
   65.6250     2.3210    86.9450     7.5590     5.9930    11.7190    26.7970   -12.2110 
   65.7500     2.2910    92.6290     7.3640     5.4830     8.5310    26.8450   -11.9160 
   65.8750     2.2730    97.5060     6.9690     5.0590     6.7380    26.9170   -11.7380 
   66.0000     2.2670   100.7300     6.5190     4.8010     6.0250    26.9640   -11.7080 
   66.1250     2.2630   103.6510     6.2820     4.7270     5.8260    26.9200   -11.7220 
   66.2500     2.2560   105.1530     6.2580     4.7360     5.9500    26.8370   -11.7710 
   66.3750     2.2450   104.4070     6.3010     4.7580     6.5430    26.8380   -11.8290 
   66.5000     2.2380   103.6410     6.3000     4.7500     6.6300    26.9440   -11.8780 
   66.6250     2.2370   104.9890     6.2360     4.7110     5.8190    27.0150   -11.8840 
   66.7500     2.2430   105.8990     6.1490     4.6810     5.2050    27.0190   -11.9090 
   66.8750     2.2540   106.0740     6.0890     4.6970     5.1420    26.9650   -11.9390 
   67.0000     2.2660   104.7520     6.0970     4.7790     5.2720    26.8860   -11.8780 
   67.1250     2.2750   103.4380     6.1770     4.9190     5.5050    26.8530   -11.8560 
   67.2500     2.2740   102.2670     6.2570     5.0530     5.6430    26.8370   -11.9470 
   67.3750     2.2630    98.8070     6.2670     5.1140     5.6930    26.8130   -12.1280 
   67.5000     2.2490    95.0260     6.1580     5.0520     5.8980    26.8000   -12.3120 
   67.6250     2.2430    99.0120     5.9000     4.8370     6.2620    26.8110   -12.4830 
   67.7500     2.2540   108.6450     5.5630     4.5440     6.0890    26.8250   -12.5190 
   67.8750     2.2800   116.3740     5.2430     4.2580     5.1450    26.7940   -12.4140 
   68.0000     2.3160   120.7050     5.0650     4.0830     4.4690    26.7320   -12.2930 
   68.1250     2.3600   122.3160     5.2000     4.1450     4.4550    26.6460   -12.1720 
   68.2500     2.4050   119.5600     5.6570     4.4480     4.9160    26.5970   -11.9820 
   68.3750     2.4370   111.9550     6.3660     4.9500     5.7170    26.5550   -11.8060 
   68.5000     2.4400   100.5160     7.1320     5.5270     7.1780    26.4970   -11.7770 
   68.6250     2.4010    89.7520     7.6030     5.9500     9.2940    26.5260   -11.8780 
   68.7500     2.3390    87.2610     7.6200     6.0780    10.2060    26.7120   -12.1260 
   68.8750     2.2790    93.2370     7.2420     5.8910     7.9960    26.9760   -12.5490 
   69.0000     2.2420   100.1750     6.6840     5.4980     6.1530    27.2150   -13.0720 
   69.1250     2.2300    99.2270     6.2490     5.1080     5.4100    27.4230   -13.5880 
   69.2500     2.2270    95.6610     6.1470     4.9300     5.3920    27.5470   -14.1160 
   69.3750     2.2290    92.6240     6.5180     5.1080     5.6750    27.6180   -14.5540 
   69.5000     2.2520    89.9610     7.4450     5.7350     6.5120    27.5520   -14.8390 
   69.6250     2.3190    86.4640     8.9220     6.8650     8.7160    27.1910   -15.1150 
   69.7500     2.4180    81.8820    10.4610     8.1840    12.1410    26.6350   -15.4740 
   69.8750     2.5120    77.6780    11.4480     9.2580    17.4750    26.1750   -15.8320 
   70.0000     2.5610    76.6590    11.3820     9.6400    27.0450    25.9480   -16.2090 
   70.1250     2.5320    80.7400    10.1550     9.0360    26.7690    25.9950   -16.6700 
   70.2500     2.4530    86.3660     8.5660     7.9140    16.4390    26.2190   -17.1740 
   70.3750     2.3620    88.7220     7.2040     6.7340     9.1000    26.4480   -17.7970 
   70.5000     2.2830    86.7910     6.3690     5.8300     7.0030    26.5310   -18.5860 
   70.6250     2.2210    83.1490     6.1610     5.3990     7.0570    26.5040   -19.4190 
   70.7500     2.1660    79.2710     6.3670     5.3480     7.7310    26.5490   -20.2230 
   70.8750     2.1300    73.5560     6.8470     5.5890     8.4190    26.6350   -21.0040 
   71.0000     2.1400    67.7450     7.4490     6.0120     9.0010    26.6820   -21.6850 
   71.1250     2.2240    66.7860     7.9890     6.4750     8.9840    26.8010   -22.3060 
   71.2500     2.3450    67.3580     8.3180     6.8250     8.4320    27.1290   -22.8980 
   71.3750     2.4510    67.1490     8.3610     6.9700     7.7260    27.6150   -23.3870 
   71.5000     2.4950    68.0800     8.1310     6.8830     7.3150    27.8820   -23.8160 
   71.6250     2.4530    70.2200     7.7150     6.5990     7.4690    27.7150   -24.2990 
   71.7500     2.3720    69.9070     7.2950     6.2600     7.9740    27.4110   -24.7840 
   71.8750     2.2970    68.6990     6.9740     5.9550     8.4370    27.1980   -25.2790 
   72.0000     2.2500    70.1290     6.8030     5.7400     8.6770    27.0690   -25.8400 
   72.1250     2.2350    71.9180     6.7990     5.6440     8.6980    26.9380   -26.3940 
   72.2500     2.2310    71.5660     6.8910     5.6290     8.9480    26.8790   -26.9120 
   72.3750     2.2230    70.9570     7.0240     5.6670     9.2080    26.9380   -27.5020 
