~V
VERS. 2.00: Ver 2.00
~W
STRT.M 57.0000:
STOP.M 278.0000:
STEP.M 0.1250:
NULL. -999.2500:
UWI. F11043:
~C
DEPT.M :
SP.MV :
GR.API :
RML.OHMM :
RI. :
RXO.OHMM :
CALI.CM :
DEN.GM/CC :
~A
# ...
  124.5000   -23.5000    68.7460     9.7080     7.3940     9.0520    24.0430     2.1650 
  124.6250   -23.5710    70.8150     9.6580     7.2860     9.0800    24.0660     2.1750 
  124.7500   -23.6880    72.9100     9.6410     7.2210     9.0740    24.1020     2.1870 
  124.8750   -23.8190    72.9170     9.6830     7.2080     9.1230    24.1390     2.1950 
  125.0000   -23.9130    71.5670     9.7920     7.2390     9.3590    24.1400     2.2050 
  125.1250   -23.9530    69.8950     9.9280     7.2920     9.4790    24.0800     2.2320 
  125.2500   -23.9460    68.0160    10.0210     7.3360     9.8190    24.0400     2.2660 
  125.3750   -23.9310    65.7590    10.0260     7.3540    10.2100    24.0270     2.2830 
  125.5000   -23.9550    63.7160     9.9360     7.3360    10.2700    24.0270     2.2680 
  125.6250   -24.0020    63.4150     9.7840     7.2730     9.7350    24.0290     2.2400 
  125.7500   -23.9690    65.2210     9.6420     7.1960     9.3540    24.0300     2.2250 
  125.8750   -23.8220    68.1750     9.5530     7.1370     9.2570    24.0330     2.2190 
  126.0000   -23.5930    70.7660     9.5300     7.1270     9.3420    24.0330     2.2150 
  126.1250   -23.3240    73.4510     9.5850     7.1880     9.4660    24.0300     2.2100 
  126.2500   -23.1320    76.4270     9.6970     7.3010     9.6830    24.0270     2.2080 
  126.3750   -23.0030    78.0130     9.8330     7.4370     9.9550    24.0270     2.2080 
  126.5000   -22.8470    77.4100     9.9370     7.5550    10.2060    24.0310     2.2090 
  126.6250   -22.6220    75.3490     9.9160     7.5920    10.1540    24.0320     2.2110 
  126.7500   -22.3760    72.3320     9.7490     7.5270     9.9900    24.0330     2.2130 
  126.8750   -22.1530    68.8330     9.4670     7.3620     9.5990    24.0340     2.2140 
  127.0000   -21.9850    66.2140     9.1490     7.1370     9.1550    24.0340     2.2110 
  127.1250   -21.8760    66.2870     8.9150     6.9270     8.7100    24.0340     2.2060 
  127.2500   -21.7100    67.4520     8.8140     6.7960     8.4230    24.0340     2.2050 
  127.3750   -21.4330    69.1580     8.8450     6.7700     8.6200    24.0340     2.2080 
  127.5000   -21.0990    70.8450     8.9580     6.8380     9.0320    24.0340     2.2100 
  127.6250   -20.7690    70.0240     9.0730     6.9640     9.4830    24.0340     2.2070 
  127.7500   -20.4540    67.0210     9.1580     7.1080     9.7540    24.0320     2.2060 
  127.8750   -20.1260    63.6510     9.2820     7.2900     9.8100    24.0270     2.2120 
  128.0000   -19.7060    60.9700     9.5650     7.5680     9.7050    24.0270     2.2280 
  128.1250   -19.1040    59.8940    10.0970     7.9990     9.5900    24.0320     2.2540 
  128.2500   -18.3870    61.2780    10.6940     8.4840     9.9760    24.0340     2.2880 
  128.3750   -17.6460    66.2840    11.0770     8.8440    11.1910    24.0340     2.3290 
  128.5000   -16.9460    72.4960    11.0100     8.9000    12.9340    24.0320     2.3770 
  128.6250   -16.3130    77.3420    10.4950     8.5990    11.9440    24.0300     2.4150 
  128.7500   -15.7120    79.7850     9.9950     8.2220     9.0070    24.0310     2.4200 
  128.8750   -15.1240    79.5120     9.8570     8.0070     7.6060    24.0340     2.3910 
  129.0000   -14.5580    76.2780    10.1540     8.0570     8.1990    24.0340     2.3630 
  129.1250   -14.1160    69.9070    10.5930     8.2710    10.8830    24.0340     2.3780 
  129.2500   -13.8520    64.9580    10.6830     8.3550    13.0590    24.0340     2.4270 
  129.3750   -13.7430    65.0210    10.2490     8.1570    11.3180    24.0340     2.4780 
  129.5000   -13.6770    69.6130     9.5620     7.7780     7.8500    24.0340     2.4990 
  129.6250   -13.5670    74.3200     9.3360     7.5940     6.6240    24.0360     2.4820 
  129.7500   -13.4320    73.6650    10.0650     7.9250     7.3470    24.0370     2.4660 
  129.8750   -13.3300    66.7150    11.9540     8.9890    11.9430    24.0360     2.4820 
  130.0000   -13.3160    58.1830    14.9130    10.9050    20.2100    24.0330     2.5360 
  130.1250   -13.3990    54.5380    18.4680    13.6700    24.9310    24.0340     2.6080 
  130.2500   -13.4800    53.5280    21.5680    16.6090    24.0620    24.0340     2.6570 
  130.3750   -13.4920    53.1530    23.4980    19.0060    22.5610    24.0340     2.6700 
  130.5000   -13.4850    55.2310    24.2130    20.4570    23.2810    24.0340     2.6600 
  130.6250   -13.5600    59.1270    24.2880    21.0710    26.1310    24.0320     2.6550 
  130.7500   -13.7470    58.2540    24.4350    21.4300    28.7320    24.0280     2.6620 
  130.8750   -14.0440    52.9100    24.8640    21.8080    28.4410    24.0270     2.6730 
  131.0000   -14.4060    48.8130    25.6300    22.3510    29.0810    24.0290     2.6780 
  131.1250   -14.7610    50.7330    26.7510    23.1790    28.3030    24.0280     2.6740 
  131.2500   -15.0910    54.2050    27.8510    24.0950    27.6180    24.0250     2.6640 
  131.3750   -15.4680    55.4370    28.2460    24.5840    28.9100    24.0270     2.6500 
  131.5000   -15.9610    55.3330    27.0740    23.8720    32.4290    24.0310     2.6320 
  131.6250   -16.5640    56.4800    23.6690    21.2220    32.1750    24.0320     2.6100 
  131.7500   -17.1770    58.5380    19.1910    17.5130    26.1870    24.0290     2.5780 
  131.8750   -17.7400    60.4950    14.8580    13.7850    17.7750    24.0270     2.5320 
  132.0000   -18.2850    63.9040    11.4940    10.7640    11.5260    24.0300     2.4650 
  132.1250   -18.8810    68.9870     9.4940     8.8190     9.2740    24.0320     2.3840 
  132.2500   -19.5530    71.5870     8.4500     7.6770     8.7610    24.0290     2.3160 
  132.3750   -20.2400    72.0870     8.0820     7.1570     8.8040    24.0260     2.2770 
  132.5000   -20.8280    74.1640     8.1260     7.0760     8.9210    24.0260     2.2640 
  132.6250   -21.2640    78.4040     8.3530     7.2690     9.0630    24.0280     2.2630 
  132.7500   -21.6090    80.2520     8.5610     7.5150     9.1850    24.0260     2.2600 
  132.8750   -21.8800    77.8940     8.7000     7.7170     9.3580    24.0240     2.2540 
  133.0000   -22.0720    74.7050     8.7850     7.8440     9.5580    24.0230     2.2460 
  133.1250   -22.1860    75.2190     8.8360     7.9000     9.6580    24.0260     2.2360 
  133.2500   -22.2150    77.0340     8.8600     7.9120     9.7940    24.0250     2.2260 
  133.3750   -22.1150    75.4730     8.8320     7.8750    10.1050    24.0260     2.2220 
  133.5000   -21.9360    70.2990     8.7160     7.7650    10.2250    24.0280     2.2230 
  133.6250   -21.7280    67.5600     8.4960     7.5630    10.1320    24.0290     2.2250 
  133.7500   -21.4960    69.6560     8.2840     7.3540    10.0800    24.0270     2.2290 
  133.8750   -21.2360    72.4930     8.2400     7.2650    10.2320    24.0250     2.2430 
  134.0000   -20.8970    72.2340     8.5530     7.4330    10.4330    24.0240     2.2690 
  134.1250   -20.3960    70.0390     9.5240     8.0610    10.8010    24.0260     2.3040 
  134.2500   -19.7890    67.9620    11.1510     9.1720    12.4490    24.0260     2.3430 
  134.3750   -19.1860    64.5430    13.2530    10.7210    16.5190    24.0240     2.3830 
  134.5000   -18.6440    59.2960    15.3220    12.4380    20.6880    24.0250     2.4140 
  134.6250   -18.1580    56.5650    16.3730    13.6210    21.7500    24.0290     2.4270 
  134.7500   -17.7120    58.1700    15.9960    13.7610    20.9190    24.0290     2.4320 
  134.8750   -17.2890    61.9170    14.4320    12.8750    18.2780    24.0250     2.4410 
  135.0000   -16.9270    65.8150    12.4700    11.5010    14.6010    24.0250     2.4520 
  135.1250   -16.7410    70.2990    11.0610    10.3580    12.2060    24.0270     2.4490 
  135.2500   -16.7400    72.4000    10.5720     9.8060    11.9210    24.0270     2.4410 
  135.3750   -16.8640    69.1670    11.1160     9.9910    12.5590    24.0230     2.4500 
  135.5000   -17.0050    62.0380    12.6730    10.9810    13.4780    24.0230     2.4810 
  135.6250   -17.1060    57.4980    15.0440    12.8260    17.2460    24.0250     2.5170 
