~V
VERS. 2.00: Ver 2.00
~W
STRT.M 49.0000:
STOP.M 284.0000:
STEP.M 0.1250:
NULL. -999.2500:
UWI. F11034:
~C
DEPT.M :
GR.API :
RML.OHMM :
RI. :
RXO.OHMM :
CALI.CM :
DEN.GM/CC :
SP.MV :
~A
# ...
  105.2500    71.9910     7.7020     6.5210     8.9460    22.7240     2.2730    -9.8830 
  105.3750    71.5200     7.3680     6.3340     9.2710    22.7710     2.2770   -10.1460 
  105.5000    73.4100     6.5250     5.7330     8.4770    22.9590     2.2860   -10.3390 
  105.6250    75.9980     5.5530     4.9820     7.0610    23.3540     2.2940   -10.4980 
  105.7500    77.7240     4.8750     4.3800     5.8060    23.9360     2.2990   -10.6760 
  105.8750    80.6070     4.8430     4.1730     5.3120    24.4450     2.3000   -10.9130 
  106.0000    84.8110     5.8270     4.6420     6.3100    24.5530     2.3100   -11.2430 
  106.1250    85.2840     7.7810     5.8400     9.3810    24.4360     2.3430   -11.6380 
  106.2500    79.5900    10.4190     7.6890    14.9180    24.4030     2.3970   -12.1010 
  106.3750    70.7630    13.1570     9.8760    21.7290    24.5160     2.4610   -12.6750 
  106.5000    63.8080    14.9350    11.6940    28.0550    24.5630     2.4940   -13.3820 
  106.6250    59.2430    15.0580    12.4350    29.6790    24.3690     2.4730   -14.1420 
  106.7500    56.1150    13.5220    11.8150    23.7660    23.9680     2.4070   -14.8500 
  106.8750    55.3700    11.1370    10.2770    15.3450    23.5820     2.3240   -15.4360 
  107.0000    56.6740     9.0860     8.7010    11.0090    23.3370     2.2570   -15.8710 
  107.1250    58.0060     7.8700     7.5920     9.5980    23.1600     2.2140   -16.2380 
  107.2500    57.9570     7.4250     7.0100     9.1570    22.9840     2.1910   -16.5530 
  107.3750    57.4620     7.4840     6.8330     8.9140    22.8100     2.1800   -16.7580 
  107.5000    58.3730     7.7720     6.9090     8.6990    22.7180     2.1740   -16.8190 
  107.6250    59.9950     8.0600     7.0580     8.5750    22.7060     2.1690   -16.7980 
  107.7500    61.1950     8.2520     7.1790     8.5650    22.7610     2.1660   -16.7690 
  107.8750    61.7590     8.3320     7.2370     8.6300    22.8810     2.1640   -16.7740 
  108.0000    62.5910     8.3260     7.2320     8.7840    23.0530     2.1700   -16.7970 
  108.1250    65.0820     8.2950     7.1980     9.0460    23.2590     2.1830   -16.7960 
  108.2500    68.0240     8.2830     7.1700     9.3650    23.4240     2.2050   -16.7910 
  108.3750    68.4580     8.3190     7.1690     9.6240    23.4920     2.2290   -16.8310 
  108.5000    66.0480     8.4070     7.2100     9.7140    23.4770     2.2440   -16.9260 
  108.6250    63.7650     8.5230     7.2810     9.6670    23.4760     2.2470   -17.0290 
  108.7500    61.9290     8.6330     7.3640     9.6860    23.5190     2.2380   -17.0960 
  108.8750    58.9460     8.7070     7.4380     9.8350    23.5710     2.2230   -17.1110 
  109.0000    56.1250     8.7220     7.4800     9.9760    23.6190     2.2110   -17.0920 
  109.1250    55.9460     8.6930     7.4930    10.0250    23.6610     2.2030   -17.0620 
  109.2500    58.7940     8.6520     7.4880     9.9920    23.6730     2.2000   -16.9980 
  109.3750    62.2660     8.6350     7.4890     9.9310    23.6650     2.2020   -16.8570 
  109.5000    64.8350     8.6690     7.5110     9.9400    23.6570     2.2050   -16.6270 
  109.6250    65.9610     8.7320     7.5470    10.0730    23.6470     2.2080   -16.3600 
  109.7500    65.3620     8.7670     7.5650    10.2690    23.6220     2.2100   -16.0990 
  109.8750    63.4530     8.7050     7.5180    10.3830    23.5830     2.2090   -15.8610 
  110.0000    62.2660     8.4820     7.3580    10.2540    23.5410     2.2090   -15.6270 
  110.1250    62.2400     8.1340     7.0990     9.8910    23.5140     2.2110   -15.4060 
  110.2500    62.7830     7.7470     6.7940     9.3380    23.4950     2.2160   -15.2420 
  110.3750    65.4820     7.4260     6.5140     8.7070    23.4620     2.2200   -15.1710 
  110.5000    70.0160     7.2770     6.3420     8.2380    23.4060     2.2200   -15.1870 
  110.6250    71.3770     7.3060     6.3010     8.0910    23.3150     2.2180   -15.2500 
  110.7500    68.1540     7.4700     6.3750     8.2300    23.2050     2.2130   -15.3390 
  110.8750    65.4930     7.6990     6.5250     8.5750    23.0960     2.2090   -15.4520 
  111.0000    67.4710     7.9110     6.6990     8.7580    22.9960     2.2060   -15.6050 
  111.1250    69.8150     8.0560     6.8480     8.8160    22.9290     2.2010   -15.7570 
  111.2500    70.8330     8.1270     6.9500     8.8930    22.8910     2.1950   -15.8490 
  111.3750    70.3550     8.1400     7.0060     9.0070    22.8860     2.1890   -15.8590 
  111.5000    66.4420     8.1290     7.0310     9.0030    22.9550     2.1850   -15.8020 
  111.6250    60.4540     8.1210     7.0500     8.8210    23.0540     2.1820   -15.7140 
  111.7500    56.9350     8.1300     7.0770     8.5440    23.1260     2.1790   -15.6030 
  111.8750    58.2770     8.1550     7.1200     8.2920    23.1550     2.1760   -15.4630 
  112.0000    61.2260     8.1850     7.1780     8.1100    23.1440     2.1720   -15.2640 
  112.1250    62.8270     8.2070     7.2370     7.9830    23.0870     2.1680   -15.0110 
  112.2500    63.3850     8.2130     7.2870     7.8950    22.9900     2.1670   -14.7340 
  112.3750    63.9260     8.2110     7.3210     7.7890    22.9160     2.1690   -14.4440 
  112.5000    65.3670     8.2090     7.3290     7.6440    22.8880     2.1750   -14.1030 
  112.6250    68.1120     8.1970     7.3050     7.5070    22.8820     2.1810   -13.6890 
  112.7500    71.6490     8.1690     7.2360     7.4660    22.8670     2.1880   -13.2010 
  112.8750    75.1990     8.0850     7.0980     7.5570    22.8360     2.1950   -12.6470 
  113.0000    76.0840     7.9000     6.8560     7.6870    22.8290     2.2020   -12.0600 
  113.1250    75.7090     7.5950     6.5220     7.7230    22.9030     2.2110   -11.4600 
  113.2500    77.0050     7.1710     6.1380     7.6860    23.1130     2.2220   -10.8520 
  113.3750    80.8690     6.7110     5.7690     7.4440    23.4640     2.2310   -10.2680 
  113.5000    84.1890     6.4200     5.5230     6.9200    23.8650     2.2360    -9.8000 
  113.6250    84.4030     6.3920     5.4700     6.4630    24.2150     2.2360    -9.4780 
  113.7500    83.8660     6.6420     5.6360     6.4960    24.5330     2.2330    -9.2850 
  113.8750    84.1340     7.1010     5.9890     6.9360    24.7010     2.2300    -9.1760 
  114.0000    82.9140     7.5950     6.4220     7.6620    24.5890     2.2320    -9.1340 
  114.1250    80.4970     7.9080     6.7610     8.4170    24.2610     2.2380    -9.1500 
  114.2500    79.7570     7.8880     6.8600     8.7530    23.9910     2.2480    -9.1810 
  114.3750    83.0650     7.5130     6.6610     8.4280    23.9510     2.2590    -9.1780 
  114.5000    87.4990     6.9090     6.2190     7.5910    24.1550     2.2710    -9.0980 
  114.6250    90.6480     6.3340     5.7330     6.6960    24.4440     2.2830    -8.9760 
  114.7500    92.2660     5.9880     5.3750     6.0560    24.6630     2.2960    -8.8700 
  114.8750    91.2320     5.9540     5.2370     5.8780    24.7360     2.3150    -8.8200 
  115.0000    87.3140     6.2320     5.3540     6.2790    24.7130     2.3390    -8.8580 
  115.1250    84.5380     6.6720     5.6350     7.0370    24.6370     2.3610    -8.9830 
  115.2500    84.0340     7.1270     5.9740     7.9660    24.4780     2.3710    -9.2310 
  115.3750    81.8660     7.4750     6.2720     8.7270    24.2260     2.3590    -9.6280 
  115.5000    76.4800     7.6330     6.4390     8.8480    23.9340     2.3260   -10.1590 
  115.6250    71.4970     7.6460     6.4870     8.3830    23.6430     2.2840   -10.7270 
  115.7500    68.4440     7.6090     6.4800     8.1700    23.4520     2.2440   -11.2440 
  115.8750    66.9660     7.6370     6.5080     8.4520    23.3850     2.2120   -11.6810 
  116.0000    67.9070     7.9000     6.7060     9.1930    23.4150     2.1920   -12.0420 
  116.1250    69.8380     8.5330     7.1710    11.0990    23.5430     2.1890   -12.3160 
  116.2500    69.6410     9.6630     8.0060    14.6510    23.7890     2.2080   -12.4680 
  116.3750    67.1010    11.3530     9.2830    19.6130    24.0610     2.2550   -12.5140 
