~V
VERS. 2.00: Ver 2.00
~W
STRT.M 50.0000:
STOP.M 220.0000:
STEP.M 0.1250:
NULL. -999.2500:
UWI. F11004:
~C
DEPT.M :
SP.MV :
GR.API :
RML.OHMM :
RI. :
RXO.OHMM :
CALI.CM :
DEN.GM/CC :
~A
# ...
   95.0000   -11.9930    93.3520     6.6690     6.6840     4.8670    22.9500     2.2550 
   95.1250   -11.9120    94.1830     6.4750     6.3200     4.9910    22.9040     2.2590 
   95.2500   -11.9090    94.7490     6.5590     6.2200     5.0920    22.8350     2.2710 
   95.3750   -11.9690    95.6310     6.6220     6.1800     4.8430    22.8350     2.2840 
   95.5000   -12.1540    98.4120     6.4060     5.9840     4.5170    22.9850     2.2880 
   95.6250   -12.3900   100.5530     5.9630     5.6290     4.4410    23.2290     2.2910 
   95.7500   -12.6670   101.8540     5.5170     5.2660     4.4630    23.5690     2.3080 
   95.8750   -13.0430   106.4580     5.4190     5.1250     4.4460    23.9860     2.3450 
   96.0000   -13.6050   110.9340     6.3320     5.5950     5.2410    24.3760     2.4040 
   96.1250   -14.3510   105.8770     8.6830     6.9560     8.5200    24.6070     2.4750 
   96.2500   -15.2800    91.8470    12.9020     9.6490    16.4380    24.6230     2.5510 
   96.3750   -16.3740    77.0880    19.1050    14.1540    30.5090    24.4860     2.6130 
   96.5000   -17.6570    68.0580    26.3130    20.5570    46.6670    24.3110     2.6330 
   96.6250   -19.1260    63.2530    31.0870    25.9710    54.7310    24.1710     2.6120 
   96.7500   -20.7100    62.5360    30.3260    26.7060    45.6200    24.0040     2.5510 
   96.8750   -22.2990    66.1990    24.6070    22.5580    25.6330    23.7660     2.4410 
   97.0000   -23.8040    71.4260    17.9490    17.1170    14.1830    23.5570     2.3000 
   97.1250   -25.2290    74.0580    13.0630    12.8880     9.9930    23.4510     2.1880 
   97.2500   -26.5480    73.1430    10.1160    10.0680     8.9390    23.4140     2.1320 
   97.3750   -27.7000    70.6350     8.6480     8.3730     8.8470    23.3910     2.1210 
   97.5000   -28.6110    69.8140     8.2550     7.6040     9.1660    23.4180     2.1290 
   97.6250   -29.3350    70.0030     8.3230     7.3480     9.8150    23.5350     2.1340 
   97.7500   -29.9130    70.8940     8.5610     7.3820    10.3610    23.6810     2.1330 
   97.8750   -30.3420    72.1860     8.7920     7.5260    10.4620    23.7790     2.1300 
   98.0000   -30.5950    72.6160     8.9180     7.6500    10.2980    23.8210     2.1310 
   98.1250   -30.7500    69.5330     8.9450     7.7110    10.2690    23.8380     2.1360 
   98.2500   -30.8180    64.4240     8.8930     7.7110    10.3780    23.8240     2.1420 
   98.3750   -30.7740    60.2310     8.7910     7.6620    10.3860    23.7630     2.1480 
   98.5000   -30.6260    58.5640     8.6740     7.5780    10.1580    23.6900     2.1490 
   98.6250   -30.4040    60.1690     8.5750     7.4860     9.9030    23.6710     2.1500 
   98.7500   -30.1830    64.7300     8.5180     7.4090     9.8190    23.7060     2.1520 
   98.8750   -29.9790    67.7780     8.5230     7.3620     9.9220    23.7430     2.1560 
   99.0000   -29.7930    64.5810     8.6020     7.3540    10.0090    23.7260     2.1610 
   99.1250   -29.5460    62.5930     8.7200     7.3750    10.0650    23.6980     2.1650 
   99.2500   -29.2890    66.5190     8.8300     7.4080    10.1280    23.6820     2.1670 
   99.3750   -29.1180    72.3860     8.8810     7.4320    10.0870    23.6040     2.1640 
   99.5000   -29.0310    71.8880     8.8320     7.4160     9.8810    23.3880     2.1600 
   99.6250   -28.9520    67.5510     8.7270     7.3620     9.6940    23.1220     2.1570 
   99.7500   -28.8470    64.6160     8.6290     7.2980     9.6750    22.9250     2.1550 
   99.8750   -28.7870    63.9000     8.5990     7.2620     9.7710    22.8650     2.1550 
  100.0000   -28.7930    61.5020     8.6710     7.2890     9.7580    22.9080     2.1570 
  100.1250   -28.8420    59.5960     8.7970     7.3620     9.7370    22.9570     2.1590 
  100.2500   -28.9220    62.6400     8.9250     7.4490     9.9490    23.0030     2.1620 
  100.3750   -29.0420    67.7560     9.0070     7.5200    10.4500    23.1360     2.1660 
  100.5000   -29.1870    66.7230     9.0050     7.5470    10.8870    23.4550     2.1720 
  100.6250   -29.3380    62.9510     8.9460     7.5330    10.9570    23.8200     2.1760 
  100.7500   -29.4660    62.2130     8.8740     7.4910    10.7810    24.0740     2.1730 
  100.8750   -29.5360    63.5840     8.8420     7.4470    10.5700    24.1870     2.1660 
  101.0000   -29.5510    63.8190     8.8890     7.4360    10.5540    24.2720     2.1610 
  101.1250   -29.5110    65.5300     8.9900     7.4660    10.7640    24.4150     2.1610 
  101.2500   -29.3660    67.2890     9.0960     7.5160    10.9600    24.5810     2.1630 
  101.3750   -29.0950    66.0530     9.1490     7.5430    10.9210    24.6880     2.1650 
  101.5000   -28.6920    62.5360     9.0710     7.4840    10.7700    24.6390     2.1650 
  101.6250   -28.1670    60.6540     8.8470     7.3270    10.6750    24.4760     2.1640 
  101.7500   -27.5040    60.6340     8.4890     7.0910    10.5580    24.2890     2.1620 
  101.8750   -26.6590    60.9590     8.0870     6.8330    10.4200    24.1530     2.1610 
  102.0000   -25.6000    60.4090     7.9190     6.7130    10.3610    24.0880     2.1700 
  102.1250   -24.3760    59.1170     8.2610     6.8990    10.3250    24.0420     2.1920 
  102.2500   -22.9730    58.6640     9.2760     7.5230    10.6160    24.0350     2.2310 
  102.3750   -21.3720    60.8950    10.8990     8.6210    12.6890    24.1280     2.2950 
  102.5000   -19.6110    63.4280    12.6820    10.0140    19.6330    24.2760     2.3860 
  102.6250   -17.8470    65.4680    13.7550    11.0500    28.1420    24.2600     2.4720 
  102.7500   -16.1420    70.3460    13.4150    11.0600    24.2530    24.0130     2.5030 
  102.8750   -14.5600    79.0640    11.6190     9.8900    12.3920    23.6820     2.4660 
  103.0000   -13.1660    87.2700     9.1970     8.1390     6.8440    23.4820     2.4040 
  103.1250   -12.0200    91.0840     7.2280     6.6290     5.2130    23.4360     2.3600 
  103.2500   -11.1900    93.5120     6.0570     5.6200     4.9980    23.4880     2.3380 
  103.3750   -10.6400    95.9410     5.6350     5.1290     4.9930    23.5080     2.3260 
  103.5000   -10.2930    93.2450     5.7740     5.1120     5.0250    23.3480     2.3170 
  103.6250   -10.0410    87.4010     6.0780     5.3260     5.0420    23.1090     2.3160 
  103.7500    -9.9170    80.8230     6.3400     5.6040     4.9050    22.9620     2.3220 
  103.8750    -9.8760    76.5700     6.4610     5.8280     4.7040    22.9500     2.3330 
  104.0000    -9.8670    75.2570     6.4250     5.9320     4.6330    22.9750     2.3390 
  104.1250    -9.9000    77.0790     6.3200     5.9470     4.7210    23.0020     2.3350 
  104.2500    -9.9700    81.5950     6.2100     5.9100     4.9460    23.0840     2.3220 
  104.3750   -10.0890    84.5710     6.1480     5.8540     5.2540    23.2630     2.3040 
  104.5000   -10.3220    84.7260     6.1620     5.8060     5.5200    23.5500     2.2860 
  104.6250   -10.6680    84.4250     6.2270     5.7790     5.6310    23.8610     2.2730 
  104.7500   -11.0960    83.9480     6.3280     5.7880     5.6240    24.1020     2.2660 
  104.8750   -11.6440    84.1410     6.4430     5.8370     5.7080    24.1760     2.2630 
  105.0000   -12.3090    84.6110     6.5570     5.9290     6.0630    24.0550     2.2580 
  105.1250   -12.9040    82.1990     6.7350     6.0820     6.6920    23.8690     2.2530 
  105.2500   -13.3470    75.6390     7.1850     6.3950     7.4560    23.7010     2.2570 
  105.3750   -13.6510    68.7580     8.2090     7.0340     8.1750    23.5220     2.2800 
  105.5000   -13.7560    67.1170    10.1810     8.2750     8.8330    23.2390     2.3330 
  105.6250   -13.6750    67.2050    12.8100    10.0690    10.5630    23.0010     2.4060 
  105.7500   -13.4150    64.5620    15.3770    12.0680    15.3780    23.0070     2.4810 
  105.8750   -13.0270    60.5470    16.6550    13.3500    23.6630    23.2920     2.5260 
  106.0000   -12.5840    61.7080    15.1820    12.5300    22.1640    23.6830     2.4990 
  106.1250   -12.2240    69.1090    11.9630    10.2490    12.5960    23.9250     2.4240 
