~V
VERS. 2.00: Ver 2.00
~W
STRT.M 53.0000:
STOP.M 276.0000:
STEP.M 0.1250:
NULL. -999.2500:
UWI. F11074:
~C
DEPT.M :
DEN.GM/CC :
SP.MV :
GR.API :
RML.OHMM :
RI. :
RXO.OHMM :
CALI.CM :
~A
# ...
  266.7500     2.3820    -8.4050    89.1420     9.1230     7.6980     9.0030    24.5980 
  266.8750     2.3740    -8.3600    89.1420     9.0040     7.6080     8.4940    24.6520 
  267.0000     2.3680    -8.3130    89.1420     8.8650     7.4980     8.3570    24.6830 
  267.1250     2.3630    -8.2440    89.1420     8.7450     7.3940     8.3300    24.6870 
  267.2500     2.3600    -8.1730    89.1420     8.6480     7.3050     8.5900    24.6890 
  267.3750     2.3610    -8.0920    89.1420     8.5560     7.2240     8.7050    24.7050 
  267.5000     2.3660    -8.0080    89.1420     8.4470     7.1340     8.2560    24.7380 
  267.6250     2.3700    -7.8960    89.1420     8.3220     7.0290     8.0220    24.7640 
  267.7500     2.3660    -7.7700    89.1420     8.1980     6.9180     8.0540    24.7930 
  267.8750     2.3550    -7.6480    89.1420     8.0760     6.8060     8.1180    24.8160 
  268.0000     2.3420    -7.5070    89.1420     7.9440     6.6920     7.8120    24.8260 
  268.1250     2.3390    -7.3210    89.1420     7.7990     6.5740     7.2400    24.8260 
  268.2500     2.3460    -7.1350    89.1420     7.6650     6.4630     7.0850    24.8260 
  268.3750     2.3630    -6.9580    89.1420     7.5700     6.3740     7.0690    24.8260 
  268.5000     2.3820    -6.7810    89.1420     7.5290     6.3160     6.9620    24.8260 
  268.6250     2.3950    -6.6390    89.1420     7.5310     6.2850     6.7670    24.8210 
  268.7500     2.3990    -6.5220    89.1420     7.5360     6.2620     6.7570    24.7820 
  268.8750     2.3940    -6.4320    89.1420     7.5250     6.2380     6.8480    24.6870 
  269.0000     2.3820    -6.3780    89.1420     7.4990     6.2140     7.0300    24.5910 
  269.1250     2.3640    -6.3800    89.1420     7.4700     6.1960     7.4090    24.5530 
  269.2500     2.3470    -6.3840    89.1420     7.4510     6.1870     7.4080    24.5460 
  269.3750     2.3380    -6.3890    89.1420     7.4450     6.1830     7.0550    24.5460 
  269.5000     2.3380    -6.3960    89.1420     7.4520     6.1830     6.9510    24.5460 
  269.6250     2.3490    -6.4300    89.1420     7.4740     6.1830     6.9530    24.5460 
  269.7500     2.3630    -6.4640    89.1420     7.5050     6.1820     6.7710    24.5460 
  269.8750     2.3740    -6.4740    89.1420     7.5370     6.1800     6.6180    24.5460 
  270.0000     2.3810    -6.4820    89.1420     7.5590     6.1790     6.7120    24.5460 
  270.1250     2.3840    -6.4820    89.1420     7.5580     6.1790     6.9260    24.5440 
  270.2500     2.3830    -6.4850    89.1420     7.5390     6.1790     7.2910    24.5150 
  270.3750     2.3810    -6.5110    89.1420     7.5110     6.1780     7.4570    24.4290 
  270.5000     2.3780    -6.5490    89.1420     7.4840     6.1750     7.3180    24.3070 
  270.6250     2.3740    -6.5520    89.1420     7.4700     6.1700     6.9580    24.3440 
  270.7500     2.3680    -6.5400    89.1420     7.4650     6.1670     6.7570    24.5520 
  270.8750     2.3610    -6.5370    89.1420     7.4660     6.1670     6.7490    24.7470 
  271.0000     2.3580    -6.5190    89.1420     7.4660     6.1670     7.0470    24.7260 
  271.1250     2.3660    -6.4960    89.1420     7.4660     6.1670     7.6220    24.5230 
  271.2500     2.3800    -6.4670    89.1420     7.4660     6.1670     8.0430    24.4130 
  271.3750     2.3960    -6.4190    89.1420     7.4660     6.1670     8.1810    24.3650 
  271.5000     2.4080    -6.3720    89.1420     7.4660     6.1670     8.5400    24.3450 
  271.6250     2.4130    -6.3250    89.1420     7.4660     6.1670     9.8340    24.3360 
  271.7500     2.4150    -6.2770    89.1420     7.4660     6.1670    11.4520    24.3290 
  271.8750     2.4180    -6.2440    89.1420     7.4660     6.1670    12.5280    24.3150 
  272.0000     2.4230    -6.2010    89.1420     7.4660     6.1670    12.1800    24.3070 
  272.1250     2.4250    -6.1660    89.1420     7.4660     6.1670    11.1670    24.3150 
  272.2500     2.4200    -6.1400    89.1420     7.4660     6.1670    11.4410    24.3200 
  272.3750     2.4100    -6.1230    89.1420     7.4660     6.1670    13.2610    24.2970 
  272.5000     2.4020    -6.1340    89.1420     7.4660     6.1670    15.0060    24.2380 
  272.6250     2.4100    -6.1420    89.1420     7.4660     6.1670    15.9450    24.1270 
  272.7500     2.4310    -6.1580    89.1420     7.4660     6.1670    13.6090    24.0030 
  272.8750     2.4550    -6.1840    89.1420     7.4660     6.1670    12.0420    23.9050 
  273.0000     2.4630    -6.2190    89.1420     7.4660     6.1670    11.7020    23.8570 
  273.1250     2.4270    -6.2680    89.1420     7.4660     6.1670     9.9940    23.8400 
  273.2500     2.3400    -6.3050    89.1420     7.4660     6.1670     8.9270    23.6140 
  273.3750     2.2060    -6.3230    89.1420     7.4660     6.1670     7.6430    22.6290 
  273.5000     2.0550    -6.3420    89.1420     7.4660     6.1670     6.4470    20.3930 
  273.6250     1.9370    -6.3460    89.1420     7.4660     6.1670     6.0010    18.7450 
  273.7500     1.8690    -6.3510    89.1420     7.4660     6.1670     5.8590    18.1030 
  273.8750     1.8430    -6.3190    89.1420     7.4660     6.1670     5.8550    18.0060 
  274.0000     1.8400    -6.2930    89.1420     7.4660     6.1670     5.8550    17.9960 
  274.1250     1.8440    -6.2580    89.1420     7.4660     6.1670     5.8540    17.9940 
  274.2500     1.8460    -6.2380    89.1420     7.4660     6.1670     5.8530    17.9950 
  274.3750     1.8460    -6.2270    89.1420     7.4660     6.1670     5.8540    17.9960 
  274.5000     1.8440    -6.2260    89.1420     7.4660     6.1670     5.8540    17.9950 
  274.6250     1.8420    -6.2320    89.1420     7.4660     6.1670     5.8520    17.9940 
  274.7500     1.8390    -6.2320    89.1420     7.4660     6.1670     5.8520    17.9930 
  274.8750     1.8360    -6.2320    89.1420     7.4660     6.1670     5.8530    17.9930 
  275.0000     1.8340  -999.2500    89.1420     7.4660     6.1670     5.8540    17.9930 
  275.1250     1.8330  -999.2500    89.1420     7.4660     6.1670     5.8540    17.9930 
  275.2500     1.8330  -999.2500    89.1420     7.4660     6.1670     5.8550    17.9910 
  275.3750     1.8330  -999.2500    89.1420     7.4660     6.1670     5.8550    17.9880 
  275.5000     1.8350  -999.2500    89.1420     7.4660     6.1670     5.8540    17.9850 
  275.6250     1.8350  -999.2500    89.1420     7.4660     6.1670     5.8510    17.9840 
  275.7500     1.8330  -999.2500    89.1420     7.4660     6.1670     5.8490    17.9840 
  275.8750     1.8300  -999.2500    89.1420     7.4660     6.1670     5.8480    17.9840 
  276.0000     1.8260  -999.2500  -999.2500  -999.2500  -999.2500  -999.2500  -999.2500 
