~V
VERS. 2.00: Ver 2.00
~W
STRT.M 50.0000:
STOP.M 275.0000:
STEP.M 0.1250:
NULL. -999.2500:
UWI. F11033:
~C
DEPT.M :
DEN.GM/CC :
GR.API :
RML.OHMM :
RI. :
RXO.OHMM :
CALI.CM :
SP.MV :
~A
# ...
  196.2500     2.3260    69.1850    27.4660    23.3790    20.4690    25.3510   -39.8860 
  196.3750     2.3250    77.6430    20.7590    16.5450    12.2630    25.5220   -39.8650 
  196.5000     2.3210    78.0660    16.1570    13.0940    10.4620    25.5830   -39.8740 
  196.6250     2.3130    73.5770    14.8970    11.7250    10.9930    25.5880   -39.8710 
  196.7500     2.3060    71.2900    14.9120    11.4460    11.8700    25.5880   -39.8590 
  196.8750     2.3040    69.8260    15.6770    11.9190    12.4140    25.5880   -39.8700 
  197.0000     2.3010    66.8650    16.7710    12.8420    12.3880    25.5880   -39.9290 
  197.1250     2.2980    64.3770    17.8330    13.9180    13.9120    25.5870   -40.0560 
  197.2500     2.3040    65.0810    18.5950    14.8400    17.0130    25.5870   -40.2010 
  197.3750     2.3190    67.5390    18.9030    15.4200    17.8450    25.5860   -40.3320 
  197.5000     2.3340    70.1700    18.7360    15.5780    15.2560    25.5860   -40.4300 
  197.6250     2.3410    71.7860    18.1580    15.3090    14.2820    25.5750   -40.5380 
  197.7500     2.3470    72.9750    17.3810    14.7780    13.9570    25.5500   -40.6490 
  197.8750     2.3530    75.1980    16.5000    14.0690    13.5220    25.5250   -40.7380 
  198.0000     2.3560    77.5260    15.5830    13.2570    12.6760    25.5240   -40.7530 
  198.1250     2.3560    78.2730    14.6770    12.4090    11.5090    25.5610   -40.6680 
  198.2500     2.3570    78.9970    13.8320    11.5940    10.4930    25.6150   -40.5390 
  198.3750     2.3590    80.9550    13.1190    10.8790     9.8480    25.6480   -40.4110 
  198.5000     2.3570    82.6980    12.5880    10.3190     9.5970    25.6570   -40.3010 
  198.6250     2.3510    84.7690    12.2610     9.9600     9.4980    25.6570   -40.1980 
  198.7500     2.3420    88.2070    12.0610     9.7540     9.3710    25.6570   -40.1090 
  198.8750     2.3350    91.1860    11.9500     9.6700     9.2660    25.6540   -40.0250 
  199.0000     2.3340    88.9760    11.9150     9.6860     9.3700    25.6410   -39.9720 
  199.1250     2.3350    83.7410    12.0160     9.8260     9.5970    25.6060   -39.9720 
  199.2500     2.3310    83.0830    12.3350    10.1160     9.7500    25.5650   -40.0110 
  199.3750     2.3200    85.8040    12.9590    10.6120     9.9140    25.5310   -40.0690 
  199.5000     2.3070    85.7620    13.9060    11.3400    10.4450    25.5110   -40.1310 
  199.6250     2.3010    80.5750    15.0740    12.2620    11.6550    25.4670   -40.1750 
  199.7500     2.3010    74.7810    16.1480    13.1580    13.2590    25.3690   -40.2160 
  199.8750     2.3070    72.4570    16.8130    13.7870    14.3580    25.2570   -40.2850 
  200.0000     2.3170    74.7640    16.8520    13.9560    13.6630    25.2230   -40.4050 
  200.1250     2.3230    79.7560    16.2410    13.5860    10.2090    25.2400   -40.5580 
  200.2500     2.3190    81.8800    15.3820    12.9540     8.7440    25.2360   -40.7010 
  200.3750     2.3050    79.1810    14.5380    12.2540     8.4850    25.2310   -40.8260 
  200.5000     2.2820    76.3780    13.8420    11.6020     8.7810    25.2460   -40.9670 
  200.6250     2.2580    75.2660    13.4450    11.1170     9.2400    25.3200   -41.1280 
  200.7500     2.2410    74.5810    13.5370    10.9350     9.6570    25.4880   -41.2900 
  200.8750     2.2380    74.5350    14.5180    11.2940     9.9300    25.7050   -41.4150 
  201.0000     2.2460    74.7430    16.9560    12.5470    10.4930    25.7800   -41.4550 
  201.1250     2.2520    73.1470    22.1040    15.6860    14.7350    25.5460   -41.4140 
  201.2500     2.2450    68.4680    30.7020    21.6490    31.2340    25.1850   -41.3240 
  201.3750     2.2290    63.4250    43.9270    31.8010    67.9890    24.9540   -41.2150 
  201.5000     2.2070    60.2170    62.6150    47.1160   106.8450    24.9210   -41.0640 
  201.6250     2.1820    56.5740    85.9600    66.8900   101.9210    25.0950   -40.9010 
  201.7500     2.1570    51.2750   107.8500    85.7870    92.0070    25.3600   -40.7200 
  201.8750     2.1360    48.1730   123.0860    99.6930    87.8190    25.5700   -40.5290 
  202.0000     2.1250    50.2830   131.1440   108.0410    85.5020    25.5940   -40.3560 
  202.1250     2.1270    54.7550   135.0900   112.7090    88.2770    25.4940   -40.2010 
  202.2500     2.1370    56.2940   137.6490   115.8440    94.2840    25.4460   -40.0690 
  202.3750     2.1460    56.5330   138.6440   117.4520    97.4980    25.4400   -39.9470 
  202.5000     2.1530    57.8890   137.8320   117.3940   100.7840    25.4430   -39.8310 
  202.6250     2.1630    57.6580   135.1580   115.6920   106.9130    25.4430   -39.7000 
  202.7500     2.1750    54.7210   131.2030   112.9450   106.4920    25.4430   -39.5630 
  202.8750     2.1870    51.8620   126.2180   109.3530   100.5140    25.4410   -39.4300 
  203.0000     2.1950    52.2910   120.6180   105.1630    99.4990    25.4420   -39.3070 
  203.1250     2.2060    56.5170   115.1340   100.8730   104.5680    25.4380   -39.2300 
  203.2500     2.2260    60.6430   110.3890    97.0760   104.6060    25.4130   -39.1880 
  203.3750     2.2570    60.9350   106.5630    94.0740   100.1550    25.3570   -39.1590 
  203.5000     2.2960    55.7730   103.4200    91.8080    91.3300    25.2820   -39.1360 
  203.6250     2.3210    50.4620   100.5080    89.9140    90.9340    25.1720   -39.1040 
  203.7500     2.3090    50.4750    97.7290    88.1130    91.4170    25.0760   -39.0620 
  203.8750     2.2770    53.2040    95.8340    86.9180    88.3310    25.0970   -38.9980 
  204.0000     2.2770    54.1490    96.0800    87.5340    90.0250    25.2420   -38.8920 
  204.1250     2.3520    53.5490   100.0750    91.8510    95.7260    25.4240   -38.6980 
  204.2500     2.4730    52.9170   106.3740    98.9310    95.7260    25.4210   -38.4120 
  204.3750     2.5890    50.2390   110.2870   104.8970    99.1090    25.2230   -38.0810 
  204.5000     2.6450    46.3600   103.7530   102.4810   106.5840    25.0390   -37.7320 
  204.6250     2.6270    46.2910    81.7270    84.2350   103.2190    25.0050   -37.3990 
  204.7500     2.5760    49.3460    56.4410    59.2620    85.8480    25.0360   -37.0880 
  204.8750     2.5140    51.9670    36.3700    37.5510    51.6490    25.0790   -36.8090 
  205.0000     2.4550    53.5430    23.1930    23.1060    24.2460    25.1060   -36.5660 
  205.1250     2.4100    56.2370    15.9220    15.5390    11.9040    25.1030   -36.3520 
  205.2500     2.3850    61.5350    11.7810    11.3850     8.0400    25.1400   -36.1850 
  205.3750     2.3780    68.7370     9.6700     9.1980     7.1060    25.2230   -36.0580 
  205.5000     2.3850    76.0330     8.9290     8.2340     7.1810    25.3070   -35.9560 
  205.6250     2.4050    79.7110     9.2830     8.2420     7.6890    25.3100   -35.8490 
  205.7500     2.4340    79.6460    10.2850     8.8770     9.2290    25.2660   -35.7420 
  205.8750     2.4700    77.7690    11.7040     9.9810    10.7250    25.2300   -35.6350 
  206.0000     2.5080    75.8530    13.2590    11.3290    11.9570    25.2190   -35.5220 
  206.1250     2.5380    75.1270    14.4510    12.4730    13.6570    25.2180   -35.4130 
  206.2500     2.5570    75.5240    14.7780    12.8930    14.4230    25.2100   -35.3210 
  206.3750     2.5610    76.6100    13.9360    12.2860    13.6620    25.1770   -35.2290 
  206.5000     2.5440    77.7520    12.1130    10.8100    11.1430    25.0900   -35.1380 
  206.6250     2.4940    77.9880     9.9410     9.0010     8.8380    24.9690   -35.0390 
  206.7500     2.4250    75.7950     8.1020     7.4130     7.0020    24.8280   -34.9330 
  206.8750     2.3610    71.2830     6.8550     6.2510     6.1370    24.6630   -34.8240 
  207.0000     2.3180    67.1410     6.2150     5.5530     5.7040    24.4910   -34.7530 
  207.1250     2.2940    65.7180     6.1180     5.3110     6.0480    24.2990   -34.7370 
  207.2500     2.2840    64.0680     6.3060     5.3420     6.4880    24.0160   -34.7110 
  207.3750     2.2870    61.2620     6.6270     5.5350     6.5550    23.6550   -34.6760 
