~V
VERS. 2.00: Ver 2.00
~W
STRT.M 55.0000:
STOP.M 236.0000:
STEP.M 0.1250:
NULL. -999.2500:
UWI. F11015:
~C
DEPT.M :
GR.API :
RML.OHMM :
RI. :
RXO.OHMM :
CALI.CM :
DEN.GM/CC :
SP.MV :
~A
# ...
   88.7500    78.3590     8.9690     6.1590     9.1740    23.1300     2.1900   -23.0840 
   88.8750    72.9720     9.8030     6.7630     9.6190    23.1120     2.1690   -23.1620 
   89.0000    67.6400    10.3790     7.3090     9.6950    23.1040     2.1550   -23.2820 
   89.1250    63.1670    10.5110     7.6220     9.7330    23.0410     2.1520   -23.4770 
   89.2500    60.9980    10.3740     7.7250     9.8400    22.9450     2.1550   -23.6790 
   89.3750    62.1830    10.1730     7.6990     9.9290    22.8950     2.1620   -23.8210 
   89.5000    65.2800    10.0540     7.6310     9.9200    22.8890     2.1750   -23.8130 
   89.6250    66.9460    10.0620     7.5740     9.8340    22.8970     2.1860   -23.6170 
   89.7500    65.9030    10.1190     7.5380     9.7660    22.9130     2.1920   -23.3210 
   89.8750    63.8420    10.1540     7.5140     9.7210    22.9460     2.1930   -23.0160 
   90.0000    64.0970    10.1250     7.4880     9.7450    22.9730     2.1930   -22.7440 
   90.1250    68.5510    10.0330     7.4580     9.7290    22.9790     2.1920   -22.4910 
   90.2500    70.7610     9.9340     7.4420     9.6740    22.9810     2.1910   -22.2100 
   90.3750    68.5290     9.8690     7.4620     9.5450    23.0030     2.1890   -21.8700 
   90.5000    65.9870     9.8520     7.5310     9.3850    23.0380     2.1890   -21.4320 
   90.6250    66.1270     9.8670     7.6380     9.4000    23.0660     2.1890   -20.9070 
   90.7500    66.4180     9.8740     7.7410     9.4220    23.1000     2.1870   -20.3910 
   90.8750    64.6610     9.8440     7.8070     9.3190    23.1510     2.1860   -19.8660 
   91.0000    62.5400     9.7430     7.7940     9.0540    23.2380     2.1860   -19.2280 
   91.1250    62.8810     9.4900     7.6270     8.5860    23.3270     2.1880   -18.4100 
   91.2500    65.4490     9.0520     7.2840     7.9920    23.4390     2.1940   -17.4340 
   91.3750    69.3670     8.4140     6.7680     7.3780    23.5560     2.2030   -16.3330 
   91.5000    72.8860     7.6140     6.1220     6.6710    23.7350     2.2110   -15.2480 
   91.6250    76.2050     6.7490     5.4270     5.5300    24.0590     2.2160   -14.3270 
   91.7500    79.7140     5.9990     4.8070     4.6070    24.3890     2.2250   -13.5270 
   91.8750    81.9550     5.5360     4.3790     4.2510    24.4980     2.2440   -12.8330 
   92.0000    83.2380     5.5030     4.2400     4.1960    24.4130     2.2720   -12.3370 
   92.1250    82.2650     6.0720     4.5180     4.4020    24.3030     2.2980   -12.1780 
   92.2500    80.1190     7.1140     5.1600     5.2970    24.2510     2.3120   -12.3550 
   92.3750    77.6050     8.4000     6.0690     7.6600    24.1410     2.3150   -12.8570 
   92.5000    74.9820     9.4860     6.9810    12.2350    23.8930     2.3040   -13.5330 
   92.6250    73.8890     9.6720     7.3790    11.2730    23.6060     2.2700   -14.1990 
   92.7500    73.1950     8.9590     7.1080     8.9460    23.4780     2.2350   -14.7900 
   92.8750    73.4300     7.8050     6.4010     7.2460    23.5410     2.2220   -15.3480 
   93.0000    76.0570     6.8390     5.6860     5.8300    23.7810     2.2380   -15.9130 
   93.1250    81.6070     6.6420     5.3870     4.8650    23.9100     2.2630   -16.4940 
   93.2500    82.5360     7.2210     5.5880     5.4560    23.8260     2.2750   -17.1060 
   93.3750    75.3710     8.4300     6.2660     8.1410    23.6220     2.2660   -17.6900 
   93.5000    66.6930     9.9320     7.2800    11.7000    23.5260     2.2340   -18.2130 
   93.6250    65.8280    11.1140     8.2900    14.5710    23.4340     2.1930   -18.7440 
   93.7500    68.9420    11.5450     8.8940    12.5630    23.2520     2.1610   -19.3850 
   93.8750    70.8730    11.2170     8.9540    10.1660    23.0280     2.1440   -20.0810 
   94.0000    70.7590    10.5100     8.6390     9.0100    22.8680     2.1420   -20.7030 
   94.1250    68.4520     9.9210     8.2590     8.7920    22.7370     2.1540   -21.1360 
   94.2500    65.6390     9.6440     8.0110     8.7360    22.6300     2.1720   -21.3770 
   94.3750    64.9830     9.6400     7.9190     8.6870    22.5720     2.1880   -21.5040 
   94.5000    67.5350     9.8000     7.9430     8.6260    22.5590     2.1970   -21.6610 
   94.6250    68.5400    10.0060     8.0260     8.7060    22.5470     2.1970   -21.8930 
   94.7500    67.5310    10.1740     8.1010     8.7920    22.4650     2.1910   -22.0670 
   94.8750    66.8430    10.2830     8.1450     8.7670    22.2850     2.1810   -22.1630 
   95.0000    67.2500    10.3320     8.1530     8.6420    22.0860     2.1690   -22.2530 
   95.1250    67.4840    10.3320     8.1350     8.7160    22.0380     2.1540   -22.3920 
   95.2500    66.3660    10.3110     8.1130     9.0710    22.1240     2.1360   -22.5760 
   95.3750    63.8210    10.2920     8.0990     9.6390    22.3030     2.1160   -22.7970 
   95.5000    60.7900    10.2890     8.0960    10.0510    22.4490     2.0960   -23.0220 
   95.6250    60.5310    10.3060     8.1020     9.8910    22.4990     2.0790   -23.1690 
   95.7500    62.5280    10.3280     8.1060     9.4260    22.5100     2.0700   -23.2500 
   95.8750    64.6410    10.3370     8.0990     9.2720    22.5040     2.0720   -23.3170 
   96.0000    65.4770    10.3180     8.0680     9.2870    22.4710     2.0850   -23.4060 
   96.1250    64.2270    10.2440     8.0000     9.5130    22.4930     2.1040   -23.5000 
   96.2500    62.2980    10.1410     7.9080     9.7130    22.5350     2.1210   -23.6040 
   96.3750    61.2250    10.0720     7.8390     9.5690    22.5170     2.1350   -23.6850 
   96.5000    61.3840    10.1220     7.8540     9.3380    22.4560     2.1480   -23.6920 
   96.6250    61.4570    10.3720     8.0200     9.4300    22.4820     2.1650   -23.6750 
   96.7500    62.0230    10.7640     8.3050     9.8760    22.5350     2.1830   -23.7530 
   96.8750    63.8030    11.1850     8.6360    10.4710    22.5680     2.2030   -23.9410 
   97.0000    64.4500    11.4580     8.8950    10.8710    22.6160     2.2220   -24.1500 
   97.1250    62.4940    11.3520     8.9100    10.6180    22.7640     2.2260   -24.3110 
   97.2500    61.0790    10.9010     8.6720    10.1890    22.9980     2.2060   -24.3660 
   97.3750    62.6250    10.2520     8.2530     9.7180    23.2100     2.1710   -24.3070 
   97.5000    66.5860     9.6140     7.7850     9.1790    23.3510     2.1400   -24.2100 
   97.6250    69.4350     9.2210     7.4260     8.7380    23.3460     2.1270   -24.1390 
   97.7500    69.8170     9.1150     7.2470     8.9580    23.2950     2.1290   -24.0030 
   97.8750    69.3950     9.2640     7.2600     9.2270    23.2690     2.1420   -23.7160 
   98.0000    70.4210     9.5890     7.4400     9.2990    23.2800     2.1640   -23.3010 
   98.1250    72.1080    10.0080     7.7430     9.5880    23.3110     2.1850   -22.8290 
   98.2500    71.5560    10.4060     8.0750     9.8650    23.3340     2.1990   -22.3730 
   98.3750    68.5640    10.6770     8.3510    10.1070    23.3130     2.2030   -21.9620 
   98.5000    64.9140    10.7280     8.4820    10.2130    23.2780     2.1970   -21.5610 
   98.6250    62.0160    10.4830     8.3900    10.1380    23.2420     2.1820   -21.0800 
   98.7500    61.0960    10.0610     8.1410     9.7650    23.2100     2.1600   -20.5050 
   98.8750    64.2980     9.5990     7.8270     8.8260    23.2050     2.1300   -19.8700 
   99.0000    71.1840     9.2490     7.5510     7.7130    23.2430     2.0990   -19.2290 
   99.1250    76.9710     9.1760     7.4310     7.5250    23.2620     2.0790   -18.6090 
   99.2500    77.7720     9.3670     7.4850     8.1200    23.2600     2.0760   -18.0230 
   99.3750    75.0120     9.7290     7.6810     8.6400    23.2430     2.0940   -17.4790 
   99.5000    71.7500    10.0860     7.9280     8.8420    23.2490     2.1290   -16.9150 
   99.6250    70.1850    10.1640     8.0550     8.7400    23.3090     2.1730   -16.2930 
   99.7500    70.6670     9.8610     7.9530     8.4480    23.4050     2.2210   -15.7040 
   99.8750    71.6050     9.2730     7.6430     7.8900    23.4910     2.2600   -15.2150 
