~V
VERS. 2.00: Ver 2.00
~W
STRT.M 55.0000:
STOP.M 236.0000:
STEP.M 0.1250:
NULL. -999.2500:
UWI. F11015:
~C
DEPT.M :
GR.API :
RML.OHMM :
RI. :
RXO.OHMM :
CALI.CM :
DEN.GM/CC :
SP.MV :
~A
# ...
  167.5000    61.1260   230.5690   215.7040   258.7370    24.6850     2.2100   -20.0760 
  167.6250    57.0060   235.4250   221.7000   240.8640    24.6810     2.2100   -20.0630 
  167.7500    56.7850   234.2090   222.2270   217.6450    24.6880     2.2120   -20.1000 
  167.8750    59.7100   227.2370   217.2690   201.4300    24.7070     2.2110   -20.0310 
  168.0000    62.8450   216.1860   208.1020   184.0790    24.7160     2.2000   -19.8740 
  168.1250    64.2090   203.6640   197.0000   185.3730    24.6740     2.1840   -19.7640 
  168.2500    64.2660   192.2600   186.6130   166.7010    24.6190     2.1710   -19.7760 
  168.3750    64.5150   183.2390   178.2720   146.3770    24.5760     2.1660   -19.8890 
  168.5000    66.3140   177.2200   172.7070   144.0610    24.5550     2.1680   -19.9220 
  168.6250    67.2980   174.6180   170.5010   155.7410    24.5380     2.1730   -19.8290 
  168.7500    65.5940   174.3240   170.6490   162.9980    24.5410     2.1800   -19.8460 
  168.8750    63.1200   175.5290   172.3470   168.3060    24.5700     2.1900   -19.9910 
  169.0000    62.5650   177.3250   174.6460   173.7970    24.6080     2.2000   -20.0930 
  169.1250    63.1510   178.8390   176.5510   174.6830    24.6540     2.2090   -20.0850 
  169.2500    62.5030   179.7130   177.6910   173.0450    24.6730     2.2160   -20.0530 
  169.3750    61.6290   179.7620   177.9710   171.3270    24.6810     2.2190   -20.0800 
  169.5000    61.6150   178.8840   177.3590   172.4450    24.6830     2.2150   -20.1540 
  169.6250    62.5540   177.2640   176.0220   178.4640    24.6770     2.2050   -20.1700 
  169.7500    64.3070   175.8100   174.7560   177.4120    24.6700     2.1970   -20.1290 
  169.8750    66.2540   175.4990   174.4130   173.7680    24.6650     2.1950   -20.1240 
  170.0000    66.3150   177.3280   175.9230   169.9540    24.6630     2.1980   -20.1590 
  170.1250    65.1500   182.2580   180.3610   184.9340    24.6580     2.1990   -20.1560 
  170.2500    64.3360   188.9360   186.7500   201.3240    24.6650     2.1910   -20.0770 
  170.3750    62.4770   195.2480   193.3170   201.5130    24.6750     2.1770   -19.9520 
  170.5000    58.1040   198.8220   197.8900   187.9570    24.6960     2.1610   -19.9210 
  170.6250    55.5020   197.5760   198.3210   192.8770    24.7440     2.1490   -20.0230 
  170.7500    58.8440   192.9350   195.4320   188.3600    24.7750     2.1390   -20.0400 
  170.8750    64.8930   186.8250   190.7750   163.0260    24.7630     2.1340   -19.9190 
  171.0000    68.2240   181.0210   186.1090   141.5650    24.6810     2.1410   -19.8530 
  171.1250    67.0120   176.4040   182.5860   131.2030    24.5510     2.1600   -19.9560 
  171.2500    64.8850   172.2900   179.7520   122.0110    24.3930     2.1800   -20.1220 
  171.3750    64.3460   167.7250   156.8730   113.6600    24.2950     2.1950   -20.2150 
  171.5000    64.9280   161.8340   146.5060   127.6400    24.3390     2.2020   -20.1830 
  171.6250    64.9100   153.9210   140.9560   156.5320    24.4510     2.2050   -20.1920 
  171.7500    64.6820   144.6950   133.9820   170.8470    24.4810     2.2100   -20.3080 
  171.8750    64.5460   135.0330   126.3680   157.5740    24.3910     2.2150   -20.4140 
  172.0000    65.0680   125.7310   118.9360   145.6830    24.2450     2.2190   -20.4140 
  172.1250    66.8770   117.3370   112.2630   144.2190    24.1280     2.2200   -20.3270 
  172.2500    69.8030   109.7580   106.2800   147.3250    24.0000     2.2220   -20.2250 
  172.3750    71.5700   103.0720   101.0360   136.6470    23.8950     2.2280   -20.1360 
  172.5000    70.6950    97.6980    96.8450   123.9460    23.8820     2.2360   -19.9810 
  172.6250    69.6920    94.7960    94.6370   114.6160    23.9610     2.2380   -19.6460 
  172.7500    70.5140    94.6370    94.7540   105.9940    24.0600     2.2370   -19.2790 
  172.8750    70.5770    96.9100    97.0750   103.7630    24.0770     2.2380   -19.0020 
  173.0000    68.0020   100.0680   100.3030   107.9390    24.0140     2.2470   -18.7600 
  173.1250    65.9410   100.6730   101.2280   130.9170    23.9390     2.2600   -18.4510 
  173.2500    66.8470    96.3180    97.3500   143.2950    23.9540     2.2730   -18.1000 
  173.3750    67.6900    87.0390    88.4020   123.3250    24.0740     2.2880   -17.8180 
  173.5000    64.0240    75.6880    76.8900    82.9330    24.2210     2.3040   -17.7100 
  173.6250    56.6650    67.0450    67.3310    56.4890    24.3350     2.3230   -17.7230 
  173.7500    51.6810    63.7910    62.5680    52.3160    24.3700     2.3370   -17.6640 
  173.8750    51.2610    67.4590    64.3560    60.0630    24.4390     2.3330   -17.5770 
  174.0000    53.2240    79.5090    74.5670    76.8400    24.5260     2.3010   -17.6050 
  174.1250    53.9980   104.0000    97.4780   129.4230    24.5570     2.2450   -17.8040 
  174.2500    53.4640   141.5490   132.6770   222.8950    24.5480     2.1910   -18.0360 
  174.3750    52.9500   191.5720   177.4870   303.0390    24.5310     2.1580   -18.1710 
  174.5000    53.0140   245.9860   262.1880   322.4620    24.5210     2.1460   -18.2220 
  174.6250    53.9820   283.4540   296.2720   332.6050    24.4770     2.1500   -18.3370 
  174.7500    55.8980   295.3510   306.2190   336.0550    24.3840     2.1600   -18.5420 
  174.8750    58.0400   289.5980   299.2270   355.5720    24.2900     2.1700   -18.6780 
  175.0000    59.1100   278.0250   285.6780   370.4410    24.2420     2.1760   -18.6790 
  175.1250    57.6900   267.4380   272.1830   358.6500    24.2190     2.1760   -18.5870 
  175.2500    55.7380   259.8090   261.3360   340.2660    24.1800     2.1760   -18.5630 
  175.3750    54.7780   255.8020   254.2470   321.0400    24.1270     2.1780   -18.6440 
  175.5000    55.1680   255.8230   251.6030   280.5840    24.0860     2.1780   -18.6970 
  175.6250    56.8040   260.8460   254.4390   237.0130    24.0950     2.1750   -18.5950 
  175.7500    58.9310   270.0600   261.6050   189.3850    24.1630     2.1690   -18.5200 
  175.8750    60.3030   282.7810   272.1680   148.0170    24.1910     2.1630   -18.5690 
  176.0000    59.9310   297.9210   284.9370   117.6060    24.2040     2.1580   -18.6360 
  176.1250    58.4970   314.9520   299.2730    96.6610    24.2330     2.1570   -18.6160 
  176.2500    57.9610   334.1400   315.3400    90.0860    24.2500     2.1570   -18.4710 
  176.3750    57.8130   357.1230   334.5750    88.3800    24.2520     2.1540   -18.2890 
  176.5000    57.7700   385.7190   358.6830    83.9940    24.2000     2.1460   -18.2260 
  176.6250    58.1810   421.3760   389.0180    79.6460    24.1030     2.1310   -18.2460 
  176.7500    58.0660   459.1920   421.3570    84.1460    24.0620     2.1120   -18.1190 
  176.8750    57.2500   490.2700   448.5520   106.8310    24.1080     2.0940   -17.8600 
  177.0000    55.6650   503.5600   461.9580   155.2810    24.2020     2.0850   -17.6400 
  177.1250    53.3100   491.0280   454.3690   241.5150    24.2780     2.0930   -17.5580 
  177.2500    49.8780   466.2590   435.1970   334.9810    24.3990     2.1130   -17.5390 
  177.3750    46.7910   443.5970   415.9540   387.0730    24.5550     2.1420   -17.4430 
  177.5000    46.6020   434.7660   407.3040   397.9930    24.6350     2.1860   -17.1700 
  177.6250    48.7190   452.9800   421.6970   398.9680    24.5670     2.2720   -16.8800 
  177.7500    49.7890   499.3160   462.0990   448.4430    24.4130     2.4010   -16.6970 
  177.8750    48.8350   553.4570   519.3490   584.0300    24.3260     2.5540   -16.5040 
  178.0000    47.1320   528.8320   542.8740   691.2230    24.3630     2.6830   -16.2110 
  178.1250    46.5900   347.3040   427.9070   775.1140    24.4390     2.7410   -15.8240 
  178.2500    46.3010   176.7730   248.4190   765.5580    24.4980     2.7540   -15.4570 
  178.3750    45.9340    81.4220   115.4820   444.6710    24.5020     2.7480   -15.1640 
  178.5000    46.2350    36.9840    47.6180    86.7530    24.4720     2.7270   -14.9170 
  178.6250    49.1360    19.1270    22.0300    25.5070    24.4450     2.6720   -14.5870 
