~V
VERS. 2.00: Ver 2.00
~W
STRT.M 7.0000:
STOP.M 259.0000:
STEP.M 0.1250:
NULL. -999.2500:
UWI. F11018:
~C
DEPT.M :
DEN.GM/CC :
SP.MV :
GR.API :
RML.OHMM :
RI. :
RXO.OHMM :
CALI.CM :
~A
# ...
   74.5000     2.1970   -34.0040    71.8020    10.0040     6.9240    10.3360    24.5790 
   74.6250     2.1980   -34.4740    70.6860     9.9980     6.9400    10.6100    24.5920 
   74.7500     2.1990   -34.9390    67.0000    10.0230     6.9880    11.0240    24.6250 
   74.8750     2.1970   -35.2940    63.8210    10.0790     7.0630    11.4610    24.7330 
   75.0000     2.1940   -35.4260    63.0160    10.1730     7.1660    11.6020    24.9000 
   75.1250     2.1940   -35.3760    62.7250    10.3100     7.2960    11.5190    25.0700 
   75.2500     2.1950   -35.1420    62.6060    10.4850     7.4500    11.4740    25.2030 
   75.3750     2.1960   -34.7070    63.7900    10.6590     7.6070    11.7820    25.3240 
   75.5000     2.1940   -33.9760    64.7610    10.7120     7.6970    12.1050    25.4180 
   75.6250     2.1910   -33.0130    65.9880    10.5290     7.6450    11.9720    25.4320 
   75.7500     2.1880   -31.8480    68.5680    10.0250     7.3850    11.3270    25.3840 
   75.8750     2.1880   -30.6050    72.7440     9.2300     6.9120    10.2540    25.2980 
   76.0000     2.1920   -29.4130    76.3330     8.3330     6.3070     8.9680    25.1580 
   76.1250     2.2010   -28.3090    77.7680     7.6030     5.7440     7.4950    24.9580 
   76.2500     2.2190   -27.3480    79.2120     7.1940     5.3350     6.3060    24.7230 
   76.3750     2.2440   -26.5450    79.8800     7.1840     5.1510     5.8270    24.4610 
   76.5000     2.2590   -25.9400    77.5490     7.6670     5.2840     6.5400    24.2360 
   76.6250     2.2620   -25.4390    74.8140     8.5140     5.7050     8.1340    24.1140 
   76.7500     2.2670   -25.0300    73.5770     9.5630     6.3630     9.5270    24.0810 
   76.8750     2.2840   -24.6880    73.1570    10.5340     7.1100     9.9890    24.1090 
   77.0000     2.3230   -24.4030    71.2340    10.9850     7.6460    11.3970    24.1980 
   77.1250     2.3730   -24.1140    72.1000    10.7930     7.7810    13.8170    24.2490 
   77.2500     2.4060   -23.8300    79.0920    10.0770     7.5070    13.5970    24.2640 
   77.3750     2.3910   -23.5830    89.8150     9.1590     6.9880     8.8700    24.2600 
   77.5000     2.3330   -23.3630    94.1570     8.4370     6.4730     6.6240    24.2270 
   77.6250     2.2860   -23.1640    87.1360     8.0980     6.1410     6.7190    24.1800 
   77.7500     2.2670   -22.9240    76.4230     8.2040     6.0810     7.9620    24.1770 
   77.8750     2.2710   -22.5990    72.6390     8.7450     6.3400     8.7680    24.2310 
   78.0000     2.2900   -22.1500    76.4010     9.6200     6.9250     8.6750    24.1790 
   78.1250     2.3230   -21.5940    77.8550    10.4630     7.6070     9.0480    24.0010 
   78.2500     2.3690   -20.9110    76.7400    10.9110     8.1170     9.3340    23.8150 
   78.3750     2.4200   -20.1140    80.2050    10.6940     8.2020     9.1460    23.7800 
   78.5000     2.4410   -19.2710    90.4430     9.7140     7.6830     8.4080    23.9890 
   78.6250     2.4250   -18.5230   101.0150     8.4340     6.8240     6.5900    24.2870 
   78.7500     2.3940   -17.9810   105.9470     7.2550     5.9040     4.8480    24.5120 
   78.8750     2.3770   -17.6410   103.3240     6.4270     5.1440     4.0790    24.6330 
   79.0000     2.3790   -17.4800    99.2470     6.0510     4.6760     3.9190    24.7160 
   79.1250     2.3820   -17.4880    99.0280     5.9510     4.4350     3.9160    24.8160 
   79.2500     2.3760   -17.6650    99.9860     5.9980     4.3550     4.0650    24.9040 
   79.3750     2.3620   -18.0000    98.7540     6.1190     4.3800     4.4030    24.9410 
   79.5000     2.3460   -18.5260    97.9900     6.3970     4.5270     4.7400    24.9130 
   79.6250     2.3380   -19.2140    96.5730     7.0170     4.8680     5.0320    24.8270 
   79.7500     2.3420   -20.0300    90.9860     8.2070     5.5320     5.6210    24.7510 
   79.8750     2.3530   -20.9470    83.4270    10.1160     6.6590     7.6610    24.7240 
   80.0000     2.3640   -22.0270    75.8760    12.7530     8.3960    11.7300    24.6820 
   80.1250     2.3870   -23.2440    69.3110    15.4420    10.4150    15.1160    24.4630 
   80.2500     2.4320   -24.5530    64.8990    17.2140    12.0760    15.8240    24.0320 
   80.3750     2.4790   -25.9020    63.8980    17.1660    12.5790    18.2920    23.6410 
   80.5000     2.4670   -27.2550    62.8730    15.1970    11.5360    20.0240    23.3960 
   80.6250     2.3900   -28.5540    60.5320    12.8700     9.9340    14.4560    23.2570 
   80.7500     2.2940   -29.8010    59.8350    11.1270     8.4880    10.1650    23.2520 
   80.8750     2.2160   -31.0160    61.0940    10.2580     7.5160     8.7620    23.4980 
   81.0000     2.1670   -32.1550    62.3330    10.2600     7.1280     9.0880    24.0230 
   81.1250     2.1400   -33.1910    63.7940    10.7440     7.1520     9.6600    24.5080 
   81.2500     2.1310   -34.1130    64.2470    11.4440     7.4600    10.1420    24.6930 
   81.3750     2.1350   -34.9640    62.6360    12.1090     7.8970    10.8930    24.6800 
   81.5000     2.1420   -35.7360    60.6660    12.5410     8.3060    11.9840    24.6260 
   81.6250     2.1450   -36.3880    60.4360    12.7670     8.6200    12.9260    24.6380 
   81.7500     2.1420   -36.8630    60.0710    12.8530     8.8360    13.0430    24.7250 
   81.8750     2.1300   -37.1540    58.5600    12.8570     8.9680    13.1860    24.8090 
   82.0000     2.1100   -37.2620    60.1910    12.7950     9.0070    13.5940    24.8600 
   82.1250     2.0980   -37.2300    65.8770    12.6780     8.9650    13.8540    24.8780 
   82.2500     2.1020   -37.0600    70.1940    12.5090     8.8450    13.7520    24.8900 
   82.3750     2.1190   -36.7320    68.2100    12.3040     8.6620    13.3540    24.9030 
   82.5000     2.1370   -36.2400    63.5140    12.0950     8.4370    13.0540    24.8960 
   82.6250     2.1510   -35.6940    63.3070    11.9200     8.2120    13.0350    24.8610 
   82.7500     2.1650   -35.1700    67.1860    11.8020     8.0160    12.9280    24.8040 
   82.8750     2.1810   -34.7040    68.7070    11.7380     7.8680    12.8570    24.7520 
   83.0000     2.1970   -34.3210    65.8320    11.7060     7.7830    12.8130    24.7440 
   83.1250     2.2080   -34.0050    62.8020    11.6700     7.7420    12.8870    24.8370 
   83.2500     2.2150   -33.7530    61.7830    11.6350     7.7380    12.9760    25.0480 
   83.3750     2.2200   -33.5380    62.1620    11.6830     7.7930    13.0100    25.2830 
   83.5000     2.2230   -33.3700    64.1720    12.0370     8.0170    13.4520    25.4490 
   83.6250     2.2290   -33.2050    67.0050    12.8100     8.4920    14.0970    25.5560 
   83.7500     2.2390   -32.9660    68.3780    14.0110     9.2620    15.3740    25.5840 
   83.8750     2.2540   -32.6090    66.4950    15.4700    10.2780    18.3460    25.4360 
   84.0000     2.2720   -32.0960    63.0880    16.6940    11.3110    24.4920    24.9640 
   84.1250     2.2850   -31.4670    60.6820    17.1020    11.9550    28.7450    24.4010 
   84.2500     2.2770   -30.7280    60.6710    16.3460    11.8740    23.4900    24.1070 
   84.3750     2.2380   -29.8610    61.8640    14.5680    11.0110    17.2910    24.2140 
   84.5000     2.1740   -28.8010    62.1300    12.3680     9.6160    14.3680    24.8250 
   84.6250     2.1190   -27.6180    62.8950    10.3740     8.1760    11.7530    25.6960 
   84.7500     2.1000   -26.4350    68.8290     8.7880     6.9380     8.4080    26.2440 
   84.8750     2.1330   -25.3560    79.1090     7.6560     6.0290     5.7620    26.1240 
   85.0000     2.2050   -24.4330    87.1040     7.0620     5.5490     5.0110    25.7050 
   85.1250     2.2640   -23.6250    89.7400     6.9140     5.4120     5.0970    25.4700 
   85.2500     2.2810   -22.9280    88.8740     7.1140     5.5480     5.5160    25.3000 
   85.3750     2.2610   -22.3520    87.0310     7.4530     5.8350     6.1830    25.1460 
   85.5000     2.2310   -21.8970    81.9630     7.6290     6.0800     7.1280    25.1830 
   85.6250     2.2120   -21.5340    77.1720     7.5120     6.1370     7.3860    25.3170 
