~V
VERS. 2.00: Ver 2.00
~W
STRT.M 57.0000:
STOP.M 283.0000:
STEP.M 0.1250:
NULL. -999.2500:
UWI. F11039:
~C
DEPT.M :
SP.MV :
GR.API :
RML.OHMM :
RI. :
RXO.OHMM :
CALI.CM :
DEN.GM/CC :
~A
# ...
  259.5000    -4.8110    63.5440    13.9880    12.9060    16.2130    24.0770     2.4100 
  259.6250    -4.7750    61.6400    13.1610    12.1660    15.0440    24.0560     2.4020 
  259.7500    -4.7510    59.9150    12.4260    11.4550    13.0350    23.9970     2.4060 
  259.8750    -4.7080    58.4710    12.0410    11.0050    11.0860    23.9370     2.4220 
  260.0000    -4.6780    56.9840    12.0090    10.8560    10.7460    23.8970     2.4430 
  260.1250    -4.6300    54.8970    12.2550    10.9770    10.9500    23.8550     2.4600 
  260.2500    -4.5820    54.8560    12.6480    11.2820    11.0160    23.7980     2.4700 
  260.3750    -4.5780    57.6650    13.0520    11.6670    11.1780    23.7220     2.4710 
  260.5000    -4.5280    61.1830    13.3970    12.0360    11.4680    23.7090     2.4650 
  260.6250    -4.5100    63.1550    13.6910    12.3670    11.5630    23.7430     2.4530 
  260.7500    -4.4800    62.9320    13.9720    12.6730    11.3700    23.8600     2.4370 
  260.8750    -4.4530    60.1810    14.2540    12.9640    11.1490    24.0400     2.4240 
  261.0000    -4.4350    57.1920    14.5060    13.2210    11.0500    24.1890     2.4190 
  261.1250    -4.4260    57.6160    14.6770    13.4050    11.3780    24.2660     2.4240 
  261.2500    -4.4150    61.3200    14.7270    13.4750    12.1660    24.3020     2.4370 
  261.3750    -4.3910    64.1050    14.6210    13.3910    13.3560    24.3500     2.4500 
  261.5000    -4.4280    64.1850    14.4100    13.1960    14.1250    24.3700     2.4600 
  261.6250    -4.4510    63.9360    14.1400    12.9330    14.3810    24.3900     2.4660 
  261.7500    -4.4900    64.7570    13.8680    12.6540    14.0870    24.4000     2.4690 
  261.8750    -4.5530    64.6250    13.6550    12.4200    13.2130    24.4190     2.4720 
  262.0000    -4.5910    62.6950    13.5240    12.2570    12.0160    24.4540     2.4720 
  262.1250    -4.6300    59.2990    13.4730    12.1690    11.4730    24.5110     2.4690 
  262.2500    -4.6630    56.6490    13.4740    12.1370    11.5570    24.5350     2.4620 
  262.3750    -4.6980    56.9700    13.4810    12.1260    12.0300    24.5200     2.4530 
  262.5000    -4.7210    60.4490    13.4490    12.0950    12.5290    24.4900     2.4470 
  262.6250    -4.7680    64.4340    13.3610    12.0240    12.8930    24.4510     2.4470 
  262.7500    -4.8350    64.1980    13.2280    11.9170    12.9160    24.4010     2.4520 
  262.8750    -4.8910    60.1790    13.0910    11.7960    12.8240    24.3960     2.4580 
  263.0000    -4.9580    58.3200    12.9980    11.7000    12.7730    24.4280     2.4610 
  263.1250    -5.0400    59.9470    12.9830    11.6570    12.8800    24.4680     2.4570 
  263.2500    -5.1360    61.8880    13.0540    11.6820    12.8450    24.4840     2.4500 
  263.3750    -5.2190    61.8820    13.1990    11.7780    13.1430    24.4630     2.4470 
  263.5000    -5.2530    62.5280    13.3640    11.9030    13.3750    24.4290     2.4520 
  263.6250    -5.2510    62.5520    13.5110    12.0270    13.3730    24.3430     2.4620 
  263.7500    -5.2420    61.3730    13.6170    12.1230    13.1590    24.2480     2.4700 
  263.8750    -5.2910    61.5040    13.6750    12.1740    12.9360    24.2360     2.4710 
  264.0000    -5.3470    62.4180    13.7140    12.2000    12.7170    24.3190     2.4640 
  264.1250    -5.3700    63.1190    13.7600    12.2220    12.6420    24.4120     2.4540 
  264.2500    -5.3600    64.0420    13.8280    12.2590    12.8770    24.4940     2.4450 
  264.3750    -5.3920    64.8520    13.9240    12.3200    13.2470    24.5320     2.4390 
  264.5000    -5.4680    61.8600    14.0280    12.3950    13.5720    24.5210     2.4400 
  264.6250    -5.5430    57.4430    14.1230    12.4700    14.1320    24.4760     2.4450 
  264.7500    -5.5750    56.6760    14.1930    12.5270    15.2360    24.4080     2.4540 
  264.8750    -5.5120    58.6150    14.2250    12.5520    18.2740    24.3170     2.4620 
  265.0000    -5.4050    59.5980    14.2150    12.5440    22.1970    24.2480     2.4640 
  265.1250    -5.3400    61.2030    14.1580    12.4970    24.3710    24.2240     2.4630 
  265.2500    -5.3570    63.7190    14.0350    12.4050    23.2920    24.2120     2.4600 
  265.3750    -5.3290    63.6930    13.8380    12.2590    22.4630    24.2360     2.4600 
  265.5000    -5.2520    61.9650    13.6350    12.0750    23.2940    24.2870     2.4620 
  265.6250    -5.2060    60.7050    13.4100    11.8710    21.4340    24.3420     2.4680 
  265.7500    -5.2130    60.4430    13.2970    11.6790    17.4670    24.3770     2.4740 
  265.8750    -5.2580    60.3310    13.2420    11.5460    15.2130    24.3720     2.4820 
  266.0000    -5.3390    60.0790    13.2870    11.4940    14.5110    24.3520     2.4900 
  266.1250    -5.4250    60.2540    13.4060    11.5290    14.7010    24.3410     2.4960 
  266.2500    -5.4590    61.0900    13.6000    11.6400    15.1980    24.3430     2.4990 
  266.3750    -5.5100    62.0500    13.8230    11.8000    15.6640    24.3680     2.4970 
  266.5000    -5.6090    63.1730    14.0170    11.9590    16.0030    24.3770     2.4920 
  266.6250    -5.7000    64.8610    14.1570    12.0890    16.2530    24.3540     2.4850 
  266.7500    -5.7660    66.3520    14.2380    12.1760    16.3610    24.3010     2.4780 
  266.8750    -5.8180    65.8710    14.2670    12.2170    16.5060    24.2460     2.4730 
  267.0000    -5.8550    63.4370    14.2700    12.2310    16.2790    24.2090     2.4690 
  267.1250    -5.8740    60.6530    14.2540    12.2250    15.5660    24.1870     2.4640 
  267.2500    -5.9140    59.4150    14.2120    12.1950    14.6650    24.1660     2.4580 
  267.3750    -5.9480    59.4380    14.1180    12.1200    14.1500    24.1520     2.4510 
  267.5000    -5.9980    58.8100    13.9590    11.9910    13.5860    24.1370     2.4450 
  267.6250    -6.0420    57.0950    13.7300    11.8030    13.4530    24.1150     2.4430 
  267.7500    -6.0930    56.7360    13.4430    11.5620    12.9750    24.0840     2.4440 
  267.8750    -6.1500    58.9620    13.1230    11.2830    12.0810    24.0890     2.4500 
  268.0000    -6.1800    61.0400    12.8150    11.0040    11.8300    24.1080     2.4560 
  268.1250    -6.1950    61.6710    12.5500    10.7510    12.1970    24.1490     2.4600 
  268.2500    -6.2110    61.0440    12.3490    10.5470    12.9730    24.2110     2.4610 
  268.3750    -6.2410    60.5380    12.2330    10.4160    13.1850    24.2610     2.4570 
  268.5000    -6.2180    61.3520    12.1880    10.3510    13.1510    24.2950     2.4510 
  268.6250    -6.1730    62.4610    12.2030    10.3460    12.9100    24.3220     2.4480 
  268.7500    -6.1150    62.3940    12.2580    10.3850    13.1200    24.3310     2.4470 
  268.8750    -6.0960    61.8740    12.3320    10.4530    14.3250    24.3420     2.4520 
  269.0000    -6.1250    62.1930    12.4000    10.5260    15.3500    24.3340     2.4580 
  269.1250    -6.1500    61.7740    12.4490    10.5900    15.2240    24.3140     2.4660 
  269.2500    -6.1360    59.1770    12.4740    10.6360    15.0310    24.3110     2.4720 
  269.3750    -6.1100    57.1740    12.4740    10.6560    15.8690    24.3400     2.4760 
  269.5000    -6.1180    58.5160    12.4650    10.6600    17.5660    24.3410     2.4780 
  269.6250    -6.1540    61.4180    12.4620    10.6560    19.3460    24.3190     2.4810 
  269.7500    -6.1740    63.3390    12.4730    10.6490    20.1080    24.2640     2.4870 
  269.8750    -6.1780    63.0410    12.4970    10.6400    19.7550    24.2030     2.4940 
  270.0000    -6.1990    62.0950    12.5130    10.6220    20.7420    24.1570     2.4960 
  270.1250    -6.2210    62.3340    12.4940    10.5790    21.5230    24.1610     2.4910 
  270.2500    -6.2490    63.1650    12.4190    10.4990    21.4560    24.2060     2.4790 
  270.3750    -6.2910    61.9600    12.2840    10.3720    19.7320    24.2330     2.4650 
  270.5000    -6.2990    60.3090    12.1220    10.2200    16.4740    24.2400     2.4560 
  270.6250    -6.2890    61.0370    11.9710    10.0680    13.2480    24.2460     2.4520 
