~V
VERS. 2.00: Ver 2.00
~W
STRT.M 59.0000:
STOP.M 225.0000:
STEP.M 0.1250:
NULL. -999.2500:
UWI. F11010:
~C
DEPT.M :
GR.API :
RML.OHMM :
RI. :
RXO.OHMM :
CALI.CM :
SP.MV :
DEN.GM/CC :
~A
# ...
  160.2500    63.7200   224.2640   206.8000   110.3460    24.9300   -19.4010     2.1720 
  160.3750    59.8300   247.0270   232.0990   160.0270    24.9020   -19.7210     2.1640 
  160.5000    57.5440   255.0170   243.1720   168.1110    24.7510   -20.0510     2.1690 
  160.6250    57.9280   244.5300   234.3490   159.6560    24.5490   -20.4320     2.1810 
  160.7500    59.2530   225.2460   215.9340   157.9900    24.3540   -20.8220     2.1910 
  160.8750    60.6610   204.9930   196.7700   172.1700    24.2150   -21.1780     2.1960 
  161.0000    62.4300   188.3460   181.4460   181.0130    24.0770   -21.5010     2.1950 
  161.1250    64.7160   176.8590   170.8980   162.6860    23.9610   -21.7720     2.1920 
  161.2500    66.3430   168.9490   163.5290   140.5950    23.9510   -22.0070     2.1890 
  161.3750    66.9730   164.0590   158.9230   133.4250    23.9990   -22.2330     2.1860 
  161.5000    65.4500   162.0500   156.8980   147.3650    24.0320   -22.4420     2.1840 
  161.6250    62.9450   163.5040   158.0790   145.4400    24.0400   -22.5570     2.1820 
  161.7500    63.1920   167.8750   162.2440   144.7960    24.1080   -22.5920     2.1760 
  161.8750    65.5370   174.5980   168.9450   160.4830    24.2950   -22.5570     2.1660 
  162.0000    66.0810   182.4220   177.0140   165.3240    24.6210   -22.4220     2.1520 
  162.1250    63.9050   188.9720   184.1730   173.6080    25.1300   -22.1380     2.1420 
  162.2500    61.6620   192.2200   188.0440   166.4630    25.6720   -21.7750     2.1420 
  162.3750    60.0720   191.3210   187.3450   159.9460    25.8980   -21.3490     2.1540 
  162.5000    59.9500   187.0660   182.7990   150.2860    25.7360   -20.8870     2.1730 
  162.6250    61.5300   181.7090   176.9630   124.6830    25.3390   -20.4590     2.1890 
  162.7500    63.0750   177.6980   172.6800   108.9300    24.9870   -20.0510     2.1970 
  162.8750    63.5610   175.5350   170.8180   108.7590    24.8840   -19.6480     2.1980 
  163.0000    64.6590   173.8830   170.2330   136.5010    25.0060   -19.2810     2.1950 
  163.1250    65.6700   169.3380   167.2230   160.3260    25.1810   -19.0360     2.1910 
  163.2500    64.8280   159.9880   159.0400   184.8260    25.3340   -18.8760     2.1870 
  163.3750    64.2980   146.1400   145.5700   178.9210    25.4560   -18.7600     2.1840 
  163.5000    65.8400   130.3150   129.5610   141.7970    25.5240   -18.6340     2.1820 
  163.6250    68.9030   116.5160   115.6520    96.7870    25.5160   -18.4860     2.1800 
  163.7500    71.0830   106.8480   106.2660    75.8460    25.4620   -18.3920     2.1790 
  163.8750    71.6460   101.5290   101.6170    72.8790    25.4000   -18.3630     2.1790 
  164.0000    71.8340    99.4770   100.6070    76.5040    25.3110   -18.3400     2.1810 
  164.1250    71.0900    98.9320   101.4330    79.7260    25.2490   -18.3030     2.1850 
  164.2500    69.6070    97.9230   101.7450    78.3700    25.2230   -18.2360     2.1910 
  164.3750    68.3150    95.8080   100.5850    74.6690    25.1930   -18.1690     2.1990 
  164.5000    67.4740    92.8450    98.2100    69.8110    25.1120   -18.1510     2.2060 
  164.6250    67.5660    89.5290    95.5450    68.9990    25.0240   -18.1390     2.2090 
  164.7500    69.9630    85.5950    92.5140    63.5010    24.9470   -18.0560     2.2060 
  164.8750    73.5020    79.9830    87.5220    63.8610    24.9210   -17.9090     2.2030 
  165.0000    73.7550    71.9600    79.1500    70.0590    24.9440   -17.7330     2.2070 
  165.1250    70.4060    62.0290    67.8900    66.5160    24.9500   -17.5010     2.2260 
  165.2500    70.5380    52.5580    57.0290    52.1220    24.9050   -17.2200     2.2560 
  165.3750    73.8990    45.3140    48.7070    36.4430    24.8180   -16.9490     2.2840 
  165.5000    74.4360    41.1360    43.7980    27.2620    24.7470   -16.7270     2.2990 
  165.6250    70.1700    40.2190    42.4790    29.6020    24.7390   -16.5610     2.2970 
  165.7500    66.9520    41.1630    43.2350    39.7470    24.8200   -16.4330     2.2860 
  165.8750    65.7070    43.1580    45.1650    43.7160    24.9100   -16.3740     2.2740 
  166.0000    64.7850    45.8200    47.7100    39.0610    24.9010   -16.3940     2.2620 
  166.1250    63.8910    49.7130    51.0980    37.9290    24.8080   -16.5070     2.2510 
  166.2500    63.6080    55.7900    56.3040    39.3860    24.7550   -16.6940     2.2380 
  166.3750    62.4810    65.1910    64.7570    47.9890    24.7400   -16.8970     2.2240 
  166.5000    60.6910    78.4030    77.3030    71.5740    24.7280   -17.0410     2.2120 
  166.6250    59.6970    94.3290    93.0290   107.8640    24.7000   -17.1500     2.2050 
  166.7500    60.5670   108.6870   107.1010   135.4660    24.6690   -17.2660     2.2030 
  166.8750    61.9760   117.4680   114.6760   125.4710    24.6460   -17.3480     2.2050 
  167.0000    62.2720   118.7270   113.5160   104.9510    24.6390   -17.3800     2.2090 
  167.1250    61.8120   113.6270   105.7160    92.8990    24.6720   -17.3930     2.2110 
  167.2500    62.2280   107.6050    97.6240    85.9020    24.7110   -17.3800     2.2090 
  167.3750    63.4640   103.9320    92.3640    83.5910    24.7580   -17.3380     2.2060 
  167.5000    63.3260   103.8880    90.9180    76.1100    24.8160   -17.2820     2.2050 
  167.6250    61.1960   106.8850    92.9540    77.2490    24.9000   -17.2150     2.2130 
  167.7500    60.5360   109.5570    95.4630    98.0700    24.9310   -17.1910     2.2270 
  167.8750    61.3230   108.7690    95.4120   124.4660    24.9180   -17.2010     2.2430 
  168.0000    61.0130   102.5640    90.5770   124.6580    24.9010   -17.2170     2.2550 
  168.1250    58.6440    90.9130    80.5340    97.7930    24.8720   -17.1730     2.2590 
  168.2500    57.2200    77.6030    68.6930    70.4190    24.8030   -17.0730     2.2600 
  168.3750    58.8660    65.3780    57.6800    49.5090    24.7650   -16.9590     2.2630 
  168.5000    63.6750    55.6540    48.9910    36.9710    24.8540   -16.8250     2.2690 
  168.6250    68.3100    48.4250    43.0970    34.6300    25.1180   -16.6110     2.2700 
  168.7500    70.1900    42.6260    38.9690    34.1110    25.2360   -16.2930     2.2610 
  168.8750    68.7080    38.2710    36.1190    34.4940    25.3750   -15.9010     2.2550 
  169.0000    65.8040    35.4770    34.1690    35.9110    25.4750   -15.4600     2.2700 
  169.1250    61.8010    33.8920    32.8650    33.6510    25.4430   -14.9920     2.3270 
  169.2500    57.6050    32.5790    31.8740    28.1930    25.2900   -14.5560     2.4090 
  169.3750    55.0890    31.2750    30.9620    28.5700    25.1330   -14.1440     2.4880 
  169.5000    55.2890    29.7960    29.7880    33.0510    25.0540   -13.7620     2.5400 
  169.6250    57.4180    27.9080    28.0000    32.6670    25.0930   -13.4540     2.5460 
  169.7500    59.0330    25.6810    25.7030    30.5690    25.1210   -13.1970     2.5240 
  169.8750    60.5850    23.2750    23.0920    28.0410    25.1250   -12.9650     2.4930 
  170.0000    61.2790    20.9150    20.4510    19.9420    25.1790   -12.7370     2.4620 
  170.1250    61.1680    18.8760    18.1510    16.1540    25.2140   -12.5340     2.4380 
  170.2500    61.4980    17.2380    16.3170    16.0870    25.2520   -12.3290     2.4190 
  170.3750    63.3150    16.0340    14.9770    15.3850    25.2790   -12.0980     2.4050 
  170.5000    66.3770    15.2730    14.1470    11.7570    25.3480   -11.8420     2.3970 
  170.6250    70.0100    15.0690    13.9540    10.1490    25.3710   -11.5650     2.4030 
  170.7500    73.4200    15.4170    14.3550    10.1650    25.3310   -11.2870     2.4230 
  170.8750    74.3560    16.4270    15.4260    11.4550    25.2540   -11.0140     2.4570 
  171.0000    71.1490    18.2190    17.2620    13.1380    25.1540   -10.7580     2.5040 
  171.1250    66.7360    20.9650    20.0770    16.1830    24.9740   -10.5360     2.5560 
  171.2500    66.1680    24.2170    23.6220    21.9180    24.8180   -10.3530     2.6020 
  171.3750    68.2910    27.1790    27.3070    26.9590    24.7970   -10.2000     2.6350 
