~V
VERS. 2.00: Ver 2.00
~W
STRT.M 45.0000:
STOP.M 277.0000:
STEP.M 0.1250:
NULL. -999.2500:
UWI. F11056:
~C
DEPT.M :
GR.API :
RML.OHMM :
RI. :
RXO.OHMM :
CALI.CM :
DEN.GM/CC :
SP.MV :
~A
# ...
  213.7500    64.6590    43.3620    36.8220    33.4350    25.0020     2.2710    -9.5910 
  213.8750    64.6680    43.7490    37.1200    33.4630    25.0980     2.2420    -9.6760 
  214.0000    65.5260    45.1540    38.3530    30.8270    25.3620     2.2160    -9.8600 
  214.1250    64.9630    47.4910    40.5120    31.6620    25.5310     2.2010   -10.0900 
  214.2500    64.7440    50.4700    43.3740    36.1710    25.5850     2.1960   -10.3060 
  214.3750    66.7520    53.3970    46.3200    40.0060    25.5760     2.1960   -10.4790 
  214.5000    70.3930    55.1180    48.2080    40.7670    25.5170     2.1960   -10.6200 
  214.6250    72.3950    55.3410    48.5720    40.3000    25.4700     2.1970   -10.7390 
  214.7500    71.3450    54.5390    47.7550    39.8860    25.4490     2.2010   -10.8270 
  214.8750    68.6960    53.7630    46.7790    35.7790    25.4320     2.2110   -10.8960 
  215.0000    66.0150    54.4070    46.9990    31.1970    25.3690     2.2280   -10.9960 
  215.1250    63.5060    56.8430    48.8780    30.2040    25.2550     2.2430   -11.0960 
  215.2500    61.5880    60.6750    52.2810    34.0800    25.1660     2.2500   -11.1910 
  215.3750    61.3950    64.5200    56.2610    41.0110    25.1290     2.2460   -11.2830 
  215.5000    61.9660    65.8570    58.5670    42.3620    25.0970     2.2320   -11.3540 
  215.6250    61.3460    63.9380    57.8110    38.8760    25.0000     2.2180   -11.4580 
  215.7500    59.8870    59.6530    54.3030    37.0170    24.8630     2.2080   -11.6260 
  215.8750    59.7110    54.9620    49.7880    34.6150    24.8010     2.2050   -11.7970 
  216.0000    62.1300    52.0770    46.5930    29.0150    24.7600     2.2060   -11.8440 
  216.1250    64.2250    51.6290    45.7290    25.9420    24.7090     2.2080   -11.8330 
  216.2500    65.5240    53.6250    47.3210    31.5670    24.7420     2.2110   -11.8360 
  216.3750    66.6400    57.6550    50.9140    39.2160    24.9060     2.2140   -11.9050 
  216.5000    67.5960    63.0970    55.8290    45.3730    25.2530     2.2140   -12.0350 
  216.6250    67.1120    68.9100    61.0590    45.6070    25.5430     2.2100   -12.1650 
  216.7500    65.2950    74.8070    66.3300    44.7950    25.6190     2.2030   -12.2680 
  216.8750    63.3210    81.1600    72.0220    43.0390    25.5660     2.1950   -12.3890 
  217.0000    62.1850    88.9630    79.1860    49.4290    25.5450     2.1930   -12.6290 
  217.1250    62.8780    98.0250    87.7380    63.9820    25.6570     2.1960   -12.9390 
  217.2500    64.6500   106.9250    96.3910    79.1620    25.8030     2.2030   -13.2620 
  217.3750    65.4070   113.3610   102.9080    80.9390    25.8840     2.2130   -13.5250 
  217.5000    64.6590   114.7870   104.6220    75.9350    25.9520     2.2230   -13.7360 
  217.6250    64.2930   112.3720   102.4180    73.5450    26.0900     2.2300   -13.9480 
  217.7500    64.0870   108.1860    98.2740    67.1350    26.1800     2.2340   -14.1640 
  217.8750    63.3530   104.4480    94.4800    60.3810    26.1840     2.2360   -14.3770 
  218.0000    61.5570   102.8650    92.9380    63.3060    26.1040     2.2370   -14.5540 
  218.1250    60.2700   103.1190    93.4870    64.9700    25.8700     2.2390   -14.7030 
  218.2500    60.6650   104.2200    95.2640    61.9930    25.5800     2.2370   -14.8350 
  218.3750    62.1310   104.6880    96.8670    56.4630    25.3810     2.2310   -14.9570 
  218.5000    63.6780   102.6180    96.3690    55.4540    25.3210     2.2220   -15.0570 
  218.6250    65.4390    97.8030    93.1860    61.9880    25.3990     2.2160   -15.1680 
  218.7500    67.9670    90.8530    87.6190    69.9100    25.6310     2.2170   -15.2760 
  218.8750    70.0800    82.9890    80.7180    76.0140    25.9730     2.2250   -15.3320 
  219.0000    69.9610    75.6720    73.9210    71.8150    26.2460     2.2340   -15.2850 
  219.1250    68.7670    69.6970    68.2580    64.3010    26.3490     2.2420   -15.1530 
  219.2500    68.1650    65.3370    64.1380    59.5950    26.3610     2.2500   -14.9900 
  219.3750    70.1310    62.5480    61.5970    57.7850    26.3350     2.2570   -14.8540 
  219.5000    72.7410    61.2610    60.6150    57.2830    26.2710     2.2650   -14.7680 
  219.6250    71.1870    60.8600    60.5770    58.1730    26.2270     2.2700   -14.6520 
  219.7500    65.7150    60.9830    61.0760    58.9880    26.2350     2.2690   -14.4950 
  219.8750    59.6730    61.3380    61.7610    57.9090    26.2740     2.2600   -14.3470 
  220.0000    57.8640    61.6460    62.3880    56.3760    26.2950     2.2460   -14.3040 
  220.1250    60.3110    61.5840    62.7090    56.4310    26.3000     2.2330   -14.3500 
  220.2500    64.2350    60.7790    62.2850    58.3000    26.3010     2.2260   -14.4270 
  220.3750    65.9500    58.9870    60.6670    59.3180    26.2920     2.2300   -14.5100 
  220.5000    65.1690    56.3130    57.7060    57.6970    26.2600     2.2460   -14.5600 
  220.6250    67.5520    53.6540    54.3830    55.0910    26.2100     2.2640   -14.6060 
  220.7500    72.1270    51.8840    51.7610    46.8840    26.1590     2.2740   -14.6800 
  220.8750    73.5970    51.7730    50.8640    39.6770    26.0950     2.2700   -14.7570 
  221.0000    71.2310    54.2750    52.8490    43.9870    26.0270     2.2520   -14.7820 
  221.1250    69.3960    59.2190    57.4070    55.2180    25.9890     2.2330   -14.7820 
  221.2500    69.9440    66.3380    64.0330    63.4060    25.9890     2.2170   -14.7820 
  221.3750    71.3470    74.9080    71.8170    69.8130    25.9730     2.2070   -14.7820 
  221.5000    70.4020    83.9490    79.6630    76.4380    25.9350     2.2050   -14.7970 
  221.6250    67.6370    92.9240    87.1820    77.2620    25.8930     2.2180   -14.8060 
  221.7500    64.6600   102.3570    95.0780    78.3990    25.8780     2.2530   -14.8100 
  221.8750    61.4760   113.1640   104.3960    90.7840    25.8400     2.3040   -14.8300 
  222.0000    57.6840   125.5460   115.4210   118.3640    25.6620     2.3490   -14.8360 
  222.1250    56.5260   136.9650   125.8030   138.2880    25.3880     2.3640   -14.7880 
  222.2500    60.0180   143.9350   132.3450   137.6510    25.2030     2.3440   -14.6760 
  222.3750    64.5470   143.8030   132.3830   141.1550    25.4130     2.3040   -14.5040 
  222.5000    68.0720   135.9420   124.9850   146.6760    25.8120     2.2660   -14.3560 
  222.6250    70.3720   125.0010   114.4900   133.3550    25.9730     2.2400   -14.2590 
  222.7500    70.0030   114.4090   104.2680   107.1100    25.9930     2.2220   -14.1530 
  222.8750    67.2130   106.1810    96.3700    88.2900    26.0080     2.2060   -13.9960 
  223.0000    65.8410   101.2250    91.7740    82.0800    26.0460     2.1920   -13.8540 
  223.1250    67.2100    98.5040    89.4810    81.2780    26.0490     2.1860   -13.8120 
  223.2500    68.5500    97.2190    88.7220    81.1300    26.0210     2.1880   -13.8510 
  223.3750    69.0330    96.5560    88.7000    81.7230    25.9940     2.1940   -13.9300 
  223.5000    69.7700    95.7220    88.6420    83.6170    25.9700     2.1980   -13.9920 
  223.6250    70.6550    94.2690    88.0180    86.4880    25.9390     2.1970   -14.0170 
  223.7500    70.0730    92.0930    86.6030    88.1670    25.9000     2.1950   -14.0250 
  223.8750    67.9210    89.3320    84.4170    85.5290    25.8520     2.1940   -14.0630 
  224.0000    65.8690    86.2770    81.6820    77.3980    25.8030     2.1920   -14.1220 
  224.1250    65.4520    83.3100    78.8950    66.3470    25.7150     2.1870   -14.1200 
  224.2500    66.1160    80.6120    76.3520    55.4550    25.5900     2.1800   -14.0690 
  224.3750    66.2770    78.2260    74.1600    52.8500    25.5650     2.1740   -14.0260 
  224.5000    64.9750    76.1530    72.2900    58.3140    25.6470     2.1770   -14.0190 
  224.6250    64.6960    74.3470    70.6350    62.8370    25.5910     2.1890   -14.0050 
  224.7500    68.4150    72.9090    69.2930    63.7260    25.3550     2.2060   -13.9870 
  224.8750    74.5780    71.9860    68.4380    61.4750    25.1920     2.2230   -13.9660 
