~V
VERS. 2.00: Ver 2.00
~W
STRT.M 52.0000:
STOP.M 271.0000:
STEP.M 0.1250:
NULL. -999.2500:
UWI. F11069:
~C
DEPT.M :
GR.API :
RML.OHMM :
RI. :
RXO.OHMM :
CALI.CM :
DEN.GM/CC :
SP.MV :
~A
# ...
  119.5000    67.8440     8.3850     7.6380    10.3600    24.4420     2.1660    -3.3230 
  119.6250    67.6510     8.0820     7.4830    10.3830    24.4330     2.1630    -3.3580 
  119.7500    69.8610     7.6650     7.2450    10.1750    24.4210     2.1670    -3.3850 
  119.8750    71.8380     7.2710     6.9820     9.4000    24.4170     2.1780    -3.4410 
  120.0000    73.5530     7.0270     6.7650     8.0500    24.3960     2.1930    -3.4750 
  120.1250    74.0660     6.9840     6.6620     7.2310    24.3790     2.2030    -3.4320 
  120.2500    71.7690     7.0240     6.6610     8.3070    24.3910     2.2070    -3.3550 
  120.3750    69.5230     7.0610     6.7290     9.6770    24.3950     2.2070    -3.3120 
  120.5000    71.1480     7.0890     6.8280     9.5720    24.3850     2.2070    -3.3120 
  120.6250    75.3210     7.1460     6.9240     8.4670    24.3690     2.2080    -3.3280 
  120.7500    76.3190     7.1920     6.9900     8.2490    24.3100     2.2040    -3.3120 
  120.8750    74.5020     7.1800     7.0080     8.6040    24.2370     2.1910    -3.2710 
  121.0000    73.0610     7.1270     6.9730     8.5350    24.1870     2.1740    -3.2460 
  121.1250    72.6160     7.1000     6.8960     8.2580    24.1600     2.1610    -3.1990 
  121.2500    73.1860     7.1040     6.8030     8.1250    24.1570     2.1630    -3.1160 
  121.3750    76.9310     7.0970     6.7140     7.8290    24.1240     2.1780    -3.0040 
  121.5000    83.6130     7.0640     6.6480     7.4330    24.1140     2.2000    -2.8700 
  121.6250    88.4760     7.0210     6.6130     7.4440    24.1390     2.2160    -2.8050 
  121.7500    90.0000     6.9890     6.5870     7.6360    24.1690     2.2210    -2.7800 
  121.8750    90.6590     6.9560     6.5480     7.6860    24.1870     2.2140    -2.7480 
  122.0000    89.6010     6.9150     6.4880     7.7560    24.2020     2.2030    -2.7070 
  122.1250    85.1570     6.8820     6.4020     7.9070    24.2200     2.1930    -2.7220 
  122.2500    82.1560     6.8490     6.3020     7.9340    24.2270     2.1860    -2.7750 
  122.3750    82.1100     6.7980     6.2070     7.7810    24.2200     2.1820    -2.8480 
  122.5000    81.5120     6.7970     6.1610     7.7330    24.2080     2.1760    -2.9570 
  122.6250    78.9730     7.0280     6.2740     7.6600    24.1780     2.1660    -3.0450 
  122.7500    79.3930     7.4960     6.6080     7.6350    24.1080     2.1610    -3.0910 
  122.8750    82.4480     8.0700     7.1450     8.1930    24.0270     2.1780    -3.1210 
  123.0000    84.6830     8.5410     7.7480    10.0380    23.9780     2.2300    -3.1320 
  123.1250    84.9320     8.6540     8.1180    14.2360    24.0660     2.3140    -3.0910 
  123.2500    86.7080     8.3790     8.0690    16.3700    24.2210     2.3940    -3.0260 
  123.3750    91.7320     7.8010     7.6060    10.8450    24.3930     2.4370    -2.9970 
  123.5000    98.0700     7.1080     6.9130     6.5140    24.4520     2.4300    -3.0120 
  123.6250   101.0910     6.5060     6.2280     5.8060    24.3100     2.3810    -3.0120 
  123.7500   100.7260     6.0540     5.6740     6.0290    24.0340     2.3290    -3.0260 
  123.8750   101.1110     5.7180     5.2590     5.7090    23.7550     2.2970    -3.0920 
  124.0000   107.4300     5.4370     4.9540     5.1300    23.5880     2.2920    -3.1970 
  124.1250   118.0730     5.1810     4.7320     4.5420    23.6630     2.3090    -3.2860 
  124.2500   123.2850     4.9740     4.5680     4.3670    23.8360     2.3320    -3.3770 
  124.3750   119.5540     4.8560     4.4860     4.5030    23.9710     2.3480    -3.4680 
  124.5000   112.7590     4.8450     4.5110     4.8700    23.9860     2.3510    -3.5350 
  124.6250   109.2680     4.9400     4.6800     5.1900    23.8530     2.3390    -3.6030 
  124.7500   107.5650     5.0970     4.9590     5.4810    23.7090     2.3220    -3.7120 
  124.8750   105.7430     5.2960     5.3050     5.8360    23.5900     2.3110    -3.8340 
  125.0000   104.4760     5.5010     5.6560     6.5220    23.4510     2.3090    -3.9440 
  125.1250   102.6690     5.6410     5.9220     6.9360    23.3420     2.3120    -4.1350 
  125.2500    99.7210     5.6670     6.0530     7.2600    23.3910     2.3110    -4.3860 
  125.3750    97.4750     5.5710     6.0330     6.7600    23.6140     2.3020    -4.6160 
  125.5000    96.8550     5.3990     5.8930     6.1430    23.9420     2.2900    -4.8270 
  125.6250    97.3330     5.2490     5.6880     6.2870    24.1930     2.2860    -5.1080 
  125.7500    97.9730     5.1900     5.4830     6.3870    24.3260     2.2890    -5.4270 
  125.8750    97.7370     5.2370     5.3090     6.3580    24.3870     2.2960    -5.7700 
  126.0000    97.7150     5.3610     5.1740     5.8760    24.4520     2.3010    -6.1350 
  126.1250   101.3710     5.4920     5.0660     5.4800    24.5310     2.3010    -6.4390 
  126.2500   105.7700     5.5590     4.9610     5.1300    24.6150     2.2980    -6.7130 
  126.3750   107.9970     5.5400     4.8630     4.9610    24.7010     2.2940    -7.0360 
  126.5000   107.0120     5.4630     4.7910     4.9670    24.7510     2.2900    -7.4210 
  126.6250   103.2270     5.3840     4.7720     5.3280    24.7100     2.2900    -7.8220 
  126.7500   100.1890     5.3450     4.8030     5.4810    24.6330     2.2940    -8.2230 
  126.8750   102.3110     5.3400     4.8740     5.4270    24.5980     2.2990    -8.6560 
  127.0000   110.3650     5.3350     4.9620     5.3410    24.6460     2.3000    -9.1380 
  127.1250   115.4040     5.2920     5.0230     5.5450    24.7250     2.2880    -9.6260 
  127.2500   113.3800     5.2210     5.0320     5.8140    24.7780     2.2660   -10.0460 
  127.3750   108.2900     5.1590     4.9960     5.9030    24.8090     2.2650   -10.4000 
  127.5000   104.7490     5.1470     4.9410     5.7960    24.8300     2.2790   -10.7350 
  127.6250   103.7750     5.2360     4.9100     5.4350    24.8260     2.3030   -10.9890 
  127.7500   103.9930     5.4370     4.9220     5.2790    24.8340     2.3230   -11.1410 
  127.8750   105.7370     5.7500     4.9830     5.5570    24.8170     2.3320   -11.2240 
  128.0000   107.3250     6.1430     5.0860     6.0740    24.7680     2.3290   -11.2580 
  128.1250   106.6420     6.5370     5.2290     6.0700    24.7700     2.3150   -11.3280 
  128.2500   104.0430     6.8430     5.3880     6.2740    24.7920     2.2980   -11.4790 
  128.3750   100.6270     7.0270     5.5360     6.6740    24.7690     2.2810   -11.6470 
  128.5000    97.8560     7.1190     5.6530     6.8790    24.6870     2.2670   -11.7760 
  128.6250    96.2520     7.1990     5.7460     7.3730    24.5840     2.2580   -11.9680 
  128.7500    92.2690     7.3290     5.8580     7.4110    24.5380     2.2500   -12.2260 
  128.8750    83.4630     7.5200     6.0340     7.1360    24.5110     2.2410   -12.4920 
  129.0000    74.7480     7.7570     6.3170     7.0820    24.4700     2.2270   -12.7570 
  129.1250    73.2560     8.0280     6.7440     8.1920    24.4280     2.2080   -13.0040 
  129.2500    74.7250     8.2970     7.2590     8.8400    24.3490     2.1910   -13.2070 
  129.3750    74.6370     8.5020     7.7590     9.2000    24.2630     2.1800   -13.3610 
  129.5000    73.4160     8.5480     8.0950     9.5320    24.2950     2.1800   -13.4930 
  129.6250    75.4840     8.3150     8.0620     9.5130    24.3330     2.1920   -13.5310 
  129.7500    79.8770     7.8540     7.6860     9.2160    24.3540     2.2120   -13.4960 
  129.8750    86.3250     7.2570     7.0770     8.3080    24.4050     2.2380   -13.4520 
  130.0000    93.7220     6.6340     6.3960     6.7420    24.5370     2.2630   -13.4170 
  130.1250    99.8210     6.0870     5.8090     5.8700    24.7150     2.2780   -13.3660 
  130.2500   103.3850     5.6650     5.3850     5.5540    24.8130     2.2770   -13.2780 
  130.3750   103.2970     5.4260     5.1500     5.4960    24.7640     2.2640   -13.2180 
  130.5000    99.7980     5.4290     5.1240     5.7310    24.5420     2.2530   -13.1660 
  130.6250    95.6470     5.7380     5.3510     6.0660    24.2830     2.2660   -13.0870 
