~V
VERS. 2.00: Ver 2.00
~W
STRT.M 50.0000:
STOP.M 275.0000:
STEP.M 0.1250:
NULL. -999.2500:
UWI. F11033:
~C
DEPT.M :
DEN.GM/CC :
GR.API :
RML.OHMM :
RI. :
RXO.OHMM :
CALI.CM :
SP.MV :
~A
# ...
  106.2500     2.1040    70.3270     8.4310     6.6330     7.3730    24.5510   -27.1360 
  106.3750     2.0860    63.6830     8.9060     6.9060     8.1240    24.6850   -27.0490 
  106.5000     2.0790    56.4060     9.3420     7.2230     8.6870    24.8080   -26.9650 
  106.6250     2.0770    54.8390     9.6020     7.4860     8.7970    24.9050   -26.8660 
  106.7500     2.0810    55.4030     9.6620     7.6230     8.8500    24.9660   -26.7670 
  106.8750     2.0930    56.1950     9.5400     7.6060     8.6150    24.9930   -26.6630 
  107.0000     2.1090    57.2010     9.3110     7.4670     8.5600    24.9790   -26.5560 
  107.1250     2.1230    58.7350     9.0920     7.2850     8.6420    24.9530   -26.4310 
  107.2500     2.1310    60.4860     8.9740     7.1480     8.5280    24.8820   -26.2910 
  107.3750     2.1270    61.5660     9.0070     7.1010     8.1090    24.7600   -26.1410 
  107.5000     2.1150    61.5050     9.2120     7.1620     7.9340    24.6710   -26.0070 
  107.6250     2.1040    58.9180     9.5670     7.3200     8.4450    24.7240   -25.8930 
  107.7500     2.1020    55.9510     9.9450     7.5110     9.0440    24.8670   -25.7810 
  107.8750     2.1100    54.3670    10.2440     7.6820     9.4670    25.0010   -25.6790 
  108.0000     2.1200    56.2670    10.3980     7.7890     9.6960    25.0820   -25.5920 
  108.1250     2.1270    60.1530    10.3720     7.7980     9.6960    25.1100   -25.5140 
  108.2500     2.1320    60.7000    10.2620     7.7450     9.5970    25.1350   -25.4330 
  108.3750     2.1350    58.0980    10.1570     7.6710     9.5440    25.1640   -25.3620 
  108.5000     2.1310    56.1790    10.1050     7.6090     9.6960    25.1840   -25.2810 
  108.6250     2.1120    55.6310    10.1150     7.5840     9.9530    25.2000   -25.1830 
  108.7500     2.0870    54.9660    10.1580     7.5960    10.0600    25.2240   -25.0950 
  108.8750     2.0730    57.8710    10.2230     7.6460     9.8950    25.2490   -24.9920 
  109.0000     2.0760    66.2810    10.2950     7.7210     9.6110    25.2570   -24.8470 
  109.1250     2.0940    68.9170    10.3190     7.7850     9.5130    25.2410   -24.6440 
  109.2500     2.1140    61.9720    10.2340     7.7830     9.5010    25.2010   -24.3650 
  109.3750     2.1310    54.3830     9.9970     7.6780     9.4040    25.1480   -24.0260 
  109.5000     2.1470    54.0800     9.6330     7.4740     9.0220    25.1160   -23.6690 
  109.6250     2.1640    61.0870     9.2550     7.2270     8.1850    25.0910   -23.3150 
  109.7500     2.1760    69.0900     8.9940     7.0270     7.2150    25.0420   -22.9430 
  109.8750     2.1770    74.2480     8.9170     6.9300     6.9430    24.9720   -22.5750 
  110.0000     2.1660    75.7490     9.0190     6.9520     7.3750    24.9280   -22.2170 
  110.1250     2.1610    74.7310     9.2210     7.0630     7.5030    24.9600   -21.8540 
  110.2500     2.1680    72.1580     9.3390     7.1500     7.5340    25.0290   -21.5150 
  110.3750     2.1840    66.7560     9.2330     7.1090     7.2550    25.0530   -21.1940 
  110.5000     2.2050    63.8810     8.8790     6.9050     6.5630    25.0130   -20.8500 
  110.6250     2.2330    70.4410     8.4190     6.6030     5.6590    25.0010   -20.4650 
  110.7500     2.2630    80.3730     8.0640     6.3440     5.0750    25.0250   -20.0650 
  110.8750     2.2880    85.8160     7.8850     6.1910     5.1270    25.0550   -19.6700 
  111.0000     2.3050    85.9660     7.8280     6.1330     6.5610    25.0940   -19.3300 
  111.1250     2.3000    85.3030     7.7280     6.0890     8.5970    25.1540   -19.1020 
  111.2500     2.2790    86.0860     7.4560     5.9640     8.5240    25.2230   -18.9640 
  111.3750     2.2590    88.0230     7.0340     5.7440     6.2300    25.2880   -18.8840 
  111.5000     2.2510    90.0610     6.6120     5.4910     4.6020    25.3210   -18.8660 
  111.6250     2.2490    90.5470     6.4010     5.3260     4.4080    25.3180   -18.9180 
  111.7500     2.2430    89.7880     6.4420     5.3090     4.5720    25.2930   -19.0490 
  111.8750     2.2380    89.2170     6.6910     5.4450     4.9980    25.2690   -19.2260 
  112.0000     2.2380    89.4820     7.0250     5.6800     5.3990    25.2590   -19.3910 
  112.1250     2.2450    89.7140     7.2540     5.8960     5.6150    25.2590   -19.4850 
  112.2500     2.2570    88.9120     7.2830     5.9960     5.4320    25.2590   -19.5160 
  112.3750     2.2660    89.3260     7.1190     5.9550     5.1590    25.2590   -19.5140 
  112.5000     2.2630    93.3990     6.8370     5.7990     5.0340    25.2670   -19.5130 
  112.6250     2.2480    96.8230     6.5290     5.5700     4.7430    25.2890   -19.5210 
  112.7500     2.2360    94.8910     6.2620     5.3350     4.4430    25.3150   -19.4820 
  112.8750     2.2380    91.1650     6.0560     5.1290     4.2710    25.3260   -19.4210 
  113.0000     2.2520    93.4290     5.9010     4.9750     4.2610    25.3280   -19.3730 
  113.1250     2.2640   100.0660     5.7960     4.8960     4.3020    25.3290   -19.3650 
  113.2500     2.2660   103.6980     5.7410     4.8780     4.4440    25.3350   -19.4030 
  113.3750     2.2630   104.1860     5.7520     4.9130     4.5820    25.3440   -19.4820 
  113.5000     2.2560   103.3500     5.8420     4.9950     4.6500    25.3370   -19.5920 
  113.6250     2.2490    99.5010     6.0430     5.1420     4.8470    25.3440   -19.7190 
  113.7500     2.2440    94.5270     6.3390     5.3570     4.9070    25.3790   -19.8730 
  113.8750     2.2360    92.8200     6.7040     5.6320     4.8460    25.4390   -20.0360 
  114.0000     2.2260    93.8190     7.0750     5.9290     4.7850    25.4990   -20.1840 
  114.1250     2.2250    94.0770     7.3200     6.1490     4.8550    25.5530   -20.3250 
  114.2500     2.2350    94.4140     7.3440     6.2150     5.0060    25.5580   -20.4830 
  114.3750     2.2530    95.0140     7.1150     6.0920     5.0500    25.5100   -20.6560 
  114.5000     2.2720    96.7830     6.6990     5.8130     4.9240    25.4600   -20.8190 
  114.6250     2.2850    98.5860     6.2310     5.4600     4.5190    25.4310   -20.9700 
  114.7500     2.2900    99.1230     5.8390     5.1260     4.2860    25.4360   -21.1640 
  114.8750     2.2880    97.4460     5.5610     4.8510     4.1960    25.4410   -21.4130 
  115.0000     2.2870    94.4730     5.3820     4.6360     4.1760    25.4120   -21.7100 
  115.1250     2.2920    93.2750     5.2550     4.4640     4.2740    25.3750   -22.0460 
  115.2500     2.3000    92.6840     5.1430     4.3150     4.3370    25.3420   -22.3750 
  115.3750     2.3080    93.1180     5.1000     4.2280     4.3880    25.3250   -22.6870 
  115.5000     2.3180    94.5030     5.2790     4.2990     4.4990    25.3070   -22.9920 
  115.6250     2.3360    95.4040     5.9900     4.7290     4.8850    25.2760   -23.3000 
  115.7500     2.3600    93.2940     7.3430     5.6040     6.0850    25.2620   -23.5780 
  115.8750     2.3710    86.4410     9.3780     6.9900     9.2930    25.2580   -23.8140 
  116.0000     2.3340    76.1660    11.8840     8.8140    15.5470    25.2580   -24.0170 
  116.1250     2.2330    67.9560    14.0650    10.6290    21.3570    25.2930   -24.1970 
  116.2500     2.1300    64.5800    15.0080    11.7230    21.3160    25.4010   -24.3620 
  116.3750     2.0760    64.1900    14.5390    11.8000    16.1020    25.5380   -24.5090 
  116.5000     2.0830    63.6790    13.3260    11.1710    12.6860    25.5520   -24.6150 
  116.6250     2.1340    61.3070    12.2880    10.4230    11.8630    25.3780   -24.6640 
  116.7500     2.1970    60.0430    11.7940     9.9450    11.5060    25.1390   -24.6340 
  116.8750     2.2530    62.3430    11.7910     9.8060    11.1280    24.9730   -24.5250 
  117.0000     2.2950    66.0280    12.0710     9.9290    10.6480    24.9010   -24.3530 
  117.1250     2.3160    65.0020    12.4080    10.1790    10.6510    24.8590   -24.1380 
  117.2500     2.3270    60.9230    12.7270    10.4510    10.8810    24.7730   -23.9070 
  117.3750     2.3360    59.4730    13.1330    10.7900    10.7990    24.6570   -23.6590 
