~V
VERS. 2.00: Ver 2.00
~W
STRT.M 55.0000:
STOP.M 274.0000:
STEP.M 0.1250:
NULL. -999.2500:
UWI. F11049:
~C
DEPT.M :
SP.MV :
GR.API :
RML.OHMM :
RI. :
RXO.OHMM :
CALI.CM :
DEN.GM/CC :
~A
# ...
  145.0000   -14.5300    48.2580    23.2250    19.5440    22.2080    24.4200     2.6120 
  145.1250   -14.6130    47.9600    22.9320    19.2950    21.5010    24.4250     2.6030 
  145.2500   -14.6630    46.4260    22.5030    18.9030    20.4510    24.4320     2.5830 
  145.3750   -14.7450    45.2920    22.0570    18.4840    20.3730    24.4310     2.5620 
  145.5000   -14.8820    45.9830    21.6340    18.0940    21.2990    24.4230     2.5490 
  145.6250   -14.9880    48.9030    21.1840    17.7160    22.0100    24.4180     2.5480 
  145.7500   -15.0330    51.5120    20.6670    17.3010    22.2390    24.4180     2.5510 
  145.8750   -15.1100    52.6660    20.0960    16.8380    20.5940    24.4260     2.5570 
  146.0000   -15.2090    53.6060    19.5420    16.3540    18.4510    24.4340     2.5590 
  146.1250   -15.2630    55.4900    19.1140    15.9090    16.7510    24.4340     2.5520 
  146.2500   -15.2990    57.8970    18.7880    15.5160    16.3080    24.4280     2.5400 
  146.3750   -15.3490    59.3880    18.4440    15.1240    16.7780    24.4250     2.5380 
  146.5000   -15.3960    59.0510    17.9330    14.6520    17.1800    24.4310     2.5470 
  146.6250   -15.4500    59.2430    17.1490    14.0230    16.2880    24.4350     2.5530 
  146.7500   -15.5050    61.3880    16.2040    13.2840    14.3870    24.4330     2.5490 
  146.8750   -15.5540    62.5960    15.2260    12.5020    13.1380    24.4250     2.5440 
  147.0000   -15.6320    61.6050    14.3330    11.7430    12.7370    24.4210     2.5450 
  147.1250   -15.7290    61.6970    13.6300    11.0790    12.6420    24.4240     2.5540 
  147.2500   -15.8070    62.6150    13.1340    10.5490    12.5260    24.4290     2.5620 
  147.3750   -15.8720    61.0730    12.8820    10.1970    12.0220    24.4240     2.5650 
  147.5000   -15.9770    58.9840    12.9040    10.0620    11.3240    24.4200     2.5590 
  147.6250   -16.0990    60.0680    13.2190    10.1800    11.2240    24.4220     2.5480 
  147.7500   -16.1870    60.4040    13.6790    10.4560    12.2430    24.4300     2.5360 
  147.8750   -16.2790    57.8420    14.1400    10.7870    13.5130    24.4350     2.5280 
  148.0000   -16.3720    54.5450    14.4820    11.0740    14.1630    24.4350     2.5210 
  148.1250   -16.4470    54.7360    14.6370    11.2440    14.5480    24.4300     2.5120 
  148.2500   -16.5290    57.8440    14.6430    11.3050    15.1000    24.4280     2.5020 
  148.3750   -16.6110    62.4260    14.4720    11.2300    15.9030    24.4320     2.4940 
  148.5000   -16.6740    67.3090    14.0220    10.9490    15.4690    24.4340     2.4870 
  148.6250   -16.7350    73.3210    13.0770    10.3100    13.7350    24.4290     2.4770 
  148.7500   -16.7770    79.4180    11.6790     9.3310    11.4670    24.4210     2.4610 
  148.8750   -16.7820    82.2240     9.9950     8.1160     8.6910    24.4180     2.4390 
  149.0000   -16.8250    83.1020     7.5030     6.8580     6.6670    24.4100     2.4160 
  149.1250   -16.9130    88.0260     6.1220     5.7830     5.9400    24.3740     2.4000 
  149.2500   -16.9610    95.9340     5.1260     4.9630     5.4830    24.3100     2.3970 
  149.3750   -16.9590   100.3640     4.5010     4.4000     5.2220    24.2720     2.4030 
  149.5000   -16.9870    98.9550     4.1700     4.0590     5.0170    24.2620     2.4100 
  149.6250   -17.0810    95.2060     4.0600     3.8980     4.9140    24.2660     2.4100 
  149.7500   -17.1780    92.3010     4.0630     3.8280     4.9670    24.2740     2.4070 
  149.8750   -17.2620    90.5970     4.1270     3.8100     5.1160    24.2810     2.4090 
  150.0000   -17.3570    90.4020     4.2000     3.8140     5.2800    24.2790     2.4150 
  150.1250   -17.4390    91.6790     4.2170     3.8030     5.4200    24.2660     2.4210 
  150.2500   -17.5270    93.0480     4.1610     3.7600     5.4420    24.2650     2.4220 
  150.3750   -17.6420    93.6220     4.0510     3.6890     5.3960    24.2730     2.4220 
  150.5000   -17.7640    95.7210     3.9230     3.6110     5.2040    24.2760     2.4210 
  150.6250   -17.8740   100.4580     3.8250     3.5530     4.9530    24.2650     2.4170 
  150.7500   -17.9700   104.0440     3.7680     3.5250     4.8920    24.2610     2.4080 
  150.8750   -18.0610   103.2400     3.7530     3.5210     4.9240    24.2650     2.3980 
  151.0000   -18.1580    98.9890     3.7790     3.5330     4.9910    24.2790     2.3920 
  151.1250   -18.2890    95.2710     3.8500     3.5600     5.0470    24.2810     2.3910 
  151.2500   -18.4010    92.4710     3.9390     3.6050     5.0990    24.2740     2.3900 
  151.3750   -18.4360    90.1560     4.0170     3.6600     5.1550    24.2670     2.3890 
  151.5000   -18.4240    89.8600     4.0630     3.7100     5.2130    24.2680     2.3870 
  151.6250   -18.4480    92.1070     4.0530     3.7290     5.3330    24.2770     2.3850 
  151.7500   -18.4960    94.5240     3.9930     3.7110     5.3150    24.2800     2.3870 
  151.8750   -18.4800    96.4680     3.8910     3.6580     5.1490    24.2780     2.3920 
  152.0000   -18.4400    97.4590     3.7590     3.5820     5.0960    24.2690     2.3990 
  152.1250   -18.4490    96.1400     3.6230     3.4970     5.0640    24.2710     2.4090 
  152.2500   -18.4540    95.1250     3.5070     3.4140     4.9630    24.2790     2.4210 
  152.3750   -18.4230    96.5640     3.4100     3.3400     4.7810    24.2770     2.4330 
  152.5000   -18.3770   100.7930     3.3170     3.2710     4.6180    24.2670     2.4450 
  152.6250   -18.3470   103.0620     3.2100     3.2050     4.5070    24.2680     2.4560 
  152.7500   -18.3240   103.3320     3.0910     3.1360     4.3970    24.2790     2.4620 
  152.8750   -18.2910   102.2860     2.9780     3.0700     4.3350    24.2800     2.4570 
  153.0000   -18.2400    99.9880     2.9010     3.0220     4.3100    24.2690     2.4470 
  153.1250   -18.2080    99.0270     2.9020     3.0120     4.2740    24.2650     2.4380 
  153.2500   -18.2090    99.9220     2.9870     3.0440     4.3400    24.2740     2.4330 
  153.3750   -18.2280   102.2920     3.1590     3.1150     4.5190    24.2840     2.4280 
  153.5000   -18.2260   103.3120     3.3980     3.2160     4.7230    24.2830     2.4190 
  153.6250   -18.2050   101.4330     3.6160     3.3180     4.9450    24.2690     2.4050 
  153.7500   -18.1970    97.9450     3.6890     3.3730     5.0070    24.2620     2.3910 
  153.8750   -18.1750    95.1010     3.5410     3.3420     5.0470    24.2610     2.3790 
  154.0000   -18.1380    95.2680     3.2460     3.2470     5.1500    24.2670     2.3700 
  154.1250   -18.1140    96.9180     3.1730     3.2360     5.1640    24.3010     2.3670 
  154.2500   -18.0880    96.4390     3.7900     3.5370     5.1980    24.3510     2.3690 
  154.3750   -18.0660    92.3440     5.5200     4.3960     5.8450    24.3820     2.3730 
  154.5000   -18.0680    85.5800     8.6690     6.0760     8.8220    24.3590     2.3690 
  154.6250   -18.0970    78.2870    14.0840     8.9020    20.6050    24.3350     2.3450 
  154.7500   -18.1680    74.2670    18.5140    12.1460    44.9890    24.3580     2.3130 
  154.8750   -18.2760    74.9390    20.2690    14.1450    48.0560    24.3860     2.2960 
  155.0000   -18.3590    79.1490    17.9980    13.4850    24.3900    24.3780     2.3100 
  155.1250   -18.4450    85.9870    13.5310    10.9220    11.3320    24.3270     2.3490 
  155.2500   -18.5990    92.0850     9.9390     8.5570     7.8130    24.3230     2.3890 
  155.3750   -18.7940    93.9220     7.9430     6.9830     7.0830    24.3570     2.4190 
  155.5000   -18.9430    92.2700     7.2860     6.1840     7.0900    24.3640     2.4390 
  155.6250   -19.0370    90.2320     7.5840     6.0580     7.5060    24.3120     2.4390 
  155.7500   -19.1580    90.3310     8.3620     6.3570     7.7870    24.2900     2.4240 
  155.8750   -19.2930    92.5920     9.5650     7.0460     7.7710    24.2860     2.4050 
  156.0000   -19.3920    95.5310    11.3360     8.1830     7.9430    24.2860     2.3910 
  156.1250   -19.4390    93.7530    14.0790    10.0440    10.6710    24.2840     2.3770 
