~V
VERS. 2.00: Ver 2.00
~W
STRT.M 50.0000:
STOP.M 270.0000:
STEP.M 0.1250:
NULL. -999.2500:
UWI. F11070:
~C
DEPT.M :
DEN.GM/CC :
GR.API :
RML.OHMM :
RI. :
RXO.OHMM :
CALI.CM :
SP.MV :
~A
# ...
  207.5000     2.2200    54.8690   112.8570   100.3610    90.3960    25.9080   -28.0030 
  207.6250     2.2120    58.0200   106.8850    95.7090    97.4220    26.0150   -27.9690 
  207.7500     2.2190    59.1640   102.0440    91.8740   102.7600    26.1750   -27.9540 
  207.8750     2.2310    61.5430    97.9390    88.6210    96.5550    26.3780   -27.9390 
  208.0000     2.2420    64.2320    93.7480    85.2980    83.4460    26.5070   -27.9170 
  208.1250     2.2520    64.6320    88.2530    80.8540    81.3920    26.3910   -27.8850 
  208.2500     2.2600    63.5030    81.2270    75.0490    88.0100    26.2940   -27.8440 
  208.3750     2.2650    62.7330    73.2950    68.3490    87.0870    26.2110   -27.7980 
  208.5000     2.2630    62.3690    65.7540    61.7980    71.8490    26.1690   -27.7650 
  208.6250     2.2600    61.9200    60.3850    56.8330    61.6320    26.2000   -27.7240 
  208.7500     2.2610    63.1910    57.6570    53.9280    58.7040    26.3060   -27.6730 
  208.8750     2.2640    64.8720    57.5460    53.1960    59.4940    26.4630   -27.6270 
  209.0000     2.2640    64.1300    59.5340    54.3950    65.5910    26.6240   -27.5940 
  209.1250     2.2600    60.2770    62.8480    57.1180    80.0420    26.6420   -27.5480 
  209.2500     2.2630    56.3220    66.2970    60.3180    92.5270    26.6010   -27.4630 
  209.3750     2.2740    55.3620    69.2300    63.3060    93.5000    26.5130   -27.3540 
  209.5000     2.2790    56.7780    71.2810    65.6190    88.8020    26.1900   -27.2280 
  209.6250     2.2650    58.1810    71.7920    66.6060    90.9710    25.8610   -27.0860 
  209.7500     2.2430    59.1470    70.3220    65.8350   105.1210    25.7950   -26.9160 
  209.8750     2.2260    59.8560    66.6900    63.0450   112.6590    26.0420   -26.7290 
  210.0000     2.2230    59.1370    61.6560    58.7460   103.7320    26.2100   -26.5200 
  210.1250     2.2340    57.5050    56.8860    54.2720    79.6250    26.1380   -26.3340 
  210.2500     2.2500    57.8410    53.5880    50.8340    55.0250    25.9150   -26.2180 
  210.3750     2.2640    59.3000    51.9460    48.7680    44.2870    25.7410   -26.1660 
  210.5000     2.2770    58.6250    51.2880    47.6730    63.3460    25.6620   -26.1720 
  210.6250     2.2870    56.4670    50.2110    46.4600    92.0270    25.6430   -26.2360 
  210.7500     2.2940    55.9030    47.8860    44.3050    95.9640    25.6360   -26.3580 
  210.8750     2.2990    57.0660    44.5460    41.2840    71.2510    25.5820   -26.5170 
  211.0000     2.3020    58.9120    41.1170    38.1000    50.7450    25.3860   -26.7210 
  211.1250     2.3050    60.5500    38.9500    35.8480    43.5860    24.9600   -26.9960 
  211.2500     2.3110    62.0190    38.5020    34.9950    45.4390    24.5700   -27.3130 
  211.3750     2.3230    63.2840    39.6220    35.5360    52.4270    24.5240   -27.6580 
  211.5000     2.3400    64.1050    41.6230    36.9930    61.9190    24.8750   -28.0150 
  211.6250     2.3520    62.4570    43.4790    38.5460    70.0700    25.1380   -28.3460 
  211.7500     2.3510    59.4450    44.5080    39.5030    72.2390    25.0520   -28.6070 
  211.8750     2.3320    58.7370    44.6610    39.7160    65.9520    24.6930   -28.8220 
  212.0000     2.2960    61.2430    44.3380    39.4480    57.0550    24.3110   -29.0400 
  212.1250     2.2520    61.1610    44.1150    39.1640    57.6810    24.5150   -29.2920 
  212.2500     2.2200    58.8220    44.2090    39.1260    60.8630    24.8500   -29.5230 
  212.3750     2.2100    58.4680    44.4230    39.2240    62.9360    24.9650   -29.6660 
  212.5000     2.2190    60.4500    44.3430    39.1280    61.8600    24.8880   -29.6940 
  212.6250     2.2350    61.4970    43.4870    38.4120    60.2990    24.7910   -29.6070 
  212.7500     2.2490    61.2610    41.9780    37.1370    58.0220    24.6060   -29.4590 
  212.8750     2.2550    62.0340    40.1390    35.5550    53.2190    24.2830   -29.2690 
  213.0000     2.2570    63.5010    38.3170    33.9420    46.9070    24.0450   -29.0650 
  213.1250     2.2610    64.8730    36.7250    32.4620    47.3980    24.1910   -28.8130 
  213.2500     2.2680    66.1040    35.3250    31.0940    50.4280    24.3400   -28.5250 
  213.3750     2.2760    65.7490    34.0870    29.8250    49.5920    24.3000   -28.2230 
  213.5000     2.2850    65.0580    33.0330    28.6980    44.1310    24.2040   -27.9110 
  213.6250     2.2980    66.1910    32.2540    27.8140    39.4150    24.2930   -27.5740 
  213.7500     2.3090    68.5110    31.6950    27.1360    37.0050    24.5060   -27.2430 
  213.8750     2.3110    70.5890    31.2620    26.6030    38.5510    24.6340   -26.9530 
  214.0000     2.3060    71.5450    30.8450    26.1360    39.9590    24.6740   -26.6910 
  214.1250     2.3000    70.4520    30.3770    25.6800    39.1350    24.6590   -26.4130 
  214.2500     2.2990    68.7160    29.9300    25.2540    36.3810    24.6170   -26.0620 
  214.3750     2.3020    69.6740    29.6490    24.9470    33.5200    24.5720   -25.6240 
  214.5000     2.3080    73.3760    29.7100    24.8810    32.8600    24.5140   -25.1100 
  214.6250     2.3160    73.4560    30.4460    25.2830    34.7540    24.4220   -24.5300 
  214.7500     2.3260    68.0680    32.1160    26.3280    38.8790    24.3370   -23.9040 
  214.8750     2.3430    62.2300    35.0290    28.2630    40.6140    24.3940   -23.2240 
  215.0000     2.3730    61.7640    39.0290    31.0600    40.1780    24.5460   -22.4610 
  215.1250     2.4190    66.3590    42.4760    33.5900    42.8420    24.5940   -21.5760 
  215.2500     2.4760    67.4780    42.6420    33.7240    54.9280    24.6670   -20.6080 
  215.3750     2.5380    64.1050    37.9590    30.1730    78.9870    24.7590   -19.5950 
  215.5000     2.5840    62.3050    29.7580    23.9270    55.0850    24.7730   -18.5970 
  215.6250     2.5770    68.0000    21.6530    17.7210    23.4990    24.6730   -17.7080 
  215.7500     2.5290    77.1260    15.8510    13.1910    10.1670    24.5910   -16.9340 
  215.8750     2.4780    85.0700    12.4650    10.4120     8.1220    24.5790   -16.2840 
  216.0000     2.4540    89.1290    10.9200     8.9730     8.6970    24.5440   -15.7040 
  216.1250     2.4610    87.6090    10.6950     8.5410     9.5110    24.4190   -15.1750 
  216.2500     2.4740    85.2480    11.0100     8.5970    10.4230    24.3460   -14.7370 
  216.3750     2.4790    84.4920    11.4240     8.8390    10.2760    24.4950   -14.4270 
  216.5000     2.4760    85.5410    11.6410     9.0160     9.5800    24.6160   -14.2150 
  216.6250     2.4740    87.5830    11.5280     8.9630     9.0080    24.5960   -14.0760 
  216.7500     2.4780    90.9090    11.2280     8.7400     8.8720    24.5610   -13.9560 
  216.8750     2.4870    95.1270    10.8350     8.4120     8.6340    24.5380   -13.8080 
  217.0000     2.4960    96.9510    10.3710     8.0130     8.5960    24.4880   -13.6470 
  217.1250     2.4940    93.9480     9.8130     7.5410     8.6210    24.3480   -13.5040 
  217.2500     2.4890    91.0790     9.2300     7.0480     8.4670    24.2100   -13.3700 
  217.3750     2.4870    92.2430     8.7770     6.6340     8.1710    24.1620   -13.2580 
  217.5000     2.4890    94.6260     8.6950     6.4500     8.0780    24.1860   -13.1770 
  217.6250     2.4920    91.7740     9.4410     6.7720     7.8990    24.1750   -13.1010 
  217.7500     2.4990    86.7810    11.2510     7.7510     9.0410    24.0870   -13.0100 
  217.8750     2.5210    84.3080    14.3290     9.5710    12.4280    23.9560   -12.8590 
  218.0000     2.5590    83.9450    18.5660    12.3090    18.8290    23.8740   -12.6590 
  218.1250     2.6060    81.1590    22.9750    15.5660    27.5360    24.0000   -12.4800 
  218.2500     2.6460    75.2600    25.4330    17.7870    31.4660    24.2210   -12.3530 
  218.3750     2.6700    69.2570    24.2630    17.4590    28.8280    24.4040   -12.2040 
  218.5000     2.6750    67.4030    19.7740    14.5940    22.1010    24.4840   -12.0180 
  218.6250     2.6650    70.1830    14.3120    10.8700    15.5630    24.5510   -11.7780 
