~V
VERS. 2.00: Ver 2.00
~W
STRT.M 62.0000:
STOP.M 236.0000:
STEP.M 0.1250:
NULL. -999.2500:
UWI. F11006:
~C
DEPT.M :
GR.API :
RML.OHMM :
RI. :
RXO.OHMM :
CALI.CM :
SP.MV :
DEN.GM/CC :
~A
# ...
  129.5000   115.7650     5.4490     5.1060     4.7900    23.4380   -11.8220     2.3250 
  129.6250   113.6300     5.7730     5.4370     4.9210    23.4440   -11.8140     2.3280 
  129.7500   109.0300     6.0760     5.7920     5.3120    23.4020   -11.7990     2.3380 
  129.8750   101.9800     6.2680     6.0700     6.1220    23.3540   -11.7650     2.3590 
  130.0000    98.7100     6.2740     6.1720     7.5000    23.3640   -11.7250     2.3860 
  130.1250   103.4500     6.0540     6.0130     8.5460    23.3710   -11.6950     2.4030 
  130.2500   109.7960     5.7520     5.7030     6.7440    23.3570   -11.6680     2.4020 
  130.3750   113.7260     5.5390     5.3900     5.3810    23.3460   -11.6310     2.3880 
  130.5000   113.7410     5.5970     5.2430     4.8840    23.3440   -11.6040     2.3740 
  130.6250   109.8980     6.1570     5.4760     5.0460    23.3630   -11.6440     2.3760 
  130.7500   101.4630     7.2190     6.1400     6.4870    23.4370   -11.7640     2.3930 
  130.8750    91.2450     8.7320     7.2570     9.7060    23.5790   -11.9030     2.4170 
  131.0000    85.8010    10.5180     8.7550    12.5130    23.7000   -12.0200     2.4450 
  131.1250    85.7210    12.2470    10.4200    13.5690    23.8090   -12.0920     2.4730 
  131.2500    85.0990    13.5970    11.8920    14.7310    23.8330   -12.1230     2.4980 
  131.3750    79.8890    14.4120    12.9210    15.9980    23.8070   -12.1390     2.5180 
  131.5000    72.9380    14.7170    13.4280    15.4880    23.7970   -12.1480     2.5260 
  131.6250    68.7130    14.6920    13.4910    14.0890    23.8810   -12.1260     2.5250 
  131.7500    67.6800    14.6730    13.4370    13.4440    23.9330   -12.0750     2.5210 
  131.8750    68.3580    14.8580    13.4730    13.4160    23.9030   -12.0230     2.5230 
  132.0000    68.2670    15.3320    13.7260    14.0240    23.7760   -11.9880     2.5310 
  132.1250    66.3380    16.0860    14.2510    15.7350    23.6530   -11.9530     2.5440 
  132.2500    65.7070    16.9180    14.9170    17.0040    23.5690   -11.9020     2.5550 
  132.3750    66.6040    17.6610    15.5930    18.3050    23.5210   -11.8410     2.5620 
  132.5000    68.0310    18.1970    16.1620    18.9920    23.5060   -11.7960     2.5610 
  132.6250    69.5770    18.4450    16.5260    18.2990    23.4990   -11.8020     2.5520 
  132.7500    71.1520    18.4720    16.7010    16.8630    23.5080   -11.8410     2.5390 
  132.8750    72.0190    18.3090    16.6920    15.9650    23.5570   -11.8790     2.5280 
  133.0000    73.3400    17.9700    16.5000    15.8750    23.6710   -11.8600     2.5200 
  133.1250    76.3940    17.4550    16.1100    15.9740    23.7830   -11.7830     2.5150 
  133.2500    78.4340    16.8590    15.6020    15.2620    23.7600   -11.7380     2.5090 
  133.3750    78.5130    16.2940    15.0660    13.7590    23.6790   -11.7560     2.5010 
  133.5000    78.8110    15.8810    14.6110    13.1210    23.6070   -11.8020     2.4930 
  133.6250    79.9760    15.7560    14.3830    13.4240    23.6580   -11.7770     2.4850 
  133.7500    79.8220    15.8970    14.4080    13.9080    23.8040   -11.6550     2.4760 
  133.8750    78.2410    16.2520    14.6800    14.3500    23.9740   -11.4950     2.4650 
  134.0000    76.7780    16.7180    15.1270    15.2500    24.0320   -11.3470     2.4510 
  134.1250    73.1550    17.1390    15.6160    16.3650    23.8750   -11.2030     2.4410 
  134.2500    68.2630    17.3780    15.9820    17.7360    23.6540   -11.0490     2.4410 
  134.3750    65.7670    17.3570    16.1180    18.7700    23.4790   -10.8430     2.4540 
  134.5000    66.3950    17.0710    15.9870    19.1280    23.3860   -10.5780     2.4780 
  134.6250    68.1160    16.5930    15.6170    17.2500    23.3560   -10.3560     2.5060 
  134.7500    69.4810    16.1170    15.1840    15.9210    23.4100   -10.2350     2.5250 
  134.8750    68.9220    15.7790    14.8200    14.9330    23.4810   -10.1680     2.5310 
  135.0000    65.2760    15.6590    14.6190    14.0020    23.5580   -10.1040     2.5260 
  135.1250    61.1580    15.7870    14.6410    13.6150    23.7550   -10.0620     2.5210 
  135.2500    59.2470    16.0450    14.8040    13.9890    24.1120   -10.0140     2.5190 
  135.3750    60.6410    16.3350    15.0280    14.9990    24.4180   -10.0090     2.5210 
  135.5000    62.9790    16.5780    15.2340    16.2830    24.5610   -10.1230     2.5200 
  135.6250    63.9050    16.7390    15.3710    15.0590    24.5470   -10.3380     2.5140 
  135.7500    63.7070    16.8730    15.4650    14.5740    24.4830   -10.5210     2.5040 
  135.8750    64.6460    17.0470    15.5680    14.8550    24.4640   -10.6460     2.4930 
  136.0000    67.5410    17.3150    15.7290    15.3160    24.5330   -10.7510     2.4850 
  136.1250    68.4320    17.7010    15.9820    15.3870    24.5920   -10.8390     2.4810 
  136.2500    66.6530    18.1320    16.2900    16.0840    24.5710   -10.9340     2.4800 
  136.3750    64.7390    18.5320    16.6040    17.1250    24.4920   -11.0280     2.4840 
  136.5000    63.1240    18.8370    16.8720    16.8910    24.4720   -11.0910     2.4920 
  136.6250    61.4530    19.0110    17.0490    16.5740    24.5640   -11.1200     2.5010 
  136.7500    60.2600    19.1100    17.1540    16.8280    24.6830   -11.1290     2.5080 
  136.8750    61.1600    19.1880    17.2230    16.9670    24.7320   -11.1050     2.5130 
  137.0000    64.0790    19.2860    17.2940    17.3490    24.7380   -11.0590     2.5170 
  137.1250    67.5020    19.4130    17.3950    17.6130    24.7380   -11.0410     2.5230 
  137.2500    68.6900    19.5370    17.5110    17.9580    24.7380   -11.0560     2.5310 
  137.3750    65.8720    19.6220    17.6120    18.9440    24.7380   -11.0750     2.5400 
  137.5000    60.4390    19.6440    17.6640    20.2070    24.7380   -11.0850     2.5470 
  137.6250    56.6980    19.6050    17.6460    19.4830    24.7290   -11.0720     2.5500 
  137.7500    55.3770    19.5630    17.6000    18.7110    24.7160   -11.0360     2.5530 
  137.8750    55.2840    19.5810    17.5790    18.7000    24.7150   -11.0060     2.5590 
  138.0000    56.5930    19.7170    17.6380    17.7820    24.7120   -10.9760     2.5700 
  138.1250    58.5020    20.0120    17.8250    17.9040    24.6850   -10.9340     2.5840 
  138.2500    58.8790    20.3860    18.0970    18.9660    24.6500   -10.8860     2.5950 
  138.3750    58.3880    20.7300    18.3880    19.5070    24.6180   -10.8570     2.6020 
  138.5000    57.9690    20.9200    18.6090    19.5560    24.6380   -10.8350     2.6040 
  138.6250    57.0830    20.8340    18.6450    18.7450    24.6890   -10.7710     2.6030 
  138.7500    56.7690    20.5280    18.4890    19.2000    24.7260   -10.7060     2.6030 
  138.8750    58.9310    20.1000    18.1780    19.3940    24.7370   -10.6420     2.6040 
  139.0000    61.5600    19.6850    17.7980    18.9640    24.7380   -10.5850     2.6060 
  139.1250    61.9050    19.4500    17.4890    18.0320    24.7380   -10.5460     2.6080 
  139.2500    60.3740    19.4660    17.3540    17.1820    24.7380   -10.5650     2.6060 
  139.3750    58.5020    19.7670    17.4540    16.6600    24.7300   -10.6230     2.5960 
  139.5000    57.2740    20.3300    17.8030    16.4820    24.6870   -10.6940     2.5790 
  139.6250    57.3910    21.0710    18.3750    16.1330    24.5180   -10.7790     2.5580 
  139.7500    59.5680    21.7880    19.0130    17.0880    24.2110   -10.8510     2.5430 
  139.8750    62.6240    22.3150    19.5730    19.0750    23.8370   -10.9520     2.5400 
  140.0000    64.2820    22.5250    19.9190    19.9260    23.5750   -11.1170     2.5480 
  140.1250    62.7840    22.3080    19.9070    19.3010    23.4980   -11.2980     2.5610 
  140.2500    62.0620    21.7750    19.5830    18.3250    23.5130   -11.4050     2.5690 
  140.3750    63.4130    21.0260    19.0110    17.9270    23.6080   -11.4210     2.5680 
  140.5000    63.7060    20.1750    18.2860    17.3300    23.8300   -11.3410     2.5560 
  140.6250    60.2630    19.3470    17.5210    16.8330    24.1480   -11.2180     2.5360 
