~V
VERS. 2.00: Ver 2.00
~W
STRT.M 50.0000:
STOP.M 278.0000:
STEP.M 0.1250:
NULL. -999.2500:
UWI. F11029:
~C
DEPT.M :
SP.MV :
DEN.GM/CC :
GR.API :
RML.OHMM :
RI. :
RXO.OHMM :
CALI.CM :
~A
# ...
  106.2500   -14.1770     2.1610    66.0840     8.7170     6.8900     7.9360    24.5440 
  106.3750   -14.3170     2.1650    68.7120     8.7680     6.9380     8.2800    24.4660 
  106.5000   -14.4190     2.1610    71.8700     8.7940     6.9680     8.5910    24.4130 
  106.6250   -14.3980     2.1570    71.5490     8.7770     6.9650     8.8850    24.4440 
  106.7500   -14.2350     2.1580    67.7640     8.7170     6.9250     9.1310    24.4960 
  106.8750   -13.9820     2.1640    64.1290     8.6150     6.8430     8.8520    24.5410 
  107.0000   -13.7600     2.1730    63.8940     8.4850     6.7270     7.9740    24.5530 
  107.1250   -13.6170     2.1790    68.0180     8.3570     6.6020     7.5450    24.4990 
  107.2500   -13.4300     2.1830    71.3470     8.2610     6.5000     7.7090    24.3830 
  107.3750   -13.1480     2.1850    72.0420     8.2110     6.4390     7.9820    24.2260 
  107.5000   -12.7900     2.1880    72.4950     8.2090     6.4260     8.1590    24.2370 
  107.6250   -12.4070     2.1930    72.1280     8.2450     6.4580     8.1230    24.3600 
  107.7500   -12.1140     2.1990    70.0680     8.2950     6.5140     8.0000    24.2720 
  107.8750   -11.9300     2.2050    68.8790     8.3520     6.5820     7.9500    23.8520 
  108.0000   -11.7560     2.2090    71.5220     8.4200     6.6610     8.0140    23.5080 
  108.1250   -11.4670     2.2100    73.9140     8.5010     6.7580     8.1320    23.3780 
  108.2500   -11.1090     2.2090    71.0420     8.5550     6.8600     8.2810    23.3010 
  108.3750   -10.7170     2.2070    67.3310     8.5160     6.9160     8.3510    23.2560 
  108.5000   -10.3030     2.2070    68.2170     8.3180     6.8460     8.2830    23.2480 
  108.6250    -9.8810     2.2140    74.4110     7.9350     6.5640     8.1360    23.2330 
  108.7500    -9.3930     2.2320    79.0670     7.4890     6.1730     7.6800    23.2090 
  108.8750    -8.7420     2.2630    81.8610     7.1030     5.8000     6.7280    23.1960 
  109.0000    -7.9490     2.3040    84.7440     6.8650     5.5470     5.7950    23.2020 
  109.1250    -7.0120     2.3480    87.3040     6.7980     5.4680     5.6070    23.2350 
  109.2500    -5.9690     2.3850    88.1820     6.7820     5.4750     7.7460    23.2950 
  109.3750    -4.9170     2.4080    88.4940     6.7090     5.4630    10.3780    23.3520 
  109.5000    -3.9510     2.4130    90.7610     6.5070     5.3400     8.3220    23.3800 
  109.6250    -3.1200     2.4030    95.7560     6.1780     5.0750     5.3630    23.3670 
  109.7500    -2.4250     2.3890   101.8100     5.8330     4.7630     4.2990    23.3240 
  109.8750    -1.8400     2.3790   105.7870     5.5550     4.4830     4.1820    23.2790 
  110.0000    -1.3050     2.3740   105.7290     5.3790     4.2850     4.3570    23.2690 
  110.1250    -0.8520     2.3740   105.4930     5.2910     4.1830     4.5260    23.3260 
  110.2500    -0.5380     2.3770   109.0180     5.2320     4.1200     4.5300    23.3690 
  110.3750    -0.4050     2.3790   114.3870     5.2050     4.0690     4.3740    23.3570 
  110.5000    -0.4180     2.3800   115.1980     5.2700     4.0560     4.3110    23.2580 
  110.6250    -0.5150     2.3800   110.8960     5.5730     4.1970     4.3320    23.1170 
  110.7500    -0.6020     2.3850   106.5140     6.1550     4.5640     4.5490    22.9830 
  110.8750    -0.6990     2.4050   102.9550     6.9830     5.1880     4.9650    22.8890 
  111.0000    -0.8190     2.4430    97.9170     7.9060     6.0060     5.8650    22.7820 
  111.1250    -1.0170     2.4870    89.5370     8.5870     6.7780     8.3150    22.7490 
  111.2500    -1.3010     2.5110    82.5600     8.7830     7.1770    10.5520    22.8390 
  111.3750    -1.5620     2.5000    82.1670     8.4380     7.0350     9.5030    23.0050 
  111.5000    -1.7780     2.4550    88.7510     7.7240     6.4620     6.9780    23.2100 
  111.6250    -1.9610     2.3910    96.1720     6.9940     5.7670     5.9100    23.4590 
  111.7500    -2.1370     2.3340    99.0490     6.5420     5.2410     5.7580    23.6200 
  111.8750    -2.3710     2.2940    99.0150     6.4640     4.9960     6.0370    23.5730 
  112.0000    -2.7820     2.2700    96.3710     6.7170     5.0440     6.2410    23.4600 
  112.1250    -3.4360     2.2500    91.3700     7.1730     5.3370     6.3710    23.4700 
  112.2500    -4.1030     2.2280    86.1630     7.6150     5.6980     6.8630    23.7220 
  112.3750    -4.6840     2.2030    83.9180     7.9150     6.0020     7.7270    24.0350 
  112.5000    -5.1320     2.1840    84.0330     8.0190     6.1680     7.8160    24.2570 
  112.6250    -5.4970     2.1780    82.5300     7.9530     6.1730     7.0790    24.2290 
  112.7500    -5.8940     2.1830    79.8170     7.8570     6.1190     6.4490    24.1580 
  112.8750    -6.3000     2.1950    77.5490     7.8280     6.0900     6.3250    24.0880 
  113.0000    -6.6240     2.2060    75.8260     7.9080     6.1360     6.6430    24.0800 
  113.1250    -6.7050     2.2060    75.3090     8.0800     6.2680     7.2130    24.1920 
  113.2500    -6.6180     2.1960    76.6000     8.2460     6.4230     7.6530    24.3910 
  113.3750    -6.4650     2.1790    78.5850     8.3270     6.5340     7.6470    24.5710 
  113.5000    -6.2830     2.1640    78.4050     8.2740     6.5470     7.2680    24.5260 
  113.6250    -6.0160     2.1640    79.1830     8.0650     6.4230     6.8200    24.0900 
  113.7500    -5.6550     2.1790    83.5120     7.7690     6.2110     6.6730    23.4970 
  113.8750    -5.1980     2.2040    86.9590     7.4450     5.9540     6.6570    23.1370 
  114.0000    -4.6650     2.2290    85.8740     7.1450     5.6980     6.4160    23.0960 
  114.1250    -4.1400     2.2440    84.8850     6.9140     5.4840     5.9080    23.0970 
  114.2500    -3.6780     2.2500    86.2700     6.7540     5.3190     5.7230    23.0300 
  114.3750    -3.2600     2.2560    88.1010     6.6560     5.2020     5.6260    22.9400 
  114.5000    -2.8570     2.2680    90.0550     6.5990     5.1260     5.4610    22.8510 
  114.6250    -2.5210     2.2850    91.4320     6.5620     5.0850     5.4520    22.8150 
  114.7500    -2.2860     2.2980    91.0580     6.5240     5.0610     5.6100    22.9500 
  114.8750    -2.1230     2.3010    89.3330     6.4850     5.0480     5.6650    23.2590 
  115.0000    -1.9310     2.2940    88.2960     6.4570     5.0480     5.4330    23.5750 
  115.1250    -1.6650     2.2840    87.6480     6.4540     5.0650     5.1310    23.6750 
  115.2500    -1.4680     2.2770    88.3930     6.4790     5.0940     5.0430    23.5090 
  115.3750    -1.3860     2.2750    90.3170     6.5260     5.1300     5.2740    23.3660 
  115.5000    -1.4370     2.2730    90.3270     6.5830     5.1630     5.5390    23.3880 
  115.6250    -1.5830     2.2720    86.5770     6.6270     5.1780     5.5840    23.4090 
  115.7500    -1.7230     2.2740    85.0600     6.6390     5.1660     5.5920    23.3850 
  115.8750    -1.8440     2.2830    89.3010     6.6000     5.1170     5.5590    23.3670 
  116.0000    -1.9900     2.2950    95.4970     6.4940     5.0250     5.5590    23.3500 
  116.1250    -2.1950     2.3030   100.1530     6.3110     4.8680     5.5440    23.4220 
  116.2500    -2.3620     2.3030   104.7100     6.1150     4.6690     5.5440    23.6500 
  116.3750    -2.4860     2.2970   108.6450     6.0270     4.4920     5.5010    23.8510 
  116.5000    -2.5750     2.2990   108.3130     6.2120     4.4620     5.3590    23.6710 
  116.6250    -2.6800     2.3300   102.1790     6.9110     4.7860     5.3270    23.5130 
  116.7500    -2.8740     2.3930    95.4720     8.0850     5.5210     5.8700    23.4810 
  116.8750    -3.1960     2.4720    89.3320     9.5530     6.6520     7.9530    23.5620 
  117.0000    -3.7250     2.5370    81.7470    10.9140     7.9750    12.8910    23.6550 
  117.1250    -4.4600     2.5430    73.7280    11.5070     8.9050    18.6500    23.5970 
  117.2500    -5.2900     2.4910    69.5980    11.1690     9.0040    14.8840    23.4390 
  117.3750    -6.1870     2.4030    69.6950    10.1220     8.3310     9.3470    23.3220 
