~V
VERS. 2.00: Ver 2.00
~W
STRT.M 62.0000:
STOP.M 273.0000:
STEP.M 0.1250:
NULL. -999.2500:
UWI. F11050:
~C
DEPT.M :
SP.MV :
GR.API :
RML.OHMM :
RI. :
RXO.OHMM :
CALI.CM :
DEN.GM/CC :
~A
# ...
  185.7500   -18.8800    60.2320    25.9970    26.5290    14.3860    24.6640     2.4440 
  185.8750   -18.8310    59.1110    29.9890    28.5560    15.8830    24.6310     2.4310 
  186.0000   -18.8220    57.8620    39.8380    35.9150    22.2590    24.6210     2.3930 
  186.1250   -18.8380    55.7810    58.5590    52.3330    44.7610    24.6200     2.3420 
  186.2500   -18.8840    55.8700    86.3670    78.8120    74.1870    24.6040     2.2970 
  186.3750   -18.9430    60.0300   122.3520   114.4400    92.0760    24.5880     2.2710 
  186.5000   -18.9940    65.6710   161.0610   152.9530    97.7480    24.5720     2.2640 
  186.6250   -19.0560    66.3320   190.0000   181.4410   104.9050    24.5950     2.2700 
  186.7500   -19.1340    62.5120   203.7170   194.6910   123.7210    24.6130     2.2740 
  186.8750   -19.2170    59.5590   205.5210   195.2520   126.7140    24.6270     2.2710 
  187.0000   -19.2940    60.3820   202.3820   189.2030   124.3040    24.6520     2.2640 
  187.1250   -19.3930    63.0130   200.2790   182.2430   123.5160    24.6820     2.2620 
  187.2500   -19.4980    62.8030   202.3900   178.3780   124.9670    24.7220     2.2650 
  187.3750   -19.6680    59.6160   210.1180   179.6360   128.3690    24.7560     2.2670 
  187.5000   -19.8250    56.1520   223.3900   186.6380   133.2380    24.7630     2.2630 
  187.6250   -20.0180    54.4900   240.5860   198.9010   135.0410    24.7610     2.2500 
  187.7500   -20.1700    54.5120   256.4080   212.2400   132.0690    24.7890     2.2370 
  187.8750   -20.3230    55.8270   264.6760   221.8200   129.2540    24.8580     2.2250 
  188.0000   -20.4550    57.7980   260.3500   223.0330   131.5820    24.9110     2.2180 
  188.1250   -20.5710    59.1780   242.7960   213.5520   140.4510    24.9290     2.2170 
  188.2500   -20.6500    58.3810   229.8280   199.3720   146.3310    24.8980     2.2200 
  188.3750   -20.7070    55.5980   218.6250   185.8130   150.8670    24.7840     2.2250 
  188.5000   -20.7240    53.5260   204.5780   176.3840   153.7250    24.6440     2.2270 
  188.6250   -20.7520    53.7190   196.7910   171.9470   153.5330    24.5890     2.2250 
  188.7500   -20.7820    53.9440   189.3740   168.0980   144.2210    24.6570     2.2200 
  188.8750   -20.7990    54.3710   176.8980   160.0400   126.8470    24.7450     2.2190 
  189.0000   -20.8040    56.3050   156.5300   144.6300   111.3070    24.8090     2.2280 
  189.1250   -20.7660    58.9780   130.2160   122.3810   101.2040    24.8730     2.2500 
  189.2500   -20.7340    61.0310   105.2040    99.7510    86.2960    24.8960     2.2820 
  189.3750   -20.6610    62.9870    85.8880    81.2680    77.6960    24.8960     2.3210 
  189.5000   -20.6520    65.2860    73.8220    68.9360    58.8740    24.8580     2.3560 
  189.6250   -20.6170    64.6810    69.6590    63.5660    52.5060    24.8200     2.3680 
  189.7500   -20.6070    62.0630    71.2840    63.3330    48.2380    24.8430     2.3580 
  189.8750   -20.6050    60.8820    78.0130    67.7440    49.5550    24.8700     2.3380 
  190.0000   -20.6590    60.9280    89.3650    76.4860    55.8440    24.8480     2.3210 
  190.1250   -20.7280    59.6340   105.6050    89.8040    62.6600    24.7980     2.3100 
  190.2500   -20.8180    57.1350   125.7650   106.6590    71.7680    24.7860     2.3000 
  190.3750   -20.8990    56.9790   149.8150   126.9290    81.3480    24.7990     2.2890 
  190.5000   -20.9890    60.8970   177.7170   150.5440    86.6020    24.8080     2.2730 
  190.6250   -21.0550    63.8880   209.2980   177.3220    92.7020    24.7740     2.2550 
  190.7500   -21.1090    62.6500   241.2780   204.5840   104.1140    24.7000     2.2410 
  190.8750   -21.1480    59.2160   267.9350   228.0230   128.7040    24.6320     2.2360 
  191.0000   -21.1360    56.3680   280.8180   241.3930   158.4730    24.5920     2.2380 
  191.1250   -21.1110    55.1650   268.6820   235.6820   210.5570    24.5500     2.2420 
  191.2500   -21.0540    55.1030   237.0450   213.3880   247.0140    24.4980     2.2470 
  191.3750   -21.0120    56.6730   196.0730   180.9270   240.1710    24.4580     2.2560 
  191.5000   -20.8990    59.7930   156.6420   146.9760   183.5660    24.4580     2.2670 
  191.6250   -20.8140    63.4080   126.7860   119.4760   120.9420    24.4950     2.2750 
  191.7500   -20.7130    66.3770   105.9570    99.6630    82.8900    24.5080     2.2790 
  191.8750   -20.6260    67.0730    92.3920    86.5240    68.2200    24.5270     2.2800 
  192.0000   -20.5340    65.7280    83.9730    78.2360    66.6860    24.6200     2.2800 
  192.1250   -20.4620    65.8000    79.2320    73.4770    67.8830    24.7540     2.2810 
  192.2500   -20.3810    67.6830    76.4250    70.5960    66.3270    24.8500     2.2820 
  192.3750   -20.3100    69.3140    75.2720    69.2440    62.7000    24.8980     2.2830 
  192.5000   -20.2230    69.2270    76.1520    69.6560    59.6370    24.9200     2.2830 
  192.6250   -20.1670    67.9080    80.6190    73.0820    59.1390    24.9390     2.2820 
  192.7500   -20.1200    65.3060    89.3970    80.1510    63.1410    24.9590     2.2810 
  192.8750   -20.0860    61.2660   103.3330    91.6640    75.4970    24.9570     2.2790 
  193.0000   -20.0830    58.2390   122.4850   107.7770   103.8160    24.9260     2.2740 
  193.1250   -20.0790    58.3620   145.3870   127.3550   136.0420    24.8770     2.2670 
  193.2500   -20.1050    59.5650   166.6920   145.8540   145.3070    24.7980     2.2640 
  193.3750   -20.1220    60.2270   180.8830   158.7050   139.5690    24.7210     2.2650 
  193.5000   -20.2180    59.6620   184.7090   163.1210   132.3940    24.6770     2.2630 
  193.6250   -20.3210    57.8040   178.9640   159.3100   114.1170    24.6510     2.2570 
  193.7500   -20.4480    55.6650   170.4300   152.6410   101.1200    24.6700     2.2520 
  193.8750   -20.5700    54.8160   162.9350   146.4010    92.2500    24.6930     2.2520 
  194.0000   -20.7200    55.2410   157.9760   142.1690    93.0660    24.7310     2.2530 
  194.1250   -20.8660    55.8240   154.9970   139.9300   103.7670    24.7550     2.2460 
  194.2500   -21.0460    56.7230   151.5260   137.7940   111.4690    24.7740     2.2350 
  194.3750   -21.2130    57.7730   145.9090   134.2100   114.4440    24.7900     2.2300 
  194.5000   -21.3860    59.0610   137.8620   128.4280   114.0720    24.8220     2.2320 
  194.6250   -21.5200    60.0670   128.5650   120.7660   111.3050    24.8710     2.2410 
  194.7500   -21.6450    62.0810   119.8910   112.8630   101.0250    24.9140     2.2520 
  194.8750   -21.7570    64.1970   112.6440   105.7530    91.6130    24.9440     2.2610 
  195.0000   -21.8070    63.4260   107.1320   100.0910    89.1450    24.9720     2.2640 
  195.1250   -21.8430    60.9310   104.1270    96.7910    95.5580    24.9640     2.2660 
  195.2500   -21.8350    60.2770   103.9920    96.0720   101.9840    24.9330     2.2710 
  195.3750   -21.8370    60.8840   107.6750    98.5380    99.0310    24.9130     2.2770 
  195.5000   -21.7780    61.3860   116.4500   105.1950    92.3560    24.9080     2.2790 
  195.6250   -21.7120    62.7820   132.6960   118.2980   105.7680    24.8990     2.2690 
  195.7500   -21.6100    63.9860   155.5010   137.2870   139.7690    24.8890     2.2530 
  195.8750   -21.5130    62.2020   183.0270   160.5530   191.9710    24.8230     2.2390 
  196.0000   -21.3880    58.4460   211.3870   184.6480   219.0370    24.6360     2.2340 
  196.1250   -21.2860    55.8850   234.5160   204.5550   256.9470    24.3540     2.2380 
  196.2500   -21.1740    53.8740   250.0730   218.5000   244.7210    24.2820     2.2410 
  196.3750   -21.0910    52.2360   258.5320   226.7670   199.9750    24.4290     2.2380 
  196.5000   -21.0100    53.0460   261.9600   230.8500   185.9480    24.6900     2.2260 
  196.6250   -20.9690    56.1710   261.8150   232.0840   248.1010    24.8730     2.2130 
  196.7500   -20.9400    57.8170   257.9900   230.8080   289.5170    24.9420     2.2080 
  196.8750   -20.9210    58.0590   246.9480   224.3590   247.3140    24.9440     2.2130 
