~V
VERS. 2.00: Ver 2.00
~W
STRT.M 50.0000:
STOP.M 257.0000:
STEP.M 0.1250:
NULL. -999.2500:
UWI. F11021:
~C
DEPT.M :
GR.API :
RML.OHMM :
RI. :
RXO.OHMM :
CALI.CM :
SP.MV :
DEN.GM/CC :
~A
# ...
  196.2500    76.9000    23.9940    25.6710    32.9720    24.1140    -8.7680     2.4750 
  196.3750    84.2170    18.5750    19.9580    17.4130    24.6220    -8.6230     2.5040 
  196.5000    95.3520    15.0580    16.0390    11.8930    24.9500    -8.4390     2.4890 
  196.6250   106.0620    13.8030    14.2320    11.4370    25.0700    -8.1930     2.4470 
  196.7500   108.7310    14.2300    13.9910    11.8390    25.0820    -7.9660     2.4170 
  196.8750   101.9340    16.0640    15.1460    12.5690    25.0320    -7.7430     2.4200 
  197.0000    91.5420    18.9010    17.4840    15.6220    24.9520    -7.5230     2.4590 
  197.1250    84.0020    21.9510    20.4860    24.0410    24.8230    -7.2990     2.5150 
  197.2500    79.8160    24.1430    23.0240    33.0880    24.6960    -7.0470     2.5530 
  197.3750    80.5460    24.8230    24.2380    32.0500    24.6820    -6.7590     2.5580 
  197.5000    88.2140    23.9770    23.8530    24.1170    24.7840    -6.4180     2.5310 
  197.6250    97.5780    22.2240    22.2620    17.7160    24.8060    -6.0380     2.4930 
  197.7500    99.2600    20.5930    20.5250    14.2660    24.6480    -5.6340     2.4670 
  197.8750    93.8160    19.4990    19.1350    12.9200    24.4580    -5.2390     2.4620 
  198.0000    88.1200    18.9380    18.1900    15.9450    24.4410    -4.8620     2.4740 
  198.1250    84.1710    18.7730    17.6280    18.3650    24.4930    -4.4760     2.4960 
  198.2500    77.8460    18.9050    17.3440    18.2000    24.5470    -4.0620     2.5180 
  198.3750    69.6120    19.5070    17.4500    15.8010    24.5860    -3.6630     2.5300 
  198.5000    63.1260    20.8010    18.1190    13.4480    24.5990    -3.3300     2.5240 
  198.6250    60.4250    22.9320    19.5470    13.9970    24.5680    -3.1230     2.5060 
  198.7500    59.6540    25.3660    21.4110    19.2220    24.4700    -3.0070     2.4950 
  198.8750    60.1370    27.3390    23.1600    27.8610    24.4470    -2.9820     2.5120 
  199.0000    61.8460    27.9700    24.0300    34.2530    24.5220    -2.9760     2.5570 
  199.1250    65.1700    26.3780    23.1270    25.5960    24.6000    -2.9960     2.6130 
  199.2500    69.2260    23.1640    20.7680    19.3270    24.6320    -2.9940     2.6520 
  199.3750    71.8070    19.1750    17.5880    17.5640    24.6420    -2.9420     2.6590 
  199.5000    70.7990    15.3120    14.3420    17.2320    24.6560    -2.7930     2.6370 
  199.6250    66.6200    12.3210    11.6830    12.2410    24.6410    -2.5400     2.5980 
  199.7500    63.8670    10.2270     9.7160     8.2920    24.6300    -2.2280     2.5600 
  199.8750    65.9430     8.9180     8.3970     6.9250    24.6170    -1.8900     2.5300 
  200.0000    72.2720     8.2210     7.6230     7.0640    24.5940    -1.5660     2.5090 
  200.1250    76.5030     8.0240     7.3350     7.4460    24.5790    -1.2270     2.4990 
  200.2500    74.5480     8.0900     7.3380     7.6930    24.5520    -1.0050     2.4970 
  200.3750    69.1550     8.2910     7.5160     7.7120    24.5300    -0.8830     2.4960 
  200.5000    65.3570     8.5180     7.7620     8.0270    24.4690    -0.9070     2.4950 
  200.6250    64.9890     8.6750     7.9720     8.4610    24.4250    -1.0310     2.4890 
  200.7500    65.2910     8.7210     8.0850     8.7980    24.3960    -1.2330     2.4800 
  200.8750    65.3540     8.6460     8.0740     8.5960    24.2840    -1.4090     2.4690 
  201.0000    65.4680     8.4700     7.9470     7.8450    24.0560    -1.5910     2.4590 
  201.1250    65.1860     8.2570     7.7490     7.7210    23.7830    -1.8220     2.4510 
  201.2500    64.1520     8.1080     7.5700     7.5880    23.6440    -2.0090     2.4470 
  201.3750    63.0890     8.0870     7.4760     7.3540    23.6000    -2.2270     2.4480 
  201.5000    63.2370     8.2120     7.4960     7.1210    23.6420    -2.4630     2.4520 
  201.6250    65.4260     8.4070     7.5970     6.9770    23.8220    -2.7230     2.4550 
  201.7500    68.5250     8.4850     7.6620     7.3320    24.0910    -2.9120     2.4560 
  201.8750    71.3420     8.3370     7.5880     7.9310    24.2440    -2.9550     2.4540 
  202.0000    73.1260     7.9680     7.3190     7.6630    24.2630    -2.7560     2.4510 
  202.1250    73.6330     7.4640     6.8760     6.6550    24.1430    -2.3580     2.4500 
  202.2500    73.1880     6.9650     6.4110     5.8450    23.9540    -1.9540     2.4530 
  202.3750    71.9910     6.5700     6.0450     5.5150    23.7170    -1.5080     2.4600 
  202.5000    70.8510     6.3620     5.8520     5.4730    23.4890    -1.0110     2.4670 
  202.6250    71.4840     6.3860     5.8740     5.7650    23.4400    -0.5420     2.4720 
  202.7500    74.4060     6.5300     6.0080     6.4190    23.6750    -0.1930     2.4730 
  202.8750    78.7760     6.7970     6.2550     7.1400    23.9710    -0.1130     2.4710 
  203.0000    82.8680     7.4060     6.8190     7.1760    24.1440    -0.3700     2.4700 
  203.1250    85.7750     8.2650     7.6130     6.8900    24.1670    -0.9740     2.4720 
  203.2500    89.3030     8.8350     8.1410     7.3850    24.1440    -1.8620     2.4780 
  203.3750    95.1040     8.9470     8.2450     8.2290    24.1360    -3.0020     2.4880 
  203.5000   102.7210     8.8750     8.1780     8.7990    24.1440    -4.3000     2.4980 
  203.6250   109.3720     8.8970     8.1990     8.7920    24.1530    -5.7240     2.5030 
  203.7500   113.3080     8.9030     8.2040     8.5680    24.1080    -7.2580     2.5010 
  203.8750   114.8600     8.8840     8.1870     7.9800    24.0630    -8.8600     2.4930 
  204.0000   115.2670     8.8780     8.1810     7.4070    24.1120   -10.4710     2.4810 
  204.1250   115.4090     8.8310     8.1370     8.1500    24.2590   -11.9760     2.4700 
  204.2500   115.5090     8.7070     8.0230     8.9680    24.3650   -13.2820     2.4650 
  204.3750   115.8170     8.5400     7.8690     9.2970    24.3890   -14.3680     2.4630 
  204.5000   116.6920     8.3990     7.7380     9.1230    24.3890   -15.2930     2.4610 
  204.6250   117.4560     8.3570     7.6980     8.8030    24.4030   -15.9540     2.4530 
  204.7500   116.7150     8.4230     7.7600     8.6710    24.4320   -16.3150     2.4370 
  204.8750   114.1880     8.6230     7.9450     9.0170    24.4460   -16.3750     2.4170 
  205.0000   110.8720     8.9860     8.2810     9.5750    24.4590   -16.1780     2.4020 
  205.1250   107.8850     9.4800     8.7380     9.7520    24.4490   -15.7340     2.4030 
  205.2500   105.1700     9.9470     9.1700    10.3230    24.4010   -15.0580     2.4180 
  205.3750   102.8370    10.2900     9.4880    10.9200    24.3510   -14.1760     2.4420 
  205.5000   102.0450    10.5650     9.7430    10.7950    24.3100   -13.0830     2.4640 
  205.6250   104.3020    10.9900    10.1360    10.6360    24.2800   -11.8080     2.4760 
  205.7500   107.9870    11.5620    10.6650    10.3310    24.2700   -10.4470     2.4780 
  205.8750   110.8270    11.9740    11.0470     9.2770    24.2600    -9.0720     2.4780 
  206.0000   111.2790    11.8400    10.9230     8.2620    24.2720    -7.7730     2.4810 
  206.1250   109.5560    10.9800    10.1260     7.8030    24.3020    -6.6920     2.4840 
  206.2500   109.3710     9.9210     9.1460     7.9960    24.3550    -5.8510     2.4810 
  206.3750   114.3280     9.1900     8.4700     8.6530    24.4150    -5.2480     2.4650 
  206.5000   123.5830     9.0750     8.3630     9.7630    24.4360    -4.8740     2.4390 
  206.6250   128.2790     9.4730     8.7320    10.5270    24.3900    -4.7320     2.4180 
  206.7500   123.5040     9.8390     9.0710    10.9600    24.3240    -4.7370     2.4180 
  206.8750   113.7170     9.8310     9.0620    11.1700    24.2730    -4.8280     2.4410 
  207.0000   105.6660     9.3470     8.6120    11.1810    24.2700    -4.8800     2.4760 
  207.1250   100.4590     8.4470     7.8050     9.5370    24.2510    -4.6480     2.4990 
  207.2500    95.6530     7.4200     6.9150     7.8090    24.1340    -4.0870     2.4980 
  207.3750    93.3670     6.4900     6.1090     6.1060    23.9210    -3.2690     2.4790 
