~V
VERS. 2.00: Ver 2.00
~W
STRT.M 55.0000:
STOP.M 286.0000:
STEP.M 0.1250:
NULL. -999.2500:
UWI. F11067:
~C
DEPT.M :
GR.API :
RML.OHMM :
RI. :
RXO.OHMM :
CALI.CM :
DEN.GM/CC :
SP.MV :
~A
# ...
  133.7500    71.3080    10.7090     9.5020    11.3120    24.4620     2.2380    -8.7980 
  133.8750    67.8510    10.6310     9.4560    11.4930    24.4620     2.2150    -8.7740 
  134.0000    64.1760    10.5900     9.4510    11.7800    24.4640     2.1930    -8.7360 
  134.1250    63.2230    10.6120     9.4780    12.0530    24.4640     2.1770    -8.7090 
  134.2500    64.3870    10.6820     9.5180    12.2140    24.4650     2.1700    -8.6920 
  134.3750    66.4290    10.7690     9.5460    12.2650    24.4670     2.1750    -8.6740 
  134.5000    68.7960    10.8290     9.5290    12.3860    24.4640     2.1900    -8.6380 
  134.6250    71.1960    10.8050     9.4180    12.1830    24.4620     2.2110    -8.5750 
  134.7500    72.9290    10.6880     9.2350    11.7010    24.4650     2.2300    -8.5120 
  134.8750    72.7530    10.5000     9.0160    11.1540    24.4640     2.2420    -8.4420 
  135.0000    70.8120    10.2920     8.8260    10.7260    24.4660     2.2430    -8.3670 
  135.1250    68.8270    10.1440     8.7440    10.2460    24.4640     2.2360    -8.3340 
  135.2500    67.7970    10.1020     8.7870    10.2560    24.4660     2.2280    -8.3320 
  135.3750    67.2800    10.1830     8.9390    10.7990    24.4680     2.2250    -8.3510 
  135.5000    67.9390    10.3680     9.1660    11.9060    24.4660     2.2270    -8.4070 
  135.6250    69.5530    10.6150     9.4090    12.9310    24.4650     2.2340    -8.4810 
  135.7500    70.2560    10.8550     9.6140    13.0350    24.4660     2.2410    -8.5550 
  135.8750    68.4890    11.0540     9.7610    13.0220    24.4650     2.2460    -8.6430 
  136.0000    66.0750    11.2000     9.8580    12.8730    24.4680     2.2480    -8.7490 
  136.1250    65.7250    11.2930     9.9070    12.8520    24.4670     2.2440    -8.8140 
  136.2500    65.1300    11.3510     9.9290    13.1350    24.4660     2.2350    -8.8330 
  136.3750    63.2300    11.3730     9.9300    13.2510    24.4640     2.2220    -8.8250 
  136.5000    62.8990    11.3620     9.9170    13.3060    24.4600     2.2090    -8.7800 
  136.6250    65.6330    11.3230     9.8940    13.5230    24.4590     2.2000    -8.7440 
  136.7500    66.0860    11.2770     9.8710    13.6560    24.4290     2.1980    -8.7180 
  136.8750    65.5460    11.2380     9.8500    13.4810    24.3480     2.2010    -8.6570 
  137.0000    68.8750    11.2110     9.8340    13.2380    24.2570     2.2070    -8.5820 
  137.1250    73.2500    11.1880     9.8240    13.1100    24.2160     2.2120    -8.5170 
  137.2500    73.0560    11.1570     9.8220    12.9370    24.1960     2.2160    -8.4370 
  137.3750    70.9640    11.1120     9.8190    12.7780    24.1570     2.2200    -8.3510 
  137.5000    72.3040    11.0510     9.8060    12.7480    24.1020     2.2230    -8.2740 
  137.6250    74.5440    10.9680     9.7690    12.6670    24.0620     2.2220    -8.1790 
  137.7500    74.0870    10.8620     9.7090    12.2950    24.0230     2.2180    -8.0380 
  137.8750    72.1050    10.7300     9.6340    11.8640    23.9490     2.2130    -7.8830 
  138.0000    69.5680    10.5790     9.5570    11.5790    23.8320     2.2100    -7.7190 
  138.1250    66.1280    10.4330     9.5100    11.5320    23.7600     2.2080    -7.5420 
  138.2500    63.5030    10.3330     9.5190    11.5540    23.7360     2.2050    -7.3640 
  138.3750    63.5550    10.3170     9.6050    11.5150    23.7310     2.1980    -7.1860 
  138.5000    66.2630    10.4040     9.7640    11.4930    23.7260     2.1880    -6.9900 
  138.6250    68.6910    10.5810     9.9370    11.3440    23.6560     2.1820    -6.7670 
  138.7500    68.6090    10.7480    10.0300    11.3880    23.4960     2.1880    -6.5390 
  138.8750    67.4440    10.7990     9.9530    11.7930    23.3710     2.2100    -6.2760 
  139.0000    68.0230    10.6340     9.6410    12.3220    23.5580     2.2470    -5.9680 
  139.1250    72.2350    10.1740     9.0790    11.5880    23.8240     2.2930    -5.6400 
  139.2500    78.2250     9.5300     8.4160    10.0880    24.0830     2.3340    -5.3060 
  139.3750    83.2020     8.8320     7.7880     8.4780    24.2090     2.3660    -5.0000 
  139.5000    85.3200     8.2310     7.3170     7.9730    24.2800     2.3900    -4.7450 
  139.6250    85.4580     7.9060     7.1480     7.4530    24.3140     2.4040    -4.5670 
  139.7500    87.5670     7.9000     7.2780     7.5930    24.3570     2.4040    -4.4580 
  139.8750    90.2410     8.2260     7.6890     7.7720    24.4120     2.3850    -4.4380 
  140.0000    86.8010     8.8340     8.3240     7.6170    24.4500     2.3480    -4.5190 
  140.1250    75.9800     9.5900     9.0440     9.0550    24.4670     2.3030    -4.6440 
  140.2500    66.5960    10.2220     9.5750    10.9660    24.4700     2.2650    -4.7770 
  140.3750    63.3780    10.5100     9.7170    12.1300    24.4670     2.2430    -4.8560 
  140.5000    64.5550    10.3730     9.4890    13.2000    24.4680     2.2420    -4.8620 
  140.6250    66.0450     9.9650     9.1840    14.0230    24.5140     2.2690    -4.7320 
  140.7500    66.9940     9.7270     9.1810    11.1110    24.6360     2.3200    -4.5020 
  140.8750    67.9930    10.0070     9.7170     8.9790    24.8060     2.3940    -4.2230 
  141.0000    68.2650    10.9790    10.8630    11.1710    24.9110     2.4760    -3.8950 
  141.1250    65.2640    12.5210    12.3620    19.6620    24.9360     2.5390    -3.5610 
  141.2500    62.3280    13.8970    13.3610    24.1960    24.9360     2.5660    -3.2550 
  141.3750    65.3260    14.3920    13.1510    21.2350    24.9380     2.5530    -2.9980 
  141.5000    74.1460    13.6260    11.7460    15.6450    24.9390     2.5100    -2.8270 
  141.6250    80.0750    11.8010     9.9260     9.7170    24.9360     2.4540    -2.7800 
  141.7500    80.5190     9.9080     8.4970     7.6530    24.9330     2.4010    -2.8190 
  141.8750    80.2220     8.5570     7.6840     7.2740    24.9220     2.3560    -2.9210 
  142.0000    80.8390     7.9730     7.4730     7.7550    24.8910     2.3180    -3.0770 
  142.1250    79.1410     8.1500     7.8080     8.3910    24.8490     2.2830    -3.2680 
  142.2500    74.8640     8.7140     8.4200     9.5500    24.7710     2.2500    -3.4870 
  142.3750    72.9360     9.4180     9.1100    11.5490    24.6850     2.2220    -3.7320 
  142.5000    74.3900    10.0500     9.6970    13.2400    24.6290     2.2010    -3.9320 
  142.6250    74.7680    10.4300    10.0410    11.5000    24.6030     2.1890    -4.1090 
  142.7500    72.8130    10.5790    10.1980    10.7220    24.5800     2.1860    -4.2640 
  142.8750    70.6950    10.5820    10.2760    10.4730    24.5590     2.1860    -4.3350 
  143.0000    70.3120    10.5850    10.4230    10.4060    24.5270     2.1910    -4.3390 
  143.1250    70.4150    10.7760    10.7900    10.4220    24.4920     2.2040    -4.2730 
  143.2500    70.3250    11.1790    11.3080    11.0290    24.4800     2.2270    -4.1250 
  143.3750    70.5980    11.6690    11.7560    13.2350    24.4960     2.2590    -3.9090 
  143.5000    71.1130    11.9930    11.8250    18.6930    24.5460     2.2920    -3.6640 
  143.6250    72.6220    11.8150    11.2650    20.1820    24.6160     2.3160    -3.3630 
  143.7500    75.6900    11.2010    10.4120    15.1380    24.6710     2.3350    -3.0340 
  143.8750    80.1500    10.4070     9.6450     9.7080    24.7040     2.3590    -2.7470 
  144.0000    84.1400     9.7780     9.2340     8.9210    24.7050     2.3960    -2.4870 
  144.1250    83.4290     9.6200     9.3100    10.4130    24.7060     2.4380    -2.2500 
  144.2500    79.2530     9.8250     9.6570    13.7050    24.6900     2.4650    -2.0670 
  144.3750    75.9460    10.1440     9.9860    16.6050    24.6570     2.4640    -1.9400 
  144.5000    77.2620    10.2680     9.9880    13.2620    24.6390     2.4400    -1.8590 
  144.6250    81.6140     9.9380     9.5130    11.0000    24.6360     2.4080    -1.8530 
  144.7500    82.9720     9.3300     8.9010    10.1270    24.6380     2.3820    -1.8920 
  144.8750    81.0290     8.7330     8.4580    10.3470    24.6380     2.3640    -1.9320 
