~V
VERS. 2.00: Ver 2.00
~W
STRT.M 57.0000:
STOP.M 280.0000:
STEP.M 0.1250:
NULL. -999.2500:
UWI. F11041:
~C
DEPT.M :
SP.MV :
GR.API :
RML.OHMM :
RI. :
RXO.OHMM :
CALI.CM :
DEN.GM/CC :
~A
# ...
  225.7500    -2.2790    71.6090    67.7410    63.5280    55.0780    24.7080     2.2410 
  225.8750    -2.3860    73.2060    67.9080    62.9790    53.4160    24.7170     2.2390 
  226.0000    -2.5110    73.1240    67.2580    61.2760    51.0430    24.6840     2.2390 
  226.1250    -2.5830    72.0630    67.8120    60.1950    48.4690    24.5980     2.2370 
  226.2500    -2.5500    70.0330    69.8810    60.2090    47.9570    24.5690     2.2330 
  226.3750    -2.4730    67.8220    73.1210    61.2020    47.6960    24.5670     2.2300 
  226.5000    -2.4740    65.2910    76.9040    62.8340    46.7720    24.5510     2.2300 
  226.6250    -2.6080    62.8630    80.4790    64.6990    44.9680    24.5300     2.2330 
  226.7500    -2.7730    63.4420    83.6110    66.5380    43.1180    24.5000     2.2340 
  226.8750    -2.9240    67.7210    86.4710    68.3940    41.0790    24.4680     2.2350 
  227.0000    -2.9990    71.9620    89.3350    70.3900    39.0400    24.4850     2.2330 
  227.1250    -3.0140    71.1170    92.3110    72.6000    37.9890    24.5150     2.2280 
  227.2500    -3.0560    67.6990    95.1030    74.8510    37.3860    24.5660     2.2230 
  227.3750    -3.1590    66.4930    97.3020    76.9240    38.1300    24.6070     2.2230 
  227.5000    -3.2790    68.5300    98.6160    78.5620    41.1880    24.5910     2.2350 
  227.6250    -3.3610    71.1230    98.9730    79.4450    47.0990    24.6030     2.2620 
  227.7500    -3.3980    71.1330    98.8380    79.6700    51.4720    24.6220     2.2900 
  227.8750    -3.3930    68.3990    98.3310    79.3680    51.9800    24.5890     2.3090 
  228.0000    -3.3520    65.1880    97.3980    78.7640    51.0430    24.5410     2.3140 
  228.1250    -3.3050    63.8040    96.3190    78.3620    52.9710    24.5500     2.3080 
  228.2500    -3.3060    65.3210    96.3460    78.9440    55.7410    24.6030     2.3020 
  228.3750    -3.3300    67.5190    99.1030    81.5110    57.6850    24.6840     2.3030 
  228.5000    -3.2720    68.5830   105.1240    86.6190    54.8560    24.7620     2.3140 
  228.6250    -3.0970    68.5960   109.8620    91.6970    49.3000    24.8460     2.3390 
  228.7500    -2.8910    67.1390   103.7450    89.7440    48.9710    24.7990     2.3740 
  228.8750    -2.6940    63.1740    82.8730    75.9090    56.5530    24.6740     2.4190 
  229.0000    -2.5700    60.5790    55.7140    54.1970    61.6710    24.5190     2.4690 
  229.1250    -2.5230    66.7300    34.8040    34.9440    50.7280    24.4560     2.4950 
  229.2500    -2.4540    77.6760    21.9050    22.2120    26.3320    24.6290     2.4740 
  229.3750    -2.3030    84.6250    14.9100    15.0380     9.5460    24.8590     2.4290 
  229.5000    -2.1000    84.6970    11.4390    11.4270     8.1740    24.8920     2.4080 
  229.6250    -1.9180    83.0670    10.0400     9.9600     8.6630    24.8630     2.4310 
  229.7500    -1.7520    84.9000     9.5260     9.4360     8.9680    24.8590     2.4640 
  229.8750    -1.5810    90.3600     9.4720     9.4230     8.5750    24.8970     2.4820 
  230.0000    -1.3920    95.8410     9.5920     9.5730     8.0720    24.9090     2.4880 
  230.1250    -1.1670    97.7950     9.6900     9.6390     7.8070    24.8870     2.4890 
  230.2500    -0.8850    97.8970     9.7190     9.6190     7.8900    24.8790     2.4880 
  230.3750    -0.5800    98.0870     9.6970     9.5880     8.0980    24.8860     2.4850 
  230.5000    -0.3600    97.7790     9.6480     9.5770     8.4070    24.8680     2.4840 
  230.6250    -0.2450    96.2020     9.5970     9.5650     8.6160    24.8290     2.4850 
  230.7500    -0.1860    97.6120     9.5440     9.5170     8.5510    24.8730     2.4880 
  230.8750    -0.1630   102.5800     9.4920     9.4200     8.2090    24.9030     2.4890 
  231.0000    -0.1340   106.0650     9.4470     9.2900     8.0410    24.8890     2.4850 
  231.1250    -0.0710   103.7670     9.3990     9.1710     8.3960    24.8940     2.4730 
  231.2500    -0.0300   100.8330     9.3410     9.0940     8.9790    24.9060     2.4610 
  231.3750    -0.0670   100.8150     9.2760     9.0630     9.0920    24.8920     2.4560 
  231.5000    -0.1700   103.8140     9.2280     9.0680     8.8460    24.8880     2.4540 
  231.6250    -0.2860   107.5440     9.2320     9.0990     8.4300    24.9050     2.4510 
  231.7500    -0.3710   112.3110     9.3010     9.1540     7.8540    24.8920     2.4460 
  231.8750    -0.4200   116.5700     9.4180     9.2290     7.4500    24.8720     2.4390 
  232.0000    -0.4320   117.6260     9.5470     9.3110     7.4540    24.8850     2.4300 
  232.1250    -0.4660   114.7480     9.6730     9.3690     7.5440    24.9230     2.4220 
  232.2500    -0.5700   112.4510     9.8080     9.3840     7.5580    24.9410     2.4180 
  232.3750    -0.6960   112.9240     9.9560     9.3550     7.4380    24.8950     2.4190 
  232.5000    -0.7310   114.0500    10.0870     9.2880     7.3650    24.8490     2.4230 
  232.6250    -0.6660   114.7220    10.1130     9.1660     7.4640    24.8310     2.4260 
  232.7500    -0.5850   116.0210     9.9790     8.9800     7.8570    24.8310     2.4250 
  232.8750    -0.5270   115.4030     9.6820     8.7390     8.2320    24.8710     2.4230 
  233.0000    -0.5420   111.3650     9.2800     8.5220     7.7560    24.9350     2.4190 
  233.1250    -0.6470   105.4490     9.0160     8.5670     7.5400    24.9480     2.4140 
  233.2500    -0.7800   102.5430     9.3280     9.1580     7.7840    24.9230     2.4070 
  233.3750    -0.9030   101.3300    10.8080    10.7200     8.8130    24.8800     2.4030 
  233.5000    -1.0480    97.0700    14.2640    13.9000    11.8850    24.7550     2.4070 
  233.6250    -1.2450    88.1150    22.7400    20.2090    18.2100    24.6790     2.4140 
  233.7500    -1.4960    77.6600    34.2260    30.1960    42.4720    24.6580     2.4080 
  233.8750    -1.8170    69.4230    49.7380    43.6850    63.6280    24.6480     2.3810 
  234.0000    -2.1890    65.2830    66.8320    58.5500    62.9180    24.6290     2.3420 
  234.1250    -2.5510    65.4390    80.8110    70.7060    60.4430    24.5710     2.3130 
  234.2500    -2.8390    66.9180    90.3220    78.9760    59.5370    24.5740     2.3020 
  234.3750    -3.0590    66.6410    96.7990    84.6080    62.0840    24.6550     2.3030 
  234.5000    -3.3060    64.0600   102.0310    89.1570    68.5990    24.7610     2.3060 
  234.6250    -3.6170    61.2210   106.2720    92.8450    68.3710    24.7830     2.3040 
  234.7500    -3.9160    61.2280   108.9320    95.1580    64.0170    24.7720     2.2980 
  234.8750    -4.1550    64.0140   109.7490    95.8690    63.1150    24.7920     2.2900 
  235.0000    -4.2940    67.1650   109.3730    95.5420    66.1170    24.8150     2.2810 
  235.1250    -4.3200    67.9770   109.0910    95.2970    68.0800    24.8470     2.2800 
  235.2500    -4.3090    66.8420   109.3460    95.5180    68.9820    24.9400     2.2840 
  235.3750    -4.3400    66.4860   108.9600    95.1830    72.0050    25.0300     2.2920 
  235.5000    -4.3920    67.9950   105.8720    92.4970    74.2790    25.0250     2.3000 
  235.6250    -4.4210    70.2900    98.1130    85.7500    70.2180    24.9590     2.3060 
  235.7500    -4.4460    69.8200    87.5930    76.6030    63.0410    24.8450     2.3100 
  235.8750    -4.4630    66.6690    77.1880    67.5550    54.4920    24.7240     2.3110 
  236.0000    -4.4650    64.2860    69.8340    61.1600    46.4550    24.6710     2.3100 
  236.1250    -4.4650    65.1550    68.5210    60.0180    44.9870    24.6570     2.3060 
  236.2500    -4.5320    65.9450    73.4470    64.3010    47.0450    24.6470     2.2990 
  236.3750    -4.6630    65.8920    85.0250    74.3700    73.8220    24.6540     2.2890 
  236.5000    -4.7760    66.6990   102.7230    89.7590    97.1350    24.6530     2.2770 
  236.6250    -4.8050    67.8510   123.6000   107.9130   111.0800    24.6340     2.2690 
  236.7500    -4.7510    66.2190   140.8350   122.9000   114.2540    24.6170     2.2680 
  236.8750    -4.6560    63.8660   149.3590   130.3120   109.7400    24.5790     2.2730 
