~V
VERS. 2.00: Ver 2.00
~W
STRT.M 52.0000:
STOP.M 287.0000:
STEP.M 0.1250:
NULL. -999.2500:
UWI. F11078:
~C
DEPT.M :
GR.API :
RML.OHMM :
RI. :
RXO.OHMM :
CALI.CM :
DEN.GM/CC :
SP.MV :
~A
# ...
   97.0000    81.2290    14.3010     9.9120    18.5140    24.5020     2.3620    -7.1340 
   97.1250    74.8330    17.3940    13.2120    31.8520    24.3750     2.4250    -7.5590 
   97.2500    71.0520    18.7840    15.4720    36.9530    24.1510     2.4610    -8.1150 
   97.3750    67.5710    17.8450    15.3500    24.3150    23.7680     2.4480    -8.7950 
   97.5000    64.9210    15.1140    13.1210    12.8200    23.3110     2.3810    -9.6320 
   97.6250    65.7930    12.3870    10.7450     8.3140    23.0450     2.2990   -10.6190 
   97.7500    68.9080    10.5620     9.0040     7.2710    22.9490     2.2280   -11.6760 
   97.8750    70.4380     9.7830     8.0200     7.2300    22.9560     2.1820   -12.7480 
   98.0000    71.2810     9.8160     7.7190     7.4690    23.0860     2.1640   -13.7850 
   98.1250    73.3050    10.1320     7.7720     7.9490    23.2840     2.1590   -14.7160 
   98.2500    73.3730    10.4750     7.9870     8.2870    23.4130     2.1620   -15.4830 
   98.3750    70.0170    10.7200     8.2160     8.4550    23.4070     2.1640   -16.0920 
   98.5000    66.5530    10.8360     8.3640     8.3240    23.3350     2.1520   -16.4900 
   98.6250    66.5510    10.8790     8.4250     8.1490    23.2230     2.1250   -16.6800 
   98.7500    68.6320    10.8700     8.4200     7.9490    22.9880     2.0890   -16.7250 
   98.8750    69.2460    10.7930     8.3770     7.6580    22.6120     2.0610   -16.6770 
   99.0000    67.6520    10.6080     8.3170     7.3120    22.3800     2.0580   -16.5020 
   99.1250    67.3360    10.3470     8.2460     7.1510    22.2960     2.0780   -16.2470 
   99.2500    69.5620    10.0740     8.1590     7.1490    22.2720     2.1130   -16.0110 
   99.3750    71.5830     9.8770     8.0490     7.1810    22.2240     2.1480   -15.8300 
   99.5000    71.5170     9.8240     7.9180     7.1640    22.1410     2.1740   -15.7400 
   99.6250    69.8810     9.8440     7.7810     7.2120    22.0030     2.1860   -15.7580 
   99.7500    67.6500     9.8260     7.6510     7.4420    21.8720     2.1870   -15.8700 
   99.8750    66.6650     9.6870     7.5370     7.6100    21.8430     2.1790   -16.0540 
  100.0000    67.3470     9.4390     7.4540     7.4740    21.9910     2.1690   -16.3080 
  100.1250    68.8130     9.2290     7.4080     7.3650    22.2420     2.1630   -16.5620 
  100.2500    69.4000     9.1650     7.4050     7.3300    22.5210     2.1600   -16.7410 
  100.3750    68.2800     9.2760     7.4420     7.3200    22.6940     2.1580   -16.8200 
  100.5000    67.0460     9.4900     7.5130     7.2170    22.5870     2.1530   -16.7510 
  100.6250    67.9400     9.6690     7.5910     7.0380    22.3430     2.1460   -16.5550 
  100.7500    72.1190     9.7390     7.6560     6.8040    22.1080     2.1420   -16.2330 
  100.8750    77.1850     9.6760     7.6890     6.6000    21.9760     2.1440   -15.7680 
  101.0000    80.7220     9.4870     7.6700     6.4620    21.9830     2.1540   -15.1500 
  101.1250    83.0210     9.2350     7.5930     6.4130    22.1080     2.1660   -14.4820 
  101.2500    85.0220     8.9580     7.4460     6.4900    22.2740     2.1780   -13.7820 
  101.3750    87.4010     8.6660     7.2130     6.7020    22.3890     2.1860   -13.0410 
  101.5000    88.0110     8.3120     6.8590     6.6310    22.3780     2.1930   -12.2810 
  101.6250    86.8000     7.8490     6.4020     6.2810    22.3080     2.2010   -11.5000 
  101.7500    86.7610     7.2670     5.8730     6.0770    22.2450     2.2140   -10.7140 
  101.8750    90.6440     6.6290     5.3190     5.8610    22.3240     2.2350    -9.9410 
  102.0000    98.6760     6.1060     4.8200     5.3850    22.6050     2.2620    -9.2510 
  102.1250   104.7370     5.8750     4.4620     4.9850    22.9250     2.2870    -8.6860 
  102.2500   104.8930     6.0910     4.3620     4.9200    23.0730     2.3040    -8.3030 
  102.3750   101.3890     6.8630     4.6560     5.2020    23.0630     2.3150    -8.1660 
  102.5000    98.8400     8.3210     5.5860     5.9340    23.0150     2.3300    -8.3870 
  102.6250    94.6190    10.2220     7.1520     8.1580    23.0430     2.3600    -8.9450 
  102.7500    84.7160    12.1880     9.2170    14.6890    23.0860     2.3970    -9.8290 
  102.8750    72.5340    13.6320    11.2250    21.3270    23.0120     2.4180   -11.0360 
  103.0000    65.7210    13.8200    12.0410    16.0450    22.7830     2.3860   -12.4530 
  103.1250    63.7630    12.9480    11.5040    10.5040    22.5600     2.3030   -13.9370 
  103.2500    63.9360    11.5440    10.2080     8.5040    22.4580     2.1930   -15.3850 
  103.3750    65.1700    10.2290     8.8780     7.7540    22.5020     2.0970   -16.7080 
  103.5000    67.8340     9.4730     7.9910     7.3360    22.5520     2.0550   -17.8110 
  103.6250    71.1420     9.2000     7.5340     7.1540    22.5230     2.0620   -18.6500 
  103.7500    74.0350     9.2380     7.4000     6.9870    22.4440     2.0960   -19.1530 
  103.8750    75.5250     9.4020     7.4560     6.7630    22.3620     2.1340   -19.3470 
  104.0000    75.4780     9.5460     7.5970     6.6540    22.3220     2.1550   -19.3930 
  104.1250    75.0960     9.6190     7.7350     6.8840    22.3690     2.1600   -19.3470 
  104.2500    75.0710     9.6310     7.8280     7.3920    22.5500     2.1550   -19.2930 
  104.3750    74.8350     9.6190     7.8610     7.9840    22.8440     2.1490   -19.3040 
  104.5000    74.2000     9.6250     7.8420     8.1940    23.1570     2.1480   -19.4180 
  104.6250    73.8500     9.6650     7.8120     8.1450    23.3960     2.1530   -19.6590 
  104.7500    73.6990     9.7310     7.7990     8.2520    23.6400     2.1630   -20.0260 
  104.8750    71.9950     9.8110     7.8180     8.4970    23.9980     2.1720   -20.4620 
  105.0000    69.4110     9.9100     7.8640     8.4400    24.4090     2.1690   -20.9070 
  105.1250    69.3560    10.0330     7.9110     8.1550    24.7500     2.1510   -21.3520 
  105.2500    71.2400    10.1730     7.9430     7.9050    24.9270     2.1180   -21.7460 
  105.3750    70.7860    10.2950     7.9520     7.8650    24.8270     2.0810   -22.0310 
  105.5000    67.2460    10.3290     7.9320     7.9990    24.5190     2.0580   -22.1720 
  105.6250    65.6660    10.2450     7.8920     8.0300    24.2770     2.0520   -22.1990 
  105.7500    65.7640    10.0380     7.8420     7.7980    24.0570     2.0600   -22.1550 
  105.8750    65.8140     9.7440     7.8000     7.5280    23.7430     2.0740   -22.0430 
  106.0000    67.5670     9.4670     7.7920     7.3880    23.4370     2.0890   -21.8030 
  106.1250    70.0770     9.3340     7.8310     7.2960    23.3690     2.1020   -21.4360 
  106.2500    70.1450     9.4150     7.9210     7.2500    23.4070     2.1140   -20.9660 
  106.3750    69.4900     9.6860     8.0550     7.4810    23.4190     2.1240   -20.4120 
  106.5000    71.6630     9.9860     8.1920     7.7500    23.3160     2.1290   -19.7860 
  106.6250    75.8150    10.0830     8.2330     7.9630    23.0840     2.1300   -19.1420 
  106.7500    78.8250     9.8520     8.0700     7.9490    22.8280     2.1300   -18.4930 
  106.8750    81.8090     9.3310     7.6520     7.8240    22.6780     2.1360   -17.8530 
  107.0000    88.1600     8.7430     7.0820     7.2600    22.7530     2.1540   -17.2400 
  107.1250    95.0370     8.3700     6.6170     6.4440    23.0320     2.1830   -16.6830 
  107.2500    98.7960     8.3350     6.4120     5.8420    23.3840     2.2180   -16.1630 
  107.3750    97.2300     8.5980     6.5040     6.0650    23.6420     2.2580   -15.6740 
  107.5000    92.0780     8.9360     6.8120     8.4810    23.8330     2.3020   -15.1840 
  107.6250    87.3340     9.0430     7.0790    13.1510    24.0120     2.3490   -14.6530 
  107.7500    85.5870     8.7660     7.1010    12.8770    24.1050     2.3900   -14.1040 
  107.8750    87.2670     8.1460     6.8140     8.2970    24.1270     2.4130   -13.5700 
  108.0000    90.0810     7.4190     6.3280     6.2030    24.1430     2.4100   -13.0880 
  108.1250    92.2140     6.8790     5.8830     5.8830    24.1510     2.3870   -12.6550 
