~V
VERS. 2.00: Ver 2.00
~W
STRT.M 52.0000:
STOP.M 269.0000:
STEP.M 0.1250:
NULL. -999.2500:
UWI. F11071:
~C
DEPT.M :
GR.API :
RML.OHMM :
RI. :
RXO.OHMM :
CALI.CM :
DEN.GM/CC :
SP.MV :
~A
# ...
  243.2500    64.7830   167.2880   156.5410   164.8150    24.5590     2.4820    -9.4960 
  243.3750    64.5800   172.2060   166.2020   221.7720    24.6280     2.5970    -9.1570 
  243.5000    63.9210   163.8740   161.9220   335.0980    24.8890     2.6530    -8.8120 
  243.6250    63.7110   143.2200   141.8330   273.7630    25.0700     2.6440    -8.4860 
  243.7500    66.1020   121.2750   118.3440   162.2060    25.1310     2.6140    -8.1190 
  243.8750    70.7560   105.3800   100.3210   102.7600    25.1760     2.5940    -7.7620 
  244.0000    74.9370    98.7060    92.1310    79.7940    25.1870     2.5930    -7.4820 
  244.1250    77.2990   102.5970    96.0270   104.4750    25.1520     2.6060    -7.2240 
  244.2500    78.1350   113.4730   108.5110   163.6280    25.1160     2.6210    -6.9450 
  244.3750    76.8300   126.5430   126.1340   238.9110    25.0920     2.6350    -6.7020 
  244.5000    75.5510   132.9190   141.2760   260.6080    25.0650     2.6450    -6.4750 
  244.6250    77.2750   120.5300   136.0570   228.4790    25.0320     2.6390    -6.2330 
  244.7500    78.8410    93.1850   107.0630   191.9310    25.0450     2.6120    -6.0050 
  244.8750    80.3000    61.4530    69.0210   161.9200    25.0440     2.5680    -5.7300 
  245.0000    86.0780    35.7820    38.6020    96.7920    25.0120     2.5210    -5.3820 
  245.1250    95.5860    21.1400    21.8520    37.2870    24.9340     2.4830    -4.9990 
  245.2500   102.6400    13.1270    13.1160    12.9190    24.8830     2.4550    -4.6160 
  245.3750   103.3750     8.9200     8.9230     6.6460    24.9380     2.4320    -4.2330 
  245.5000    98.9980     6.9590     7.0480     6.0110    25.0480     2.4080    -3.8440 
  245.6250    92.8790     6.5320     6.4630     6.4050    25.1160     2.3850    -3.4960 
  245.7500    89.5890     6.6880     6.4540     6.8150    25.1490     2.3700    -3.2240 
  245.8750    93.1660     6.9660     6.7210     6.9880    25.1590     2.3690    -3.0540 
  246.0000   103.1560     7.1870     7.0200     6.8540    25.1530     2.3790    -2.9410 
  246.1250   114.3670     7.2630     7.1890     6.8430    25.1430     2.3920    -2.8640 
  246.2500   122.2590     7.2330     7.2410     7.1200    25.1420     2.4020    -2.8310 
  246.3750   126.5780     7.1530     7.2140     7.4780    25.1540     2.4090    -2.8290 
  246.5000   127.4230     7.0750     7.1480     7.5170    25.1620     2.4130    -2.8740 
  246.6250   123.2020     7.0490     7.0890     7.3610    25.1560     2.4160    -2.9670 
  246.7500   117.1890     7.0860     7.0650     7.3290    25.1410     2.4180    -3.0720 
  246.8750   112.8860     7.1810     7.0790     7.5620    25.1310     2.4180    -3.1910 
  247.0000   110.3580     7.3120     7.1160     8.0370    25.1130     2.4170    -3.3130 
  247.1250   108.9350     7.4450     7.1510     8.4750    25.1060     2.4170    -3.4290 
  247.2500   108.7290     7.5490     7.1550     8.6960    25.1010     2.4180    -3.5510 
  247.3750   108.4790     7.6030     7.1120     8.2960    25.1010     2.4220    -3.6590 
  247.5000   108.0800     7.5970     7.0210     7.8570    25.1010     2.4280    -3.7220 
  247.6250   109.6390     7.5280     6.8800     7.9980    25.0960     2.4360    -3.7220 
  247.7500   112.2760     7.4260     6.7110     8.1890    25.0830     2.4420    -3.6730 
  247.8750   112.5940     7.3160     6.5300     7.9000    25.0710     2.4430    -3.5780 
  248.0000   110.1800     7.2270     6.3640     7.4660    25.0710     2.4380    -3.4410 
  248.1250   109.6760     7.2030     6.2530     6.9850    25.0520     2.4250    -3.2600 
  248.2500   114.0090     7.2490     6.2160     6.7820    25.0400     2.4120    -3.0470 
  248.3750   118.8240     7.3490     6.2480     6.8960    25.0430     2.4030    -2.8490 
  248.5000   118.7440     7.4560     6.3170     7.2810    25.0640     2.4010    -2.7210 
  248.6250   114.2970     7.5150     6.3610     7.8490    25.0780     2.4080    -2.6640 
  248.7500   109.8080     7.5380     6.3660     8.2150    25.0650     2.4170    -2.6930 
  248.8750   107.0720     7.5890     6.3740     7.7670    25.0450     2.4210    -2.8140 
  249.0000   105.9250     7.7410     6.4530     7.1140    25.0400     2.4140    -2.9770 
  249.1250   107.5640     8.0410     6.6720     7.0900    25.0580     2.3920    -3.1330 
  249.2500   110.5280     8.3890     6.9830     8.5110    25.0800     2.3620    -3.2520 
  249.3750   111.1550     8.6490     7.2840    11.3370    25.0960     2.3320    -3.3020 
  249.5000   107.1630     8.7000     7.4450    13.7450    25.1010     2.3140    -3.2640 
  249.6250    99.9710     8.4620     7.3390    10.4910    25.1090     2.3170    -3.1440 
  249.7500    95.9750     8.0570     7.0400     8.1960    25.1180     2.3330    -2.9350 
  249.8750    97.1400     7.6010     6.6450     7.0990    25.1060     2.3520    -2.6430 
  250.0000   100.4480     7.1820     6.2480     6.8330    25.0750     2.3660    -2.3430 
  250.1250   102.5200     6.8440     5.9070     6.8950    25.0460     2.3750    -2.1260 
  250.2500   104.3890     6.5630     5.6210     6.6960    25.0500     2.3860    -1.9700 
  250.3750   106.0370     6.3270     5.3800     5.9510    25.0640     2.4040    -1.8370 
  250.5000   104.3780     6.1370     5.1920     5.2870    25.0570     2.4230    -1.7140 
  250.6250    99.2160     6.0150     5.0850     5.1840    25.0450     2.4340    -1.6470 
  250.7500    94.7550     5.9550     5.0500     5.3210    25.0390     2.4310    -1.6740 
  250.8750    93.0880     5.9460     5.0690     5.4440    25.0390     2.4150    -1.7790 
  251.0000    92.6940     5.9730     5.1150     5.4980    25.0430     2.3950    -1.9400 
  251.1250    91.9060     6.0140     5.1580     5.4800    25.0480     2.3830    -2.1090 
  251.2500    92.8340     6.0420     5.1890     5.4600    25.0430     2.3830    -2.2970 
  251.3750    96.2100     6.0460     5.2070     5.5080    25.0470     2.3930    -2.5300 
  251.5000    99.5130     6.0210     5.2090     5.6260    25.0680     2.4050    -2.8120 
  251.6250    98.7730     5.9640     5.1730     5.6620    25.0900     2.4110    -3.0750 
  251.7500    95.4490     5.8810     5.0850     5.5670    25.0990     2.4100    -3.2610 
  251.8750    93.3950     5.7800     4.9450     5.4320    25.1010     2.4060    -3.3650 
  252.0000    95.4360     5.6840     4.7790     5.2800    25.1010     2.4030    -3.4170 
  252.1250    99.6660     5.6510     4.6500     5.1180    25.1010     2.4040    -3.4700 
  252.2500   101.0250     5.7310     4.6210     5.0140    25.1010     2.4040    -3.5240 
  252.3750    98.6280     5.9510     4.7300     5.0150    25.1010     2.4000    -3.5770 
  252.5000    95.5970     6.2950     4.9770     5.3240    25.0990     2.3900    -3.6300 
  252.6250    96.2720     6.7040     5.3260     6.5140    25.0950     2.3780    -3.6840 
  252.7500    97.8490     7.1000     5.6840     8.1650    25.0940     2.3690    -3.7430 
  252.8750    97.5380     7.4770     6.0140     8.8540    25.0980     2.3640    -3.8170 
  253.0000    94.3410     7.8830     6.3450     8.3060    25.1010     2.3580    -3.8740 
  253.1250    90.0710     8.3950     6.7480     7.2340    25.0930     2.3500    -3.8550 
  253.2500    86.8720     8.9720     7.2140     7.5730    25.0810     2.3390    -3.7740 
  253.3750    85.3200     9.4870     7.6560     9.2470    25.0840     2.3320    -3.6790 
  253.5000    84.5430     9.7680     7.9350    12.7660    25.1000     2.3300    -3.6240 
  253.6250    84.2590     9.6420     7.8850    14.6910    25.1250     2.3340    -3.6350 
  253.7500    83.5160     9.2400     7.5930    10.9520    25.1490     2.3350    -3.6460 
  253.8750    81.4640     8.7680     7.2290     7.7450    25.1550     2.3300    -3.6240 
  254.0000    79.0970     8.4420     6.9660     7.5030    25.1430     2.3190    -3.5940 
  254.1250    80.0390     8.4400     6.9420     8.8030    25.1230     2.3080    -3.6000 
  254.2500    83.0420     8.7120     7.1390     8.7020    25.1220     2.3020    -3.6180 
  254.3750    84.9180     9.1910     7.5330     8.9960    25.1160     2.2990    -3.5720 
