~V
VERS. 2.00: Ver 2.00
~W
STRT.M 55.0000:
STOP.M 280.0000:
STEP.M 0.1250:
NULL. -999.2500:
UWI. F11032:
~C
DEPT.M :
DEN.GM/CC :
GR.API :
RML.OHMM :
RI. :
RXO.OHMM :
CALI.CM :
SP.MV :
~A
# ...
  100.0000     2.0910    57.9540     8.3530     6.5320     9.9950    22.8850   -27.6940 
  100.1250     2.0920    55.9540     8.6570     6.6350     9.9850    22.8940   -27.2950 
  100.2500     2.0970    57.2730     8.6930     6.6270    10.0210    22.8940   -26.7440 
  100.3750     2.1110    59.4170     8.3530     6.4530    10.4580    22.8940   -26.0590 
  100.5000     2.1380    58.5410     7.6620     6.0980    11.2110    22.9020   -25.3480 
  100.6250     2.1790    56.8550     6.8130     5.5970    10.4790    22.9410   -24.6680 
  100.7500     2.2260    61.2060     6.1140     5.1090     8.0390    23.0220   -24.1660 
  100.8750     2.2680    70.9790     5.7670     4.7720     6.5670    23.0260   -23.8920 
  101.0000     2.2920    77.9630     5.8990     4.7010     6.1450    22.9950   -23.8570 
  101.1250     2.2880    76.3260     6.6470     5.0750     6.9840    22.8520   -24.1430 
  101.2500     2.2640    72.6790     7.8570     5.9230     8.3480    22.8720   -24.6430 
  101.3750     2.2320    70.1040     9.3620     7.2360    10.3140    22.9520   -25.3620 
  101.5000     2.2070    66.9640    10.8630     8.8200    13.9020    23.1420   -26.2470 
  101.6250     2.1990    64.8770    11.7810    10.0940    19.4440    23.1950   -27.1710 
  101.7500     2.2010    65.9530    11.8420    10.5600    21.2670    23.0110   -28.0530 
  101.8750     2.2040    67.2170    11.1870    10.1880    16.0650    22.7840   -28.8380 
  102.0000     2.1950    64.6000    10.3410     9.4050    11.9110    22.6790   -29.4860 
  102.1250     2.1720    58.6860     9.9160     8.7750    10.7010    22.7570   -29.9860 
  102.2500     2.1460    54.2160    10.0330     8.5280    10.6570    22.9260   -30.3850 
  102.3750     2.1280    54.3180    10.5570     8.6480    11.7040    22.9700   -30.6650 
  102.5000     2.1230    57.5880    11.1010     8.9750    14.9210    22.9600   -30.8080 
  102.6250     2.1300    57.9700    11.0190     9.2060    19.0490    22.9050   -30.8350 
  102.7500     2.1410    54.0030    10.2090     9.1330    16.4030    22.6650   -30.7920 
  102.8750     2.1510    51.5070     8.9770     8.7520    11.7400    22.4040   -30.6620 
  103.0000     2.1580    54.0980     7.8060     8.2150     9.8390    22.3400   -30.5190 
  103.1250     2.1600    58.8470     7.1320     7.7090     9.5630    22.3330   -30.3660 
  103.2500     2.1570    60.4790     6.9440     7.3250     9.4590    22.3190   -30.2440 
  103.3750     2.1510    59.5490     7.1140     7.1020     9.4340    22.2600   -30.1350 
  103.5000     2.1450    59.5270     7.4550     7.0560     9.4010    22.1680   -29.9740 
  103.6250     2.1430    59.7760     7.8870     7.2080     9.4230    22.1150   -29.8300 
  103.7500     2.1460    58.5010     8.4190     7.5020     9.8750    22.1060   -29.6550 
  103.8750     2.1520    56.8750     9.0150     7.8780    11.7940    22.0960   -29.4760 
  104.0000     2.1570    56.5980     9.5570     8.2400    16.3950    22.0650   -29.3000 
  104.1250     2.1600    58.8120     9.8060     8.4080    20.7380    21.9090   -29.1060 
  104.2500     2.1620    61.3900     9.7150     8.3220    16.7730    21.9740   -28.8900 
  104.3750     2.1650    62.7720     9.3970     8.0410    11.5060    22.2130   -28.6610 
  104.5000     2.1680    62.3650     9.0400     7.6790     9.0860    22.2680   -28.4740 
  104.6250     2.1700    61.1320     8.7760     7.3670     8.4020    22.2050   -28.3210 
  104.7500     2.1670    59.9600     8.5820     7.1700     8.1040    22.1760   -28.1800 
  104.8750     2.1590    58.2920     8.4440     7.0920     8.2070    22.1740   -28.0620 
  105.0000     2.1510    56.9810     8.4210     7.1130     8.4970    22.1930   -27.9900 
  105.1250     2.1480    58.8110     8.6430     7.2030     8.5460    22.2240   -27.9420 
  105.2500     2.1530    62.9320     9.0060     7.3150     8.6150    22.2910   -27.9100 
  105.3750     2.1630    65.2710     9.3050     7.4210     8.9180    22.3520   -27.9090 
  105.5000     2.1750    63.4320     9.3630     7.4800     9.2440    22.5000   -27.9150 
  105.6250     2.1810    61.1940     9.1370     7.4470     9.1440    22.5620   -27.9280 
  105.7500     2.1810    62.6530     8.8450     7.3360     8.8280    22.5750   -27.9500 
  105.8750     2.1780    66.2850     8.6310     7.1700     8.5140    22.5800   -28.0050 
  106.0000     2.1750    67.2870     8.5190     6.9980     8.2250    22.5940   -28.0530 
  106.1250     2.1750    65.0720     8.4520     6.8780     7.8000    22.6180   -28.1260 
  106.2500     2.1790    64.3080     8.4100     6.8270     7.4420    22.5290   -28.2140 
  106.3750     2.1870    65.1360     8.4730     6.8300     7.8150    22.3790   -28.3020 
  106.5000     2.1970    64.0670     8.6830     6.8430     8.2340    22.3300   -28.4290 
  106.6250     2.2050    59.4360     8.9810     6.8440     8.1140    22.3240   -28.5600 
  106.7500     2.2050    57.7660     9.2100     6.8480     7.9170    22.3250   -28.7120 
  106.8750     2.1970    60.2730     9.2530     6.8630     8.3400    22.3300   -28.8550 
  107.0000     2.1810    59.9430     9.0730     6.8940     8.6850    22.3250   -28.9520 
  107.1250     2.1650    55.7920     8.7680     6.9240     8.5600    22.3240   -29.0230 
  107.2500     2.1520    55.5600     8.5350     6.9280     8.0050    22.3250   -29.0790 
  107.3750     2.1440    58.5260     8.4340     6.8950     7.5080    22.3320   -29.1310 
  107.5000     2.1380    58.7420     8.4040     6.8450     7.2550    22.3360   -29.1640 
  107.6250     2.1340    55.8230     8.3520     6.8200     7.7930    22.4030   -29.1650 
  107.7500     2.1310    55.5650     8.2700     6.8290     8.2490    22.5260   -29.1380 
  107.8750     2.1300    57.2180     8.2230     6.8700     8.6400    22.6250   -29.0930 
  108.0000     2.1310    58.2070     8.2820     6.9390     8.8980    22.6350   -29.0330 
  108.1250     2.1350    59.6750     8.4420     7.0150     8.9310    22.5810   -28.9660 
  108.2500     2.1400    61.8830     8.5810     7.0720     8.7930    22.4190   -28.8610 
  108.3750     2.1450    62.7540     8.6420     7.1000     8.5900    22.2880   -28.7250 
  108.5000     2.1480    61.2390     8.6620     7.1040     8.4620    22.2510   -28.5610 
  108.6250     2.1470    59.5030     8.7070     7.0950     8.5860    22.2560   -28.3550 
  108.7500     2.1450    59.0250     8.7720     7.0880     8.8180    22.3040   -28.1300 
  108.8750     2.1410    58.7460     8.8270     7.0970     9.0650    22.3960   -27.8360 
  109.0000     2.1400    57.8280     8.8560     7.1210     9.3370    22.4490   -27.5280 
  109.1250     2.1410    57.9550     8.8700     7.1470     9.5580    22.5900   -27.1110 
  109.2500     2.1430    59.2250     8.8820     7.1770     9.7080    22.6330   -26.6020 
  109.3750     2.1440    60.2380     8.8590     7.2050     9.7200    22.6370   -25.9740 
  109.5000     2.1440    60.3890     8.7570     7.2110     9.6470    22.6170   -25.1700 
  109.6250     2.1430    62.5630     8.5330     7.1540     9.3410    22.5830   -24.2280 
  109.7500     2.1450    65.1520     8.2070     7.0070     8.7960    22.5770   -23.1480 
  109.8750     2.1480    67.1670     7.7900     6.7460     8.3390    22.5770   -21.9590 
  110.0000     2.1530    69.7290     7.2960     6.3600     8.0180    22.6020   -20.6880 
  110.1250     2.1570    74.2680     6.7490     5.8810     7.2620    22.7660   -19.3960 
  110.2500     2.1610    80.5680     6.2080     5.4040     6.5350    23.1490   -18.1320 
  110.3750     2.1690    87.6390     5.7330     4.9980     5.7930    23.4560   -16.9960 
  110.5000     2.1810    94.5920     5.3790     4.7080     5.1670    23.7660   -16.0280 
  110.6250     2.1980    97.9910     5.1870     4.5640     4.8960    23.8150   -15.2470 
  110.7500     2.2120    98.1990     5.1110     4.5150     4.8090    23.8270   -14.6330 
  110.8750     2.2190    98.4560     5.1140     4.5210     4.7990    23.8270   -14.1790 
  111.0000     2.2200    98.2850     5.1570     4.5480     4.8010    23.8270   -13.8660 
  111.1250     2.2170    97.3960     5.2180     4.5820     4.8030    23.8200   -13.6740 
