~V
VERS. 2.00: Ver 2.00
~W
STRT.M 57.0000:
STOP.M 280.0000:
STEP.M 0.1250:
NULL. -999.2500:
UWI. F11041:
~C
DEPT.M :
SP.MV :
GR.API :
RML.OHMM :
RI. :
RXO.OHMM :
CALI.CM :
DEN.GM/CC :
~A
# ...
  169.5000    -9.3340    67.4410   122.9690   113.9760    88.4370    23.4850     2.1020 
  169.6250    -9.3300    68.3350   107.0810    99.8210    78.4980    23.5990     2.1150 
  169.7500    -9.3160    68.5080    97.7840    90.8760    69.3170    23.5550     2.1310 
  169.8750    -9.2770    67.2700    94.5550    87.1350    64.7550    23.5530     2.1540 
  170.0000    -9.2330    65.9800    96.3400    87.9330    60.2610    23.7060     2.1810 
  170.1250    -9.1890    65.2370   101.6380    92.2230    52.3480    24.0510     2.2050 
  170.2500    -9.1330    64.2970   107.1040    97.2260    52.1670    24.3550     2.2200 
  170.3750    -8.7900    64.7250   109.8800   100.5730    60.8360    24.5080     2.2300 
  170.5000    -8.8700    68.6630   108.0220   100.4210    63.4840    24.5530     2.2470 
  170.6250    -8.8870    72.3320   101.2960    95.9820    67.0820    24.4900     2.2750 
  170.7500    -8.9060    71.5530    92.8410    89.4900    69.7470    24.4050     2.3010 
  170.8750    -8.9150    68.0670    84.7930    82.7400    65.8560    24.3890     2.3160 
  171.0000    -8.9230    66.1720    78.4370    77.0440    58.4640    24.4790     2.3180 
  171.1250    -8.9310    67.5610    74.6810    73.4680    54.1120    24.6230     2.3150 
  171.2500    -8.9350    68.0380    73.0370    71.7740    51.9510    24.6830     2.3130 
  171.3750    -8.9120    67.7410    73.0220    71.5560    51.0100    24.6670     2.3090 
  171.5000    -8.7530    68.8790    74.0300    72.1880    50.0990    24.6100     2.3040 
  171.6250    -8.4560    69.6790    75.4430    72.9720    50.3280    24.6310     2.2990 
  171.7500    -8.3130    69.0270    76.5870    73.3650    51.9350    24.6910     2.2960 
  171.8750    -8.1960    68.8720    77.0540    73.1740    53.7300    24.7890     2.2910 
  172.0000    -8.1360    69.6900    76.6560    72.3730    54.6360    24.8460     2.2850 
  172.1250    -7.9890    69.9250    75.3620    70.9040    53.3750    24.7450     2.2840 
  172.2500    -7.8190    69.5860    73.6670    68.9770    51.5660    24.5520     2.2900 
  172.3750    -7.5570    69.7390    72.1250    66.9160    50.4080    24.3600     2.3000 
  172.5000    -7.3350    71.2400    71.4600    65.3030    49.4120    24.3030     2.3110 
  172.6250    -7.0670    73.5060    72.8410    65.1650    46.6540    24.3600     2.3230 
  172.7500    -6.9820    74.9880    76.6410    66.9510    44.6250    24.3510     2.3340 
  172.8750    -7.0230    73.9220    83.0410    70.8680    46.8490    24.3540     2.3360 
  173.0000    -7.1840    70.9090    91.5300    76.5890    54.9450    24.4160     2.3270 
  173.1250    -7.2200    67.6930   100.0080    82.7670    69.6470    24.5810     2.3110 
  173.2500    -7.2340    65.2030   105.2000    87.0130    81.1040    24.7750     2.2960 
  173.3750    -7.2420    64.9130   105.0920    87.6730    80.1790    24.8760     2.2860 
  173.5000    -7.2510    66.3520   100.3070    84.7390    75.2380    24.8080     2.2810 
  173.6250    -7.2570    67.3200    94.1220    80.1290    69.4980    24.6820     2.2800 
  173.7500    -7.2490    67.2180    90.3180    76.8210    63.3580    24.6740     2.2800 
  173.8750    -7.1630    67.1510    90.6420    76.4840    58.7940    24.6960     2.2790 
  174.0000    -7.1160    67.7270    95.5040    79.7280    71.3790    24.7120     2.2750 
  174.1250    -7.0540    67.4840   104.6200    86.4380    84.9290    24.7110     2.2670 
  174.2500    -6.8860    65.7360   115.3050    94.4120    98.0110    24.6630     2.2580 
  174.3750    -6.8110    64.3290   124.7550   101.4970   100.2110    24.6050     2.2530 
  174.5000    -6.8070    64.6850   130.1510   105.5950    95.8130    24.6300     2.2530 
  174.6250    -6.7680    64.2440   129.7090   105.2800    86.0660    24.7880     2.2590 
  174.7500    -6.6780    62.1740   126.2990   102.4660    78.3910    24.9480     2.2680 
  174.8750    -6.6470    61.3330   122.7320    99.1200    71.0970    25.0140     2.2760 
  175.0000    -6.5060    62.7820   121.0970    96.8320    69.0160    25.0220     2.2800 
  175.1250    -6.3290    64.8880   122.7730    96.8150    77.7440    25.0210     2.2810 
  175.2500    -6.2180    64.6790   126.9140    98.6780    92.7260    25.0170     2.2830 
  175.3750    -6.2070    62.0040   132.5120   101.7500   104.9860    25.0040     2.2840 
  175.5000    -6.2130    59.2890   138.5140   105.2950   116.7750    24.9650     2.2820 
  175.6250    -6.2230    60.7400   144.1930   108.8700   116.7290    24.9400     2.2720 
  175.7500    -6.2470    63.8240   149.4940   112.3760   109.1270    24.9510     2.2570 
  175.8750    -6.2860    64.1140   154.3290   115.7590   103.4190    25.0210     2.2400 
  176.0000    -6.3300    62.8440   157.8010   118.6350   116.4510    25.1110     2.2240 
  176.1250    -6.3780    63.3390   156.8610   119.4790   138.8860    25.1390     2.2150 
  176.2500    -6.4310    63.8860   150.0400   117.2060   133.6200    25.1190     2.2140 
  176.3750    -6.7190    63.5920   138.3270   111.8440   113.6900    25.0640     2.2210 
  176.5000    -6.8030    62.3990   125.4230   105.0010    98.7730    25.0250     2.2310 
  176.6250    -6.7700    62.2500   116.1620    99.4310    87.5280    25.0140     2.2390 
  176.7500    -6.7270    63.7140   111.2420    96.2380    76.4580    25.0130     2.2420 
  176.8750    -6.6810    64.5200   107.9130    94.0060    78.4540    25.0140     2.2380 
  177.0000    -6.6270    64.0100   100.9690    89.0800    93.4340    25.0210     2.2240 
  177.1250    -6.5780    65.6350    85.0700    76.6780    95.5580    25.0220     2.2160 
  177.2500    -6.5640    72.3480    64.2790    59.2940    62.2420    24.9970     2.2320 
  177.3750    -6.6010    81.6110    44.5940    41.9980    30.2060    24.9160     2.2810 
  177.5000    -6.6290    88.6670    29.8590    28.6600    13.9800    24.7600     2.3460 
  177.6250    -6.5680    89.2260    21.3810    20.7950     9.9640    24.7030     2.3960 
  177.7500    -6.4340    85.0240    16.9370    16.4570     8.9530    24.7510     2.4180 
  177.8750    -6.2590    80.8920    15.4040    14.5820     8.8540    24.7640     2.4180 
  178.0000    -6.0570    81.2370    16.1670    14.5910     9.3400    24.7700     2.4100 
  178.1250    -5.8100    82.0530    19.4070    16.6510    11.6660    24.7900     2.3920 
  178.2500    -5.5780    78.5760    24.7620    20.6040    16.9790    24.8510     2.3690 
  178.3750    -5.4150    73.1440    31.9520    26.4400    24.7040    24.8790     2.3460 
  178.5000    -5.3200    70.1620    40.1030    33.6070    31.5820    24.8260     2.3290 
  178.6250    -5.2680    70.3340    47.2980    40.4420    39.1500    24.7240     2.3170 
  178.7500    -5.2350    70.8680    52.0550    45.1660    45.8320    24.6520     2.3070 
  178.8750    -5.2110    71.5610    54.3560    47.3350    49.0880    24.6130     2.3000 
  179.0000    -5.1990    73.0040    55.5290    47.8350    49.2270    24.6150     2.2980 
  179.1250    -5.1930    74.3620    57.3390    48.0100    49.1130    24.6000     2.2980 
  179.2500    -5.1480    74.6820    60.3230    48.6390    50.6470    24.5800     2.2950 
  179.3750    -5.0480    73.6270    63.9180    49.6300    57.4540    24.5820     2.2900 
  179.5000    -4.9380    71.5260    66.8200    50.4030    66.1250    24.5750     2.2850 
  179.6250    -4.8960    68.7600    67.0800    49.9750    61.8050    24.5790     2.2860 
  179.7500    -4.9240    67.0570    64.6070    48.2050    52.3090    24.5810     2.2910 
  179.8750    -5.0060    67.5010    60.3130    45.5180    45.3440    24.5830     2.2980 
  180.0000    -5.1100    68.5790    55.7380    42.7440    39.5540    24.6050     2.3030 
  180.1250    -5.2530    69.1930    52.7340    41.0330    36.0420    24.6000     2.3060 
  180.2500    -5.4130    70.0810    51.9830    40.8850    36.2020    24.5850     2.3060 
  180.3750    -5.5370    71.8590    53.6140    42.4440    37.5850    24.6000     2.3000 
  180.5000    -5.6120    72.9210    57.4040    45.6060    39.3410    24.6040     2.2840 
  180.6250    -5.6550    73.0400    62.6240    50.0270    44.2910    24.5900     2.2690 
