~V
VERS. 2.00: Ver 2.00
~W
STRT.M 55.0000:
STOP.M 286.0000:
STEP.M 0.1250:
NULL. -999.2500:
UWI. F11067:
~C
DEPT.M :
GR.API :
RML.OHMM :
RI. :
RXO.OHMM :
CALI.CM :
DEN.GM/CC :
SP.MV :
~A
# ...
  178.7500    70.3420    29.0470    29.3690    30.3490    24.0380     1.9330    -2.7520 
  178.8750    68.1490    29.6210    30.3720    31.0570    23.1180     1.9860    -2.7800 
  179.0000    69.8680    30.9430    32.1390    33.2880    22.0860     2.0280    -2.8180 
  179.1250    73.9680    33.0480    34.5620    33.9460    21.0710     2.0410    -2.8670 
  179.2500    75.0920    35.5160    37.0740    34.9050    20.4160     2.0390    -2.9060 
  179.3750    72.7690    37.9060    39.1230    35.3580    19.8610     2.0420    -2.9530 
  179.5000    71.0990    39.7850    40.3040    35.9300    19.4650     2.0620    -3.0040 
  179.6250    71.7770    40.8410    40.5570    37.0170    19.5580     2.0990    -3.0550 
  179.7500    71.5030    41.4520    40.5980    38.4030    19.9200     2.1390    -3.1110 
  179.8750    70.7250    42.1390    41.0570    39.6780    20.2650     2.1700    -3.1810 
  180.0000    71.3450    43.4360    42.3840    39.9670    20.5630     2.1840    -3.2370 
  180.1250    72.0150    45.8210    44.8850    44.1870    21.0110     2.1770    -3.2720 
  180.2500    70.7330    49.0170    48.0700    61.6870    21.3910     2.1610    -3.3390 
  180.3750    69.3510    52.5170    51.2790    68.4030    21.4800     2.1460    -3.3920 
  180.5000    70.6580    55.5780    53.6930    58.0620    21.5970     2.1450    -3.4510 
  180.6250    73.7110    57.1870    54.3800    44.3410    21.6660     2.1610    -3.5410 
  180.7500    75.0220    57.1780    53.5350    33.8370    21.7380     2.1870    -3.5940 
  180.8750    73.5680    55.7530    51.6420    29.6470    21.9020     2.2110    -3.6410 
  181.0000    71.1240    53.4760    49.3780    31.0990    22.3830     2.2300    -3.6920 
  181.1250    70.1430    51.1210    47.5220    29.8390    23.2750     2.2430    -3.7520 
  181.2500    70.0680    49.3570    46.5180    29.4350    24.1190     2.2550    -3.8080 
  181.3750    69.1740    48.5290    46.5430    29.5670    24.5730     2.2680    -3.8850 
  181.5000    68.4150    48.7400    47.5340    31.4440    24.6980     2.2780    -3.9430 
  181.6250    67.9380    49.9690    49.3170    35.3450    24.7040     2.2830    -3.9890 
  181.7500    67.8460    51.7180    51.3820    40.4120    24.7010     2.2840    -4.0630 
  181.8750    68.8150    53.6470    53.4270    42.9040    24.6990     2.2820    -4.1310 
  182.0000    68.9550    55.5290    55.3350    45.0670    24.6990     2.2780    -4.2120 
  182.1250    66.8770    57.3260    57.1930    48.2630    24.7000     2.2710    -4.2670 
  182.2500    65.5310    59.1610    59.0910    50.6100    24.7030     2.2610    -4.2910 
  182.3750    67.0530    61.0460    60.8810    53.1530    24.7060     2.2500    -4.3080 
  182.5000    69.1170    62.7900    62.2020    56.3750    24.7070     2.2420    -4.3340 
  182.6250    69.9410    63.8910    62.5080    60.0360    24.7020     2.2380    -4.3330 
  182.7500    70.5230    64.1240    61.8730    63.1050    24.7000     2.2380    -4.3040 
  182.8750    70.9220    63.5470    60.6590    62.8760    24.7060     2.2390    -4.2750 
  183.0000    70.6260    62.5780    59.4850    57.4170    24.7300     2.2400    -4.2180 
  183.1250    70.3590    61.9780    59.1510    54.8540    24.7720     2.2400    -4.1730 
  183.2500    69.9850    62.2420    59.8500    57.3650    24.8060     2.2430    -4.1510 
  183.3750    69.1780    63.4600    61.4390    63.1630    24.8160     2.2500    -4.1230 
  183.5000    68.7020    65.3590    63.4900    66.5700    24.7880     2.2600    -4.0940 
  183.6250    67.7870    67.4160    65.4180    69.7200    24.7430     2.2710    -4.0580 
  183.7500    67.2780    69.1520    66.8910    72.5140    24.7100     2.2770    -4.0450 
  183.8750    68.5750    70.4510    67.9810    74.8480    24.7350     2.2790    -4.0320 
  184.0000    70.9760    71.4830    69.0150    75.1340    24.7570     2.2760    -4.0330 
  184.1250    71.3900    72.6170    70.4220    74.9530    24.7550     2.2720    -4.0320 
  184.2500    70.8600    74.0920    72.2780    74.7430    24.7520     2.2670    -3.9980 
  184.3750    70.7690    75.8740    74.3850    75.0580    24.7430     2.2610    -3.9650 
  184.5000    69.9270    77.6590    76.2550    76.8840    24.7420     2.2560    -3.9450 
  184.6250    67.3470    78.7710    77.0270    77.0950    24.7490     2.2550    -3.9270 
  184.7500    65.1060    78.7890    76.4480    74.5870    24.7530     2.2600    -3.9100 
  184.8750    65.1730    77.6170    74.7230    67.8990    24.7560     2.2690    -3.8920 
  185.0000    67.4290    75.5960    72.4970    58.8670    24.7600     2.2790    -3.8750 
  185.1250    69.0670    73.4460    70.6540    51.9960    24.7690     2.2860    -3.8580 
  185.2500    68.7540    71.8500    69.6120    52.0470    24.7820     2.2900    -3.8450 
  185.3750    68.8030    71.0190    69.2720    54.9340    24.7980     2.2900    -3.8320 
  185.5000    71.3140    70.7450    69.1520    58.6460    24.8110     2.2840    -3.7960 
  185.6250    72.8330    70.4750    68.5430    60.4070    24.8410     2.2740    -3.7580 
  185.7500    70.6980    69.7610    67.3100    59.2560    24.9120     2.2610    -3.7340 
  185.8750    66.6920    68.6510    65.8940    58.1700    25.0070     2.2500    -3.7160 
  186.0000    64.3220    67.6660    65.1270    58.0550    25.1290     2.2430    -3.6900 
  186.1250    65.2070    67.8870    66.2420    58.3660    25.2340     2.2420    -3.6650 
  186.2500    67.5890    69.9200    69.5230    61.4340    25.2740     2.2450    -3.6550 
  186.3750    70.0610    73.9840    74.8630    75.2530    25.2790     2.2500    -3.6300 
  186.5000    70.4730    79.7230    81.5420    93.6020    25.2790     2.2580    -3.6290 
  186.6250    68.7160    86.2010    88.2450   104.8290    25.2800     2.2690    -3.6390 
  186.7500    67.1510    92.0560    93.7630   111.1850    25.2750     2.2770    -3.6170 
  186.8750    66.3570    96.5390    97.7320   108.7450    25.2790     2.2800    -3.5880 
  187.0000    65.6380    99.5070   100.4470   107.1500    25.2930     2.2760    -3.5590 
  187.1250    64.3410   101.0900   102.1910   103.1620    25.3260     2.2650    -3.5300 
  187.2500    63.9490   101.5860   102.7390   101.0750    25.3600     2.2550    -3.5100 
  187.3750    65.6840   100.4330   100.9670    97.8980    25.3910     2.2510    -3.4980 
  187.5000    68.9510    96.6880    95.7040    87.0410    25.4200     2.2530    -3.4440 
  187.6250    72.5050    89.2010    86.2560    81.2930    25.4180     2.2640    -3.4010 
  187.7500    75.2260    79.1240    74.7830    85.3580    25.3840     2.2770    -3.3900 
  187.8750    77.5740    68.0050    63.3970    79.3990    25.3350     2.2920    -3.3730 
  188.0000    79.3920    57.6340    53.9030    56.9670    25.2760     2.3080    -3.3740 
  188.1250    80.9520    49.9460    47.9110    41.8120    25.2040     2.3210    -3.3770 
  188.2500    82.5730    45.3710    45.2940    33.2390    25.1170     2.3260    -3.3660 
  188.3750    82.7430    44.1530    46.1260    29.0720    25.0770     2.3210    -3.3560 
  188.5000    79.5450    46.2670    50.3280    28.7600    25.1230     2.3040    -3.3860 
  188.6250    73.5100    51.6610    57.5360    39.4130    25.2770     2.2840    -3.4420 
  188.7500    68.6350    58.5030    65.2580    53.2770    25.3930     2.2750    -3.4700 
  188.8750    66.8710    64.8660    70.8890    67.5970    25.4450     2.2850    -3.5120 
  189.0000    67.1100    68.8900    72.7190    62.0310    25.4100     2.3080    -3.5450 
  189.1250    67.4210    69.5440    71.3040    40.2670    25.2870     2.3290    -3.5640 
  189.2500    66.7870    68.9500    70.2740    29.8170    25.2350     2.3320    -3.5880 
  189.3750    66.1650    69.6810    72.4110    31.3740    25.3010     2.3180    -3.6050 
  189.5000    65.1730    74.0930    79.5040    43.5270    25.4050     2.2910    -3.6130 
  189.6250    62.6210    84.3270    92.6410    59.5930    25.4140     2.2640    -3.5860 
  189.7500    61.6300    98.8590   108.7980    61.7700    25.3310     2.2430    -3.5730 
  189.8750    65.1390   115.0660   123.9340    55.1290    25.2260     2.2310    -3.5540 
