~V
VERS. 2.00: Ver 2.00
~W
STRT.M 52.0000:
STOP.M 271.0000:
STEP.M 0.1250:
NULL. -999.2500:
UWI. F11069:
~C
DEPT.M :
GR.API :
RML.OHMM :
RI. :
RXO.OHMM :
CALI.CM :
DEN.GM/CC :
SP.MV :
~A
# ...
  187.0000    75.8860    95.9540    96.3990    89.4400    25.0920     2.2630   -29.1360 
  187.1250    80.0000   101.5100   101.4160    92.0580    25.0960     2.2580   -28.9810 
  187.2500    78.5350   107.9760   107.7240    96.5540    25.0980     2.2560   -28.8440 
  187.3750    72.0200   114.5340   114.3110   107.7050    25.0920     2.2570   -28.7570 
  187.5000    65.5230   120.5880   120.1820   127.0110    25.0950     2.2560   -28.6670 
  187.6250    64.3060   126.2380   124.9170   137.1940    25.1190     2.2490   -28.5250 
  187.7500    65.6730   132.6810   129.8090   125.6780    25.1500     2.2380   -28.3970 
  187.8750    66.8980   141.2980   136.7140   113.2000    25.1360     2.2280   -28.2770 
  188.0000    66.2590   152.8260   147.2520   116.7190    25.1190     2.2230   -28.1000 
  188.1250    64.1550   165.8400   161.5540   130.5410    25.1280     2.2260   -27.8310 
  188.2500    61.9650   175.2680   174.5910   162.6110    25.1450     2.2310   -27.5530 
  188.3750    60.1040   175.8300   179.5810   190.7090    25.1610     2.2390   -27.3070 
  188.5000    58.5670   164.9320   171.4950   205.1480    25.1500     2.2470   -27.0970 
  188.6250    57.4140   144.4520   150.7970   178.0550    25.1570     2.2570   -26.8430 
  188.7500    58.2030   122.8940   127.6230   126.8490    25.1520     2.2650   -26.5120 
  188.8750    61.0070   105.5720   108.4420    86.4260    25.1470     2.2690   -26.1840 
  189.0000    64.7380    94.7660    96.0530    69.6490    25.1390     2.2690   -25.8980 
  189.1250    66.7600    91.0200    91.2360    69.3910    25.1260     2.2660   -25.5690 
  189.2500    66.7890    91.5130    91.2250    76.7010    25.1090     2.2620   -25.1350 
  189.3750    66.1150    94.3780    94.2230    93.5130    25.0930     2.2610   -24.6200 
  189.5000    65.0170    97.8410    98.2500   107.9100    25.1070     2.2610   -24.1000 
  189.6250    65.2250   100.2430   101.0930   108.8950    25.1290     2.2620   -23.6010 
  189.7500    67.3690   101.0800   101.8420    99.3280    25.1190     2.2620   -23.1430 
  189.8750    69.6200   100.5520   100.6200    95.6930    25.1010     2.2640   -22.7380 
  190.0000    70.1160    99.2760    98.1980    96.9540    25.0980     2.2690   -22.3450 
  190.1250    69.1960    98.0200    95.6820    97.4450    25.0920     2.2800   -21.9900 
  190.2500    69.1640    97.2590    93.8590    92.3230    25.0760     2.2930   -21.7150 
  190.3750    69.8010    97.0910    92.8090    85.2700    25.0470     2.3030   -21.5090 
  190.5000    70.1080    97.4620    92.3110    79.7640    25.0000     2.3060   -21.3640 
  190.6250    69.0010    98.4440    92.3150    85.9320    25.0230     2.2980   -21.2910 
  190.7500    67.0960   100.0020    92.8920    97.5830    25.0870     2.2840   -21.2060 
  190.8750    65.9100   102.0220    94.1730    89.7250    25.1150     2.2630   -21.0540 
  191.0000    66.9930   103.9620    95.9200    76.7360    25.0880     2.2390   -20.8780 
  191.1250    68.4410   104.3600    96.9250    74.7810    25.0580     2.2200   -20.7410 
  191.2500    67.6020   102.1050    95.7170   100.3730    25.0510     2.2140   -20.6090 
  191.3750    66.2350    96.7760    91.4450   106.7270    24.9840     2.2220   -20.4110 
  191.5000    67.8140    89.0970    84.5040    87.0260    24.7720     2.2400   -20.1540 
  191.6250    71.9610    80.8850    76.5500    63.2660    24.5000     2.2580   -19.9220 
  191.7500    74.7200    74.1460    69.7390    53.0970    24.3410     2.2680   -19.7640 
  191.8750    75.3890    69.8640    65.1760    50.9420    24.2510     2.2680   -19.6060 
  192.0000    75.8620    68.1870    63.1380    54.6460    24.2250     2.2630   -19.4340 
  192.1250    76.2360    68.7220    63.3990    61.7220    24.2660     2.2580   -19.3030 
  192.2500    76.3600    69.9160    64.4820    64.2010    24.2800     2.2580   -19.1670 
  192.3750    76.5780    70.6730    65.2130    62.0400    24.2730     2.2650   -19.0100 
  192.5000    76.7070    70.3600    64.7940    59.9750    24.2460     2.2750   -18.8020 
  192.6250    76.0020    69.0560    63.1460    62.0420    24.2500     2.2850   -18.5180 
  192.7500    75.5970    67.8790    61.3850    62.8050    24.3070     2.2900   -18.2300 
  192.8750    76.9650    67.8270    60.4890    58.4220    24.3480     2.2890   -17.9780 
  193.0000    78.0670    69.5590    61.1470    58.3330    24.3310     2.2870   -17.7390 
  193.1250    75.2050    73.4630    63.8400    66.4140    24.2980     2.2880   -17.5200 
  193.2500    70.6340    78.6860    67.8510    81.1720    24.2630     2.2880   -17.3280 
  193.3750    67.7810    84.4310    72.4620    94.7590    24.2200     2.2850   -17.1640 
  193.5000    67.3670    89.8770    76.9190    96.0810    24.2240     2.2710   -17.0520 
  193.6250    68.1140    94.1930    80.4930    91.9380    24.3760     2.2480   -17.0160 
  193.7500    69.6100    97.3040    83.1180    88.7840    24.6920     2.2220   -16.9980 
  193.8750    70.5530    99.3030    84.9910    94.5580    25.0120     2.2010   -16.9920 
  194.0000    69.2780   100.3350    86.4000   107.5520    25.2000     2.1840   -16.9870 
  194.1250    66.9350   100.1660    87.3430   111.0070    25.2420     2.1710   -16.9240 
  194.2500    64.9560    98.5290    87.5610    96.8470    25.2330     2.1650   -16.8290 
  194.3750    62.8510    94.7230    86.4320    80.0640    25.2030     2.1680   -16.7420 
  194.5000    61.2050    87.9410    83.0090    73.2830    25.1820     2.1870   -16.6490 
  194.6250    62.1880    77.1620    75.3970    76.3760    25.1420     2.2260   -16.4850 
  194.7500    64.2230    63.7140    63.8540    76.3270    25.0690     2.2770   -16.3000 
  194.8750    66.8300    49.3790    50.0230    68.7230    24.9690     2.3300   -16.1480 
  195.0000    70.7380    36.0130    36.6850    46.9400    24.8640     2.3720   -16.0330 
  195.1250    77.8900    25.5130    26.6150    29.0870    24.9020     2.3900   -15.9000 
  195.2500    88.9150    18.1800    19.8120    17.5360    24.8880     2.3850   -15.7140 
  195.3750    97.3070    13.8830    15.6630    12.4300    24.8480     2.3670   -15.5490 
  195.5000    98.5600    11.8250    13.3650    10.8640    24.8160     2.3470   -15.4390 
  195.6250    97.1790    11.0620    12.3510    10.5970    24.7720     2.3380   -15.3100 
  195.7500   100.0640    10.7570    11.9170    10.2280    24.6940     2.3420   -15.1090 
  195.8750   102.0970    10.6440    11.7410     9.6650    24.6060     2.3530   -14.8970 
  196.0000    98.1290    10.5390    11.5990     9.0810    24.5950     2.3660   -14.6980 
  196.1250    95.6540    10.4220    11.3950     8.7300    24.6990     2.3780   -14.5040 
  196.2500    96.6250    10.4410    11.2160     9.1200    24.8060     2.3830   -14.3730 
  196.3750    96.6020    10.8420    11.2370    10.0700    24.7390     2.3780   -14.2750 
  196.5000    93.8210    11.9670    11.7070    10.7850    24.5770     2.3610   -14.1800 
  196.6250    90.3990    14.5420    13.1560    11.7260    24.5630     2.3340   -14.1010 
  196.7500    85.7770    18.9490    16.0140    14.8520    24.6540     2.3060   -14.1170 
  196.8750    79.9080    25.5730    20.9480    23.2950    24.7590     2.2840   -14.1700 
  197.0000    76.0740    34.2930    28.5350    45.5100    24.8840     2.2690   -14.2290 
  197.1250    74.4280    43.7340    38.6640    71.1680    24.9880     2.2580   -14.3840 
  197.2500    72.3720    50.9200    48.0190    80.7200    25.0420     2.2530   -14.5510 
  197.3750    69.1660    53.4450    52.5100    80.7540    25.0180     2.2540   -14.6680 
  197.5000    66.2580    50.8270    50.3100    76.2440    24.9660     2.2640   -14.7300 
  197.6250    65.7800    45.0040    43.7840    65.6420    24.9660     2.2770   -14.8340 
  197.7500    67.0400    39.8290    37.7390    49.9160    24.9710     2.2810   -14.9130 
  197.8750    68.9690    37.1690    34.0420    38.0020    24.9580     2.2720   -14.9230 
  198.0000    70.3680    37.4330    33.0990    35.0210    24.9800     2.2540   -14.9160 
  198.1250    69.9970    40.2540    34.8910    52.3940    25.0030     2.2440   -14.8950 
