~V
VERS. 2.00: Ver 2.00
~W
STRT.M 55.0000:
STOP.M 277.0000:
STEP.M 0.1250:
NULL. -999.2500:
UWI. F11037:
~C
DEPT.M :
SP.MV :
GR.API :
RML.OHMM :
RI. :
RXO.OHMM :
CALI.CM :
DEN.GM/CC :
~A
# ...
  223.7500   -12.3640    62.8080   129.7980   113.2560   137.5930    25.1940     2.3800 
  223.8750   -12.3380    63.1580   125.7690   108.3250   114.4470    25.2680     2.4170 
  224.0000   -12.2770    62.9310   127.1630   108.2350    94.6750    25.4000     2.4380 
  224.1250   -12.2010    61.7420   134.9440   114.0360   106.7550    25.4110     2.4230 
  224.2500   -11.9750    61.4490   146.9680   123.9950   145.3480    25.2910     2.3770 
  224.3750   -11.7310    61.7750   160.9150   136.2750   163.3940    25.2050     2.3130 
  224.5000   -11.7040    61.2240   173.5990   148.1810   156.9930    25.3320     2.2480 
  224.6250   -11.7450    61.0420   180.8220   155.8410   159.7580    25.4850     2.2020 
  224.7500   -11.7730    61.4910   181.8170   158.0300   179.2450    25.5140     2.1770 
  224.8750   -11.8570    61.0950   177.4270   155.2000   203.1530    25.4590     2.1720 
  225.0000   -11.8780    60.6470   169.7320   149.0150   196.0180    25.4100     2.1820 
  225.1250   -11.7410    60.6880   161.1360   141.3700   162.8010    25.3930     2.2040 
  225.2500   -11.7910    59.5900   153.7340   134.2930   144.1670    25.4050     2.2310 
  225.3750   -11.9110    58.1370   148.7610   129.1920   140.6000    25.4200     2.2530 
  225.5000   -11.8600    59.1620   147.1870   127.2560   138.5390    25.4210     2.2620 
  225.6250   -11.7870    61.6930   150.5810   130.2950   142.8730    25.4190     2.2470 
  225.7500   -11.8290    62.4090   158.3390   138.5480   160.2290    25.3800     2.2160 
  225.8750   -11.9360    61.7840   168.0880   151.6500   186.1080    25.3440     2.1870 
  226.0000   -12.0900    61.2300   173.2040   165.3500   200.6820    25.2990     2.1870 
  226.1250   -12.3470    61.3710   161.3700   165.3410   219.0300    25.1570     2.2540 
  226.2500   -12.6160    59.6370   132.2460   141.9320   232.4700    24.9060     2.3780 
  226.3750   -13.0110    55.4090    94.0170   101.2120   222.2640    24.5920     2.5260 
  226.5000   -13.4660    53.6000    58.3510    61.1640   118.2710    24.5980     2.6480 
  226.6250   -13.5030    61.5900    34.2980    35.5830    46.7200    24.7870     2.6950 
  226.7500   -13.2010    74.7470    19.6090    21.2840    19.9980    24.9970     2.6750 
  226.8750   -12.6750    83.4850    11.9260    13.9410    11.2660    25.2100     2.6160 
  227.0000   -12.0650    84.1270     8.7460    10.2900     9.1180    25.4140     2.5490 
  227.1250   -11.5330    82.5620     7.6460     8.7290     8.9900    25.4980     2.4970 
  227.2500   -10.9290    83.9180     7.3290     8.1290     9.1010    25.5360     2.4630 
  227.3750   -10.1900    87.7520     7.4310     8.1190     9.0770    25.5640     2.4410 
  227.5000    -9.5310    91.0340     7.6810     8.4060     8.9300    25.5870     2.4280 
  227.6250    -9.3070    93.6320     7.8940     8.7320     8.7210    25.5640     2.4200 
  227.7500    -9.4100    96.3860     7.9870     8.9320     8.9240    25.5240     2.4160 
  227.8750    -9.6570    98.1660     7.9420     8.9750     8.9510    25.4920     2.4160 
  228.0000    -9.9170    99.2550     7.7920     8.9110     8.8660    25.4970     2.4200 
  228.1250   -10.1370   102.0550     7.6400     8.8440     8.9080    25.4720     2.4260 
  228.2500   -10.4250   107.2490     7.6380     8.8780     9.0010    25.4310     2.4290 
  228.3750   -10.7220   112.5490     7.9160     9.0870     9.1480    25.4170     2.4270 
  228.5000   -10.9570   113.0740     8.5340     9.5130     9.6810    25.4430     2.4210 
  228.6250   -11.3060   107.1010     9.4680    10.1460    11.6930    25.4570     2.4160 
  228.7500   -11.6850   100.3090    10.4970    10.8090    15.0720    25.4340     2.4150 
  228.8750   -11.9670    94.9270    11.4880    11.3600    17.3540    25.4080     2.4160 
  229.0000   -12.1960    91.5520    12.4300    11.7710    16.4960    25.3970     2.4170 
  229.1250   -12.4810    90.6960    13.5280    12.2020    14.7290    25.4010     2.4100 
  229.2500   -12.7340    89.8700    15.0370    12.9490    15.3570    25.3980     2.3980 
  229.3750   -12.9320    86.6190    17.1320    14.2930    21.1670    25.3990     2.3830 
  229.5000   -13.0430    81.5140    19.7960    16.4180    28.4500    25.3760     2.3700 
  229.6250   -13.0670    78.0990    22.7580    19.3820    33.3060    25.3490     2.3660 
  229.7500   -13.1300    74.5560    25.4790    22.6010    35.4560    25.3420     2.3680 
  229.8750   -13.2990    68.9990    27.6190    25.4160    38.0310    25.3340     2.3720 
  230.0000   -13.5220    65.0110    29.1340    27.3830    40.7610    25.3260     2.3740 
  230.1250   -13.6510    65.4840    30.2980    28.5360    41.3660    25.3100     2.3720 
  230.2500   -13.8490    66.5220    31.6100    29.5540    39.5780    25.2970     2.3680 
  230.3750   -14.1580    66.9910    33.3480    30.8930    39.3720    25.3050     2.3650 
  230.5000   -14.4180    66.7480    35.6240    32.8260    43.0780    25.3220     2.3620 
  230.6250   -14.4880    66.0630    38.3320    35.5010    52.0690    25.3070     2.3580 
  230.7500   -14.4840    67.0570    40.7760    38.4290    57.5410    25.2870     2.3490 
  230.8750   -14.4420    69.5380    41.9380    40.6700    53.4250    25.2890     2.3360 
  231.0000   -14.3310    71.7420    40.7700    40.7980    49.4370    25.2900     2.3230 
  231.1250   -14.1970    71.8170    36.5780    37.3060    51.9970    25.2550     2.3160 
  231.2500   -13.9640    73.1470    30.9640    31.7400    49.9850    25.2170     2.3200 
  231.3750   -13.5670    77.4650    25.6530    26.0860    38.2050    25.1780     2.3370 
  231.5000   -13.2110    82.2960    22.0700    21.8100    23.4560    25.0860     2.3620 
  231.6250   -13.0990    84.8790    21.3310    19.8640    16.7530    24.9050     2.3860 
  231.7500   -13.0270    82.6910    23.0990    20.0940    19.5730    24.7130     2.4020 
  231.8750   -12.9370    75.9610    27.1510    22.7020    32.6350    24.6990     2.4050 
  232.0000   -12.9120    68.7640    33.3010    27.9560    47.1970    24.8490     2.3950 
  232.1250   -13.0190    66.1680    42.1370    36.1930    52.3320    25.0660     2.3790 
  232.2500   -13.1550    67.4290    52.4560    45.8040    59.8950    25.2220     2.3600 
  232.3750   -13.3230    69.0340    62.0790    54.9200    74.6260    25.2930     2.3420 
  232.5000   -13.5720    68.5800    68.9050    62.0040    88.7550    25.3170     2.3250 
  232.6250   -13.8720    66.7880    71.8020    66.0650    89.0600    25.3520     2.3110 
  232.7500   -14.1070    66.1090    71.9190    67.5020    82.6500    25.3800     2.3020 
  232.8750   -14.2950    67.1180    69.5240    66.3850    80.4640    25.3960     2.2980 
  233.0000   -14.4180    68.2370    65.0840    63.1450    81.7700    25.3900     2.2990 
  233.1250   -14.4420    67.1030    59.4690    58.4520    76.5380    25.3830     2.3010 
  233.2500   -14.4250    64.3640    53.9310    53.3450    63.9920    25.3760     2.3000 
  233.3750   -14.3420    63.4790    49.1210    48.3660    53.5860    25.3680     2.2960 
  233.5000   -14.1130    65.9800    45.3360    43.8740    49.3060    25.3430     2.2950 
  233.6250   -13.7820    70.1650    42.8100    40.2870    47.8910    25.2880     2.3040 
  233.7500   -13.5060    73.2330    41.4070    37.7770    45.7530    25.2450     2.3230 
  233.8750   -13.2220    74.9660    41.3180    36.6200    42.1910    25.2110     2.3490 
  234.0000   -12.9620    76.0430    42.9120    37.1220    39.8020    25.1890     2.3740 
  234.1250   -12.8590    76.8790    47.0580    40.0730    42.1260    25.1820     2.3830 
  234.2500   -12.8000    77.9080    53.6650    45.5230    54.9320    25.1970     2.3760 
  234.3750   -12.7640    78.0390    62.3660    53.3580    77.8980    25.2430     2.3550 
  234.5000   -12.8990    76.3940    71.9400    62.5760    97.2400    25.2830     2.3290 
  234.6250   -13.0570    73.3540    80.0070    70.8320   101.4320    25.2880     2.3060 
  234.7500   -13.0800    69.7510    85.1120    76.1820    98.5220    25.2860     2.2920 
  234.8750   -13.1550    66.9400    87.3770    78.3810    95.1160    25.2850     2.2860 
