~V
VERS. 2.00: Ver 2.00
~W
STRT.M 55.0000:
STOP.M 236.0000:
STEP.M 0.1250:
NULL. -999.2500:
UWI. F11015:
~C
DEPT.M :
GR.API :
RML.OHMM :
RI. :
RXO.OHMM :
CALI.CM :
DEN.GM/CC :
SP.MV :
~A
   55.0000  -999.2500  -999.2500  -999.2500  -999.2500  -999.2500     2.4110    93.0350 
   55.1250  -999.2500  -999.2500  -999.2500  -999.2500  -999.2500     2.3960    93.0590 
   55.2500  -999.2500  -999.2500  -999.2500  -999.2500  -999.2500     2.3870    93.1080 
   55.3750  -999.2500  -999.2500  -999.2500  -999.2500  -999.2500     2.3780    93.1930 
   55.5000  -999.2500  -999.2500  -999.2500  -999.2500  -999.2500     2.3640    93.2850 
   55.6250  -999.2500  -999.2500  -999.2500  -999.2500  -999.2500     2.3290    93.3020 
   55.7500  -999.2500  -999.2500  -999.2500  -999.2500  -999.2500     2.2590    93.1880 
   55.8750  -999.2500  -999.2500  -999.2500  -999.2500  -999.2500     2.1780    92.9410 
   56.0000  -999.2500  -999.2500  -999.2500  -999.2500  -999.2500     2.1250    92.6320 
   56.1250  -999.2500  -999.2500  -999.2500  -999.2500  -999.2500     2.1220    92.2910 
   56.2500  -999.2500  -999.2500  -999.2500  -999.2500  -999.2500     2.1420    91.8510 
   56.3750  -999.2500  -999.2500  -999.2500  -999.2500  -999.2500     2.1660    91.2290 
   56.5000  -999.2500  -999.2500  -999.2500  -999.2500  -999.2500     2.1900    90.3440 
   56.6250  -999.2500  -999.2500  -999.2500  -999.2500  -999.2500     2.2110    89.1920 
   56.7500  -999.2500  -999.2500  -999.2500  -999.2500  -999.2500     2.2200    87.9330 
   56.8750  -999.2500  -999.2500  -999.2500  -999.2500  -999.2500     2.2150    86.6150 
   57.0000  -999.2500  -999.2500  -999.2500  -999.2500  -999.2500     2.2010    85.2230 
   57.1250  -999.2500  -999.2500  -999.2500  -999.2500  -999.2500     2.1800    83.7560 
   57.2500  -999.2500  -999.2500  -999.2500  -999.2500  -999.2500     2.1560    82.3030 
   57.3750  -999.2500  -999.2500  -999.2500  -999.2500  -999.2500     2.1310    80.9510 
   57.5000  -999.2500  -999.2500  -999.2500  -999.2500  -999.2500     2.1080    79.7980 
   57.6250  -999.2500  -999.2500  -999.2500  -999.2500  -999.2500     2.0900    78.9330 
   57.7500  -999.2500  -999.2500  -999.2500  -999.2500  -999.2500     2.0780    78.3510 
   57.8750  -999.2500  -999.2500  -999.2500  -999.2500  -999.2500     2.0730    78.1000 
   58.0000  -999.2500  -999.2500  -999.2500  -999.2500  -999.2500     2.0700    78.1810 
   58.1250  -999.2500  -999.2500  -999.2500  -999.2500  -999.2500     2.0680    78.6030 
   58.2500  -999.2500  -999.2500  -999.2500  -999.2500  -999.2500     2.0650    79.2820 
   58.3750  -999.2500  -999.2500  -999.2500  -999.2500  -999.2500     2.0590    80.2410 
   58.5000  -999.2500     1.2360     0.0000     0.0000     0.0000     2.0530    81.5380 
   58.6250  -999.2500     1.2360     0.0000     0.0000     0.0000     2.0500    83.2640 
   58.7500  -999.2500     0.6180     0.0000  -999.2500     0.0000     2.0540    85.3040 
   58.8750  -999.2500     0.0000     0.0000  -999.2500     0.0000     2.0670    87.5770 
   59.0000     0.0000     0.0000     0.0000     0.0000     0.0000     2.0830    90.0280 
   59.1250    13.3920     0.1520     0.0820     0.0600     6.3380     2.0930    92.6330 
   59.2500    53.2860     0.5550     0.3180     0.2430    25.3490     2.0970    95.2680 
   59.3750    53.0640     0.4430     0.3060     0.2480    25.3540     2.1050    97.7710 
   59.5000    52.8530     0.3960     0.3340     0.2580    25.3710     2.1220    99.9410 
   59.6250    52.6490     0.3760     0.4090     0.2690    25.3870     2.1430   101.4190 
   59.7500    53.0910     0.3670     0.4250     0.2710    25.3630     2.1570   102.0800 
   59.8750    54.4080     0.3600     0.4140     0.2610    25.3370     2.1610   101.8250 
   60.0000    55.4100     0.3510     0.4130     0.2330    25.3270     2.1620   100.6430 
   60.1250    54.0310     0.3570     0.4250     0.2230    25.3190     2.1630    98.4470 
   60.2500    51.3900     0.3660     0.4510     0.2090    25.2960     2.1590    95.5470 
   60.3750    49.7970     0.3740     0.4580     0.1970    25.2630     2.1480    92.1190 
   60.5000    49.5350     0.3780     0.4170     0.1960    25.2400     2.1370    88.3200 
   60.6250    49.2450     0.3700     0.3660     0.2020    25.2530     2.1330    84.3150 
   60.7500    48.6000     0.3470     0.3330     0.2160    25.2650     2.1330    80.2970 
   60.8750    49.2090     0.3340     0.3160     0.2260    25.2740     2.1370    76.3440 
   61.0000    50.9920     0.3260     0.3090     0.2320    25.2770     2.1520    72.5180 
   61.1250    51.4450     0.3160     0.3070     0.2230    25.2650     2.1740    68.8660 
   61.2500    50.2170     0.3060     0.2940     0.2000    25.2410     2.1920    65.3010 
   61.3750    49.2770     0.2870     0.2660     0.1890    25.2260     2.2060    61.7510 
   61.5000    48.6600     0.2720     0.2590     0.1820    25.2200     2.2220    58.1080 
   61.6250    47.2770     0.2480     0.2540     0.1780    25.2320     2.2460    54.1750 
   61.7500    45.5840     0.2150     0.2440     0.1770    25.2490     2.2820    49.9700 
   61.8750    44.7120     0.2070     0.2320     0.1660    25.2640     2.3320    45.5220 
   62.0000    45.7060     0.2040     0.2260     0.1630    25.2610     2.3930    40.7570 
   62.1250    48.3850     0.2160     0.2080     0.1790    25.2060     2.4530    35.4720 
   62.2500    53.3190     0.3140     0.2010     0.2820    24.9760     2.4970    29.6510 
   62.3750    59.3500     1.0410     0.1780     1.0490    24.4430     2.4850    23.2720 
   62.5000    64.9990     1.3270     0.2140     2.0490    23.7900     2.3970    16.4830 
   62.6250    71.2480     1.9070     0.4020     3.5970    23.2880     2.2670     9.6600 
   62.7500    75.7130     2.9540     0.7840     5.1200    22.9640     2.1550     3.1050 
   62.8750    78.3420     4.3000     1.4340     6.0180    22.7910     2.0870    -3.0290 
   63.0000    78.7610     5.4910     2.3290     6.6370    22.7180     2.0610    -8.6260 
   63.1250    77.5920     5.9920     3.2880     6.8950    22.6580     2.0600   -13.4250 
   63.2500    77.0990     6.0840     4.1100     7.0920    22.5630     2.0670   -17.4210 
   63.3750    77.4110     6.1470     4.7650     7.5200    22.4670     2.0780   -20.5750 
   63.5000    76.9280     6.3540     5.2860     8.0900    22.4210     2.0940   -22.9140 
   63.6250    72.0550     6.6530     5.6630     8.7010    22.3670     2.1150   -24.4780 
   63.7500    66.7220     6.8830     5.8990     8.8050    22.2730     2.1350   -25.5720 
   63.8750    66.4060     6.9610     5.9900     8.5060    22.1760     2.1510   -26.3180 
   64.0000    71.0410     6.8900     5.9680     8.1430    22.1280     2.1570   -26.7900 
   64.1250    75.8440     6.7460     5.8820     8.0520    22.1220     2.1560   -27.0140 
   64.2500    76.0150     6.6410     5.7940     8.1170    22.0790     2.1520   -27.0640 
   64.3750    71.7400     6.6210     5.7380     8.0760    21.9810     2.1450   -26.9270 
   64.5000    67.2900     6.6940     5.7280     8.2630    21.8810     2.1330   -26.5880 
   64.6250    67.4910     6.8230     5.7530     8.4310    21.8660     2.1190   -26.0800 
   64.7500    71.1690     6.9120     5.7530     8.5720    21.9750     2.1080   -25.5130 
   64.8750    75.6770     6.8800     5.6690     8.5280    22.2160     2.1020   -24.9470 
   65.0000    80.2000     6.6910     5.4710     7.7730    22.5260     2.1010   -24.3660 
   65.1250    85.3770     6.3710     5.1790     6.3950    22.8860     2.1060   -23.7600 
   65.2500    91.6590     6.0360     4.8850     5.0350    23.3310     2.1090   -23.1760 
   65.3750    96.0290     5.7610     4.6590     4.4540    23.6720     2.1060   -22.6370 
   65.5000    95.2280     5.5930     4.5440     4.5490    23.6800     2.0960   -22.2050 
   65.6250    90.3200     5.6000     4.5930     5.2240    23.3300     2.0900   -21.9300 
   65.7500    85.6130     5.8340     4.8310     6.0330    22.9910     2.1010   -21.7680 
   65.8750    81.8440     6.3770     5.3150     6.5110    22.6860     2.1350   -21.6610 
   66.0000    77.3610     7.2630     6.0830     6.6270    22.5130     2.1870   -21.5520 
   66.1250    72.7850     8.4250     7.1150     8.0920    22.5950     2.2470   -21.3910 
