~V
VERS. 2.00: Ver 2.00
~W
STRT.M 58.0000:
STOP.M 277.0000:
STEP.M 0.1250:
NULL. -999.2500:
UWI. F11038:
~C
DEPT.M :
GR.API :
RML.OHMM :
RI. :
RXO.OHMM :
CALI.CM :
DEN.GM/CC :
SP.MV :
~A
# ...
   80.5000    70.6270    11.2370     8.6470    10.3680    25.1060     2.1580   -28.6510 
   80.6250    70.0110    11.3330     8.6500    10.9200    25.2070     2.1930   -29.2360 
   80.7500    69.7440    11.4150     8.6460    11.3110    25.3500     2.2290   -29.9340 
   80.8750    70.2110    11.4780     8.6470    11.7440    25.4200     2.2500   -30.7740 
   81.0000    70.3430    11.5240     8.6630    12.5130    25.2830     2.2490   -31.7430 
   81.1250    69.1960    11.5540     8.6950    13.6180    25.3040     2.2330   -32.7730 
   81.2500    67.5160    11.5790     8.7340    14.3740    25.5850     2.2120   -33.7390 
   81.3750    66.7770    11.6050     8.7770    14.5830    26.0280     2.1910   -34.5830 
   81.5000    67.0650    11.6450     8.8250    14.4560    26.5200     2.1700   -35.2620 
   81.6250    66.3120    11.7310     8.8770    14.3520    26.9530     2.1510   -35.6670 
   81.7500    66.2910    11.8840     8.9430    14.3650    27.1180     2.1400   -35.7810 
   81.8750    68.3030    12.0850     9.0240    14.1530    27.0740     2.1420   -35.4860 
   82.0000    70.5160    12.2350     9.0750    13.7390    26.7950     2.1560   -34.7310 
   82.1250    69.3240    12.1000     8.9510    13.3670    26.2780     2.1720   -33.3990 
   82.2500    66.4080    11.5720     8.5670    12.9290    25.8460     2.1820   -31.6680 
   82.3750    67.2520    10.6860     7.9320    11.9110    25.7420     2.1850   -29.6020 
   82.5000    74.8660     9.6430     7.1770     9.8310    26.0610     2.1850   -27.3670 
   82.6250    86.0040     8.7970     6.5200     7.6580    26.1320     2.1900   -25.2280 
   82.7500    92.5630     8.3820     6.1100     6.4610    25.7420     2.2000   -23.4100 
   82.8750    91.4440     8.4740     6.0140     6.7010    24.9330     2.2100   -22.0980 
   83.0000    85.5350     9.0030     6.2300     8.1690    24.2910     2.2150   -21.3330 
   83.1250    79.3170     9.7820     6.7170     9.2590    23.9820     2.2090   -21.2320 
   83.2500    74.9030    10.5090     7.2750     9.8670    23.7600     2.1980   -21.6470 
   83.3750    73.0650    11.0130     7.7330    10.1930    23.6560     2.1880   -22.5290 
   83.5000    73.7420    11.2390     7.9860    10.3910    23.7350     2.1870   -23.7120 
   83.6250    74.8810    11.2100     8.0200    10.4790    24.0350     2.1950   -24.9590 
   83.7500    74.0940    11.0430     7.9290    10.5250    24.5550     2.2040   -26.0030 
   83.8750    73.4740    10.7710     7.7500    10.8180    25.1980     2.2040   -26.6960 
   84.0000    73.8180    10.4060     7.5020    11.4630    25.6380     2.1890   -26.9780 
   84.1250    76.5400     9.9900     7.2160    11.7430    25.8190     2.1650   -26.8260 
   84.2500    81.7320     9.6270     6.9520    10.4490    25.6760     2.1500   -26.4340 
   84.3750    85.8900     9.4130     6.7670     8.6430    25.3210     2.1520   -25.9400 
   84.5000    86.5980     9.4060     6.7070     8.3720    25.0590     2.1700   -25.4420 
   84.6250    83.0860     9.6040     6.7990     9.6910    24.9620     2.1910   -24.8860 
   84.7500    80.1680     9.8660     6.9820    10.4280    24.9420     2.2050   -24.2790 
   84.8750    80.7050    10.0800     7.1960    10.4680    24.9170     2.2080   -23.6710 
   85.0000    84.8470    10.1830     7.3710    10.1130    24.8480     2.2060   -23.1480 
   85.1250    87.8780    10.2060     7.4730     9.3920    24.7500     2.2040   -22.7730 
   85.2500    85.8760    10.2670     7.5670     9.1490    24.7040     2.2040   -22.4410 
   85.3750    83.1830    10.4260     7.7130     9.5260    24.6630     2.2060   -22.0020 
   85.5000    83.1160    10.6420     7.9050     9.9270    24.5620     2.2060   -21.3460 
   85.6250    83.9870    10.7370     8.0330    10.3440    24.3920     2.2040   -20.4750 
   85.7500    84.8690    10.5500     7.9640    11.2000    24.2700     2.2020   -19.4720 
   85.8750    86.8780    10.0200     7.6210    11.6010    24.2420     2.2050   -18.3720 
   86.0000    90.3840     9.2110     7.0340     8.5930    24.2610     2.2190   -17.2560 
   86.1250    95.8740     8.3070     6.3390     6.9110    24.2460     2.2450   -16.1890 
   86.2500   102.2120     7.5440     5.7200     6.0110    24.1570     2.2770   -15.2070 
   86.3750   106.3180     7.0610     5.2840     5.6450    24.0310     2.3080   -14.3710 
   86.5000   108.4640     6.9140     5.0780     5.4220    23.9330     2.3340   -13.7490 
   86.6250   108.8220     7.1260     5.1340     5.3850    23.8660     2.3540   -13.4170 
   86.7500   105.9710     7.5360     5.3590     5.8730    23.7670     2.3660   -13.3340 
   86.8750    99.6140     8.0070     5.6660     6.7070    23.6520     2.3680   -13.4700 
   87.0000    93.3460     8.4040     5.9550     6.9920    23.5370     2.3560   -13.7490 
   87.1250    91.6930     8.5990     6.1250     6.8190    23.4830     2.3330   -14.1150 
   87.2500    91.1240     8.6080     6.1720     6.9610    23.4730     2.3110   -14.5200 
   87.3750    88.8630     8.4850     6.1340     7.1410    23.5070     2.2950   -14.9450 
   87.5000    87.2020     8.3090     6.0630     7.0300    23.6160     2.2840   -15.4020 
   87.6250    90.3110     8.1820     6.0250     7.0060    23.8000     2.2720   -15.9200 
   87.7500    95.6230     8.1830     6.0650     7.4160    24.0150     2.2490   -16.5330 
   87.8750    97.2840     8.3820     6.2250     7.7460    24.1940     2.2190   -17.2430 
   88.0000    95.2520     8.8270     6.5410     8.1310    24.3030     2.2020   -18.0850 
   88.1250    92.5920     9.5360     7.0410     8.6960    24.4110     2.2280   -19.0330 
   88.2500    90.0240    10.3420     7.6240     9.4760    24.5640     2.2950   -20.0140 
   88.3750    86.7320    11.0420     8.1490    10.4330    24.6780     2.3740   -20.9210 
   88.5000    86.3280    11.4110     8.4290    11.3320    24.7320     2.4260   -21.6310 
   88.6250    91.7930    11.1990     8.2480    11.3980    24.7800     2.4100   -21.9950 
   88.7500    96.0600    10.5110     7.6820    10.6910    24.8940     2.3490   -21.9840 
   88.8750    95.8310     9.5290     6.8930     9.2300    24.9840     2.2790   -21.6620 
   89.0000    95.9050     8.5020     6.0930     7.7700    25.0040     2.2380   -21.1320 
   89.1250   102.1040     7.7180     5.4930     6.9380    25.0160     2.2390   -20.6700 
   89.2500   105.8120     7.3310     5.1570     6.4070    25.0410     2.2530   -20.4960 
   89.3750   102.4820     7.4710     5.1410     6.5720    25.0910     2.2500   -20.7120 
   89.5000    95.2370     8.2390     5.5130     7.4050    25.1700     2.2160   -21.3000 
   89.6250    89.6100     9.7210     6.4030     9.5050    25.2220     2.1720   -22.1910 
   89.7500    84.9420    11.5360     7.6850    10.5460    25.1160     2.1630   -23.3190 
   89.8750    79.2680    13.1660     9.1060    12.7180    24.8910     2.2120   -24.6710 
   90.0000    73.5470    14.0110    10.1710    17.5080    24.7350     2.2980   -26.1940 
   90.1250    73.2840    13.5390    10.2170    23.7680    24.6580     2.3650   -27.7000 
   90.2500    76.7680    12.2180     9.4740    19.3680    24.5820     2.3730   -28.9260 
   90.3750    78.0700    10.6490     8.4390    14.3320    24.5320     2.3250   -29.7010 
   90.5000    75.0740     9.3630     7.5260    12.2820    24.5410     2.2540   -29.9600 
   90.6250    74.2620     8.6720     6.9660    11.9610    24.5470     2.2040   -29.6850 
   90.7500    78.5500     8.3800     6.6900    11.5800    24.5500     2.1890   -28.9420 
   90.8750    85.0500     8.2700     6.5780    10.9250    24.5760     2.2010   -27.6700 
   91.0000    91.1300     8.1530     6.4860     9.4720    24.6310     2.2250   -25.8830 
   91.1250    96.0560     7.9230     6.3080     8.1010    24.6640     2.2470   -23.5820 
   91.2500    99.8840     7.6300     6.0670     6.6730    24.6260     2.2620   -21.0730 
   91.3750   102.7700     7.3500     5.8170     6.2910    24.5370     2.2730   -18.6090 
   91.5000   103.6910     7.1560     5.6090     6.2360    24.4750     2.2830   -16.3740 
   91.6250   102.7320     7.1250     5.5000     5.7590    24.4730     2.2940   -14.6250 
