~V
VERS. 2.00: Ver 2.00
~W
STRT.M 52.0000:
STOP.M 282.0000:
STEP.M 0.1250:
NULL. -999.2500:
UWI. F11052:
~C
DEPT.M :
SP.MV :
GR.API :
RML.OHMM :
RI. :
RXO.OHMM :
CALI.CM :
DEN.GM/CC :
~A
# ...
  209.5000   -15.0370    84.1430    10.5280     8.3640     9.1040    25.6060     2.3830 
  209.6250   -15.0900    83.5480    10.8170     8.6120     9.5510    25.5640     2.3610 
  209.7500   -15.1020    84.0310    11.1430     8.8880     8.7730    25.5520     2.3480 
  209.8750   -15.1190    84.7700    11.6110     9.2350     8.3040    25.5510     2.3480 
  210.0000   -15.1730    86.4450    12.3750     9.7380     9.0750    25.5350     2.3570 
  210.1250   -15.2500    87.4050    13.6740    10.5990    10.3970    25.5410     2.3700 
  210.2500   -15.3610    84.3040    15.4520    11.9110    11.3970    25.5580     2.3770 
  210.3750   -15.5230    78.0080    17.4720    13.6510    12.5030    25.5500     2.3710 
  210.5000   -15.6230    74.4260    19.2300    15.4990    14.8630    25.5400     2.3470 
  210.6250   -15.7190    75.7210    19.9060    16.6090    19.0340    25.5380     2.3090 
  210.7500   -15.7590    75.8520    19.3640    16.4990    20.8090    25.5240     2.2740 
  210.8750   -15.7020    75.0490    17.9440    15.3480    17.7840    25.4750     2.2540 
  211.0000   -15.5610    76.8200    16.3710    13.8480    12.4610    25.3520     2.2530 
  211.1250   -15.3230    80.0400    15.5490    12.8040    11.2870    25.1940     2.2640 
  211.2500   -14.9600    79.9850    15.7670    12.5220    12.6570    25.1130     2.2780 
  211.3750   -14.4550    76.3680    16.9990    13.0830    16.8330    25.1960     2.2920 
  211.5000   -13.9150    72.4370    18.9890    14.4350    25.4180    25.3310     2.3100 
  211.6250   -13.3130    69.9350    21.3570    16.4230    28.8950    25.3930     2.3310 
  211.7500   -12.6830    70.0380    23.6430    18.5550    26.1600    25.4610     2.3490 
  211.8750   -12.1170    72.3540    25.6740    20.5610    21.7070    25.5210     2.3560 
  212.0000   -11.6470    73.6320    27.4730    22.4030    21.5610    25.5440     2.3500 
  212.1250   -11.2290    71.3690    29.1690    24.1920    25.3650    25.5730     2.3370 
  212.2500   -10.8490    67.7120    30.8690    26.0070    28.6320    25.5990     2.3270 
  212.3750   -10.5100    65.3770    32.5750    27.8170    28.9080    25.5970     2.3210 
  212.5000   -10.2720    64.0280    34.2870    29.5440    30.9520    25.5750     2.3170 
  212.6250   -10.1710    64.1740    36.1100    31.1500    32.8670    25.5480     2.3090 
  212.7500   -10.1030    66.2200    38.1990    32.7980    35.1640    25.5160     2.2980 
  212.8750   -10.0720    67.5810    40.6680    34.6950    36.8880    25.4730     2.2850 
  213.0000   -10.0500    65.6570    43.4860    36.9570    37.3710    25.4710     2.2740 
  213.1250    -9.9750    63.2400    46.4080    39.4950    38.6250    25.4920     2.2650 
  213.2500    -9.9490    64.4850    49.0330    41.9210    40.9670    25.5600     2.2550 
  213.3750    -9.9920    66.4260    51.0500    43.9030    45.0800    25.6490     2.2460 
  213.5000    -9.9520    65.3700    52.2710    45.2540    47.8800    25.7240     2.2410 
  213.6250    -9.8810    62.7510    52.5090    45.8720    47.2080    25.7090     2.2480 
  213.7500    -9.8680    61.0210    52.0010    45.9280    43.3790    25.6340     2.2630 
  213.8750    -9.8150    60.4240    50.9610    45.4770    39.8510    25.5710     2.2830 
  214.0000    -9.7300    61.7310    49.7400    44.6870    41.1560    25.5090     2.3020 
  214.1250    -9.7710    66.0680    48.9520    44.0050    43.5130    25.4240     2.3120 
  214.2500    -9.8280    69.7070    49.1040    43.9860    42.3200    25.3540     2.3120 
  214.3750    -9.8670    70.1170    50.5580    45.0840    38.4800    25.4180     2.3020 
  214.5000   -10.0260    68.1380    53.4350    47.5770    39.0700    25.5240     2.2860 
  214.6250   -10.2540    67.1200    57.6140    51.6440    48.0330    25.5720     2.2700 
  214.7500   -10.4700    67.0210    62.1060    56.4780    61.8730    25.5780     2.2560 
  214.8750   -10.7080    65.6170    65.9680    61.1010    68.3260    25.5780     2.2450 
  215.0000   -10.9810    63.0830    68.4840    64.4880    61.1550    25.5780     2.2350 
  215.1250   -11.2030    62.4210    69.4680    65.9660    61.2690    25.5680     2.2280 
  215.2500   -11.3820    63.3400    70.0460    66.5830    64.6530    25.5440     2.2230 
  215.3750   -11.5380    63.6910    71.3870    67.6550    68.1670    25.5120     2.2200 
  215.5000   -11.6530    63.9460    74.9920    70.4010    65.8800    25.4810     2.2180 
  215.6250   -11.6790    65.9130    82.3690    75.9770    68.6210    25.4430     2.2120 
  215.7500   -11.6650    67.6110    92.2220    83.9650    74.4390    25.4150     2.2030 
  215.8750   -11.7260    66.7510   102.9290    93.7000    82.4450    25.3320     2.1910 
  216.0000   -11.8320    64.2090   113.1060   103.9300    81.9430    25.1940     2.1810 
  216.1250   -11.8460    61.7990   121.5410   112.6860    86.5600    25.1790     2.1760 
  216.2500   -11.9060    61.5020   127.8560   119.0950   101.6350    25.2320     2.1790 
  216.3750   -12.0720    62.7400   132.4340   123.4870   123.3770    25.2360     2.1880 
  216.5000   -12.2260    62.7550   136.3250   127.1770   136.3520    25.2080     2.1990 
  216.6250   -12.4790    61.6880   142.3870   132.4070   143.2080    25.2310     2.2050 
  216.7500   -12.8580    62.6190   154.0130   140.7750   145.3310    25.2280     2.2040 
  216.8750   -13.1630    65.4520   171.5460   153.0910   149.0840    25.2890     2.1930 
  217.0000   -13.3730    66.4020   191.0390   168.7800   151.7210    25.4150     2.1770 
  217.1250   -13.7030    63.7210   205.1110   184.5110   168.7470    25.3930     2.1620 
  217.2500   -14.0200    61.7860   209.5070   194.3490   187.5720    25.2260     2.1520 
  217.3750   -14.2870    61.4090   202.1700   193.1730   186.6330    25.1040     2.1520 
  217.5000   -14.6060    61.3050   183.7360   179.6570   165.0730    25.1140     2.1610 
  217.6250   -14.8570    61.9980   158.9630   157.3710   151.0110    25.0970     2.1760 
  217.7500   -14.9910    63.4410   135.5720   134.7420   132.4350    25.0420     2.1930 
  217.8750   -15.1670    64.4430   117.2520   116.1150   109.2730    24.9960     2.2100 
  218.0000   -15.4200    63.6400   105.1690   103.2230    94.3460    25.0180     2.2220 
  218.1250   -15.6090    62.2830    99.7740    96.9460    88.6610    25.1590     2.2290 
  218.2500   -15.8260    62.5730    99.0180    95.4550    88.6500    25.2000     2.2300 
  218.3750   -16.1500    63.2140   101.9070    97.8030    91.1510    25.2750     2.2290 
  218.5000   -16.5050    64.3250   107.5420   103.0840    92.6380    25.4600     2.2270 
  218.6250   -16.8370    66.9070   115.3390   110.6780    98.0900    25.6510     2.2270 
  218.7500   -17.1950    69.0380   124.2170   119.3780   110.9820    25.7190     2.2260 
  218.8750   -17.6220    70.3660   133.6110   128.5050   126.1780    25.7230     2.2220 
  219.0000   -18.0950    71.4260   143.0670   137.5300   139.1430    25.7250     2.2150 
  219.1250   -18.5840    72.9760   152.1760   145.9940   156.4610    25.7200     2.2090 
  219.2500   -19.1120    72.8310   160.7580   153.7490   177.8210    25.6800     2.2070 
  219.3750   -19.5530    69.9870   168.6530   160.6590   190.2310    25.6480     2.2110 
  219.5000   -19.8330    66.6150   175.6840   166.5960   174.0540    25.6370     2.2150 
  219.6250   -20.1230    64.8030   181.5280   171.2710   168.0680    25.6440     2.2140 
  219.7500   -20.4710    64.4690   186.4590   174.9630   174.6820    25.6320     2.2080 
  219.8750   -20.6580    64.2490   190.8770   178.1230   183.3890    25.5790     2.2020 
  220.0000   -20.7090    63.3810   195.2520   181.4060   177.7590    25.5080     2.1990 
  220.1250   -20.8430    62.9490   199.6870   185.1950   191.6130    25.5910     2.1990 
  220.2500   -20.8660    62.0270   203.6230   188.9160   236.0480    25.6410     2.2010 
  220.3750   -20.8430    60.5810   206.3260   191.7930   322.2450    25.6790     2.2020 
  220.5000   -20.9680    59.6650   207.2770   193.3220   346.5110    25.6990     2.2010 
  220.6250   -21.0250    60.3710   206.0280   193.1650   286.2790    25.7050     2.1960 
