~V
VERS. 2.00: Ver 2.00
~W
STRT.M 55.0000:
STOP.M 275.0000:
STEP.M 0.1250:
NULL. -999.2500:
UWI. F11036:
~C
DEPT.M :
GR.API :
RML.OHMM :
RI. :
RXO.OHMM :
CALI.CM :
DEN.GM/CC :
SP.MV :
~A
# ...
  178.7500    76.9010    70.4780    77.5000    55.8520    25.2250     2.3340   -16.7140 
  178.8750    76.3130    61.4890    69.3300    47.9710    25.1500     2.3510   -16.3670 
  179.0000    76.3770    50.5250    57.3600    40.3630    25.0850     2.3680   -16.0020 
  179.1250    79.0520    38.4310    42.9220    31.0740    24.9480     2.3800   -15.6750 
  179.2500    84.8300    27.3180    30.0100    20.3800    24.7600     2.3840   -15.4240 
  179.3750    93.7220    18.6330    20.5910    11.4380    24.5510     2.3790   -15.2570 
  179.5000   102.8890    12.9330    14.7870     6.4850    24.4340     2.3670   -15.1810 
  179.6250   107.5360    10.3620    12.1610     5.2790    24.0620     2.3510   -15.1980 
  179.7500   105.4380     9.8740    11.4600     5.3230    23.9930     2.3330   -15.3000 
  179.8750    97.5010    11.0400    12.3930     6.0400    24.1120     2.3120   -15.5180 
  180.0000    89.1970    13.4860    14.9080     7.2060    24.2820     2.2910   -15.8490 
  180.1250    86.8490    16.6890    18.9490     8.9020    24.4680     2.2790   -16.2860 
  180.2500    88.5820    19.6580    23.2640    11.3490    24.6990     2.2810   -16.7850 
  180.3750    91.5360    21.7240    26.4650    12.4480    24.9180     2.2920   -17.3150 
  180.5000    94.4320    22.7270    27.8160     9.5480    25.0500     2.3070   -17.8640 
  180.6250    95.1060    23.2150    27.8860     7.0730    25.0440     2.3130   -18.4570 
  180.7500    92.1820    24.2970    28.2770     7.1810    24.9680     2.3090   -19.1160 
  180.8750    86.4910    26.7300    29.9220    10.8030    24.8740     2.3000   -19.8380 
  181.0000    80.5600    30.8310    33.2290    19.7740    24.8430     2.2910   -20.6560 
  181.1250    77.6110    36.5950    38.1950    25.7450    24.8400     2.2840   -21.5740 
  181.2500    76.6490    43.1560    43.7710    25.4510    24.8900     2.2790   -22.5240 
  181.3750    76.2570    49.9730    49.2030    25.1600    24.9940     2.2740   -23.4890 
  181.5000    74.6710    56.7710    54.2430    28.0680    25.1700     2.2690   -24.4650 
  181.6250    72.4610    63.6080    59.2570    31.0740    25.2900     2.2660   -25.4330 
  181.7500    69.8970    70.6590    64.6520    33.3520    25.3460     2.2630   -26.3930 
  181.8750    67.3280    78.0440    70.4980    35.7560    25.3730     2.2590   -27.3300 
  182.0000    66.6710    85.9160    76.7670    38.8970    25.3790     2.2500   -28.2020 
  182.1250    68.5520    94.8090    83.7760    40.5460    25.3540     2.2380   -28.9150 
  182.2500    70.5960   105.1120    91.8920    41.1030    25.3380     2.2280   -29.4900 
  182.3750    70.7160   117.1450   101.4780    45.2820    25.4020     2.2210   -29.9670 
  182.5000    68.6350   130.8570   112.5730    52.8970    25.5220     2.2150   -30.3600 
  182.6250    65.8390   146.0460   125.0130    60.7340    25.5780     2.2070   -30.6730 
  182.7500    64.0430   162.2200   138.3040    62.7260    25.5930     2.1960   -30.9030 
  182.8750    64.6520   179.5930   152.7150    59.5080    25.5930     2.1860   -31.0570 
  183.0000    67.8990   198.6130   168.9210    58.2350    25.5930     2.1830   -31.1780 
  183.1250    68.6950   219.3450   187.5310    67.2500    25.5860     2.1880   -31.2870 
  183.2500    64.1100   239.6810   206.8570    76.3660    25.5560     2.1980   -31.4370 
  183.3750    59.6520   256.5590   224.0840    79.6210    25.4930     2.2070   -31.5790 
  183.5000    60.8180   266.8680   235.9290    78.9850    25.4280     2.2130   -31.6490 
  183.6250    65.3070   267.5080   239.1520    77.1870    25.4000     2.2140   -31.6980 
  183.7500    67.2300   260.2980   235.4520    69.4520    25.3810     2.2160   -31.6990 
  183.8750    67.5400   246.2200   225.9350    57.4160    25.3400     2.2200   -31.6960 
  184.0000    67.5430   226.7960   211.2440    48.4260    25.2780     2.2300   -31.6660 
  184.1250    66.9370   206.1960   192.0380    36.9920    25.1420     2.2420   -31.5770 
  184.2500    66.3420   188.0020   171.8340    31.3820    24.9680     2.2510   -31.4560 
  184.3750    66.6210   172.0920   153.5620    29.7500    24.7720     2.2540   -31.3250 
  184.5000    68.7170   157.7830   139.2510    32.0560    24.6530     2.2510   -31.2280 
  184.6250    70.4780   147.3360   130.6570    35.5310    24.6890     2.2450   -31.1440 
  184.7500    70.0240   142.4020   126.9760    44.7230    24.8180     2.2390   -31.1520 
  184.8750    67.7010   142.5140   127.7330    55.3980    24.9610     2.2350   -31.1740 
  185.0000    66.7390   146.5950   132.2370    62.1630    25.0380     2.2320   -31.1490 
  185.1250    69.2570   153.6130   139.7600    64.9140    25.1120     2.2290   -31.2450 
  185.2500    69.8960   160.8040   147.8770    67.1690    25.1910     2.2290   -31.3150 
  185.3750    66.9510   165.4950   153.9470    70.6890    25.2500     2.2320   -31.3580 
  185.5000    63.6560   165.3480   155.2880    75.0120    25.2690     2.2390   -31.4100 
  185.6250    63.7040   158.8190   149.7340    77.1980    25.2690     2.2510   -31.3800 
  185.7500    65.5420   148.8100   140.0160    72.3560    25.2690     2.2620   -31.3140 
  185.8750    68.4120   138.4490   129.3630    65.8570    25.2630     2.2690   -31.2120 
  186.0000    71.5340   130.7000   120.8730    60.9470    25.2400     2.2670   -31.1280 
  186.1250    72.7200   128.4480   117.4520    61.3880    25.1930     2.2530   -31.0020 
  186.2500    72.3120   131.6940   119.2130    65.9190    25.1560     2.2320   -30.9000 
  186.3750    73.4840   140.3640   126.1530    70.1810    25.1380     2.2100   -30.8520 
  186.5000    76.9330   153.9520   137.8940    69.9740    25.1230     2.1920   -30.7920 
  186.6250    78.1880   171.8810   154.1150    68.8610    25.0980     2.1810   -30.8330 
  186.7500    75.8300   191.5490   172.4310    78.1780    25.0780     2.1780   -30.8360 
  186.8750    71.7850   210.5680   190.5810    99.3120    25.0600     2.1820   -30.8160 
  187.0000    69.7820   226.3390   206.0520   121.9900    25.0270     2.1880   -30.8380 
  187.1250    71.0380   235.2750   215.6420   132.1680    24.9230     2.1920   -30.8030 
  187.2500    71.0200   236.4190   218.6740   126.3910    24.7180     2.1960   -30.7690 
  187.3750    68.9660   228.7980   214.2430   111.3550    24.5780     2.2010   -30.8150 
  187.5000    66.4950   212.5050   201.8510   107.5290    24.8050     2.2100   -30.9740 
  187.6250    67.4510   188.8250   181.5630   109.8790    25.1970     2.2210   -31.0680 
  187.7500    70.6420   163.2830   158.2790   109.4540    25.4010     2.2290   -31.1770 
  187.8750    72.9720   140.2620   136.4790    96.4840    25.4620     2.2300   -31.4290 
  188.0000    72.3730   123.0040   119.7960    77.3000    25.4840     2.2240   -31.7330 
  188.1250    70.6710   114.1540   111.2380    70.6460    25.5190     2.2170   -32.1090 
  188.2500    71.3510   112.1330   109.5740    75.7830    25.5510     2.2150   -32.4800 
  188.3750    72.6470   115.6350   113.7900    93.1810    25.5720     2.2180   -32.6890 
  188.5000    71.7470   122.8060   122.2890   128.8170    25.5680     2.2220   -32.8140 
  188.6250    69.8750   131.2750   132.7560   146.6740    25.5240     2.2250   -32.9120 
  188.7500    70.3180   138.4470   142.0400   142.1580    25.4700     2.2260   -33.0080 
  188.8750    71.7410   142.9880   148.3430   135.1670    25.4120     2.2270   -32.9730 
  189.0000    70.8900   144.5260   151.0810   138.3010    25.3580     2.2310   -32.7710 
  189.1250    69.3050   143.1480   150.2750   142.0400    25.3130     2.2380   -32.4430 
  189.2500    69.6260   140.1510   147.4170   139.1680    25.2740     2.2430   -32.0670 
  189.3750    70.8210   136.3720   143.3760   134.3030    25.2460     2.2450   -31.7590 
  189.5000    70.8520   132.6880   139.0380   125.7460    25.2280     2.2420   -31.4000 
  189.6250    71.1660   130.3230   135.6850   125.7770    25.2190     2.2360   -31.0570 
  189.7500    72.5690   130.0150   134.2460   126.0530    25.2090     2.2320   -30.6780 
  189.8750    72.9820   132.3430   135.3610   128.0620    25.1840     2.2330   -30.2280 
