~V
VERS. 2.00: Ver 2.00
~W
STRT.M 51.0000:
STOP.M 240.0000:
STEP.M 0.1250:
NULL. -999.2500:
UWI. F11016:
~C
DEPT.M :
GR.API :
RML.OHMM :
RI. :
RXO.OHMM :
CALI.CM :
DEN.GM/CC :
SP.MV :
~A
# ...
  174.7500    59.5260   190.0490   176.5460   197.2010    23.9640     2.2370   -17.0610 
  174.8750    61.0140   159.0270   148.1460   150.4780    23.9320     2.2460   -16.6050 
  175.0000    60.9100   133.1120   123.9090   117.4680    23.8960     2.2600   -16.1780 
  175.1250    60.7660   113.1260   104.9860    95.2590    23.8270     2.2740   -15.7790 
  175.2500    63.0200    99.0890    91.6440    70.9910    23.7610     2.2850   -15.4260 
  175.3750    65.9890    90.9280    83.9460    50.4840    23.7760     2.2900   -15.1160 
  175.5000    64.9640    87.2900    80.6230    42.9210    23.8700     2.2890   -14.8640 
  175.6250    60.1150    86.1470    79.7440    44.0220    23.9410     2.2890   -14.6740 
  175.7500    56.5640    85.3220    79.2880    55.9170    23.9470     2.2950   -14.5340 
  175.8750    56.3890    81.9150    76.5250    81.9980    23.9120     2.3130   -14.4270 
  176.0000    56.5160    74.2420    69.7360   105.7570    23.8530     2.3410   -14.3370 
  176.1250    55.2220    62.8590    59.3140   107.7020    23.7640     2.3740   -14.2640 
  176.2500    54.2650    50.0690    47.4280    88.3890    23.6410     2.4040   -14.2040 
  176.3750    56.6910    38.9660    37.0170    58.5150    23.4290     2.4220   -14.1670 
  176.5000    62.5620    31.1010    29.5210    32.5330    23.1060     2.4240   -14.1410 
  176.6250    68.0910    26.3710    24.8280    19.7400    22.8140     2.4130   -14.1040 
  176.7500    69.1970    24.0860    22.3260    17.4330    22.7410     2.3960   -14.0570 
  176.8750    67.4790    23.4950    21.4010    18.2920    22.9720     2.3770   -14.0060 
  177.0000    67.3340    23.7810    21.3760    18.8030    23.3700     2.3590   -13.9410 
  177.1250    69.9760    24.3080    21.7030    20.2130    23.7630     2.3470   -13.8620 
  177.2500    73.1210    24.7330    22.0520    23.3320    24.0290     2.3410   -13.8030 
  177.3750    73.3780    24.9040    22.2380    26.1590    24.1450     2.3410   -13.7720 
  177.5000    70.4650    24.8800    22.2760    25.8060    24.1930     2.3420   -13.7430 
  177.6250    67.3520    24.7650    22.2420    23.6650    24.2210     2.3360   -13.7170 
  177.7500    66.7400    24.5720    22.1540    23.8230    24.2100     2.3210   -13.7190 
  177.8750    67.3830    24.2620    21.9750    27.2140    24.1740     2.3000   -13.7140 
  178.0000    67.3270    23.8740    21.7210    28.2660    24.1990     2.2830   -13.6700 
  178.1250    67.3550    23.5890    21.5230    24.3170    24.2990     2.2780   -13.6100 
  178.2500    68.1370    23.6920    21.6010    19.5980    24.4190     2.2900   -13.5450 
  178.3750    67.4860    24.4560    22.1930    18.4520    24.5040     2.3150   -13.4290 
  178.5000    64.8470    25.6760    23.1650    20.7350    24.5140     2.3460   -13.2550 
  178.6250    62.3600    26.6580    23.9800    24.6380    24.4340     2.3760   -13.0470 
  178.7500    61.8760    26.5570    23.9240    28.6740    24.3080     2.3990   -12.8130 
  178.8750    64.3380    24.6110    22.2500    31.2640    24.1830     2.4070   -12.5670 
  179.0000    69.6800    21.0870    19.1260    28.9020    24.0220     2.4010   -12.3340 
  179.1250    77.8870    17.0440    15.5160    20.6310    23.7660     2.3850   -12.1500 
  179.2500    86.8460    13.5560    12.3930    12.2060    23.4110     2.3630   -12.0380 
  179.3750    91.2670    11.4140    10.3950     7.6570    23.0790     2.3410   -12.0450 
  179.5000    89.2710    10.6230     9.5110     6.0850    22.9210     2.3240   -12.1790 
  179.6250    84.1170    10.8000     9.4730     6.0250    23.0040     2.3130   -12.4370 
  179.7500    79.8730    11.5900    10.0460     6.7720    23.2970     2.3070   -12.8150 
  179.8750    77.2190    12.6670    10.9980     7.8860    23.6780     2.3060   -13.2870 
  180.0000    74.9890    13.7760    12.0880     8.9740    23.9830     2.3120   -13.8260 
  180.1250    73.8550    14.8180    13.1590     9.9150    24.1430     2.3210   -14.4080 
  180.2500    74.8390    15.8420    14.1860    10.8230    24.2070     2.3300   -14.9880 
  180.3750    75.9760    16.9780    15.2310    12.0540    24.2460     2.3350   -15.5100 
  180.5000    74.3180    18.2960    16.3520    13.8410    24.2250     2.3310   -15.9830 
  180.6250    70.9100    19.7480    17.5220    16.1740    24.0720     2.3150   -16.4190 
  180.7500    68.6680    21.1830    18.6190    18.8360    23.8410     2.2910   -16.8010 
  180.8750    67.8170    22.3680    19.4250    20.0700    23.6900     2.2660   -17.1220 
  181.0000    66.5110    23.1770    19.8330    19.4570    23.6420     2.2460   -17.4100 
  181.1250    64.2680    23.6790    19.9200    18.6810    23.6480     2.2350   -17.6650 
  181.2500    62.9270    24.1210    19.9180    18.4280    23.7250     2.2350   -17.8640 
  181.3750    63.5290    25.0250    20.2680    18.7880    23.8750     2.2410   -17.9950 
  181.5000    65.3520    26.9720    21.4310    18.8440    24.0700     2.2480   -18.0500 
  181.6250    67.9740    30.5080    23.8550    19.4190    24.2670     2.2500   -18.0320 
  181.7500    70.0880    36.1730    28.0410    21.5650    24.3900     2.2490   -17.9360 
  181.8750    69.2040    44.6970    34.7800    25.7910    24.3940     2.2470   -17.7600 
  182.0000    65.5150    55.9720    44.2220    34.0430    24.3230     2.2470   -17.5120 
  182.1250    62.9620    68.7080    55.4790    47.1790    24.2110     2.2480   -17.1900 
  182.2500    65.1380    80.3480    66.4340    62.9540    24.0860     2.2500   -16.8010 
  182.3750    69.2250    86.3110    73.0340    77.6010    24.0430     2.2520   -16.3700 
  182.5000    70.5180    83.2380    71.9810    93.9220    24.1030     2.2570   -15.9310 
  182.6250    68.5110    71.1740    62.8040   108.2590    24.1610     2.2660   -15.5030 
  182.7500    66.2420    54.2310    48.7760   110.5380    24.1480     2.2820   -15.1160 
  182.8750    65.9100    39.2740    35.8320    90.3580    24.0610     2.3020   -14.8170 
  183.0000    66.6980    30.1370    27.4190    54.1470    23.9570     2.3180   -14.6260 
  183.1250    68.0500    26.9570    23.7460    28.3100    23.8930     2.3250   -14.5470 
  183.2500    69.7020    28.8270    24.1740    23.8110    23.8890     2.3210   -14.5760 
  183.3750    69.9450    34.9270    28.4040    35.5240    23.9220     2.3080   -14.6980 
  183.5000    67.4660    43.7080    35.5890    57.5350    23.9550     2.2940   -14.8910 
  183.6250    62.6850    53.2270    44.3730    78.0290    23.9810     2.2830   -15.1130 
  183.7500    57.5870    61.6200    53.1330    82.0090    24.0000     2.2780   -15.3240 
  183.8750    55.7410    67.1140    59.8490    72.6050    24.0170     2.2790   -15.5200 
  184.0000    57.7830    69.7840    63.9030    65.1830    24.0550     2.2820   -15.6980 
  184.1250    60.0930    71.0590    66.2180    66.1490    24.1300     2.2860   -15.8190 
  184.2500    59.5560    72.0650    67.8150    71.8060    24.2160     2.2900   -15.8810 
  184.3750    57.3330    72.9730    68.9210    77.2260    24.2690     2.2940   -15.9150 
  184.5000    56.1780    73.3020    69.2040    79.0870    24.2940     2.2950   -15.9200 
  184.6250    56.1100    72.5640    68.3120    76.6560    24.3180     2.2930   -15.8840 
  184.7500    56.0820    70.5350    66.1200    71.7570    24.3400     2.2890   -15.8210 
  184.8750    55.9360    67.2510    62.7500    66.6350    24.3500     2.2840   -15.7470 
  185.0000    56.1220    63.2450    58.7650    62.7630    24.3500     2.2810   -15.6590 
  185.1250    56.7780    59.2790    54.8830    58.7530    24.3470     2.2880   -15.5510 
  185.2500    57.8090    56.1390    51.7890    52.8050    24.3440     2.3090   -15.4160 
  185.3750    59.3770    54.8620    50.3640    46.7320    24.3440     2.3540   -15.2540 
  185.5000    60.9170    56.0570    51.1500    44.8940    24.3440     2.4210   -15.0800 
  185.6250    60.9640    59.9230    54.4060    49.3660    24.3420     2.5020   -14.8900 
  185.7500    58.6140    66.4920    60.3120    57.7140    24.3150     2.5840   -14.6800 
  185.8750    54.5640    75.5950    68.9410    68.4390    24.2250     2.6520   -14.4320 
