~V
VERS. 2.00: Ver 2.00
~W
STRT.M 55.0000:
STOP.M 286.0000:
STEP.M 0.1250:
NULL. -999.2500:
UWI. F11067:
~C
DEPT.M :
GR.API :
RML.OHMM :
RI. :
RXO.OHMM :
CALI.CM :
DEN.GM/CC :
SP.MV :
~A
# ...
   88.7500    74.2740    12.3940    11.0060    15.6800    24.3050     2.4530    -6.3250 
   88.8750    69.5230    14.1170    12.6720    25.1170    24.5680     2.5350    -6.1080 
   89.0000    66.0650    16.0160    14.3250    46.9550    24.7590     2.5870    -5.9470 
   89.1250    67.5640    17.2240    14.9740    45.6280    24.7770     2.5700    -5.8650 
   89.2500    70.7480    17.1580    14.2910    28.4640    24.6850     2.5010    -5.8840 
   89.3750    72.6420    15.7860    12.6760    19.4630    24.5520     2.4070    -6.0000 
   89.5000    72.5980    13.6580    10.8530    14.7110    24.4390     2.3170    -6.1610 
   89.6250    72.1960    11.6590     9.4790    11.5200    24.4020     2.2560    -6.3680 
   89.7500    70.9160    10.3260     8.6750     9.5810    24.3940     2.2210    -6.6110 
   89.8750    68.5710     9.7270     8.3740     8.6510    24.3900     2.2020    -6.8610 
   90.0000    66.3400     9.6950     8.4310     9.8580    24.3830     2.1920    -7.1070 
   90.1250    66.6730    10.0070     8.7150    10.8570    24.3840     2.1830    -7.3320 
   90.2500    68.5620    10.3790     9.0290    11.4340    24.3930     2.1740    -7.4890 
   90.3750    68.3790    10.6740     9.2600    11.4890    24.4020     2.1680    -7.5630 
   90.5000    65.0800    10.8220     9.3490    11.6620    24.4010     2.1630    -7.5780 
   90.6250    64.0240    10.8130     9.3120    11.6050    24.3610     2.1620    -7.5330 
   90.7500    67.5060    10.7440     9.2320    11.3200    24.2900     2.1640    -7.4560 
   90.8750    72.2000    10.6830     9.1540    10.8150    24.2230     2.1690    -7.3510 
   91.0000    74.6750    10.6690     9.0920    10.4080    24.1860     2.1740    -7.2240 
   91.1250    73.9990    10.7090     9.0400    10.5190    24.1780     2.1760    -7.0670 
   91.2500    71.0740    10.7640     8.9790    10.9150    24.1750     2.1740    -6.8960 
   91.3750    66.9120    10.7890     8.8870    11.1650    24.1710     2.1680    -6.7110 
   91.5000    63.5230    10.7400     8.7400    11.0460    24.1700     2.1590    -6.5130 
   91.6250    63.3840    10.5740     8.5350    10.8450    24.1460     2.1480    -6.2970 
   91.7500    63.7560    10.3730     8.3780    10.7470    24.1000     2.1400    -6.0530 
   91.8750    63.3520    10.3000     8.4400    10.6570    24.0490     2.1520    -5.7740 
   92.0000    63.9170    10.5680     8.8890    10.5600    24.0040     2.1990    -5.4450 
   92.1250    65.8860    11.4100     9.8460    11.1000    23.9900     2.2890    -5.0530 
   92.2500    68.2130    12.6250    11.0320    13.6290    24.0420     2.3860    -4.6140 
   92.3750    71.6860    13.8050    11.9640    19.7860    24.2120     2.4550    -4.1690 
   92.5000    77.0620    14.3820    12.0610    26.7570    24.4300     2.4680    -3.7370 
   92.6250    82.0180    13.7570    10.9910    17.9660    24.4510     2.4250    -3.3420 
   92.7500    84.2470    12.2540     9.4600    10.5060    24.2770     2.3650    -3.0060 
   92.8750    84.9200    10.4440     8.0430     7.7460    24.1040     2.3150    -2.7190 
   93.0000    84.2950     8.9150     7.0390     7.0770    24.0120     2.2840    -2.5130 
   93.1250    80.7370     8.0880     6.5750     7.1660    23.8970     2.2710    -2.3860 
   93.2500    77.2900     7.8120     6.4650     7.4550    23.9040     2.2710    -2.3460 
   93.3750    78.1120     7.8570     6.5280     7.8180    23.9980     2.2820    -2.3330 
   93.5000    83.7480     7.9700     6.5910     8.2370    24.1310     2.3020    -2.3250 
   93.6250    88.4990     7.9480     6.5440     7.9600    24.2260     2.3220    -2.3140 
   93.7500    87.3160     7.8000     6.4460     7.1620    24.3280     2.3290    -2.2940 
   93.8750    82.9670     7.6230     6.3730     6.6610    24.4060     2.3190    -2.2950 
   94.0000    80.2300     7.5240     6.3780     6.7280    24.4310     2.2970    -2.3010 
   94.1250    80.4550     7.5840     6.4890     7.2080    24.4310     2.2750    -2.3490 
   94.2500    80.6070     7.7580     6.6670     7.6660    24.4350     2.2610    -2.3800 
   94.3750    79.9540     7.9790     6.8600     7.9700    24.4630     2.2550    -2.4040 
   94.5000    79.6280     8.1720     7.0160     8.0320    24.4820     2.2540    -2.4230 
   94.6250    78.3600     8.2730     7.0880     8.0400    24.4860     2.2530    -2.4150 
   94.7500    76.8660     8.2910     7.0880     8.1030    24.5180     2.2500    -2.3740 
   94.8750    77.5160     8.2510     7.0230     8.0430    24.6350     2.2460    -2.2580 
   95.0000    79.8720     8.1800     6.9160     7.8270    24.8710     2.2410    -2.1060 
   95.1250    80.5240     8.1000     6.7910     7.5530    25.0220     2.2380    -1.9010 
   95.2500    78.8670     8.0360     6.6740     7.3470    25.0740     2.2380    -1.6910 
   95.3750    78.3770     7.9980     6.5710     7.2670    25.0770     2.2410    -1.5090 
   95.5000    81.4130     7.9800     6.4830     7.2750    25.0730     2.2430    -1.3590 
   95.6250    85.8020     7.9420     6.3860     7.3490    25.0750     2.2390    -1.2570 
   95.7500    88.9450     7.8460     6.2700     7.3720    25.0760     2.2250    -1.2090 
   95.8750    89.5130     7.7000     6.1650     7.3140    25.0760     2.2020    -1.2310 
   96.0000    89.0300     7.5840     6.1570     7.2580    25.0780     2.1830    -1.2800 
   96.1250    87.5200     7.6990     6.4150     7.3090    25.0780     2.1940    -1.3420 
   96.2500    85.0700     8.2040     7.0440     8.0550    25.0760     2.2500    -1.4050 
   96.3750    83.7320     9.2040     8.1200    10.9050    25.0580     2.3480    -1.4680 
   96.5000    83.7030    10.6640     9.5830    18.7540    24.9930     2.4610    -1.5300 
   96.6250    81.7430    12.2840    11.0270    28.0410    24.8920     2.5360    -1.6020 
   96.7500    75.7950    13.4820    11.8120    35.7050    24.8030     2.5450    -1.6600 
   96.8750    70.3290    13.8150    11.5880    34.3360    24.7570     2.4900    -1.7110 
   97.0000    69.5720    13.1790    10.5450    19.7840    24.7330     2.3980    -1.7630 
   97.1250    72.2940    11.8590     9.2410    10.8070    24.6960     2.3100    -1.8160 
   97.2500    76.5360    10.5300     8.1490     8.2130    24.6560     2.2490    -1.8790 
   97.3750    80.0900     9.5320     7.3820     8.0270    24.6490     2.2130    -1.9280 
   97.5000    80.3630     8.9530     6.9190     8.0710    24.6540     2.1930    -1.9490 
   97.6250    76.5320     8.7580     6.7430     8.0780    24.6560     2.1810    -1.9360 
   97.7500    73.7230     8.7820     6.7800     8.1280    24.6570     2.1810    -1.8820 
   97.8750    73.8660     8.9900     7.0350     8.1820    24.6710     2.2100    -1.7870 
   98.0000    75.9770     9.4140     7.5440     8.7190    24.7050     2.2760    -1.6500 
   98.1250    77.0370    10.1670     8.4010    10.0460    24.7350     2.3740    -1.4800 
   98.2500    75.2410    11.2340     9.5620    12.3330    24.7500     2.4760    -1.2910 
   98.3750    71.2140    12.5850    11.0000    14.8790    24.7600     2.5620    -1.1080 
   98.5000    68.6320    14.1600    12.6650    17.7270    24.7830     2.6220    -0.9310 
   98.6250    69.2250    15.9040    14.5000    20.2880    24.7970     2.6560    -0.7940 
   98.7500    68.6840    17.7070    16.3600    22.7310    24.8000     2.6740    -0.6990 
   98.8750    67.4430    19.4450    18.0700    24.8510    24.8000     2.6780    -0.6590 
   99.0000    68.0190    20.8890    19.3440    25.7610    24.7970     2.6710    -0.6690 
   99.1250    69.1790    21.5390    19.5840    25.7770    24.7930     2.6590    -0.7520 
   99.2500    69.7010    21.1550    18.6420    24.3000    24.7800     2.6460    -0.8720 
   99.3750    70.1680    19.6800    16.6780    21.4910    24.7600     2.6220    -1.0050 
   99.5000    70.0650    17.3830    14.1900    18.4170    24.7510     2.5730    -1.1750 
   99.6250    69.2200    14.7920    11.8070    14.4050    24.7480     2.4900    -1.3550 
   99.7500    70.8610    12.4860     9.8870    10.9690    24.7360     2.3940    -1.5430 
   99.8750    76.3070    10.7240     8.5120     9.0340    24.7140     2.3080    -1.7110 
