~V
VERS. 2.00: Ver 2.00
~W
STRT.M 58.0000:
STOP.M 272.0000:
STEP.M 0.1250:
NULL. -999.2500:
UWI. F11073:
~C
DEPT.M :
GR.API :
RML.OHMM :
RI. :
RXO.OHMM :
CALI.CM :
DEN.GM/CC :
SP.MV :
~A
# ...
  114.2500    76.0900     9.3490     8.0390     9.3280    23.5670     2.1790   -18.4280 
  114.3750    75.5530     9.2570     7.9560     9.3060    23.5360     2.1730   -18.4380 
  114.5000    72.8660     9.2320     7.9120     9.3370    23.5200     2.1680   -18.5360 
  114.6250    69.9310     9.3450     7.9660     9.5630    23.5070     2.1660   -18.6440 
  114.7500    68.2370     9.5740     8.1210    10.1070    23.5450     2.1660   -18.6760 
  114.8750    67.9300     9.8530     8.3510    10.7430    23.5460     2.1690   -18.7500 
  115.0000    67.5260    10.0900     8.5890    11.0430    23.5120     2.1750   -18.9030 
  115.1250    67.2110    10.1860     8.7390    10.9760    23.4680     2.1830   -18.9590 
  115.2500    67.1250    10.1470     8.7730    10.7930    23.4630     2.1920   -19.0040 
  115.3750    66.8250    10.0190     8.7130    10.4480    23.4930     2.1960   -19.0250 
  115.5000    66.3500     9.8670     8.6130    10.2080    23.5220     2.1950   -18.9100 
  115.6250    66.9670     9.7510     8.5270    10.1570    23.5440     2.1900   -18.7250 
  115.7500    67.9290     9.6860     8.4750    10.2810    23.5700     2.1870   -18.6110 
  115.8750    67.8720     9.6840     8.4670    10.3900    23.6170     2.1870   -18.4920 
  116.0000    65.5150     9.7670     8.5190    10.5330    23.7140     2.1890   -18.2760 
  116.1250    62.8410     9.9720     8.6690    10.7320    23.8240     2.1890   -18.0990 
  116.2500    61.2510    10.2660     8.9000    10.9510    23.9060     2.1870   -17.8640 
  116.3750    60.9720    10.5790     9.1590    11.1290    23.8430     2.1830   -17.5970 
  116.5000    64.2950    10.7890     9.3590    11.2130    23.7240     2.1760   -17.4520 
  116.6250    71.5350    10.7320     9.3710    11.2860    23.6240     2.1710   -17.3670 
  116.7500    78.6620    10.4180     9.1780    11.1680    23.5970     2.1730   -17.2090 
  116.8750    81.8470     9.9410     8.8260    10.9230    23.5980     2.1820   -17.0780 
  117.0000    79.5830     9.4560     8.4140    10.5260    23.6140     2.1950   -17.0630 
  117.1250    75.5660     9.1670     8.0890    10.2410    23.6110     2.2030   -17.0400 
  117.2500    73.0070     9.1430     7.9420    10.4950    23.5920     2.2030   -17.1540 
  117.3750    71.4510     9.3650     7.9950    11.0260    23.5560     2.1940   -17.3470 
  117.5000    68.9340     9.7390     8.2120    11.5250    23.4940     2.1860   -17.4480 
  117.6250    66.6490    10.1430     8.5330    12.1340    23.4860     2.1930   -17.4690 
  117.7500    66.0220    10.4920     8.8780    12.9950    23.5110     2.2200   -17.5610 
  117.8750    65.6910    10.7710     9.2150    13.3770    23.5560     2.2630   -17.6210 
  118.0000    64.9690    11.0090     9.5320    13.0940    23.5940     2.3020   -17.5580 
  118.1250    64.9370    11.2330     9.8160    15.8250    23.6360     2.3140   -17.5510 
  118.2500    66.4670    11.4080    10.0350    22.5140    23.6620     2.3230   -17.4460 
  118.3750    69.2940    11.4600    10.1370    23.6930    23.6170     2.3390   -17.2490 
  118.5000    71.5070    11.3370    10.0820    16.1020    23.5420     2.3380   -17.1260 
  118.6250    70.3490    11.0290     9.8570    11.9420    23.5120     2.2940   -17.0930 
  118.7500    67.4290    10.6470     9.5460    10.5340    23.5330     2.2430   -16.9740 
  118.8750    67.6690    10.2950     9.2250    10.2170    23.5920     2.2150   -16.8730 
  119.0000    72.7270    10.0520     8.9590    10.1590    23.6560     2.2040   -16.8580 
  119.1250    77.4050     9.9490     8.7950    10.0260    23.6720     2.1970   -16.7350 
  119.2500    77.2670     9.9300     8.7130     9.8500    23.6360     2.1890   -16.6780 
  119.3750    73.4850     9.9540     8.6880     9.7050    23.5690     2.1810   -16.7180 
  119.5000    70.5470     9.9790     8.6880     9.7190    23.4990     2.1770   -16.6880 
  119.6250    71.4980     9.9640     8.6730    10.1100    23.4990     2.1790   -16.6260 
  119.7500    74.1390     9.9040     8.6260    10.1610    23.4800     2.1810   -16.6940 
  119.8750    77.0110     9.8080     8.5560     9.8330    23.4440     2.1830   -16.7400 
  120.0000    78.7310     9.6940     8.4790     9.3640    23.4170     2.1870   -16.7500 
  120.1250    77.9570     9.5940     8.4190     9.0770    23.4100     2.1950   -16.8930 
  120.2500    74.4270     9.5420     8.3950     9.1640    23.4110     2.1990   -16.9790 
  120.3750    70.0090     9.5670     8.4240     9.5820    23.4160     2.1970   -17.0280 
  120.5000    67.5330     9.6800     8.5230    10.0690    23.4240     2.1900   -17.1660 
  120.6250    67.9760     9.8440     8.6770     9.9110    23.4160     2.1840   -17.3030 
  120.7500    69.4460     9.9680     8.8190     9.8700    23.3690     2.1810   -17.3640 
  120.8750    70.2320     9.9880     8.8920     9.9890    23.2650     2.1820   -17.5030 
  121.0000    70.4470     9.9010     8.8660    10.1990    23.1600     2.1820   -17.7100 
  121.1250    70.4840     9.7580     8.7570    10.3380    23.0560     2.1840   -17.8120 
  121.2500    70.9440     9.6250     8.6230    10.3780    23.0050     2.1870   -17.9850 
  121.3750    71.5070     9.4860     8.4690    10.4020    23.0760     2.1920   -18.1660 
  121.5000    71.7390     9.2810     8.2690    10.2430    23.2880     2.1980   -18.2110 
  121.6250    74.1180     8.9490     7.9810     9.9720    23.5760     2.2030   -18.2580 
  121.7500    78.2340     8.5570     7.6390     9.4670    23.7890     2.2040   -18.3580 
  121.8750    80.9260     8.2110     7.3080     8.7320    23.8750     2.2010   -18.4020 
  122.0000    81.3980     8.0180     7.0740     7.9690    23.8920     2.2000   -18.4500 
  122.1250    80.6400     8.0780     7.0370     8.0270    23.8750     2.2020   -18.6700 
  122.2500    78.2900     8.3230     7.1850     9.0700    23.8330     2.1960   -18.8160 
  122.3750    72.5300     8.6570     7.4710     9.9210    23.7760     2.1770   -18.9030 
  122.5000    65.8760     8.9550     7.8000    10.1030    23.7390     2.1550   -19.0970 
  122.6250    63.8370     9.0860     8.0320    10.0210    23.7430     2.1470   -19.2690 
  122.7500    65.5640     9.0580     8.1110    10.1170    23.7740     2.1530   -19.3050 
  122.8750    70.4970     8.9460     8.0580    10.0080    23.8010     2.1630   -19.2690 
  123.0000    76.6920     8.8560     7.9500     9.6390    23.7960     2.1680   -19.2140 
  123.1250    81.1110     8.8830     7.8830     9.2930    23.7280     2.1660   -19.0710 
  123.2500    81.5340     9.0090     7.8980     9.7550    23.6280     2.1590   -18.8940 
  123.3750    78.3240     9.1880     7.9890    10.1210    23.5280     2.1520   -18.7270 
  123.5000    74.4830     9.3600     8.1170    10.1010    23.4950     2.1530   -18.5310 
  123.6250    73.4640     9.4580     8.2250    10.3240    23.5530     2.1640   -18.2840 
  123.7500    74.5790     9.4740     8.2810    10.6220    23.6140     2.1740   -18.0250 
  123.8750    75.1310     9.4330     8.2890    10.7810    23.6140     2.1760   -17.8070 
  124.0000    74.2230     9.3970     8.2820    10.6730    23.5800     2.1740   -17.5130 
  124.1250    74.6910     9.4710     8.3360    10.4570    23.5630     2.1770   -17.0710 
  124.2500    77.7310     9.7080     8.5020    10.4060    23.5750     2.1880   -16.7050 
  124.3750    81.8720    10.1140     8.8010    10.6560    23.5880     2.2050   -16.3290 
  124.5000    83.5250    10.6200     9.1920    11.7510    23.5910     2.2300   -15.8660 
  124.6250    80.0500    11.0400     9.5480    14.5920    23.5960     2.2730   -15.4490 
  124.7500    75.9160    11.1890     9.7160    16.8680    23.6190     2.3290   -15.2010 
  124.8750    75.6330    10.9700     9.5960    14.3420    23.6430     2.3780   -14.9840 
  125.0000    77.9480    10.4260     9.1980    10.5430    23.6540     2.3780   -14.7500 
  125.1250    78.8820     9.7300     8.6220     9.0050    23.7260     2.3140   -14.6860 
  125.2500    81.4010     9.1120     8.0510     8.4850    23.7890     2.2480   -14.6830 
  125.3750    86.1730     8.6820     7.5900     8.0260    23.8090     2.2180   -14.6980 
