~V
VERS. 2.00: Ver 2.00
~W
STRT.M 57.0000:
STOP.M 226.0000:
STEP.M 0.1250:
NULL. -999.2500:
UWI. F11011:
~C
DEPT.M :
GR.API :
RML.OHMM :
RI. :
RXO.OHMM :
CALI.CM :
SP.MV :
DEN.GM/CC :
~A
# ...
  102.0000    75.7400     9.6610     7.5200     8.3170    23.5540   -22.2070     2.1540 
  102.1250    78.6840     9.5370     7.4510     8.1550    23.5230   -22.0920     2.1570 
  102.2500    79.5320     9.4540     7.3790     8.2600    23.4800   -21.9330     2.1650 
  102.3750    78.0560     9.4080     7.3090     8.4720    23.4560   -21.8690     2.1720 
  102.5000    77.1380     9.3950     7.2490     8.5570    23.4300   -21.8840     2.1760 
  102.6250    77.3390     9.4440     7.2190     8.2390    23.3190   -21.9910     2.1730 
  102.7500    76.6470     9.5730     7.2220     8.1290    23.1840   -22.1940     2.1650 
  102.8750    74.2270     9.7550     7.2460     8.0990    23.1290   -22.4560     2.1570 
  103.0000    71.4790     9.8880     7.2650     8.0160    23.2280   -22.6750     2.1530 
  103.1250    70.2340     9.8110     7.2590     7.9300    23.3980   -22.8480     2.1560 
  103.2500    69.4480     9.5310     7.2460     7.8900    23.4650   -22.9780     2.1640 
  103.3750    68.2680     9.1730     7.2560     7.8040    23.4370   -22.9900     2.1750 
  103.5000    66.6050     8.9210     7.3170     7.8510    23.3980   -22.9390     2.1870 
  103.6250    65.6380     8.9440     7.4420     7.9290    23.4150   -22.7800     2.1980 
  103.7500    66.7030     9.1690     7.6020     8.0050    23.3750   -22.4540     2.2070 
  103.8750    67.4560     9.4560     7.7640     7.9510    23.2970   -21.9650     2.2110 
  104.0000    66.5440     9.6610     7.8890     7.8040    23.2510   -21.3830     2.2040 
  104.1250    66.2490     9.6500     7.9080     7.8330    23.3210   -20.6830     2.1810 
  104.2500    68.3610     9.4140     7.7850     7.8980    23.4140   -19.8310     2.1520 
  104.3750    70.9290     8.9550     7.4980     7.8380    23.4040   -18.7960     2.1310 
  104.5000    72.4730     8.3080     7.0650     7.2830    23.5380   -17.5800     2.1330 
  104.6250    77.1570     7.5470     6.5460     6.3500    24.0810   -16.2840     2.1650 
  104.7500    84.6820     6.8170     6.0460     5.4680    24.7680   -14.9760     2.2100 
  104.8750    91.8220     6.2200     5.6230     5.0630    25.1160   -13.6620     2.2500 
  105.0000    96.1760     5.8150     5.3050     4.8600    25.1720   -12.4250     2.2750 
  105.1250   101.5660     5.6360     5.1070     4.6950    25.1510   -11.3140     2.2920 
  105.2500   109.4600     5.6020     4.9940     4.5930    25.1850   -10.3620     2.3130 
  105.3750   114.7770     5.6390     4.9310     4.6240    25.2180    -9.6960     2.3370 
  105.5000   113.7840     5.6690     4.8860     4.8170    25.1270    -9.2610     2.3500 
  105.6250   107.7720     5.6320     4.8400     4.9730    25.1840    -8.9660     2.3280 
  105.7500   101.7400     5.5750     4.8200     4.9110    25.4260    -8.8590     2.2780 
  105.8750    97.6670     5.5950     4.8720     4.5510    25.7380    -8.9890     2.2190 
  106.0000    95.9800     5.7880     5.0360     4.2760    25.8280    -9.2610     2.1760 
  106.1250    95.0720     6.1970     5.3230     4.6300    25.3830    -9.6310     2.1680 
  106.2500    90.4970     6.6630     5.6380     5.5240    24.7310   -10.0550     2.1870 
  106.3750    81.0660     7.0080     5.8670     6.2810    24.2480   -10.4090     2.2200 
  106.5000    72.4980     7.1000     5.9260     6.5670    24.1060   -10.7370     2.2530 
  106.6250    72.4180     6.9180     5.7940     6.2080    24.2720   -11.1180     2.2730 
  106.7500    77.6980     6.6630     5.6080     5.7700    24.5220   -11.5050     2.2790 
  106.8750    80.9120     6.5150     5.4940     5.4490    24.6050   -11.9170     2.2720 
  107.0000    78.2250     6.6070     5.5570     5.7060    24.5100   -12.3920     2.2590 
  107.1250    75.2050     7.0330     5.8910     6.6600    24.2590   -12.9320     2.2480 
  107.2500    76.0750     7.6870     6.4350     7.0960    24.0830   -13.5620     2.2410 
  107.3750    78.9540     8.4370     7.1010     7.5630    23.8920   -14.2750     2.2380 
  107.5000    80.7990     9.1090     7.7480     8.1090    23.7430   -14.9960     2.2360 
  107.6250    80.3170     9.4680     8.1750     8.4900    23.6700   -15.6120     2.2370 
  107.7500    80.2910     9.4840     8.3190     8.4720    23.6290   -16.0300     2.2380 
  107.8750    81.5010     9.2650     8.2160     8.2990    23.6030   -16.1430     2.2320 
  108.0000    83.6550     9.0740     8.0220     8.0760    23.6090   -15.9910     2.2170 
  108.1250    80.7230     9.2940     8.0160     7.9210    23.6150   -15.6070     2.2070 
  108.2500    73.1650     9.9780     8.3520     7.8530    23.6340   -14.9530     2.2310 
  108.3750    66.3690    10.8910     8.9980     8.1180    23.7170   -14.0860     2.3030 
  108.5000    62.3150    11.5370     9.6670     9.8840    23.9400   -13.0580     2.4070 
  108.6250    62.2880    11.2260     9.7070    14.7650    24.2130   -11.8970     2.4870 
  108.7500    69.8130     9.9700     8.8660    17.3190    24.4730   -10.7410     2.4910 
  108.8750    82.2190     8.1460     7.4240    11.0040    24.6960    -9.7070     2.4060 
  109.0000    91.1250     6.3250     5.9380     5.5110    24.9780    -8.8120     2.2620 
  109.1250    92.5340     5.0650     4.8870     3.8570    25.0070    -8.1500     2.1270 
  109.2500    91.8710     4.4570     4.3270     3.6630    24.7950    -7.8240     2.0490 
  109.3750    90.0980     4.4720     4.2470     3.9780    24.6000    -7.8630     2.0380 
  109.5000    84.9500     4.9970     4.6000     4.6910    24.3300    -8.2850     2.0730 
  109.6250    78.7520     5.8720     5.3280     5.6710    24.1310    -9.0270     2.1220 
  109.7500    74.5610     6.7890     6.1790     6.5080    23.9230    -9.9430     2.1580 
  109.8750    71.6600     7.5600     6.9440     7.0030    23.7420   -10.9430     2.1780 
  110.0000    70.4260     8.0950     7.4810     7.0770    23.6070   -11.9570     2.1860 
  110.1250    69.9610     8.3860     7.7390     7.0190    23.5670   -12.9570     2.1900 
  110.2500    70.4980     8.5680     7.8610     7.1920    23.5590   -13.9010     2.1920 
  110.3750    71.6530     8.7290     7.9450     7.3920    23.5580   -14.6820     2.1940 
  110.5000    70.9400     8.9210     8.0440     7.6420    23.5580   -15.2530     2.1930 
  110.6250    68.9970     9.1430     8.1430     8.1320    23.5500   -15.6930     2.1910 
  110.7500    67.7910     9.3420     8.1950     8.5570    23.5330   -16.0500     2.1870 
  110.8750    66.2750     9.4760     8.1760     8.4200    23.5390   -16.3390     2.1810 
  111.0000    64.0150     9.5420     8.0960     8.0300    23.6910   -16.6240     2.1750 
  111.1250    62.2960     9.5470     7.9800     7.7230    23.8500   -16.8510     2.1700 
  111.2500    62.9600     9.4870     7.8510     7.6590    23.9650   -16.9340     2.1640 
  111.3750    65.2380     9.3030     7.7000     7.7010    23.9050   -16.9810     2.1580 
  111.5000    67.8070     8.9470     7.5070     7.7240    23.8110   -17.0520     2.1530 
  111.6250    69.9100     8.4460     7.2630     7.5230    23.8310   -17.1080     2.1540 
  111.7500    70.3350     7.9770     7.0290     7.1870    23.9240   -17.1640     2.1590 
  111.8750    69.1170     7.6880     6.8810     6.9430    24.0300   -17.2250     2.1680 
  112.0000    66.8940     7.6660     6.8760     6.8430    24.0800   -17.2040     2.1740 
  112.1250    64.7760     7.9190     7.0320     6.8900    24.0700   -17.0850     2.1750 
  112.2500    65.2290     8.2770     7.2310     7.1820    24.0310   -16.9960     2.1750 
  112.3750    67.7450     8.5860     7.3480     7.5340    23.9650   -16.8870     2.1770 
  112.5000    71.5140     8.7220     7.2950     7.6470    23.8830   -16.7090     2.1850 
  112.6250    75.6580     8.6130     7.0590     7.1830    23.8300   -16.5480     2.1930 
  112.7500    78.2260     8.3650     6.7640     6.7580    23.8290   -16.3730     2.1960 
  112.8750    76.9870     8.1030     6.5030     6.6170    23.8620   -16.1340     2.1890 
  113.0000    73.3900     7.9420     6.3320     6.7540    23.8360   -15.8850     2.1710 
  113.1250    70.1930     7.9880     6.3200     7.0500    23.7980   -15.5290     2.1520 
