~V
VERS. 2.00: Ver 2.00
~W
STRT.M 59.0000:
STOP.M 291.0000:
STEP.M 0.1250:
NULL. -999.2500:
UWI. F11077:
~C
DEPT.M :
DEN.GM/CC :
GR.API :
RML.OHMM :
RI. :
RXO.OHMM :
CALI.CM :
SP.MV :
~A
# ...
  250.2500     2.2290    68.4560   108.7380   114.0200   108.7570    25.7940   -12.7520 
  250.3750     2.2190    66.6640   106.1970   111.0570    99.6040    25.8230   -12.7230 
  250.5000     2.2160    66.7760   106.6260   110.9710    99.9800    25.8370   -12.7380 
  250.6250     2.2210    67.7480   110.1800   114.1600   107.1950    25.8350   -12.7910 
  250.7500     2.2310    67.6850   116.7310   120.6270   110.3660    25.8260   -12.8030 
  250.8750     2.2380    66.4790   125.7590   129.8950   111.3630    25.8200   -12.7430 
  251.0000     2.2420    64.9560   135.9770   140.6520   128.7660    25.8180   -12.6130 
  251.1250     2.2480    63.7590   145.9830   151.4690   165.5440    25.8120   -12.4460 
  251.2500     2.2580    63.4720   154.1870   160.7070   199.5460    25.7920   -12.2480 
  251.3750     2.2700    63.2850   159.2180   166.9390   205.8430    25.7560   -12.0240 
  251.5000     2.2750    62.1470   159.8300   168.8750   191.2160    25.7040   -11.7650 
  251.6250     2.2690    61.0860   154.3930   164.8140   173.4110    25.6570   -11.4830 
  251.7500     2.2530    60.6700   142.1530   153.6370   174.3750    25.6540   -11.2480 
  251.8750     2.2360    59.3870   125.2580   136.9610   180.4860    25.6870   -11.0690 
  252.0000     2.2260    58.2400   108.3600   119.3100   150.5920    25.7230   -10.9390 
  252.1250     2.2260    61.1400    94.9710   104.5430    98.8760    25.7280   -10.8200 
  252.2500     2.2340    67.1420    87.4800    95.6380    70.7190    25.6730   -10.6920 
  252.3750     2.2440    71.3840    86.5620    93.6940    70.8650    25.5830   -10.5500 
  252.5000     2.2510    71.5120    91.1410    97.7450    88.6580    25.5240   -10.3790 
  252.6250     2.2530    69.2930   100.1970   106.7590   110.3820    25.5080   -10.2000 
  252.7500     2.2510    67.0520   111.8670   118.7930   117.7740    25.5200   -10.0220 
  252.8750     2.2450    65.8740   123.2570   130.7770   115.2020    25.5390    -9.8290 
  253.0000     2.2350    65.5820   131.6200   139.7600   111.3840    25.5520    -9.6320 
  253.1250     2.2230    65.5420   135.8500   144.5000   108.6470    25.5590    -9.4290 
  253.2500     2.2150    67.1000   136.1180   145.0950   103.3650    25.5640    -9.2210 
  253.3750     2.2160    70.3080   133.2570   142.4380    96.4520    25.5600    -9.0260 
  253.5000     2.2280    71.3280   128.0030   137.4030    90.1590    25.5370    -8.7970 
  253.6250     2.2450    69.0260   120.3210   129.9640    88.9740    25.5000    -8.5360 
  253.7500     2.2610    66.6120   110.5160   120.2680    88.6000    25.4760    -8.2490 
  253.8750     2.2730    66.2360    99.8600   109.4240    80.7950    25.4910    -7.9540 
  254.0000     2.2800    65.9230    90.0360    99.1600    65.1890    25.5150    -7.7000 
  254.1250     2.2820    65.5360    81.9300    90.5060    47.0360    25.4660    -7.5060 
  254.2500     2.2790    67.2950    75.6550    83.7520    37.2100    25.3710    -7.3460 
  254.3750     2.2710    70.2170    70.4780    78.2750    41.6870    25.3520    -7.1930 
  254.5000     2.2620    70.4460    65.2300    72.8820    58.7000    25.4820    -7.0810 
  254.6250     2.2550    68.0550    59.3910    66.9550    75.8190    25.7740    -6.9980 
  254.7500     2.2520    67.0650    53.3200    60.7450    73.9830    26.0920    -6.9290 
  254.8750     2.2530    69.3100    48.0420    55.2380    56.7350    26.2240    -6.8850 
  255.0000     2.2540    72.3780    44.4770    51.4000    43.7710    26.1850    -6.8030 
  255.1250     2.2480    73.8770    43.0310    49.7120    38.3610    26.0750    -6.6780 
  255.2500     2.2410    72.7230    43.6800    50.2580    43.3800    26.0040    -6.5460 
  255.3750     2.2490    69.6720    45.8630    52.5570    55.1360    26.0580    -6.4130 
  255.5000     2.2940    67.0520    48.4260    55.4330    66.8980    26.1560    -6.2770 
  255.6250     2.3840    66.4960    50.0810    57.4650    74.2490    26.1200    -6.1570 
  255.7500     2.4960    67.1910    49.3360    56.8800    77.9670    25.9390    -6.0590 
  255.8750     2.5830    66.6650    45.7000    52.9900    85.1420    25.7990    -5.9740 
  256.0000     2.6080    65.1330    40.4720    47.1990    89.3600    25.7450    -5.9220 
  256.1250     2.5620    65.7530    35.3080    41.3470    72.0660    25.7140    -5.9320 
  256.2500     2.4740    68.5570    31.7920    37.1290    43.7260    25.6990    -5.9480 
  256.3750     2.3860    69.2920    30.7450    35.3960    30.4860    25.7050    -5.9700 
  256.5000     2.3210    67.2830    31.9050    35.9360    32.3220    25.6740    -6.0160 
  256.6250     2.2840    66.8810    34.6920    38.2870    42.8330    25.6080    -6.0380 
  256.7500     2.2670    69.0760    38.1030    41.5670    51.6130    25.5870    -6.0440 
  256.8750     2.2610    70.2190    40.9420    44.5390    52.5540    25.6410    -6.0370 
  257.0000     2.2590    69.3670    42.5260    46.2830    49.9760    25.7140    -6.0260 
  257.1250     2.2570    69.3490    43.0770    46.8420    47.2920    25.7470    -6.0040 
  257.2500     2.2530    70.9050    43.4780    47.0380    46.1010    25.7450    -5.9950 
  257.3750     2.2490    72.5240    44.5750    47.7700    47.3830    25.8130    -6.0020 
  257.5000     2.2440    73.2980    46.6360    49.4120    51.7190    26.2210    -6.0060 
  257.6250     2.2420    72.6530    49.5500    51.9080    57.6620    27.0730    -6.0430 
  257.7500     2.2420    70.9520    52.9940    54.9590    61.9120    27.9360    -6.1030 
  257.8750     2.2410    69.1460    56.4840    58.0780    63.2830    27.8980    -6.1910 
  258.0000     2.2330    68.0370    59.4990    60.7460    63.3360    26.8950    -6.3080 
  258.1250     2.2150    67.7900    61.6680    62.6100    63.0750    26.3330    -6.4380 
  258.2500     2.1910    67.7050    62.7810    63.4810    61.8740    26.7480    -6.5610 
  258.3750     2.1660    67.1740    62.9690    63.4850    60.4100    28.1600    -6.6860 
  258.5000     2.1460    66.9050    62.6860    63.0390    59.1550    28.8880    -6.8310 
  258.6250     2.1360    67.5460    62.2560    62.4380    57.3920    27.9140    -6.9700 
  258.7500     2.1360    67.5390    61.8700    61.8660    56.1460    26.5900    -7.0830 
  258.8750     2.1430    65.9430    61.5240    61.3430    57.7040    25.9930    -7.1440 
  259.0000     2.1550    64.6000    61.0760    60.7640    60.9150    25.9850    -7.1360 
  259.1250     2.1660    65.4530    60.4210    60.0440    62.5400    25.9720    -7.1050 
  259.2500     2.1760    67.7120    59.5850    59.2060    60.8660    25.9390    -7.0810 
  259.3750     2.1830    69.4510    58.7610    58.4130    57.7470    25.9170    -7.0610 
  259.5000     2.1860    69.7900    58.2100    57.8920    56.0010    25.9090    -7.0490 
  259.6250     2.1880    69.1520    58.1140    57.8210    55.4980    25.8950    -7.0520 
  259.7500     2.1940    67.7930    58.4840    58.2530    54.6990    25.8600    -7.1140 
  259.8750     2.2060    65.7710    59.0560    58.9800    52.6540    25.7830    -7.2370 
  260.0000     2.2210    64.6490    59.4070    59.5950    49.5970    25.6710    -7.3890 
  260.1250     2.2350    64.6260    59.2420    59.7890    47.9940    25.5820    -7.5300 
  260.2500     2.2390    65.1950    58.3850    59.3340    48.1280    25.5730    -7.6220 
  260.3750     2.2300    66.3600    56.9040    58.2320    45.8910    25.6160    -7.6180 
  260.5000     2.2100    67.6410    55.1800    56.8130    40.1650    25.6380    -7.5140 
  260.6250     2.1880    68.3800    53.5780    55.4320    34.0970    25.5860    -7.3620 
  260.7500     2.1720    69.0710    52.3130    54.3350    30.8670    25.4390    -7.1300 
  260.8750     2.1640    70.6200    51.2970    53.4830    28.5910    25.2410    -6.8260 
  261.0000     2.1620    71.5990    50.2000    52.5840    26.6870    25.0480    -6.4990 
  261.1250     2.1620    71.0890    48.7470    51.3630    25.8930    24.9100    -6.1460 
  261.2500     2.1610    71.2730    46.9150    49.7530    25.4090    24.7760    -5.8130 
  261.3750     2.1620    73.3820    45.0490    48.0340    24.4470    24.6160    -5.5660 
