~V
VERS. 2.00: Ver 2.00
~W
STRT.M 7.0000:
STOP.M 259.0000:
STEP.M 0.1250:
NULL. -999.2500:
UWI. F11018:
~C
DEPT.M :
DEN.GM/CC :
SP.MV :
GR.API :
RML.OHMM :
RI. :
RXO.OHMM :
CALI.CM :
~A
# ...
  232.0000     2.3820   -21.3200    79.5500    25.5530    21.9050    19.9270    23.2180 
  232.1250     2.3710   -21.2130    73.1640    27.1960    23.5610    21.1200    23.2190 
  232.2500     2.3570   -21.0640    71.2010    28.4550    24.9260    20.7560    23.1710 
  232.3750     2.3460   -20.8610    70.5630    29.5060    26.0770    20.5720    23.1240 
  232.5000     2.3380   -20.6670    70.3370    30.4310    27.0720    21.2780    23.1230 
  232.6250     2.3300   -20.4490    70.1710    31.1910    27.8970    22.6980    23.1470 
  232.7500     2.3180   -20.1460    68.8120    31.6700    28.4840    23.2670    23.1800 
  232.8750     2.3080   -19.7980    65.9190    31.9050    28.8870    23.2880    23.2160 
  233.0000     2.3070   -19.4000    63.7670    31.9670    29.1580    23.1240    23.2330 
  233.1250     2.3180   -18.9520    63.0300    31.9670    29.3620    23.0970    23.1960 
  233.2500     2.3370   -18.4650    63.7150    31.9870    29.5620    23.2300    23.1300 
  233.3750     2.3540   -17.9690    66.0190    31.9460    29.7370    23.4320    23.1500 
  233.5000     2.3710   -17.4500    66.6890    31.5870    29.7270    23.3300    23.2030 
  233.6250     2.3990   -16.9070    65.3870    30.5490    29.2340    22.8780    23.1830 
  233.7500     2.4440   -16.4120    66.4490    28.3810    27.7690    22.5710    23.0770 
  233.8750     2.4870   -16.0090    71.0000    26.5830    25.4300    22.1210    23.0330 
  234.0000     2.5120   -15.7250    76.4080    24.3210    22.6270    19.9310    23.0520 
  234.1250     2.5140   -15.5390    79.3550    21.1590    19.9660    16.1820    23.0310 
  234.2500     2.4930   -15.4830    81.9910    19.1270    18.0890    14.0350    23.0300 
  234.3750     2.4540   -15.5290    84.7140    18.2330    17.1180    13.6850    23.0830 
  234.5000     2.4100   -15.6520    83.8680    18.4140    17.0850    14.9070    23.1390 
  234.6250     2.3710   -15.8310    80.3450    19.5040    17.9250    16.6890    23.1400 
  234.7500     2.3480   -16.0590    77.2910    21.2880    19.5550    18.6950    23.1250 
  234.8750     2.3380   -16.3030    75.2430    23.2540    21.5340    19.0160    23.1270 
  235.0000     2.3360   -16.5240    72.7610    25.0250    23.4940    19.4340    23.1180 
  235.1250     2.3400   -16.7390    70.9790    26.3080    25.0830    20.9640    23.1050 
  235.2500     2.3460   -16.9600    74.8600    26.8550    25.9580    21.9360    23.0950 
  235.3750     2.3490   -17.1410    79.9390    26.8150    26.1830    22.0700    23.0530 
  235.5000     2.3470   -17.2680    81.5180    26.3630    25.8840    21.2820    22.9870 
  235.6250     2.3430   -17.4030    77.5120    25.7980    25.3180    20.0420    22.9150 
  235.7500     2.3420   -17.5100    71.7920    25.5660    24.8940    19.4540    22.9340 
  235.8750     2.3480   -17.5520    68.6730    25.8940    24.9190    19.2740    22.9070 
  236.0000     2.3580   -17.5580    66.3230    26.7910    25.4850    19.7660    22.7330 
  236.1250     2.3650   -17.5310    61.9920    28.0610    26.4810    21.3920    22.5090 
  236.2500     2.3580   -17.4280    57.4820    29.3710    27.6280    22.9820    22.2830 
  236.3750     2.3380   -17.3070    58.0800    30.4850    28.6370    23.6420    22.2300 
  236.5000     2.3130   -17.2050    63.3020    31.4630    29.4940    23.6740    22.3830 
  236.6250     2.2970   -17.1210    69.5240    32.6040    30.4200    23.0670    22.6210 
  236.7500     2.3000   -17.0470    71.2710    34.4100    31.9070    23.6620    22.8610 
  236.8750     2.3120   -16.9800    68.7570    36.9520    34.1470    26.0530    22.9400 
  237.0000     2.3260   -16.9080    66.3000    39.9360    36.9830    29.4290    22.9100 
  237.1250     2.3380   -16.8450    64.9680    42.6380    39.8000    31.0140    22.8390 
  237.2500     2.3470   -16.8170    63.3540    43.8250    41.4570    29.4990    22.7570 
  237.3750     2.3490   -16.7990    61.1660    43.2650    41.5270    26.7710    22.6300 
  237.5000     2.3420   -16.7940    59.4090    41.5050    40.2730    23.7930    22.4110 
  237.6250     2.3320   -16.7830    59.9070    39.6220    38.5380    21.5110    22.2270 
  237.7500     2.3240   -16.7810    61.9950    38.8100    37.4370    20.3700    22.1660 
  237.8750     2.3190   -16.8040    62.4700    39.3640    37.4610    20.3510    22.1560 
  238.0000     2.3160   -16.8680    60.0410    41.2560    38.7180    21.4270    22.0550 
  238.1250     2.3130   -16.9470    55.9560    44.2020    41.0680    22.8580    21.7160 
  238.2500     2.3170   -17.0330    56.7920    47.6320    44.1020    26.0740    21.3050 
  238.3750     2.3240   -17.1600    61.6410    50.6070    46.9160    30.9450    21.3170 
  238.5000     2.3260   -17.3000    66.4940    52.5250    48.8610    36.0860    21.8460 
  238.6250     2.3170   -17.4280    68.6090    53.3330    49.7340    39.8600    22.5630 
  238.7500     2.3020   -17.5330    68.8020    53.5760    49.8380    42.5910    23.1880 
  238.8750     2.2880   -17.6470    69.9650    54.1570    50.0030    45.6160    23.6990 
  239.0000     2.2770   -17.7250    69.7150    55.4980    50.7450    50.7030    24.0680 
  239.1250     2.2690   -17.7380    65.9090    57.5400    52.1960    61.0530    24.2700 
  239.2500     2.2650   -17.7350    63.8840    59.6270    53.9950    69.4910    24.3840 
  239.3750     2.2610   -17.6770    64.3660    60.7900    55.3230    69.0220    24.4960 
  239.5000     2.2540   -17.5540    63.3740    60.3580    55.5030    64.7130    24.6220 
  239.6250     2.2360   -17.4080    60.1890    58.2840    54.2470    62.7350    24.8010 
  239.7500     2.2090   -17.2640    63.2050    55.3590    51.9020    63.8660    24.9060 
  239.8750     2.1900   -17.0560    72.9030    52.9720    49.6700    60.7620    24.8220 
  240.0000     2.1840   -16.7940    82.9370    51.8710    48.3960    54.6880    24.6550 
  240.1250     2.1970   -16.5220    89.2820    52.1000    48.4400    48.1630    24.4820 
  240.2500     2.2440   -16.2030    88.4650    52.3820    49.1300    44.1330    24.1680 
  240.3750     2.3210   -15.8440    80.5690    50.1750    48.2390    44.7640    23.7560 
  240.5000     2.4050   -15.4760    69.6420    43.8120    43.7760    49.9510    23.4870 
  240.6250     2.4590   -15.0920    62.8930    34.2670    35.6970    57.2100    23.4210 
  240.7500     2.4550   -14.6800    64.4200    24.8630    26.5410    55.4170    23.4950 
  240.8750     2.4190   -14.2530    67.3260    17.7260    19.0480    37.6530    23.5830 
  241.0000     2.3760   -13.8120    68.1980    13.0000    13.8540    21.0520    23.6390 
  241.1250     2.3430   -13.3460    66.6700    10.1480    10.5930    12.6280    23.6530 
  241.2500     2.3250   -12.9150    65.1960     8.7290     8.8180     8.7420    23.6790 
  241.3750     2.3160   -12.5240    64.7160     8.0720     7.8490     7.1690    23.7520 
  241.5000     2.3130   -12.1520    63.8320     7.8840     7.4240     6.5690    23.8620 
  241.6250     2.3200   -11.8070    62.1080     7.9320     7.3250     6.3440    23.9970 
  241.7500     2.3350   -11.4830    60.4530     8.0410     7.3690     6.1160    24.0890 
  241.8750     2.3540   -11.2540    60.7490     8.1220     7.4200     5.8400    24.1220 
  242.0000     2.3740   -11.0930    62.9580     8.1860     7.4640     5.8280    24.1270 
  242.1250     2.3940   -11.0120    65.9320     8.3050     7.5460     6.0660    24.1270 
  242.2500     2.4100   -10.9420    66.2070     8.5990     7.7590     6.3790    24.1130 
  242.3750     2.4220   -10.8650    63.2330     9.1010     8.1260     6.8480    24.0640 
  242.5000     2.4310   -10.8160    61.0530     9.4100     8.6200     7.8570    23.9970 
  242.6250     2.4350   -10.7610    61.9190     9.7520     9.1450     9.6970    23.9850 
  242.7500     2.4350   -10.6950    61.9540    10.0370     9.5160    11.6520    24.0460 
  242.8750     2.4310   -10.5960    61.2070    10.2140     9.6210    11.5330    24.0610 
  243.0000     2.4260   -10.4920    61.3850    10.0580     9.4440    10.0690    24.0490 
  243.1250     2.4240   -10.3510    62.3840     9.7000     9.0740     8.7770    24.0160 
