~V
VERS. 2.00: Ver 2.00
~W
STRT.M 59.0000:
STOP.M 291.0000:
STEP.M 0.1250:
NULL. -999.2500:
UWI. F11077:
~C
DEPT.M :
DEN.GM/CC :
GR.API :
RML.OHMM :
RI. :
RXO.OHMM :
CALI.CM :
SP.MV :
~A
# ...
  115.2500     2.2420    73.8740     9.4490     7.8680     8.6490    25.7130   -11.9050 
  115.3750     2.2250    73.6070     9.3960     7.7830     8.5370    25.6200   -11.7620 
  115.5000     2.2150    73.8770     9.3950     7.7650     8.4930    25.5520   -11.4740 
  115.6250     2.2170    75.6510     9.4350     7.7970     8.5870    25.5280   -11.0680 
  115.7500     2.2290    76.2190     9.5170     7.8600     8.7820    25.5240   -10.5720 
  115.8750     2.2490    74.6380     9.6230     7.9340     8.9040    25.5250   -10.0540 
  116.0000     2.2700    73.9610     9.7210     7.9960     8.6860    25.5260    -9.5970 
  116.1250     2.2840    75.9000     9.7820     8.0280     8.4150    25.5250    -9.1950 
  116.2500     2.2880    78.4780     9.7820     8.0170     8.4510    25.5240    -8.8520 
  116.3750     2.2820    79.3140     9.7210     7.9620     8.5720    25.5230    -8.6240 
  116.5000     2.2710    79.4460     9.6280     7.8810     8.4850    25.5240    -8.5220 
  116.6250     2.2580    81.2850     9.5300     7.7940     8.2240    25.5250    -8.5240 
  116.7500     2.2480    84.0060     9.4560     7.7250     8.0290    25.5250    -8.6360 
  116.8750     2.2410    84.9860     9.4220     7.6920     8.0830    25.5220    -8.8190 
  117.0000     2.2350    84.6430     9.4290     7.7030     8.3310    25.5210    -8.9880 
  117.1250     2.2310    84.2090     9.4670     7.7530     8.6520    25.5220    -9.1540 
  117.2500     2.2240    83.7500     9.5160     7.8300     8.9220    25.5230    -9.3320 
  117.3750     2.2170    82.9610     9.5530     7.9110     9.0360    25.5260    -9.5150 
  117.5000     2.2120    81.3610     9.5760     7.9830     9.0160    25.5380    -9.6940 
  117.6250     2.2120    79.1840     9.6000     8.0500     8.9290    25.5710    -9.8510 
  117.7500     2.2170    78.1530     9.6490     8.1260     8.8740    25.6270    -9.9490 
  117.8750     2.2260    80.0770     9.7180     8.2110     8.9470    25.6830    -9.9430 
  118.0000     2.2380    82.5000     9.7400     8.2620     9.1200    25.7230    -9.8000 
  118.1250     2.2510    81.8490     9.6250     8.2110     9.2980    25.7550    -9.5100 
  118.2500     2.2690    79.5190     9.3030     7.9940     9.3670    25.7900    -9.1410 
  118.3750     2.2920    80.5200     8.8010     7.6170     9.0000    25.8280    -8.7760 
  118.5000     2.3140    86.3250     8.2490     7.1730     8.0580    25.8730    -8.4720 
  118.6250     2.3260    93.5400     7.7690     6.7600     7.1500    25.8930    -8.2430 
  118.7500     2.3240    97.1100     7.4550     6.4630     6.8790    25.8360    -8.0630 
  118.8750     2.3100    95.1020     7.3290     6.3150     7.0720    25.7080    -7.9940 
  119.0000     2.2920    91.0530     7.3330     6.2830     7.2540    25.5890    -8.1470 
  119.1250     2.2760    88.7100     7.4190     6.3330     7.2140    25.5040    -8.5050 
  119.2500     2.2660    87.8510     7.5600     6.4340     7.1260    25.4440    -8.9640 
  119.3750     2.2590    85.6500     7.7570     6.5750     7.0920    25.4080    -9.4240 
  119.5000     2.2530    82.9260     8.0120     6.7480     7.1370    25.3970    -9.7860 
  119.6250     2.2480    83.1210     8.3060     6.9370     7.3560    25.3950   -10.0210 
  119.7500     2.2490    85.7840     8.5480     7.0880     7.8850    25.3950   -10.1880 
  119.8750     2.2560    86.6810     8.6020     7.1170     8.5210    25.3950   -10.2670 
  120.0000     2.2680    85.3030     8.3840     6.9690     8.6870    25.3950   -10.1730 
  120.1250     2.2810    84.2260     7.9440     6.6750     8.4140    25.3950    -9.9380 
  120.2500     2.2930    83.5350     7.5500     6.3990     8.1920    25.3950    -9.6270 
  120.3750     2.3070    82.1590     7.6250     6.4010     8.1720    25.3980    -9.3020 
  120.5000     2.3290    81.2220     8.5210     6.9130     8.5560    25.4210    -9.0640 
  120.6250     2.3650    81.2640    10.4340     8.1230    10.6720    25.5120    -8.9980 
  120.7500     2.4080    80.1700    13.2370    10.1090    17.8090    25.6940    -9.1420 
  120.8750     2.4410    77.7860    16.1500    12.4930    28.6490    25.8690    -9.4800 
  121.0000     2.4470    77.9100    17.8480    14.2440    31.9190    25.9120    -9.9610 
  121.1250     2.4190    81.1060    17.4510    14.4460    23.8730    25.8220   -10.5450 
  121.2500     2.3630    82.9690    15.2430    13.0900    14.6030    25.6970   -11.1840 
  121.3750     2.3050    81.6960    12.5250    11.1230    10.6220    25.6140   -11.8080 
  121.5000     2.2600    80.3740    10.4350     9.4720     9.3310    25.5880   -12.3560 
  121.6250     2.2380    79.7280     9.2390     8.4000     8.8710    25.5890   -12.7680 
  121.7500     2.2370    78.1020     8.8270     7.9050     8.8290    25.5910   -12.9920 
  121.8750     2.2470    75.7150     8.9280     7.8490     9.0710    25.5930   -13.0740 
  122.0000     2.2590    75.0260     9.2450     8.0270     9.1430    25.6010   -13.0990 
  122.1250     2.2620    77.0830     9.6290     8.3090     9.3580    25.6240   -13.0680 
  122.2500     2.2540    80.2640     9.9610     8.5830    10.4350    25.6610   -12.9940 
  122.3750     2.2390    81.9720    10.1450     8.7620    12.3210    25.6740   -12.9090 
  122.5000     2.2210    80.7590    10.1480     8.8010    12.5960    25.6030   -12.8220 
  122.6250     2.2050    77.8630     9.9900     8.7030    10.5400    25.4520   -12.7400 
  122.7500     2.1960    74.6970     9.7480     8.5150     8.8040    25.3130   -12.6820 
  122.8750     2.1910    71.1190     9.5170     8.3070     8.2310    25.2340   -12.6540 
  123.0000     2.1920    68.5000     9.3600     8.1400     8.1870    25.2030   -12.6750 
  123.1250     2.1980    67.7620     9.2910     8.0390     8.2280    25.1930   -12.7520 
  123.2500     2.2070    68.0480     9.3030     8.0070     8.4330    25.2320   -12.9210 
  123.3750     2.2190    67.9870     9.3700     8.0270     8.7430    25.3850   -13.1790 
  123.5000     2.2310    67.5790     9.4610     8.0710     8.9670    25.6360   -13.4910 
  123.6250     2.2450    67.7510     9.5490     8.1210     9.1510    25.8750   -13.8590 
  123.7500     2.2560    68.9640     9.5980     8.1550     9.4640    26.0370   -14.2470 
  123.8750     2.2580    71.3170     9.5830     8.1530     9.7510    26.1480   -14.5920 
  124.0000     2.2460    73.9450     9.5120     8.1130     9.7630    26.3150   -14.8720 
  124.1250     2.2230    74.8150     9.4120     8.0400     9.5010    26.5360   -15.0680 
  124.2500     2.1990    72.4480     9.3170     7.9510     9.2230    26.6330   -15.1440 
  124.3750     2.1840    68.0960     9.2520     7.8630     9.1230    26.4770   -15.0850 
  124.5000     2.1790    66.0710     9.2160     7.7900     9.1770    26.2070   -14.9020 
  124.6250     2.1820    67.4270     9.1930     7.7350     9.2380    26.0370   -14.6310 
  124.7500     2.1870    68.3920     9.1730     7.6970     9.2110    25.9620   -14.2970 
  124.8750     2.1930    68.2540     9.1570     7.6740     9.1360    25.8300   -13.9560 
  125.0000     2.2030    70.7300     9.1580     7.6650     9.0750    25.6290   -13.6540 
  125.1250     2.2190    75.0870     9.1920     7.6810     9.1240    25.4520   -13.4120 
  125.2500     2.2380    76.2050     9.2780     7.7360     9.2630    25.3110   -13.2480 
  125.3750     2.2550    73.1700     9.4150     7.8380     9.4590    25.1900   -13.1570 
  125.5000     2.2680    71.1230     9.5820     7.9710     9.6520    25.0900   -13.1180 
  125.6250     2.2720    72.5110     9.7550     8.1140     9.8080    25.0020   -13.1010 
  125.7500     2.2710    74.1470     9.9000     8.2380     9.8440    24.9370   -13.0840 
  125.8750     2.2680    72.7030     9.9810     8.3090     9.7630    24.8970   -13.0000 
  126.0000     2.2660    69.6380     9.9750     8.3120     9.6160    24.8720   -12.7890 
  126.1250     2.2660    67.5630     9.8710     8.2360     9.4320    24.8810   -12.4680 
  126.2500     2.2640    67.8710     9.6650     8.0780     9.1380    24.9610   -12.0380 
  126.3750     2.2580    69.4420     9.3780     7.8490     8.6850    25.1090   -11.5550 
