~V
VERS. 2.00: Ver 2.00
~W
STRT.M 57.0000:
STOP.M 280.0000:
STEP.M 0.1250:
NULL. -999.2500:
UWI. F11041:
~C
DEPT.M :
SP.MV :
GR.API :
RML.OHMM :
RI. :
RXO.OHMM :
CALI.CM :
DEN.GM/CC :
~A
# ...
  203.2500    -7.0770    93.7300    12.2270     8.5200    10.3090    24.9890     2.4450 
  203.3750    -7.3660    91.8310    12.8200     8.9010    11.4840    24.9900     2.4530 
  203.5000    -7.7230    91.5270    12.9910     9.0930    11.8880    24.9950     2.4590 
  203.6250    -7.9980    92.0560    12.6320     8.9760    10.4010    25.0300     2.4610 
  203.7500    -8.1470    91.4640    12.0760     8.6960     8.8110    25.0520     2.4660 
  203.8750    -8.2100    89.3790    11.6190     8.4170     8.5120    25.0570     2.4760 
  204.0000    -8.2660    86.0840    11.4480     8.2690     8.8720    25.0790     2.4850 
  204.1250    -8.3850    81.9910    11.6750     8.3500     9.2600    25.0530     2.4870 
  204.2500    -8.5010    79.7820    12.2300     8.6410     9.4660    25.0020     2.4890 
  204.3750    -8.4800    79.6590    13.1300     9.1500     9.8380    25.0080     2.5020 
  204.5000    -8.2780    78.5410    14.4460     9.9230    10.5240    25.0540     2.5260 
  204.6250    -8.0040    74.8690    16.4240    11.1290    11.3320    25.0300     2.5580 
  204.7500    -7.7350    72.8020    19.0700    12.8130    12.5240    25.0050     2.5920 
  204.8750    -7.4390    74.2710    22.1260    14.9070    13.7020    24.9600     2.6270 
  205.0000    -7.0390    76.1420    24.7270    16.9360    15.2830    24.8830     2.6570 
  205.1250    -6.4480    74.9670    24.9460    17.5770    16.7870    24.7940     2.6720 
  205.2500    -5.7390    73.9960    22.2420    16.2020    17.5940    24.6920     2.6650 
  205.3750    -5.0150    75.3290    17.5750    13.3180    16.2210    24.5200     2.6350 
  205.5000    -4.3720    76.0100    12.7970    10.1270    12.2110    24.3150     2.5750 
  205.6250    -3.8020    71.8630     9.4860     7.6860     7.7650    24.0210     2.4760 
  205.7500    -3.2640    66.8450     7.6310     6.1240     6.0800    23.5810     2.3760 
  205.8750    -2.7620    64.9400     6.8880     5.3130     5.7540    23.0320     2.3150 
  206.0000    -2.3080    66.9790     6.8510     5.0570     5.8910    22.5420     2.3030 
  206.1250    -1.9650    70.6730     7.1620     5.1810     5.9970    22.6160     2.3130 
  206.2500    -1.7800    72.6110     7.4590     5.4220     5.8860    23.4710     2.3040 
  206.3750    -1.7510    72.2980     7.6120     5.6510     5.7450    24.4810     2.2810 
  206.5000    -1.7590    71.1330     7.6370     5.8140     5.7740    25.0050     2.2730 
  206.6250    -1.7100    72.8530     7.6230     5.9100     6.1160    24.9650     2.2970 
  206.7500    -1.6640    76.8450     7.6030     5.9580     6.6070    24.8060     2.3340 
  206.8750    -1.6550    80.7570     7.5230     5.9500     6.9680    24.6900     2.3630 
  207.0000    -1.7160    82.6600     7.3550     5.8850     7.1510    24.6530     2.3780 
  207.1250    -1.8590    82.6450     7.1480     5.7810     6.9110    24.6270     2.3880 
  207.2500    -1.9720    84.0100     7.0070     5.6900     6.7490    24.5860     2.3990 
  207.3750    -1.9660    87.5660     6.9890     5.6470     6.8200    24.5840     2.4070 
  207.5000    -1.8560    90.2630     7.1040     5.6760     6.9780    24.6410     2.4110 
  207.6250    -1.7260    88.0680     7.3560     5.7970     7.2500    24.6650     2.4100 
  207.7500    -1.5540    84.0440     7.7020     5.9890     7.5010    24.6860     2.4070 
  207.8750    -1.3310    82.6140     8.1160     6.2360     7.7280    24.7260     2.4040 
  208.0000    -1.0250    84.7150     8.5560     6.5170     7.9510    24.7860     2.4010 
  208.1250    -0.5690    85.9630     8.9440     6.8100     8.2080    24.7680     2.3990 
  208.2500    -0.0150    83.4030     9.2460     7.0910     8.4140    24.7370     2.3970 
  208.3750     0.5210    79.8690     9.4840     7.3500     8.5030    24.7390     2.3900 
  208.5000     0.9220    78.3570     9.7260     7.5930     8.6250    24.7260     2.3810 
  208.6250     1.1950    78.0350    10.0980     7.8720     9.0430    24.6650     2.3740 
  208.7500     1.4230    77.5770    10.6700     8.2530     9.3400    24.6160     2.3690 
  208.8750     1.6500    76.9100    11.4840     8.7950     9.7100    24.5870     2.3660 
  209.0000     1.8680    76.2360    12.5580     9.5430    10.2450    24.5110     2.3630 
  209.1250     1.9990    75.0050    13.9450    10.5660    11.4020    24.3950     2.3640 
  209.2500     1.9900    75.0370    15.6020    11.8350    12.3920    24.3130     2.3680 
  209.3750     1.8760    75.0880    17.5520    13.3650    13.1810    24.2500     2.3740 
  209.5000     1.7710    73.4610    19.8420    15.1740    13.6770    24.2080     2.3800 
  209.6250     1.7400    70.8630    22.4320    17.2440    19.0640    24.1930     2.3860 
  209.7500     1.7310    68.5560    24.8440    19.2500    25.3550    24.1810     2.3870 
  209.8750     1.6950    67.0350    26.4670    20.7620    29.6100    24.1610     2.3800 
  210.0000     1.5940    69.0630    26.8850    21.4480    33.7640    24.1560     2.3680 
  210.1250     1.4190    74.5330    26.2420    21.3200    27.4350    24.1500     2.3610 
  210.2500     1.2650    76.6140    25.7350    21.1380    25.6330    24.0540     2.3600 
  210.3750     1.2070    74.0360    26.5320    21.6520    28.2160    23.8910     2.3550 
  210.5000     1.2100    71.9560    29.5810    23.5610    40.9780    23.8860     2.3360 
  210.6250     1.1780    71.4020    35.9220    27.7770    44.5900    24.3000     2.3040 
  210.7500     1.0850    69.1900    44.9620    34.1120    42.2550    24.7850     2.2720 
  210.8750     0.9460    65.2680    55.4730    41.8750    37.9270    25.0440     2.2480 
  211.0000     0.8010    61.5130    64.8600    49.3220    35.5020    25.0950     2.2330 
  211.1250     0.7200    59.7550    69.3020    53.7330    46.4170    25.0380     2.2310 
  211.2500     0.6850    60.1340    69.2680    54.9550    51.7230    24.9950     2.2370 
  211.3750     0.6550    62.0070    67.0790    54.1470    52.8410    24.9740     2.2470 
  211.5000     0.5630    63.7300    64.7790    52.6730    50.9040    24.9500     2.2530 
  211.6250     0.4110    66.0300    63.4270    51.5560    54.6330    24.9060     2.2500 
  211.7500     0.2490    67.3070    63.2950    51.3770    59.6200    24.8290     2.2440 
  211.8750     0.0970    65.9530    65.0820    52.7570    59.7920    24.7940     2.2360 
  212.0000    -0.0100    63.7100    70.1860    56.7100    66.9410    24.8010     2.2260 
  212.1250    -0.0690    63.8970    82.3160    66.3270    85.6270    24.7950     2.2140 
  212.2500    -0.1660    64.5370   104.8920    84.9940   108.7850    24.7830     2.2010 
  212.3750    -0.3760    62.4930   144.3330   117.8390   134.6820    24.8020     2.1880 
  212.5000    -0.6200    58.0410   209.6950   168.8160   157.8290    24.8260     2.1780 
  212.6250    -0.7880    54.4030   306.2760   233.7930   174.0710    24.8570     2.1710 
  212.7500    -0.8730    54.6690   378.7970   282.5810   185.7640    24.9100     2.1660 
  212.8750    -0.8950    58.3780   358.3470   284.1780   183.1640    24.9560     2.1650 
  213.0000    -0.9130    61.5300   271.5080   239.3090   175.5150    24.9640     2.1680 
  213.1250    -0.9800    60.7900   194.2800   181.0320   162.0130    24.9660     2.1760 
  213.2500    -1.0740    58.3160   142.8150   134.9140   158.4590    24.9730     2.1860 
  213.3750    -1.1370    56.9390   109.7360   103.3100   144.6610    24.9660     2.1960 
  213.5000    -1.1440    58.3320    88.1760    82.6060   115.0060    24.9590     2.2050 
  213.6250    -1.1050    62.1000    74.9750    70.1260    94.7820    24.9720     2.2140 
  213.7500    -1.0680    64.8200    66.8790    62.4440    83.3360    25.0020     2.2240 
  213.8750    -1.0450    65.9480    63.1680    58.6170    79.4770    25.0480     2.2310 
  214.0000    -1.0650    65.6970    63.7210    58.3750    82.6510    25.0360     2.2330 
  214.1250    -1.1720    64.3280    69.7600    62.8460    90.0300    25.0170     2.2280 
  214.2500    -1.3060    62.7460    81.4350    72.4540    97.8440    24.9900     2.2200 
  214.3750    -1.3850    62.0830   100.2020    88.6430   102.7770    24.9490     2.2090 
