~V
VERS. 2.00: Ver 2.00
~W
STRT.M 52.0000:
STOP.M 271.0000:
STEP.M 0.1250:
NULL. -999.2500:
UWI. F11069:
~C
DEPT.M :
GR.API :
RML.OHMM :
RI. :
RXO.OHMM :
CALI.CM :
DEN.GM/CC :
SP.MV :
~A
# ...
  142.0000    94.3100     5.5620     5.2890     5.1550    24.6800     2.2040   -10.3970 
  142.1250    92.8430     5.9170     5.4350     4.3910    24.5770     2.2380   -10.4820 
  142.2500    86.4790     6.6390     5.8790     4.4720    24.4850     2.2960   -10.5340 
  142.3750    79.1770     7.8040     6.7300     6.2240    24.4720     2.3660   -10.5650 
  142.5000    74.1890     9.3440     8.0310    10.2590    24.5010     2.4320   -10.6150 
  142.6250    71.7390    10.9660     9.7030    15.2640    24.4720     2.4680   -10.6510 
  142.7500    70.1070    12.2190    11.2770    14.9430    24.3470     2.4630   -10.6560 
  142.8750    68.8200    12.8110    12.2620    11.8710    24.1610     2.4170   -10.6490 
  143.0000    69.3760    12.7180    12.4090    10.3430    24.0410     2.3460   -10.6700 
  143.1250    71.2800    12.2080    11.8730    11.7600    24.1440     2.2760   -10.7270 
  143.2500    71.8040    11.7610    11.2120    12.9660    24.2890     2.2240   -10.7600 
  143.3750    70.8250    11.5900    10.7000    12.1140    24.3700     2.1960   -10.7840 
  143.5000    69.9530    11.6980    10.4410    10.7810    24.3120     2.1850   -10.7950 
  143.6250    70.7890    11.9390    10.4410    10.6780    24.2440     2.1780   -10.7580 
  143.7500    72.6980    12.1160    10.5550    11.3720    24.2650     2.1640   -10.7080 
  143.8750    73.3140    12.1550    10.6890    11.2580    24.2400     2.1410   -10.6290 
  144.0000    71.2810    12.0670    10.7800    10.6780    24.1200     2.1150   -10.4850 
  144.1250    67.9920    11.8950    10.7880    10.4520    24.0160     2.1010   -10.2790 
  144.2500    65.5970    11.6830    10.7280    10.6550    23.9400     2.1060   -10.1140 
  144.3750    63.9890    11.4320    10.6250    11.1340    23.9010     2.1250    -9.9570 
  144.5000    63.5890    11.1610    10.5060    11.0660    23.9070     2.1490    -9.7650 
  144.6250    66.4640    10.9360    10.3970    10.6140    23.9570     2.1630    -9.6480 
  144.7500    70.6880    10.8130    10.3020     9.6600    23.9910     2.1620    -9.5630 
  144.8750    73.4930    10.8010    10.2120     8.9510    24.0020     2.1480    -9.4220 
  145.0000    73.3870    10.8540    10.1200     9.2880    24.0100     2.1230    -9.2800 
  145.1250    71.2160    10.8710    10.0190    10.3650    24.0760     2.0960    -9.2340 
  145.2500    70.5200    10.7830     9.9020    10.7980    24.0160     2.0770    -9.2150 
  145.3750    74.2490    10.5820     9.7590    10.8540    23.8560     2.0750    -9.1750 
  145.5000    80.0470    10.3110     9.5740    10.8610    23.7080     2.0860    -9.1160 
  145.6250    81.7070    10.0550     9.3360    10.5160    23.6110     2.0980    -9.0070 
  145.7500    79.1990     9.8860     9.0900    10.2200    23.6370     2.0970    -8.8820 
  145.8750    76.9900     9.8240     8.8930     9.8640    23.7780     2.0840    -8.7850 
  146.0000    77.1230     9.8340     8.7910     9.2050    23.8710     2.0690    -8.6750 
  146.1250    76.8710     9.8220     8.7970     8.7370    23.8130     2.0670    -8.5320 
  146.2500    76.8940     9.6990     8.8380     8.8830    23.7900     2.0820    -8.3940 
  146.3750    78.0540     9.4340     8.8380     9.3570    23.9030     2.1130    -8.2650 
  146.5000    78.1230     9.0760     8.7390     9.6520    24.1420     2.1520    -8.1350 
  146.6250    75.5140     8.7470     8.5370     8.9410    24.4130     2.1840    -8.0250 
  146.7500    72.4730     8.5540     8.3220     8.1750    24.6200     2.1980    -7.8870 
  146.8750    70.9070     8.5390     8.1750     7.8150    24.7030     2.1880    -7.6880 
  147.0000    70.9900     8.6900     8.1530     8.2220    24.8160     2.1580    -7.4760 
  147.1250    73.2570     8.9910     8.2990     9.1270    25.1420     2.1220    -7.2800 
  147.2500    75.2840     9.3760     8.5490    10.0290    25.3710     2.0930    -7.0340 
  147.3750    72.8470     9.7960     8.8330    10.3560    25.4690     2.0790    -6.7320 
  147.5000    66.7550    10.1780     9.0810    10.3440    25.4500     2.0800    -6.4570 
  147.6250    64.0780    10.3890     9.2340    10.5100    25.3540     2.0960    -6.2220 
  147.7500    65.3260    10.3890     9.3060    10.7200    25.2060     2.1190    -5.9800 
  147.8750    67.2870    10.2030     9.3350    10.6090    25.0640     2.1420    -5.7740 
  148.0000    69.0130     9.9200     9.3570    10.2470    25.0210     2.1510    -5.6120 
  148.1250    70.5690     9.6270     9.3500     9.9340    25.1090     2.1460    -5.3970 
  148.2500    71.0760     9.3510     9.2390     9.7250    25.2160     2.1450    -5.1490 
  148.3750    70.7030     9.0720     8.9530     9.7740    25.2930     2.1710    -4.9700 
  148.5000    73.5550     8.7790     8.4880    11.4300    25.2140     2.2260    -4.8380 
  148.6250    81.8080     8.5030     7.9020    13.0590    24.8970     2.2860    -4.6310 
  148.7500    88.4410     8.2720     7.3280    11.4340    24.5410     2.3200    -4.3720 
  148.8750    90.6320     8.0620     6.8600     7.8300    24.3470     2.3170    -4.0840 
  149.0000    90.7280     7.7980     6.5300     6.6800    24.2870     2.2930    -3.8020 
  149.1250    92.2360     7.3830     6.3100     6.6820    24.2650     2.2720    -3.5460 
  149.2500    95.7590     6.8430     6.1210     6.2790    24.2980     2.2670    -3.2950 
  149.3750    99.9560     6.2490     5.9270     6.0380    24.3470     2.2730    -3.0080 
  149.5000   102.6100     5.6980     5.7250     5.8860    24.4010     2.2810    -2.6960 
  149.6250    99.8170     5.3010     5.5480     5.6740    24.4360     2.2850    -2.4550 
  149.7500    95.2270     5.0830     5.4270     5.6860    24.4400     2.2860    -2.2630 
  149.8750    94.5650     5.0310     5.3550     5.7120    24.4390     2.2890    -2.0540 
  150.0000    98.3420     5.0890     5.3000     5.7230    24.4340     2.2960    -1.7860 
  150.1250   102.5880     5.1630     5.2300     5.5540    24.4250     2.3070    -1.4950 
  150.2500   105.1370     5.1700     5.1330     5.4670    24.4510     2.3250    -1.2190 
  150.3750   105.4740     5.0900     5.0100     5.4590    24.5270     2.3470    -0.9540 
  150.5000   104.9940     4.9540     4.8700     5.4110    24.5750     2.3730    -0.7120 
  150.6250   105.1340     4.8200     4.7340     5.1880    24.5490     2.3940    -0.4640 
  150.7500   104.7980     4.7200     4.6150     4.9640    24.5290     2.4060    -0.2300 
  150.8750   103.9640     4.6560     4.5190     4.8830    24.4870     2.4050    -0.0930 
  151.0000   105.2730     4.6260     4.4540     5.1400    24.4960     2.3990    -0.0470 
  151.1250   108.7890     4.6560     4.4430     5.4660    24.6510     2.3970    -0.0280 
  151.2500   109.5390     4.7650     4.5040     5.3580    24.8230     2.4060    -0.0330 
  151.3750   106.0380     4.9700     4.6580     5.1160    24.8300     2.4200    -0.0960 
  151.5000   103.9880     5.2590     4.9050     5.3090    24.7460     2.4300    -0.1830 
  151.6250   106.0480     5.5780     5.2130     6.1270    24.7490     2.4220    -0.2940 
  151.7500   107.2100     5.8330     5.4970     7.1360    24.8030     2.4010    -0.4390 
  151.8750   104.3860     5.9550     5.6830     7.6730    24.8350     2.3760    -0.5810 
  152.0000   100.7190     5.9140     5.7200     7.2460    24.8520     2.3590    -0.7170 
  152.1250   102.4210     5.7220     5.5930     6.6300    24.8870     2.3580    -0.8440 
  152.2500   108.1010     5.4850     5.3870     6.4120    24.8970     2.3650    -0.9520 
  152.3750   113.5590     5.2860     5.1730     6.3800    24.8850     2.3750    -1.0390 
  152.5000   114.9000     5.1900     5.0180     6.3800    24.8640     2.3850    -1.1430 
  152.6250   114.0600     5.2630     4.9980     6.5600    24.9120     2.3970    -1.3090 
  152.7500   112.7260     5.4760     5.1190     6.7470    24.9300     2.4100    -1.4750 
  152.8750   110.7190     5.7830     5.3710     6.8770    24.9310     2.4170    -1.6290 
  153.0000   108.3870     6.1020     5.7120     7.4970    24.9100     2.4070    -1.8130 
  153.1250   106.2910     6.3230     6.0590     8.7970    24.8150     2.3760    -2.0310 
