~V
VERS. 2.00: Ver 2.00
~W
STRT.M 51.0000:
STOP.M 240.0000:
STEP.M 0.1250:
NULL. -999.2500:
UWI. F11016:
~C
DEPT.M :
GR.API :
RML.OHMM :
RI. :
RXO.OHMM :
CALI.CM :
DEN.GM/CC :
SP.MV :
~A
# ...
   96.0000    56.7450     9.8120     8.5110    10.3630    22.9420     2.2020   -19.6330 
   96.1250    56.5330     9.6190     8.4470    10.0040    22.9830     2.1960   -19.8160 
   96.2500    56.3870     9.4770     8.3870     9.9140    23.0030     2.1940   -19.9750 
   96.3750    56.0560     9.4030     8.3430     9.8570    23.0360     2.1950   -20.1000 
   96.5000    54.7830     9.3750     8.3070     9.8100    23.0850     2.1970   -20.2090 
   96.6250    52.4990     9.3570     8.2640     9.7830    23.1220     2.1990   -20.2950 
   96.7500    51.2660     9.3200     8.2040     9.7830    23.1390     2.2010   -20.3440 
   96.8750    53.3300     9.2340     8.1220     9.7940    23.1430     2.2020   -20.3900 
   97.0000    56.0870     9.0930     8.0190     9.7760    23.1260     2.2010   -20.4350 
   97.1250    56.7660     8.9170     7.9050     9.7100    23.0840     2.2000   -20.4790 
   97.2500    56.2270     8.7510     7.7980     9.5770    23.0620     2.1970   -20.5150 
   97.3750    56.1450     8.6680     7.7360     9.4050    23.1330     2.1950   -20.5340 
   97.5000    56.3500     8.7180     7.7490     9.2380    23.2030     2.1950   -20.5280 
   97.6250    55.8460     8.8930     7.8430     9.0860    23.1800     2.1970   -20.5040 
   97.7500    54.7990     9.1350     7.9950     9.0690    23.0700     2.2030   -20.4670 
   97.8750    53.9920     9.3230     8.1360     9.4370    22.8960     2.2100   -20.4120 
   98.0000    53.7170     9.3520     8.1870    10.0200    22.7230     2.2150   -20.3320 
   98.1250    53.6880     9.1810     8.1010    10.2260    22.6400     2.2170   -20.2170 
   98.2500    54.1970     8.8550     7.8860     9.5490    22.6560     2.2150   -20.0840 
   98.3750    55.2300     8.4940     7.6080     8.5800    22.7410     2.2110   -19.9500 
   98.5000    55.6470     8.2270     7.3600     8.0820    22.8640     2.2100   -19.8190 
   98.6250    55.3430     8.1160     7.2060     8.0150    22.9640     2.2120   -19.7030 
   98.7500    55.2430     8.1480     7.1600     7.9860    22.9730     2.2150   -19.6070 
   98.8750    55.0640     8.2570     7.1980     7.9740    22.8840     2.2160   -19.5290 
   99.0000    54.0260     8.3570     7.2660     7.9800    22.7820     2.2140   -19.4670 
   99.1250    52.5900     8.3940     7.3160     7.9550    22.7370     2.2080   -19.4190 
   99.2500    52.0990     8.3570     7.3270     7.8900    22.7420     2.2030   -19.3830 
   99.3750    53.0930     8.2690     7.2980     7.8540    22.7770     2.2020   -19.3740 
   99.5000    54.5720     8.1720     7.2480     7.8440    22.8700     2.2060   -19.3860 
   99.6250    55.3600     8.1040     7.2000     7.8150    22.9640     2.2120   -19.4070 
   99.7500    55.7650     8.0860     7.1760     7.7980    22.9720     2.2190   -19.4340 
   99.8750    57.6760     8.1280     7.1880     7.8390    22.9170     2.2200   -19.4780 
  100.0000    60.7400     8.2130     7.2330     7.9400    22.8730     2.2150   -19.5400 
  100.1250    62.8900     8.3070     7.2930     8.0800    22.8590     2.2040   -19.6200 
  100.2500    62.9870     8.3770     7.3450     8.2270    22.8520     2.1910   -19.7110 
  100.3750    60.8410     8.3890     7.3610     8.3670    22.8100     2.1770   -19.8040 
  100.5000    57.9820     8.3390     7.3310     8.3990    22.7160     2.1660   -19.9120 
  100.6250    57.4860     8.2520     7.2680     8.3540    22.6380     2.1590   -20.0300 
  100.7500    60.5300     8.1680     7.1950     8.2990    22.6730     2.1570   -20.1640 
  100.8750    63.1360     8.1330     7.1500     8.2720    22.8000     2.1590   -20.3040 
  101.0000    61.3480     8.1700     7.1510     8.2840    22.8760     2.1660   -20.4530 
  101.1250    57.0170     8.2660     7.2000     8.3880    22.8550     2.1730   -20.6120 
  101.2500    55.1060     8.3900     7.2790     8.5920    22.8350     2.1790   -20.7810 
  101.3750    56.9460     8.4960     7.3610     8.8640    22.8720     2.1820   -20.9520 
  101.5000    58.4990     8.5550     7.4210     9.1490    22.9230     2.1810   -21.1200 
  101.6250    56.9840     8.5590     7.4460     9.3690    22.9600     2.1780   -21.2820 
  101.7500    54.2640     8.5250     7.4370     9.5360    22.9890     2.1750   -21.4270 
  101.8750    53.5190     8.4760     7.4050     9.5600    23.0220     2.1730   -21.5480 
  102.0000    53.9760     8.4290     7.3640     9.4870    23.0610     2.1740   -21.6490 
  102.1250    53.2760     8.3920     7.3270     9.3540    23.0850     2.1770   -21.7150 
  102.2500    52.1580     8.3660     7.2980     9.1400    23.0570     2.1840   -21.7380 
  102.3750    52.7810     8.3580     7.2860     8.8950    22.9560     2.1950   -21.7060 
  102.5000    54.2020     8.3870     7.3050     8.6840    22.8760     2.2070   -21.6220 
  102.6250    54.9180     8.4770     7.3710     8.5410    22.8810     2.2170   -21.4970 
  102.7500    55.1690     8.6310     7.4920     8.5810    22.9480     2.2230   -21.3440 
  102.8750    55.4890     8.8250     7.6600     8.9750    23.0140     2.2230   -21.1490 
  103.0000    55.6500     9.0020     7.8360     9.8460    22.9800     2.2190   -20.9250 
  103.1250    55.4950     9.1040     7.9690    11.1150    22.7700     2.2130   -20.7050 
  103.2500    54.6130     9.0930     8.0200    11.7560    22.4820     2.2080   -20.4920 
  103.3750    52.7810     8.9590     7.9630    10.7970    22.3010     2.2040   -20.3000 
  103.5000    51.9500     8.7370     7.8160     9.6320    22.2440     2.2000   -20.1360 
  103.6250    53.6190     8.4770     7.6140     9.1270    22.2280     2.1970   -19.9980 
  103.7500    56.1930     8.2140     7.3870     8.9220    22.1990     2.1940   -19.8820 
  103.8750    56.9960     7.9730     7.1640     8.7380    22.1570     2.1900   -19.8000 
  104.0000    56.9510     7.7670     6.9610     8.4410    22.1110     2.1850   -19.7330 
  104.1250    57.1790     7.6030     6.7870     8.0490    22.0880     2.1790   -19.6690 
  104.2500    56.3730     7.4850     6.6500     7.6920    22.0970     2.1730   -19.6060 
  104.3750    54.3660     7.4140     6.5520     7.5750    22.1060     2.1700   -19.5400 
  104.5000    53.0290     7.3770     6.4890     7.6200    22.0990     2.1700   -19.4800 
  104.6250    53.4220     7.3590     6.4540     7.7030    22.1210     2.1730   -19.4330 
  104.7500    55.1900     7.3610     6.4480     7.8030    22.1790     2.1790   -19.4160 
  104.8750    57.8080     7.4040     6.4860     7.9350    22.2520     2.1860   -19.4520 
  105.0000    59.9560     7.5030     6.5750     8.0600    22.3050     2.1890   -19.5500 
  105.1250    60.3520     7.6530     6.7060     8.1640    22.2900     2.1860   -19.7110 
  105.2500    59.7840     7.8270     6.8580     8.3690    22.1930     2.1790   -19.9270 
  105.3750    59.0030     7.9680     6.9910     8.5720    22.0570     2.1700   -20.1750 
  105.5000    57.8630     8.0250     7.0700     8.6740    21.9370     2.1620   -20.4310 
  105.6250    57.2340     7.9840     7.0780     8.6710    21.8580     2.1590   -20.6580 
  105.7500    58.0220     7.8670     7.0220     8.5680    21.8070     2.1610   -20.8430 
  105.8750    59.9330     7.7350     6.9340     8.3910    21.7830     2.1670   -20.9710 
  106.0000    60.6680     7.6560     6.8650     8.1210    21.7820     2.1740   -21.0400 
  106.1250    58.7340     7.6760     6.8570     7.7580    21.8070     2.1790   -21.0570 
  106.2500    56.0000     7.7990     6.9280     7.4570    21.8770     2.1800   -21.0490 
  106.3750    55.9600     8.0020     7.0750     7.5460    21.9870     2.1780   -21.0500 
  106.5000    58.6660     8.2220     7.2590     8.0910    22.0820     2.1760   -21.0580 
  106.6250    61.8250     8.4000     7.4300     8.6900    22.1190     2.1780   -21.0930 
  106.7500    64.1220     8.4990     7.5490     8.9600    22.1220     2.1840   -21.1600 
  106.8750    64.3230     8.5040     7.5810     8.9560    22.1290     2.1920   -21.2500 
  107.0000    61.2670     8.4340     7.5280     8.8910    22.1500     2.2000   -21.3530 
  107.1250    56.8110     8.3150     7.4080     8.8740    22.1660     2.2030   -21.4480 
