~V
VERS. 2.00: Ver 2.00
~W
STRT.M 54.0000:
STOP.M 226.0000:
STEP.M 0.1250:
NULL. -999.2500:
UWI. F11002:
~C
DEPT.M :
GR.API :
RML.OHMM :
RI. :
RXO.OHMM :
CALI.CM :
DEN.GM/CC :
SP.MV :
~A
# ...
  110.2500    73.1210     9.8050     7.9880     8.4280    24.8310     2.2340   -17.0690 
  110.3750    71.1370     9.8270     8.0150     8.1880    24.4290     2.2150   -16.7670 
  110.5000    71.1000     9.8720     8.0400     8.4630    24.0400     2.1960   -16.4130 
  110.6250    70.6160     9.9240     8.0520     8.8790    23.7610     2.1810   -16.0730 
  110.7500    66.6770     9.9480     8.0390     8.9900    23.6560     2.1710   -15.7820 
  110.8750    63.4250     9.9110     7.9960     8.5850    23.7260     2.1640   -15.5620 
  111.0000    63.8340     9.8280     7.9310     8.2550    23.8690     2.1570   -15.4680 
  111.1250    65.7890     9.7250     7.8550     8.2330    24.0430     2.1520   -15.4280 
  111.2500    65.5740     9.6140     7.7790     8.4630    24.2170     2.1490   -15.4000 
  111.3750    63.2870     9.4860     7.6940     8.6300    24.2510     2.1520   -15.3870 
  111.5000    64.3480     9.3280     7.5920     8.6660    24.1450     2.1600   -15.4160 
  111.6250    69.5250     9.1460     7.4730     8.6670    23.9510     2.1730   -15.4990 
  111.7500    73.9440     8.9680     7.3490     8.4460    23.8600     2.1910   -15.5810 
  111.8750    71.5990     8.8500     7.2540     8.2920    23.9090     2.2080   -15.6980 
  112.0000    67.5140     8.8350     7.2320     8.5940    23.9470     2.2230   -15.7790 
  112.1250    66.6880     8.9460     7.3170     9.2630    23.8950     2.2300   -15.8450 
  112.2500    69.1980     9.1690     7.5070     9.7490    23.8080     2.2290   -15.8980 
  112.3750    71.3180     9.4570     7.7790     9.8510    23.7970     2.2200   -15.9080 
  112.5000    70.6780     9.7370     8.0750     9.8120    23.7730     2.2090   -15.7980 
  112.6250    69.4210     9.9460     8.3470     9.7470    23.6780     2.1990   -15.5420 
  112.7500    69.1960    10.0110     8.5180     9.6270    23.5360     2.1920   -15.1870 
  112.8750    69.1170     9.8000     8.4530     9.4810    23.4770     2.1910   -14.6030 
  113.0000    67.7710     9.3030     8.1240     9.4500    23.5360     2.1980   -13.8540 
  113.1250    68.4930     8.5710     7.5700     8.8570    23.8780     2.2150   -13.0270 
  113.2500    73.6860     7.7500     6.9210     7.6080    24.5100     2.2410   -12.0940 
  113.3750    78.1670     7.0600     6.3440     6.5470    24.9830     2.2720   -11.0780 
  113.5000    78.2780     6.6090     5.9110     6.1980    24.7610     2.2960   -10.1370 
  113.6250    75.8700     6.4030     5.6280     6.3470    24.5500     2.3110    -9.2340 
  113.7500    74.7480     6.3700     5.4660     6.6280    24.5300     2.3150    -8.3550 
  113.8750    76.3690     6.4210     5.4060     5.7880    24.6950     2.3140    -7.6280 
  114.0000    78.2670     6.4790     5.4030     5.4880    24.7400     2.3130    -6.9830 
  114.1250    79.8480     6.5250     5.4310     5.3980    25.1560     2.3130    -6.4060 
  114.2500    81.0160     6.5610     5.4680     5.2980    25.9370     2.3160    -5.9610 
  114.3750    82.8300     6.5860     5.5030     5.3250    27.1190     2.3190    -5.6700 
  114.5000    83.8090     6.5910     5.5320     5.2840    26.2580     2.3230    -5.5180 
  114.6250    82.6070     6.5650     5.5500     5.2810    25.2930     2.3280    -5.4870 
  114.7500    82.0890     6.5050     5.5520     5.3550    24.7180     2.3340    -5.5730 
  114.8750    86.0590     6.4180     5.5330     5.4400    24.4580     2.3420    -5.7730 
  115.0000    90.3550     6.3380     5.5090     5.4000    24.4160     2.3510    -6.1290 
  115.1250    89.4170     6.3000     5.4950     5.1900    24.5520     2.3540    -6.6690 
  115.2500    83.5320     6.3420     5.5070     5.1690    24.7290     2.3500    -7.3970 
  115.3750    77.7470     6.4990     5.5790     5.4950    24.8090     2.3370    -8.2590 
  115.5000    76.2710     6.7380     5.7310     5.7250    24.8400     2.3190    -9.1150 
  115.6250    78.6180     7.0200     5.9690     6.0370    24.9360     2.3010   -10.0140 
  115.7500    82.1790     7.3230     6.2780     6.5130    25.1170     2.2830   -10.9300 
  115.8750    80.5370     7.6610     6.6300     7.2640    25.3470     2.2570   -11.7540 
  116.0000    74.7250     8.0640     6.9930     7.7650    25.5390     2.2270   -12.4790 
  116.1250    69.3180     8.5440     7.3580     7.7800    25.6680     2.2060   -13.0730 
  116.2500    66.9890     9.0650     7.7090     7.7020    25.6540     2.2100   -13.5040 
  116.3750    68.1210     9.5140     7.9960     8.8530    25.3280     2.2460   -13.8750 
  116.5000    69.4290     9.7800     8.1560    11.0800    24.8130     2.2930   -14.2610 
  116.6250    69.8950     9.8070     8.1470    11.5600    24.3170     2.3260   -14.6040 
  116.7500    70.6880     9.6300     7.9950     9.7570    23.9610     2.3300   -14.9470 
  116.8750    73.4760     9.3990     7.8080     8.3900    23.7240     2.3050   -15.3430 
  117.0000    75.6480     9.3370     7.7400     7.8590    23.5820     2.2770   -15.7370 
  117.1250    74.8380     9.5990     7.9070     8.1260    23.5350     2.2670   -16.0910 
  117.2500    72.7270    10.2360     8.3700     8.9140    23.5880     2.2880   -16.3710 
  117.3750    70.8620    11.1830     9.1220    11.0070    23.8220     2.3410   -16.5370 
  117.5000    68.2550    12.1410     9.9380    14.1250    24.0800     2.4000   -16.5580 
  117.6250    66.2170    12.8470    10.5830    16.2750    24.2070     2.4420   -16.5110 
  117.7500    66.5640    13.1140    10.8640    15.1650    24.1300     2.4510   -16.4160 
  117.8750    67.3360    12.8340    10.6820    12.2950    23.8940     2.4250   -16.2650 
  118.0000    65.7680    12.2300    10.2470    10.6600    23.6030     2.3840   -16.1470 
  118.1250    65.0250    11.4920     9.7230    10.1550    23.3710     2.3440   -16.1020 
  118.2500    67.8280    10.7860     9.2320    10.0500    23.2570     2.3160   -16.1180 
  118.3750    70.9000    10.2480     8.8570     9.6730    23.3210     2.3030   -16.1520 
  118.5000    70.7270     9.9190     8.6050     9.7220    23.3730     2.2990   -16.2280 
  118.6250    70.0190     9.8510     8.5160     9.7360    23.4220     2.2930   -16.2510 
  118.7500    71.0880    10.0860     8.6510     9.7850    23.5230     2.2840   -16.1250 
  118.8750    71.8210    10.6290     9.0550     9.7560    23.7390     2.2800   -15.8210 
  119.0000    70.1370    11.2280     9.5580     9.6810    23.9900     2.2910   -15.3190 
  119.1250    66.8870    11.5640     9.9030    10.9820    24.2680     2.3140   -14.6140 
  119.2500    65.8580    11.3210     9.7840    14.5820    24.6890     2.3340   -13.8280 
  119.3750    69.7560    10.2920     8.9690    14.6620    25.3350     2.3300   -12.9950 
  119.5000    75.0570     8.8630     7.8060     9.6520    26.0290     2.3040   -12.0840 
  119.6250    80.8830     7.4450     6.6520     6.2710    26.2480     2.2700   -11.2270 
  119.7500    86.8650     6.3600     5.7410     4.8670    25.2780     2.2470   -10.5480 
  119.8750    89.0170     5.8050     5.1970     4.3980    24.5450     2.2440   -10.0870 
  120.0000    87.0550     5.6400     4.9490     4.5850    24.0960     2.2580    -9.8750 
  120.1250    85.1380     5.7550     4.9400     5.4320    23.9340     2.2850    -9.9110 
  120.2500    87.7230     6.0650     5.1140     6.1150    23.7510     2.3140   -10.2050 
  120.3750    90.6710     6.5570     5.4550     5.9860    23.6080     2.3270   -10.8110 
  120.5000    89.7830     7.2010     5.9240     5.8490    23.6840     2.3110   -11.6480 
  120.6250    86.2950     7.9870     6.5260     6.7910    24.1160     2.2670   -12.6150 
  120.7500    79.4630     8.8690     7.2570     8.7000    24.9120     2.2120   -13.5630 
  120.8750    71.2810     9.7230     8.0740     9.7550    25.1750     2.1690   -14.3580 
  121.0000    67.5190    10.3810     8.8090     9.7240    25.2610     2.1490   -14.9150 
  121.1250    69.9960    10.7000     9.2620     9.4550    25.3060     2.1490   -15.1560 
  121.2500    73.8420    10.6090     9.2880     9.4130    25.8920     2.1620   -14.9280 
  121.3750    74.9410    10.0810     8.8160     9.4140    26.7700     2.1890   -14.1850 
