~V
VERS. 2.00: Ver 2.00
~W
STRT.M 47.0000:
STOP.M 272.0000:
STEP.M 0.1250:
NULL. -999.2500:
UWI. F11040:
~C
DEPT.M :
DEN.GM/CC :
GR.API :
RML.OHMM :
RI. :
RXO.OHMM :
CALI.CM :
SP.MV :
~A
   47.0000  -999.2500  -999.2500  -999.2500  -999.2500  -999.2500  -999.2500     0.0000 
   47.1250  -999.2500  -999.2500  -999.2500  -999.2500  -999.2500  -999.2500     0.0000 
   47.2500  -999.2500  -999.2500  -999.2500  -999.2500  -999.2500  -999.2500     0.0000 
   47.3750  -999.2500  -999.2500  -999.2500  -999.2500  -999.2500  -999.2500     0.0000 
   47.5000  -999.2500  -999.2500  -999.2500  -999.2500  -999.2500  -999.2500    71.0010 
   47.6250  -999.2500  -999.2500  -999.2500  -999.2500  -999.2500  -999.2500    71.3070 
   47.7500  -999.2500  -999.2500  -999.2500  -999.2500  -999.2500  -999.2500    71.7170 
   47.8750  -999.2500  -999.2500  -999.2500  -999.2500  -999.2500  -999.2500    72.1630 
   48.0000  -999.2500  -999.2500  -999.2500  -999.2500  -999.2500  -999.2500    72.6100 
   48.1250  -999.2500  -999.2500  -999.2500  -999.2500  -999.2500  -999.2500    73.0410 
   48.2500  -999.2500  -999.2500  -999.2500  -999.2500  -999.2500  -999.2500    73.4390 
   48.3750  -999.2500  -999.2500  -999.2500  -999.2500  -999.2500  -999.2500    73.8180 
   48.5000  -999.2500  -999.2500  -999.2500  -999.2500  -999.2500  -999.2500    74.2010 
   48.6250  -999.2500  -999.2500  -999.2500  -999.2500  -999.2500  -999.2500    74.5780 
   48.7500  -999.2500  -999.2500  -999.2500  -999.2500  -999.2500  -999.2500    74.9440 
   48.8750  -999.2500  -999.2500  -999.2500  -999.2500  -999.2500  -999.2500    75.2410 
   49.0000  -999.2500  -999.2500  -999.2500  -999.2500  -999.2500  -999.2500    75.4560 
   49.1250  -999.2500  -999.2500  -999.2500  -999.2500  -999.2500  -999.2500    75.5040 
   49.2500  -999.2500  -999.2500  -999.2500  -999.2500  -999.2500  -999.2500    75.4600 
   49.3750  -999.2500  -999.2500  -999.2500  -999.2500  -999.2500  -999.2500    75.3710 
   49.5000  -999.2500  -999.2500  -999.2500  -999.2500  -999.2500  -999.2500    75.3250 
   49.6250  -999.2500  -999.2500  -999.2500  -999.2500  -999.2500  -999.2500    75.2710 
   49.7500  -999.2500  -999.2500  -999.2500  -999.2500  -999.2500  -999.2500    75.1770 
   49.8750  -999.2500  -999.2500  -999.2500  -999.2500  -999.2500  -999.2500    75.0200 
   50.0000  -999.2500  -999.2500  -999.2500  -999.2500  -999.2500  -999.2500    74.7730 
   50.1250  -999.2500  -999.2500  -999.2500  -999.2500  -999.2500  -999.2500    74.4220 
   50.2500  -999.2500  -999.2500  -999.2500  -999.2500  -999.2500  -999.2500    73.9390 
   50.3750  -999.2500  -999.2500  -999.2500  -999.2500  -999.2500  -999.2500    73.2910 
   50.5000  -999.2500  -999.2500  -999.2500  -999.2500  -999.2500  -999.2500    72.4390 
   50.6250  -999.2500  -999.2500  -999.2500  -999.2500  -999.2500  -999.2500    71.3940 
   50.7500  -999.2500  -999.2500  -999.2500  -999.2500  -999.2500  -999.2500    70.2140 
   50.8750  -999.2500  -999.2500  -999.2500  -999.2500  -999.2500  -999.2500    69.0150 
   51.0000  -999.2500  -999.2500  -999.2500  -999.2500  -999.2500  -999.2500    67.9140 
   51.1250  -999.2500     0.0000     0.0000     0.0000     0.0000     0.0000    67.0680 
   51.2500  -999.2500     0.0000     0.0000     0.0000     0.0000     0.0000    66.5830 
   51.3750  -999.2500     0.0000     0.0000     0.0000     0.0000     0.0000    66.4630 
   51.5000  -999.2500     0.0000     0.0000     0.0000     0.0000     0.0000    66.6670 
   51.6250  -999.2500     0.0000     0.0000     0.0000     0.0000     0.0000    67.1590 
   51.7500  -999.2500     0.0000     0.0000     0.0000     0.0000     0.0000    67.7640 
   51.8750  -999.2500    26.2410     1.1260     0.4030     0.3280    18.9970    68.3920 
   52.0000  -999.2500    35.3330     1.3800     0.5170     0.4330    25.3300    68.9530 
   52.1250     0.0000    36.2470     1.3010     0.4960     0.4310    25.3300    69.3800 
   52.2500     0.0000    36.9540     1.2970     0.4860     0.4300    25.3300    69.5690 
   52.3750     0.0000    37.9840     1.3430     0.4900     0.4310    25.3300    69.4830 
   52.5000     0.0000    38.9060     1.3920     0.5040     0.4320    25.3300    69.1520 
   52.6250     0.5280    37.8980     1.3880     0.5170     0.4330    25.3310    68.6330 
   52.7500     2.1080    36.4380     1.3210     0.5210     0.4320    25.3320    68.1410 
   52.8750     2.1000    36.8920     1.2120     0.5150     0.4330    25.3320    67.7130 
   53.0000     2.0970    38.5410     1.1060     0.5040     0.4360    25.3300    67.3500 
   53.1250     2.1000    38.3750     1.0540     0.4980     0.4420    25.3300    66.9340 
   53.2500     2.1060    37.5030     1.0640     0.4990     0.4470    25.3300    66.4910 
   53.3750     2.1140    37.9220     1.1200     0.5040     0.4480    25.3300    66.0070 
   53.5000     2.1200    38.8690     1.1890     0.5090     0.4440    25.3300    65.4310 
   53.6250     2.1210    38.8370     1.2390     0.5100     0.4400    25.3300    64.8320 
   53.7500     2.1200    38.5540     1.2650     0.5110     0.4360    25.3300    64.2520 
   53.8750     2.1170    38.3930     1.2730     0.5160     0.4320    25.3300    63.7210 
   54.0000     2.1150    37.9990     1.2760     0.5260     0.4310    25.3300    63.2550 
   54.1250     2.1130    38.2840     1.2810     0.5390     0.4320    25.3300    63.0050 
   54.2500     2.1100    39.2350     1.2920     0.5490     0.4320    25.3300    62.9890 
   54.3750     2.1080    39.0640     1.3110     0.5560     0.4320    25.3300    63.1650 
   54.5000     2.1070    37.1200     1.3350     0.5580     0.4320    25.3300    63.4670 
   54.6250     2.1080    34.4100     1.3510     0.5590     0.4340    25.3310    63.7090 
   54.7500     2.1110    33.8650     1.3540     0.5610     0.4370    25.3320    63.7980 
   54.8750     2.1170    36.3450     1.3500     0.5630     0.4410    25.3320    63.6540 
   55.0000     2.1220    38.7120     1.3540     0.5660     0.4470    25.3300    63.2930 
   55.1250     2.1240    38.1770     1.3720     0.5670     0.4520    25.3300    62.6830 
   55.2500     2.1220    36.7270     1.3960     0.5670     0.4580    25.3300    61.7760 
   55.3750     2.1200    36.8020     1.4130     0.5640     0.4640    25.3290    60.6120 
   55.5000     2.1210    37.3020     1.4140     0.5580     0.4700    25.3270    59.2870 
   55.6250     2.1280    36.5360     1.3830     0.5490     0.4760    25.3210    57.7610 
   55.7500     2.1370    36.4120     1.3130     0.5350     0.4830    25.3090    56.0510 
   55.8750     2.1440    37.1500     1.1980     0.5140     0.4930    25.2890    54.2640 
   56.0000     2.1460    38.6310     1.0350     0.4830     0.5040    25.2710    52.4430 
   56.1250     2.1480    39.7420     0.8370     0.4400     0.5200    25.2630    50.5330 
   56.2500     2.1650    40.0740     0.6340     0.3920     0.5510    25.2630    48.4070 
   56.3750     2.2140    40.7150     0.4520     0.3490     0.6000    25.2820    45.9470 
   56.5000     2.3020    41.9040     0.3130     0.3230     0.6760    25.3540    43.0290 
   56.6250     2.4140    42.5950     0.2520     0.3260     0.7940    25.5540    39.4680 
   56.7500     2.4920    42.6710     0.2800     0.3700     0.9530    25.9650    35.2730 
   56.8750     2.4850    44.8270     0.4180     0.4810     1.2150    26.6100    30.3590 
   57.0000     2.3820    50.1160     0.6930     0.7080     1.6420    27.1530    24.8010 
   57.1250     2.2300    54.6560     1.1480     1.1450     2.4110    26.9270    18.8640 
   57.2500     2.0960    56.0170     1.7400     1.7960     3.1800    26.5110    13.0240 
   57.3750     2.0130    55.1770     2.4020     2.6180     3.8540    26.3500     7.5180 
   57.5000     1.9940    54.6900     3.0200     3.4940     4.3550    25.7210     2.5520 
   57.6250     2.0420    59.0750     3.4340     4.2150     4.8830    23.9880    -1.4570 
   57.7500     2.1170    67.8250     3.6330     4.6800     5.7390    22.5060    -4.6030 
   57.8750     2.1850    76.9510     3.6990     4.9200     6.3560    22.0050    -6.9150 
   58.0000     2.2230    82.5680     3.7440     5.0490     6.5230    22.2470    -8.5710 
   58.1250     2.2270    82.3940     3.8570     5.1970     6.1680    22.6200    -9.8120 
