~V
VERS. 2.00: Ver 2.00
~W
STRT.M 60.0000:
STOP.M 274.0000:
STEP.M 0.1250:
NULL. -999.2500:
UWI. F11079:
~C
DEPT.M :
GR.API :
RML.OHMM :
RI. :
RXO.OHMM :
CALI.CM :
DEN.GM/CC :
SP.MV :
~A
# ...
  251.2500    80.5990     9.4480     8.6180     8.0200    23.8360     2.3470     0.4430 
  251.3750    79.1760    10.9990     9.5750     8.5380    23.6890     2.3360     0.1300 
  251.5000    73.7520    14.3390    11.9300    10.0330    23.6730     2.3220    -0.1990 
  251.6250    67.6390    24.1490    16.9150    14.7490    23.8580     2.2880    -0.5940 
  251.7500    65.4920    34.2380    24.8010    25.9030    24.0800     2.2390    -1.0270 
  251.8750    66.6240    45.4730    34.8070    38.2830    24.1560     2.1910    -1.4130 
  252.0000    66.3730    53.6190    43.6110    41.5910    24.1560     2.1630    -1.7150 
  252.1250    65.2220    52.5020    45.0680    41.2030    24.1750     2.1640    -1.9070 
  252.2500    67.9060    44.6210    39.8040    34.8520    24.2030     2.1780    -2.0570 
  252.3750    75.0500    34.9710    31.8700    25.7660    24.2340     2.2020    -2.1980 
  252.5000    80.9130    27.0010    24.7570    19.0520    24.2280     2.2340    -2.3640 
  252.6250    80.1950    22.1450    20.1290    15.3530    24.1750     2.2690    -2.5440 
  252.7500    78.7220    19.7930    17.5590    13.9010    24.1420     2.2980    -2.6850 
  252.8750    80.9220    19.7360    16.8310    14.8630    24.2200     2.3200    -2.7940 
  253.0000    85.1390    21.8820    17.8900    18.1790    24.2890     2.3350    -2.9210 
  253.1250    83.6180    26.5800    21.1910    23.7820    24.2960     2.3340    -3.0960 
  253.2500    75.5180    33.2560    26.4940    31.6750    24.2810     2.3160    -3.2890 
  253.3750    68.7390    41.1030    33.3240    36.5450    24.2690     2.2930    -3.5000 
  253.5000    67.4280    48.5060    40.3360    38.2000    24.2480     2.2710    -3.7290 
  253.6250    67.7700    52.9020    45.1150    35.4640    24.1840     2.2480    -3.9100 
  253.7500    66.5110    53.8990    46.8960    31.8170    24.0670     2.2240    -3.9750 
  253.8750    66.0900    52.5030    46.3150    30.1660    23.8750     2.2080    -3.9840 
  254.0000    67.3960    50.3260    44.7190    30.6620    23.7240     2.2060    -3.9760 
  254.1250    66.5780    48.7450    43.4060    31.5330    23.8360     2.2140    -3.9990 
  254.2500    64.3110    48.1850    42.9410    30.2970    24.0310     2.2220    -4.0260 
  254.3750    64.6100    48.7470    43.5040    29.9480    24.2290     2.2260    -3.9970 
  254.5000    68.1690    50.3260    45.0930    31.5570    24.3700     2.2280    -3.8560 
  254.6250    70.1590    52.1770    47.2510    31.7580    24.3860     2.2320    -3.5970 
  254.7500    68.8700    52.5690    48.4770    28.8200    24.3850     2.2310    -3.4240 
  254.8750    66.6070    49.7880    47.0500    25.1620    24.4930     2.2190    -3.2920 
  255.0000    66.3150    43.2760    42.0180    23.5960    24.6620     2.1990    -3.1140 
  255.1250    69.2540    34.4870    34.2490    20.5080    24.5810     2.1890    -2.8440 
  255.2500    74.8060    26.3930    26.6730    14.5520    24.4060     2.2040    -2.5810 
  255.3750    81.5830    20.3100    20.7600     9.8430    24.3210     2.2480    -2.3720 
  255.5000    87.9420    16.4040    16.8090     7.7780    24.3100     2.3050    -2.1820 
  255.6250    89.8330    14.4470    14.6640     7.2870    24.2940     2.3450    -2.1060 
  255.7500    87.0240    13.5850    13.5660     7.4880    24.2600     2.3590    -1.9880 
  255.8750    83.7190    13.4690    13.2180     8.0280    24.2300     2.3580    -1.8740 
  256.0000    82.7310    13.9700    13.4810     8.6580    24.2350     2.3540    -1.8240 
  256.1250    82.9080    15.3710    14.5240    10.7210    24.2880     2.3540    -1.7760 
  256.2500    80.5190    17.9670    16.5430    15.6400    24.3410     2.3590    -1.7490 
  256.3750    75.7120    22.2300    20.0030    24.2790    24.3550     2.3640    -1.6720 
  256.5000    70.5400    28.5230    25.4160    25.6210    24.3580     2.3600    -1.6190 
  256.6250    67.5220    37.0800    33.3200    34.8690    24.3770     2.3350    -1.5370 
  256.7500    67.0500    46.5730    42.5010    38.6220    24.4610     2.2980    -1.4400 
  256.8750    65.9530    55.3730    51.1590    40.2790    24.5730     2.2640    -1.3340 
  257.0000    62.2610    62.1970    57.6490    42.0990    24.8480     2.2400    -1.1640 
  257.1250    58.2880    67.3330    61.8030    44.5890    25.1200     2.2320    -1.0650 
  257.2500    57.1720    73.1740    65.9620    54.9360    24.9150     2.2570    -0.8900 
  257.3750    58.5030    81.5260    72.0060    66.3070    24.4740     2.3340    -0.7200 
  257.5000    59.7500    93.1760    80.9050    90.3820    24.1550     2.4570    -0.5740 
  257.6250    59.3930   107.3680    92.2580    93.0570    24.0660     2.5830    -0.4200 
  257.7500    57.6980   120.2150   102.9350   101.0500    24.0560     2.6650    -0.3220 
  257.8750    56.8790   127.5550   109.6940   127.7450    24.0600     2.7000    -0.2230 
  258.0000    57.0850   126.9690   110.4740   134.0250    24.0610     2.7000    -0.1850 
  258.1250    56.1330   118.8770   114.2250   188.5070    24.0290     2.6830    -0.1370 
  258.2500    55.6710   108.3390    96.8930   184.1170    23.9480     2.6690    -0.1320 
  258.3750    58.1980    98.3660    88.7880   113.6850    23.8510     2.6680    -0.1350 
  258.5000    61.3030    90.4100    82.1890    68.0750    23.7990     2.6770    -0.1690 
  258.6250    60.6620    85.1100    77.7560    67.7450    23.7890     2.6720    -0.2010 
  258.7500    57.7130    81.8880    74.9930    85.4230    23.7820     2.6470    -0.2350 
  258.8750    55.8370    80.2930    73.6340   107.3360    23.7660     2.6210    -0.2960 
  259.0000    55.4200    79.0250    72.8030    96.9500    23.7600     2.6160    -0.3610 
  259.1250    58.1490    74.7560    69.0680    78.9160    23.7530     2.6390    -0.4120 
  259.2500    62.9710    65.2420    60.0080    63.1020    23.7440     2.6690    -0.4780 
  259.3750    67.0410    51.1630    54.3320    50.6880    23.7540     2.6910    -0.5350 
  259.5000    70.5550    36.2020    45.3560    41.3220    23.7720     2.6990    -0.5340 
  259.6250    75.9720    24.6470    37.0970    30.0240    23.7960     2.6970    -0.5290 
  259.7500    82.9670    16.9740    16.6170    11.3830    23.8510     2.6760    -0.4710 
  259.8750    90.1020    12.4110    11.8800     7.8370    23.9690     2.6180    -0.3540 
  260.0000    96.5740     9.9630     9.2000     7.8440    24.0970     2.5220    -0.2010 
  260.1250    99.4010     8.9640     7.9470     8.2110    24.1440     2.4250    -0.0230 
  260.2500    97.1420     8.5840     7.3940     8.5070    24.1380     2.3670     0.1860 
  260.3750    94.2990     8.4280     7.2030     8.3780    24.1300     2.3530     0.3800 
  260.5000    94.6250     8.2510     7.1070     7.8280    24.1250     2.3690     0.5840 
  260.6250    97.4250     7.9830     6.9440     7.1840    24.1120     2.3960     0.7850 
  260.7500    99.6740     7.7110     6.7120     6.6570    24.0950     2.4110     0.9950 
  260.8750   100.0460     7.5000     6.4640     6.3540    24.0820     2.4060     1.1590 
  261.0000    96.8380     7.3810     6.2530     6.1350    24.0810     2.3900     1.3150 
  261.1250    92.2430     7.3600     6.1280     6.0350    24.0820     2.3750     1.4380 
  261.2500    93.2120     7.4000     6.0830     6.1010    24.0580     2.3640     1.5390 
  261.3750   100.1140     7.4800     6.0960     6.3740    24.0340     2.3580     1.6450 
  261.5000   104.7260     7.5690     6.1300     7.0260    23.9760     2.3560     1.7270 
  261.6250   101.9450     7.6050     6.1310     7.3250    23.9470     2.3610     1.8000 
  261.7500    97.3590     7.5630     6.0650     6.9290    23.9160     2.3670     1.8450 
  261.8750    93.6330     7.4480     5.9260     6.1580    23.8770     2.3700     1.9640 
  262.0000    90.6530     7.2720     5.7230     5.6080    23.8200     2.3690     2.0910 
  262.1250    89.6420     6.7690     5.4700     5.2220    23.8070     2.3660     2.2720 
  262.2500    90.8100     5.7180     5.2050     4.9420    23.8300     2.3610     2.4650 
  262.3750    92.6650     5.4670     4.9530     4.8030    23.8600     2.3580     2.6950 
