~V
VERS. 2.00: Ver 2.00
~W
STRT.M 53.0000:
STOP.M 279.0000:
STEP.M 0.1250:
NULL. -999.2500:
UWI. F11057:
~C
DEPT.M :
GR.API :
RML.OHMM :
RI. :
RXO.OHMM :
CALI.CM :
DEN.GM/CC :
SP.MV :
~A
# ...
  233.0000    83.9100    42.4340    39.9960    37.7350    24.1290     2.2620   -11.8530 
  233.1250    83.5630    43.4680    40.1370    42.0140    24.2630     2.2610   -11.7540 
  233.2500    80.4560    45.9920    41.8610    46.1740    24.5020     2.2620   -11.6390 
  233.3750    76.8640    49.0180    44.4130    45.1640    24.7630     2.2600   -11.4700 
  233.5000    73.7250    51.5720    46.9290    40.4390    24.9210     2.2540   -11.2790 
  233.6250    72.2710    52.9150    48.5980    38.4330    24.9640     2.2530   -11.0210 
  233.7500    73.1440    53.2790    49.4110    41.4670    24.9410     2.2730   -10.6990 
  233.8750    74.3390    52.5580    49.2660    61.9470    24.8500     2.3220   -10.3320 
  234.0000    72.6540    49.8690    47.3730   120.0790    24.6690     2.3980    -9.9060 
  234.1250    68.4300    43.3340    41.7540   197.4280    24.5530     2.4730    -9.4470 
  234.2500    68.2610    33.7810    33.0450   149.9650    24.4960     2.5220    -8.9450 
  234.3750    74.5560    23.4890    23.5250    55.0840    24.4880     2.5350    -8.4470 
  234.5000    85.0570    15.0100    15.5960    17.1440    24.5010     2.5090    -7.9280 
  234.6250    94.3530    10.0570    10.6610     9.1100    24.5350     2.4590    -7.4100 
  234.7500    99.6440     7.6610     7.9000     8.0630    24.5600     2.4240    -6.9270 
  234.8750   101.8310     6.9650     6.6700     8.2530    24.5740     2.4150    -6.4960 
  235.0000   103.9900     7.2320     6.4320     8.2100    24.5770     2.4210    -6.1520 
  235.1250   107.1420     7.8500     6.7820     7.8980    24.5740     2.4260    -5.8960 
  235.2500   108.2970     8.2550     7.2190     7.7690    24.5710     2.4270    -5.7370 
  235.3750   109.6990     8.2870     7.5160     7.8170    24.5690     2.4250    -5.6380 
  235.5000   115.5800     8.0960     7.6560     7.9030    24.5690     2.4200    -5.6340 
  235.6250   125.4830     7.9430     7.7380     7.8830    24.5670     2.4130    -5.7370 
  235.7500   129.9640     7.9000     7.8290     7.8670    24.5640     2.4060    -5.9140 
  235.8750   126.7970     7.9350     7.9270     7.8890    24.5630     2.4040    -6.1230 
  236.0000   123.5270     8.0130     8.0240     8.0270    24.5630     2.4050    -6.3350 
  236.1250   129.1680     8.1030     8.1010     8.2030    24.5630     2.4040    -6.5540 
  236.2500   137.9000     8.1870     8.1510     8.2740    24.5640     2.4050    -6.7200 
  236.3750   142.7130     8.2700     8.1850     8.2470    24.5680     2.4070    -6.8630 
  236.5000   143.6750     8.3810     8.2430     8.3360    24.5700     2.4070    -6.9400 
  236.6250   142.8330     8.5860     8.3910     8.6690    24.5700     2.4010    -6.9350 
  236.7500   138.7340     8.9130     8.6460     9.0220    24.5700     2.3890    -6.8540 
  236.8750   130.3280     9.3740     9.0090     9.2960    24.5740     2.3750    -6.7230 
  237.0000   123.4750     9.9510     9.4630     9.5770    24.5760     2.3640    -6.5550 
  237.1250   120.8640    10.6190     9.9960    10.0420    24.5780     2.3610    -6.3460 
  237.2500   118.4650    11.2930    10.5550    11.0540    24.5760     2.3630    -6.1550 
  237.3750   114.7350    11.8430    11.0370    12.3110    24.5720     2.3640    -5.9650 
  237.5000   113.0060    12.1000    11.2700    12.7370    24.5700     2.3570    -5.8040 
  237.6250   114.8440    11.8990    11.0530    11.8940    24.5750     2.3410    -5.6750 
  237.7500   117.1440    11.4300    10.5360    11.4370    24.5930     2.3260    -5.5880 
  237.8750   120.6970    10.9610     9.9570    11.5830    24.6100     2.3190    -5.5240 
  238.0000   125.8220    10.7870     9.5710    11.3050    24.6170     2.3200    -5.5050 
  238.1250   127.0590    11.3830     9.7060    10.8350    24.6170     2.3270    -5.5280 
  238.2500   122.2080    13.0730    10.5630    10.9710    24.6170     2.3360    -5.5660 
  238.3750   114.3400    16.2390    12.4590    12.5440    24.6170     2.3440    -5.6320 
  238.5000   107.0600    21.0970    15.7510    15.4500    24.6190     2.3430    -5.7010 
  238.6250    98.9640    27.4970    20.8310    21.2870    24.6200     2.3340    -5.8040 
  238.7500    90.7530    33.8980    26.7370    28.5770    24.6180     2.3260    -5.8990 
  238.8750    85.1830    38.6380    31.9670    36.1590    24.6170     2.3200    -6.0170 
  239.0000    84.7660    40.8140    35.2390    40.3870    24.6160     2.3050    -6.1030 
  239.1250    87.5000    41.0390    36.5080    39.0900    24.6150     2.2770    -6.1600 
  239.2500    87.4280    41.2860    37.3420    37.9880    24.6140     2.2520    -6.2100 
  239.3750    85.0750    42.5570    38.6670    40.0170    24.6160     2.2340    -6.2240 
  239.5000    83.0350    45.1650    40.9360    48.7270    24.6170     2.2160    -6.2320 
  239.6250    80.2750    48.6890    44.0660    70.3190    24.6170     2.1920    -6.1750 
  239.7500    75.3800    51.5020    46.8480    80.5500    24.6170     2.1710    -6.1040 
  239.8750    73.2780    51.9060    47.7680    70.9760    24.6170     2.1620    -6.0000 
  240.0000    78.2990    49.1530    45.8940    54.0170    24.6170     2.1680    -5.8960 
  240.1250    85.3310    44.3750    41.8430    44.2790    24.6170     2.1820    -5.8060 
  240.2500    86.6930    40.2080    37.9300    39.8750    24.6170     2.1970    -5.7070 
  240.3750    84.5960    37.9030    35.3920    37.5390    24.6170     2.2090    -5.6490 
  240.5000    83.8550    37.7420    34.6390    36.9000    24.6170     2.2210    -5.6090 
  240.6250    84.9620    39.7800    35.8480    37.7680    24.6170     2.2300    -5.6290 
  240.7500    84.8740    43.4170    38.5720    39.5710    24.6170     2.2310    -5.6700 
  240.8750    83.1430    48.5160    42.7700    43.4260    24.6170     2.2210    -5.7480 
  241.0000    82.1500    54.8650    48.3580    50.8520    24.6170     2.2040    -5.8590 
  241.1250    83.9780    61.7840    54.8930    63.2100    24.6170     2.1870    -6.0010 
  241.2500    84.0670    67.7450    60.9420    72.0260    24.6170     2.1760    -6.1860 
  241.3750    79.9160    71.3470    65.1220    72.4830    24.6190     2.1710    -6.3520 
  241.5000    75.3140    71.9810    66.6420    71.0180    24.6230     2.1690    -6.5310 
  241.6250    75.2970    70.1340    65.6100    73.8220    24.6250     2.1820    -6.7080 
  241.7500    76.8770    67.5960    63.6400    82.1810    24.6260     2.2160    -6.8940 
  241.8750    76.6290    65.0350    61.5170    91.3830    24.6260     2.2590    -7.0570 
  242.0000    76.2960    62.3720    59.3660    88.1260    24.6250     2.2870    -7.1900 
  242.1250    77.4910    59.3070    56.9340    67.8640    24.6240     2.2730    -7.3000 
  242.2500    79.2590    56.3350    54.5160    52.5980    24.6230     2.2410    -7.3610 
  242.3750    80.3280    54.2380    52.7800    52.0610    24.6240     2.2190    -7.4260 
  242.5000    79.7530    53.3440    52.1500    60.3110    24.6230     2.2150    -7.4520 
  242.6250    79.6520    53.0290    52.3050    67.7020    24.6190     2.2250    -7.4310 
  242.7500    79.3370    51.9330    51.9750    62.4040    24.6170     2.2420    -7.3700 
  242.8750    80.0130    49.4600    50.3750    52.6910    24.6170     2.2650    -7.2950 
  243.0000    81.5980    46.0300    47.6200    48.0070    24.6250     2.2850    -7.2200 
  243.1250    81.9630    42.7800    44.6250    45.0110    24.6470     2.2840    -7.1180 
  243.2500    82.6760    40.3900    42.2340    41.9390    24.6730     2.2640    -7.0250 
  243.3750    84.7220    38.8550    40.5940    37.8290    24.6870     2.2430    -6.9050 
  243.5000    87.0750    37.9840    39.6020    34.1460    24.6920     2.2320    -6.8050 
  243.6250    84.5140    37.8150    39.3240    33.8850    24.7170     2.2220    -6.7170 
  243.7500    79.9420    38.3380    39.7450    35.7480    24.7980     2.2060    -6.6590 
  243.8750    78.6640    39.6920    40.9960    37.0090    24.9340     2.1910    -6.6330 
  244.0000    78.2820    42.1600    43.3270    37.7210    25.0240     2.1900    -6.6350 
  244.1250    76.4890    47.7150    46.6380    41.6670    25.0500     2.2070    -6.6860 
