~V
VERS. 2.00: Ver 2.00
~W
STRT.M 55.0000:
STOP.M 229.0000:
STEP.M 0.1250:
NULL. -999.2500:
UWI. F11013:
~C
DEPT.M :
DEN.GM/CC :
GR.API :
RML.OHMM :
RI. :
RXO.OHMM :
CALI.CM :
SP.MV :
~A
# ...
   88.7500     2.3240    79.6540     5.6990     5.1390     5.7230    23.5760   -13.0470 
   88.8750     2.3340    83.8420     5.5810     5.0550     5.4240    23.5390   -12.7080 
   89.0000     2.3410    85.1590     5.3960     4.9530     4.9850    23.6120   -12.5030 
   89.1250     2.3390    84.7190     5.1980     4.8480     4.6340    23.6470   -12.4680 
   89.2500     2.3280    84.3880     5.0730     4.7810     4.5590    23.5660   -12.5210 
   89.3750     2.3180    82.0820     5.1400     4.8270     4.5580    23.3550   -12.7670 
   89.5000     2.3110    78.9530     5.3930     5.0020     4.5410    23.0780   -13.1070 
   89.6250     2.3020    77.3320     5.7620     5.2770     4.7150    22.8450   -13.5060 
   89.7500     2.2920    78.4340     6.1080     5.5610     5.3200    22.7160   -13.9550 
   89.8750     2.2880    81.0940     6.2250     5.7040     6.0810    22.5110   -14.4170 
   90.0000     2.2980    85.1070     6.0830     5.6460     6.4220    22.3380   -14.8970 
   90.1250     2.3230    89.6600     5.7780     5.4300     5.7770    22.3840   -15.3320 
   90.2500     2.3480    92.9840     5.4940     5.1780     5.0440    22.6010   -15.7790 
   90.3750     2.3550    93.6220     5.4430     5.0560     4.8440    22.8880   -16.1870 
   90.5000     2.3510    91.4120     5.6720     5.1380     5.3600    23.0490   -16.6050 
   90.6250     2.3460    86.5050     6.1410     5.4340     6.4180    23.1590   -17.0000 
   90.7500     2.3340    82.0920     6.7360     5.8870     7.2100    23.2790   -17.3950 
   90.8750     2.3110    81.0490     7.2960     6.3830     6.9110    23.5070   -17.7830 
   91.0000     2.2870    80.4400     7.7270     6.8100     6.5280    23.5900   -18.1580 
   91.1250     2.2680    76.5430     8.0200     7.1300     6.6100    23.4190   -18.5240 
   91.2500     2.2480    70.1100     8.2180     7.3510     6.8770    23.0820   -18.8470 
   91.3750     2.2240    66.3400     8.3700     7.4980     7.3840    22.9620   -19.1250 
   91.5000     2.2020    66.8510     8.4920     7.5970     7.8320    22.9430   -19.3660 
   91.6250     2.1850    68.7100     8.5590     7.6390     7.8220    22.9450   -19.5700 
   91.7500     2.1790    68.1120     8.5660     7.6240     7.4340    22.9220   -19.7010 
   91.8750     2.1830    64.2940     8.5340     7.5690     7.4340    22.8860   -19.8290 
   92.0000     2.1870    60.8310     8.5060     7.5070     7.6910    22.8300   -19.9260 
   92.1250     2.1870    60.8620     8.5080     7.4660     7.8750    22.7420   -20.0280 
   92.2500     2.1850    64.5920     8.5570     7.4620     7.9250    22.6320   -20.0970 
   92.3750     2.1830    68.5640     8.6300     7.4900     8.0310    22.4530   -20.0930 
   92.5000     2.1800    70.6720     8.6560     7.4980     8.0710    22.2010   -20.0410 
   92.6250     2.1810    71.1750     8.5590     7.4350     8.0110    21.9570   -19.9660 
   92.7500     2.1890    71.5120     8.2880     7.2600     7.7960    21.7730   -19.9010 
   92.8750     2.2110    72.0030     7.8500     6.9600     7.5750    21.7520   -19.7780 
   93.0000     2.2450    73.0810     7.4380     6.6500     7.3920    21.8010   -19.6740 
   93.1250     2.2870    75.4390     7.2760     6.4850     7.1310    21.8500   -19.5380 
   93.2500     2.3290    76.2230     7.5550     6.6130     6.8640    21.9190   -19.4300 
   93.3750     2.3630    71.9660     8.4220     7.1860     7.1930    22.2220   -19.3660 
   93.5000     2.3910    65.1810     9.6390     8.1030     9.0990    22.8010   -19.3230 
   93.6250     2.4070    59.4960    10.8630     9.1610    13.1580    23.3400   -19.3030 
   93.7500     2.3950    57.2600    11.6380    10.0030    18.3240    23.3080   -19.3250 
   93.8750     2.3430    59.6880    11.4820    10.1340    14.8170    22.6000   -19.3920 
   94.0000     2.2850    63.6630    10.6400     9.6300    10.2180    21.8550   -19.4530 
   94.1250     2.2410    65.1290     9.5350     8.8010     8.3880    21.5330   -19.5320 
   94.2500     2.2150    63.3900     8.5760     7.9900     8.0960    21.5170   -19.5560 
   94.3750     2.2030    61.8470     8.0270     7.4470     8.1550    21.6040   -19.5680 
   94.5000     2.1950    62.1970     7.7980     7.1610     8.1850    21.6090   -19.5500 
   94.6250     2.1910    63.8480     7.7710     7.0690     8.0020    21.5260   -19.5270 
   94.7500     2.1880    65.8080     7.8530     7.1060     7.7390    21.4530   -19.4460 
   94.8750     2.1840    66.1950     7.9980     7.2290     7.6450    21.5220   -19.3310 
   95.0000     2.1800    65.4020     8.1470     7.3750     7.7240    21.7040   -19.1740 
   95.1250     2.1800    64.9940     8.2410     7.4870     7.9780    21.8990   -18.9840 
   95.2500     2.1840    64.6950     8.2300     7.5120     8.1220    22.0070   -18.8280 
   95.3750     2.1900    65.3670     8.0930     7.4210     8.0030    22.1450   -18.6180 
   95.5000     2.1950    70.3120     7.8970     7.2570     7.6210    22.4360   -18.3850 
   95.6250     2.1990    77.1100     7.6890     7.0530     7.1050    22.8180   -18.0850 
   95.7500     2.2030    79.6540     7.4790     6.8200     6.5990    23.0650   -17.7780 
   95.8750     2.2050    76.4470     7.2170     6.5350     6.5130    23.0790   -17.4270 
   96.0000     2.2070    74.9060     6.8660     6.1900     6.5130    23.0490   -17.0720 
   96.1250     2.2150    75.5040     6.4490     5.8060     6.2090    23.0810   -16.6820 
   96.2500     2.2290    77.0130     6.0670     5.4550     5.5160    23.0610   -16.2210 
   96.3750     2.2420    79.3070     5.9210     5.2720     4.6830    22.8520   -15.8210 
   96.5000     2.2480    79.8150     6.0890     5.3200     4.6260    22.5290   -15.4450 
   96.6250     2.2560    76.0210     6.5490     5.6120     5.2540    22.2890   -15.1060 
   96.7500     2.2820    71.1600     7.1590     6.0760     6.2900    22.1870   -14.7370 
   96.8750     2.3290    69.9470     7.6410     6.5240     6.9470    22.1830   -14.3920 
   97.0000     2.3650    73.1410     7.7890     6.7420     6.9800    22.2300   -14.0220 
   97.1250     2.3660    80.6470     7.5720     6.6420     6.5650    22.4150   -13.6710 
   97.2500     2.3380    91.3110     7.1350     6.3020     6.0120    22.8440   -13.3440 
   97.3750     2.3110    98.3570     6.7200     5.9090     5.6420    23.3280   -13.0390 
   97.5000     2.2960    97.4330     6.4710     5.6210     5.7600    23.7320   -12.7400 
   97.6250     2.2890    91.1190     6.3920     5.4730     6.1740    23.8770   -12.4630 
   97.7500     2.2880    84.6840     6.4120     5.4310     6.4070    23.8790   -12.2690 
   97.8750     2.2900    83.0120     6.4280     5.4250     6.3470    23.9000   -12.1330 
   98.0000     2.2950    87.2640     6.3800     5.3940     5.9060    23.9340   -12.0950 
   98.1250     2.3020    92.1370     6.2810     5.3340     5.5900    23.9480   -12.0930 
   98.2500     2.3060    92.8680     6.1820     5.2730     5.4530    23.9480   -12.1710 
   98.3750     2.3020    91.2850     6.1510     5.2610     5.4340    23.9500   -12.2440 
   98.5000     2.2940    92.5070     6.2060     5.3160     5.4570    23.9350   -12.3620 
   98.6250     2.2940    96.4520     6.3480     5.4410     5.5850    23.9300   -12.5410 
   98.7500     2.3040    99.0190     6.5590     5.6180     5.7020    23.9160   -12.7310 
   98.8750     2.3090    98.3960     6.7990     5.8130     5.8050    23.8100   -12.9160 
   99.0000     2.3010    96.8630     7.0070     5.9790     5.9510    23.6140   -13.0850 
   99.1250     2.2860    96.7380     7.1390     6.0820     6.0450    23.3940   -13.2910 
   99.2500     2.2760    96.9060     7.1750     6.1020     6.1190    23.2240   -13.4870 
   99.3750     2.2760    96.0520     7.1030     6.0240     6.2050    23.1570   -13.7020 
   99.5000     2.2810    96.2110     6.9590     5.8790     6.0760    23.1840   -13.9110 
   99.6250     2.2910    98.2290     6.7580     5.6890     5.8290    23.3450   -14.1250 
   99.7500     2.3050    99.7360     6.5190     5.4770     5.7170    23.5670   -14.3590 
   99.8750     2.3210   101.1570     6.3150     5.3000     5.7370    23.5840   -14.6930 
