~V
VERS. 2.00: Ver 2.00
~W
STRT.M 65.0000:
STOP.M 225.0000:
STEP.M 0.1250:
NULL. -999.2500:
UWI. F11012:
~C
DEPT.M :
SP.MV :
GR.API :
RML.OHMM :
RI. :
RXO.OHMM :
CALI.CM :
DEN.GM/CC :
~A
# ...
  132.5000   -12.5040    57.7820    15.8110    14.3610    15.6960    23.6090     2.5310 
  132.6250   -12.4670    57.6720    16.1950    14.5890    15.6830    23.5940     2.5420 
  132.7500   -12.4230    56.5970    16.7410    15.0420    16.1200    23.6210     2.5470 
  132.8750   -12.3580    55.3130    17.3310    15.5960    17.2240    23.6730     2.5460 
  133.0000   -12.2700    55.8910    17.8990    16.1670    18.4470    23.7490     2.5390 
  133.1250   -12.1830    58.7780    18.3870    16.6820    18.4140    23.7000     2.5240 
  133.2500   -12.0690    61.7700    18.6950    17.0460    17.6650    23.3710     2.5040 
  133.3750   -11.9340    64.3100    18.7540    17.1960    17.7730    22.9370     2.4860 
  133.5000   -11.7890    67.4610    18.5060    17.0760    18.3350    22.7130     2.4740 
  133.6250   -11.6600    69.4160    17.9710    16.6870    18.1010    22.6830     2.4710 
  133.7500   -11.5370    65.4390    17.2380    16.0790    17.3690    22.8940     2.4710 
  133.8750   -11.4390    61.4090    16.4890    15.4070    17.1250    23.1800     2.4720 
  134.0000   -11.3450    62.8540    15.8440    14.7900    15.9520    23.2440     2.4770 
  134.1250   -11.2170    66.4450    15.3740    14.3210    14.4210    22.9480     2.4880 
  134.2500   -11.0830    64.6710    15.0950    14.0520    14.5720    22.6580     2.4980 
  134.3750   -10.9530    60.3150    14.9130    13.9020    15.1560    22.5200     2.5000 
  134.5000   -10.8270    59.0780    14.7680    13.8060    15.1270    22.4450     2.4970 
  134.6250   -10.7010    62.3850    14.6080    13.6980    15.3010    22.3700     2.4940 
  134.7500   -10.5760    65.3430    14.3700    13.5080    15.0500    22.3340     2.4960 
  134.8750   -10.4610    64.0490    14.0740    13.2460    14.0520    22.2420     2.5020 
  135.0000   -10.3640    59.2720    13.7910    12.9740    13.7630    22.0740     2.5080 
  135.1250   -10.3130    55.4730    13.5970    12.7570    14.3660    21.9110     2.5110 
  135.2500   -10.3330    57.2180    13.5510    12.6500    14.3730    21.8440     2.5110 
  135.3750   -10.3990    59.9420    13.6230    12.6380    13.5000    21.8400     2.5150 
  135.5000   -10.4890    59.7410    13.7700    12.7020    13.6530    21.8780     2.5230 
  135.6250   -10.6080    55.6930    13.9500    12.8140    14.4690    21.9410     2.5300 
  135.7500   -10.7570    52.0820    14.1790    12.9850    14.5050    22.0450     2.5270 
  135.8750   -10.9020    52.1390    14.5010    13.2330    13.8540    22.0960     2.5190 
  136.0000   -11.0430    52.4210    14.9460    13.5750    13.9640    22.1050     2.5140 
  136.1250   -11.1720    50.7710    15.5080    14.0060    14.7900    22.0990     2.5120 
  136.2500   -11.2660    49.7970    16.1390    14.5110    15.9320    22.0590     2.5090 
  136.3750   -11.3540    49.7660    16.7260    15.0110    17.1450    21.9730     2.5030 
  136.5000   -11.4460    50.8870    17.1650    15.4190    17.3260    21.9030     2.4940 
  136.6250   -11.5350    54.2470    17.4080    15.6680    17.3950    21.9320     2.4860 
  136.7500   -11.6060    58.5420    17.4660    15.7360    18.1600    22.1350     2.4800 
  136.8750   -11.6700    58.8050    17.4630    15.7170    18.8810    22.5300     2.4730 
  137.0000   -11.7210    54.6010    17.4860    15.6880    18.7340    23.1290     2.4660 
  137.1250   -11.7330    51.9810    17.5900    15.7130    18.4060    23.5180     2.4640 
  137.2500   -11.7070    54.5380    17.8010    15.8330    18.2930    23.5850     2.4690 
  137.3750   -11.6520    56.9010    18.0680    16.0170    18.1650    23.5100     2.4760 
  137.5000   -11.5770    56.2340    18.3380    16.2260    18.1540    23.4930     2.4820 
  137.6250   -11.4850    53.1840    18.5540    16.4160    18.4400    23.5340     2.4880 
  137.7500   -11.3880    51.0510    18.6490    16.5340    18.7850    23.5550     2.4960 
  137.8750   -11.2820    51.5640    18.6290    16.5720    18.8360    23.5380     2.5040 
  138.0000   -11.1710    54.2240    18.5350    16.5460    18.2180    23.5260     2.5090 
  138.1250   -11.0660    55.0440    18.4500    16.5010    17.9110    23.5270     2.5150 
  138.2500   -10.9650    49.6430    18.4950    16.5170    17.9930    23.5150     2.5210 
  138.3750   -10.8660    42.6800    18.6860    16.6370    17.9320    23.4620     2.5250 
  138.5000   -10.7490    39.5800    18.9570    16.8470    17.7250    23.3640     2.5270 
  138.6250   -10.6110    39.6020    19.1690    17.0670    17.9620    23.2790     2.5290 
  138.7500   -10.4330    40.3630    19.1020    17.1230    18.6680    23.1950     2.5320 
  138.8750   -10.2220    42.2180    18.7030    16.9140    18.3430    23.1090     2.5330 
  139.0000    -9.9920    45.7800    18.0330    16.4470    17.3280    23.0220     2.5320 
  139.1250    -9.7590    50.3910    17.2590    15.8420    15.9310    22.8740     2.5310 
  139.2500    -9.5350    53.2290    16.6140    15.2970    14.3280    22.7160     2.5300 
  139.3750    -9.3300    52.5100    16.2020    14.9290    13.3300    22.6110     2.5310 
  139.5000    -9.1660    49.0900    16.0210    14.7540    13.1990    22.5860     2.5340 
  139.6250    -9.0410    45.6240    16.0040    14.7310    13.7510    22.5850     2.5390 
  139.7500    -8.9890    44.6670    16.0710    14.8030    14.0250    22.6080     2.5410 
  139.8750    -9.0030    44.6660    16.1630    14.9180    13.5970    22.6180     2.5370 
  140.0000    -9.0720    44.3870    16.2800    15.0720    12.8470    22.6220     2.5300 
  140.1250    -9.1960    42.6400    16.4220    15.2650    13.2210    22.6150     2.5260 
  140.2500    -9.3600    40.6500    16.5600    15.4790    14.9170    22.6080     2.5300 
  140.3750    -9.5240    40.8940    16.6680    15.6840    16.0740    22.6220     2.5360 
  140.5000    -9.6930    44.0060    16.7510    15.8750    16.1220    22.6570     2.5390 
  140.6250    -9.8580    50.3920    16.8530    16.0760    15.5330    22.6480     2.5370 
  140.7500   -10.0210    56.0750    17.0470    16.3430    15.5720    22.5630     2.5350 
  140.8750   -10.1740    57.2040    17.3410    16.6910    16.3330    22.4780     2.5380 
  141.0000   -10.3180    54.0840    17.6800    17.0800    16.5240    22.4040     2.5460 
  141.1250   -10.4470    49.6230    17.9440    17.4040    16.3600    22.3440     2.5550 
  141.2500   -10.5660    50.2250    17.9690    17.4990    15.4860    22.3230     2.5590 
  141.3750   -10.6890    53.8810    17.7560    17.3550    14.7340    22.2920     2.5560 
  141.5000   -10.8030    57.1610    17.3730    17.0290    14.0950    22.2210     2.5480 
  141.6250   -10.9250    56.7890    16.9390    16.6290    13.6980    22.1500     2.5380 
  141.7500   -11.0400    55.2670    16.6480    16.3050    13.2500    22.0970     2.5280 
  141.8750   -11.1430    56.1510    16.6660    16.2060    12.9520    22.0660     2.5180 
  142.0000   -11.2550    56.5080    17.1460    16.4750    12.9240    21.9980     2.5020 
  142.1250   -11.3980    57.1810    18.2180    17.2470    12.8110    21.9320     2.4710 
  142.2500   -11.5830    62.6400    20.1040    18.7520    13.1010    21.8900     2.4190 
  142.3750   -11.8050    70.2570    22.7410    20.9760    16.5680    21.9480     2.3640 
  142.5000   -12.0590    74.6020    26.1110    23.9500    23.5190    22.2040     2.3220 
  142.6250   -12.3340    73.6030    30.1410    27.6490    31.7280    22.7440     2.2990 
  142.7500   -12.6430    71.2710    37.4420    32.1080    35.6410    23.4650     2.2890 
  142.8750   -12.9980    69.0150    43.0440    37.1190    42.4010    24.0660     2.2800 
  143.0000   -13.3840    67.0140    48.7090    42.3700    54.0050    24.3440     2.2720 
  143.1250   -13.7830    68.0140    53.3390    46.9900    68.1260    24.3640     2.2680 
  143.2500   -14.1910    72.7410    54.7710    48.9910    76.3860    24.2940     2.2730 
  143.3750   -14.5990    75.8240    52.8330    47.9120    77.3680    24.2270     2.2830 
  143.5000   -15.0120    73.8670    49.0130    44.8780    70.0950    24.2050     2.2930 
  143.6250   -15.4270    70.7370    46.0060    42.0830    51.8400    24.2060     2.3020 
