~V
VERS. 2.00: Ver 2.00
~W
STRT.M 57.0000:
STOP.M 276.0000:
STEP.M 0.1250:
NULL. -999.2500:
UWI. F11063:
~C
DEPT.M :
DEN.GM/CC :
GR.API :
RML.OHMM :
RI. :
RXO.OHMM :
CALI.CM :
SP.MV :
~A
# ...
  102.0000     2.1520    66.3350     9.3630     7.0630     7.4100    24.0950   -16.9890 
  102.1250     2.1590    69.4690     8.9460     6.8960     7.0540    24.1230   -17.1700 
  102.2500     2.1690    72.4050     8.4880     6.6550     6.6110    24.1230   -17.2910 
  102.3750     2.1740    73.9520     8.1430     6.4180     6.3870    24.1420   -17.3660 
  102.5000     2.1690    72.9580     8.0310     6.2500     6.6260    24.1690   -17.4280 
  102.6250     2.1530    70.2690     8.2130     6.2140     6.8320    24.2020   -17.5080 
  102.7500     2.1380    68.6540     8.5490     6.2920     7.0190    24.2520   -17.6020 
  102.8750     2.1300    68.3710     8.9120     6.4470     7.0990    24.2980   -17.7200 
  103.0000     2.1300    66.4290     9.2150     6.6370     7.2110    24.3060   -17.8370 
  103.1250     2.1340    61.7780     9.4220     6.8180     7.3210    24.2720   -17.9270 
  103.2500     2.1410    60.2770     9.5920     6.9730     7.3980    24.2180   -17.9960 
  103.3750     2.1490    63.5980     9.7620     7.1100     7.4260    24.1690   -18.0230 
  103.5000     2.1590    67.2180     9.9380     7.2460     7.3890    24.0890   -17.9900 
  103.6250     2.1750    65.4020    10.0890     7.3900     7.4780    23.9340   -17.8940 
  103.7500     2.1890    62.0310    10.1910     7.5200     7.5400    23.8360   -17.7670 
  103.8750     2.1910    60.2790    10.2140     7.6090     7.4500    23.8310   -17.6360 
  104.0000     2.1700    61.5750    10.1370     7.6340     7.2930    23.8930   -17.5260 
  104.1250     2.1380    63.0440     9.9550     7.5750     7.0490    24.0030   -17.4440 
  104.2500     2.1210    62.0790     9.7320     7.4630     6.7240    24.0340   -17.3550 
  104.3750     2.1280    59.6910     9.5240     7.3290     6.4130    23.8380   -17.2530 
  104.5000     2.1530    58.5230     9.3830     7.2000     6.1340    23.4820   -17.1410 
  104.6250     2.1770    62.0030     9.3410     7.1070     6.0300    23.2730   -17.0190 
  104.7500     2.1840    67.3710     9.3590     7.0600     6.0020    23.2050   -16.8850 
  104.8750     2.1750    70.2820     9.4150     7.0620     6.0690    23.2020   -16.7330 
  105.0000     2.1610    69.5970     9.5070     7.1000     6.3560    23.1900   -16.5620 
  105.1250     2.1530    67.2630     9.6090     7.1480     6.7820    23.1450   -16.3910 
  105.2500     2.1520    65.0410     9.6130     7.1630     6.9290    23.1150   -16.2380 
  105.3750     2.1540    62.8160     9.4100     7.1190     6.7690    23.1350   -16.0950 
  105.5000     2.1540    60.6620     8.9910     7.0120     6.7100    23.1470   -15.9390 
  105.6250     2.1510    60.4850     8.5220     6.8850     6.7620    23.1980   -15.7640 
  105.7500     2.1520    60.7700     8.2640     6.8160     6.9390    23.1490   -15.5700 
  105.8750     2.1590    59.9980     8.3570     6.8690     7.2360    23.0140   -15.3400 
  106.0000     2.1710    58.1680     8.8020     7.0780     7.8580    22.9030   -15.0790 
  106.1250     2.1800    56.5620     9.4900     7.4510     8.4890    22.8580   -14.7580 
  106.2500     2.1820    57.0420    10.1590     7.8770     8.5170    22.8840   -14.3830 
  106.3750     2.1780    58.9430    10.5960     8.2230     8.1560    23.0670   -13.9530 
  106.5000     2.1740    60.2940    10.6250     8.3290     7.9400    23.5060   -13.4800 
  106.6250     2.1750    61.1900    10.1370     8.0390     7.7930    24.0890   -12.9700 
  106.7500     2.1840    64.3980     9.3710     7.4670     7.5830    24.4840   -12.4180 
  106.8750     2.2010    70.4380     8.5470     6.7740     6.9810    24.6020   -11.8330 
  107.0000     2.2250    76.4380     7.8430     6.1230     6.0650    24.5610   -11.2400 
  107.1250     2.2450    78.4440     7.3850     5.6470     5.7610    24.4940   -10.6840 
  107.2500     2.2550    78.2430     7.1140     5.3440     5.9080    24.4540   -10.1810 
  107.3750     2.2580    79.0000     6.9560     5.1830     6.0530    24.4430    -9.7460 
  107.5000     2.2620    80.5150     6.8200     5.1070     6.0070    24.4780    -9.3840 
  107.6250     2.2690    79.5710     6.6290     5.0510     5.6320    24.5640    -9.1200 
  107.7500     2.2750    75.8400     6.3910     4.9830     5.6360    24.5880    -8.9600 
  107.8750     2.2740    72.3520     6.1730     4.9160     5.6740    24.5670    -8.9000 
  108.0000     2.2690    72.9990     6.0500     4.8790     5.6540    24.5590    -8.9020 
  108.1250     2.2640    77.7950     6.0820     4.9010     5.4040    24.5570    -8.9280 
  108.2500     2.2590    80.1940     6.2400     4.9790     5.4140    24.4930    -8.9660 
  108.3750     2.2520    77.2810     6.5030     5.1010     5.6000    24.3760    -9.0410 
  108.5000     2.2440    72.1790     6.8200     5.2350     5.8320    24.2810    -9.1710 
  108.6250     2.2380    71.0270     7.0720     5.3320     5.9360    24.2370    -9.3450 
  108.7500     2.2330    71.7610     7.1390     5.3330     5.9190    24.2630    -9.5400 
  108.8750     2.2290    71.9900     6.9440     5.1950     5.9550    24.2790    -9.7440 
  109.0000     2.2310    72.5840     6.5210     4.9330     6.0830    24.3020    -9.9580 
  109.1250     2.2440    75.4690     6.0790     4.6610     5.8900    24.3330   -10.1900 
  109.2500     2.2640    78.5320     5.9060     4.5440     5.8040    24.3360   -10.4190 
  109.3750     2.2860    79.4700     6.2060     4.7150     5.9690    24.2650   -10.6200 
  109.5000     2.3160    76.7890     7.1350     5.3010     6.2810    24.1480   -10.8190 
  109.6250     2.3640    71.5900     8.8740     6.4990     6.6900    24.0170   -11.0640 
  109.7500     2.4180    66.3570    11.1060     8.2150     7.3000    23.8950   -11.3620 
  109.8750     2.4630    63.2080    13.2800    10.1660     7.6880    23.9250   -11.7280 
  110.0000     2.4960    63.0530    14.5860    11.7220     7.5120    24.0920   -12.1490 
  110.1250     2.5060    63.0720    14.1660    11.9480     7.2280    24.1690   -12.5730 
  110.2500     2.4740    63.1880    12.5550    10.9900     6.7930    24.0650   -12.9730 
  110.3750     2.3920    64.4460    10.5700     9.4480     6.6290    23.9290   -13.3410 
  110.5000     2.2920    65.8100     8.8880     7.9170     6.5440    23.9850   -13.6380 
  110.6250     2.2240    66.3120     7.8410     6.7660     6.4160    24.1410   -13.8340 
  110.7500     2.1990    68.2780     7.2690     5.9910     6.3170    24.2580   -13.9560 
  110.8750     2.2050    73.3680     7.0380     5.5460     6.2680    24.3150   -14.0090 
  111.0000     2.2230    78.6890     7.0070     5.3500     6.2290    24.3340   -14.0290 
  111.1250     2.2380    79.9430     7.0340     5.3210     6.1230    24.3570   -14.0720 
  111.2500     2.2470    78.6750     7.0420     5.3500     5.9830    24.3310   -14.1850 
  111.3750     2.2440    76.4030     7.0650     5.4110     5.9430    24.3110   -14.3850 
  111.5000     2.2320    74.1840     7.1630     5.5080     6.0420    24.3000   -14.6760 
  111.6250     2.2120    72.1830     7.3780     5.6650     6.2230    24.2890   -15.0440 
  111.7500     2.1920    69.1490     7.6490     5.8750     6.4000    24.2760   -15.4510 
  111.8750     2.1710    65.7010     7.9030     6.1170     6.7110    24.2500   -15.8770 
  112.0000     2.1490    64.1530     8.0790     6.3510     7.0940    24.1900   -16.3060 
  112.1250     2.1330    64.9960     8.2040     6.5630     7.4420    24.1880   -16.7360 
  112.2500     2.1320    65.0680     8.4700     6.8350     7.6620    24.2350   -17.1180 
  112.3750     2.1500    63.7860     9.1220     7.3210     7.7950    24.2990   -17.4210 
  112.5000     2.1910    63.1290    10.3680     8.1930     7.8540    24.3840   -17.6300 
  112.6250     2.2640    63.5590    12.3580     9.6450     8.2900    24.5290   -17.7630 
  112.7500     2.3620    62.5520    14.6380    11.4580    10.4870    24.5890   -17.8620 
  112.8750     2.4600    59.9710    16.4620    13.1190    15.0870    24.5660   -17.9250 
  113.0000     2.5130    58.7220    16.9420    13.8570    17.0130    24.4700   -17.9290 
  113.1250     2.4730    60.2170    15.5340    13.0420    12.9790    24.3510   -17.8670 
