~V
VERS. 2.00: Ver 2.00
~W
STRT.M 50.0000:
STOP.M 276.0000:
STEP.M 0.1250:
NULL. -999.2500:
UWI. F11044:
~C
DEPT.M :
SP.MV :
GR.API :
RML.OHMM :
RI. :
RXO.OHMM :
CALI.CM :
DEN.GM/CC :
~A
# ...
  151.2500    -4.0020   100.7760     5.0910     4.0830     5.2430    24.9770     2.3500 
  151.3750    -4.0550   101.3810     5.0870     4.1450     5.4320    24.9990     2.3530 
  151.5000    -4.0760   101.8400     5.0930     4.1980     5.3990    25.0170     2.3510 
  151.6250    -4.1820   101.2460     5.1230     4.2410     4.9890    25.0220     2.3450 
  151.7500    -4.2300   100.3720     5.1740     4.2740     4.9100    25.0220     2.3390 
  151.8750    -4.2680    99.7520     5.2340     4.2900     5.1450    25.0230     2.3380 
  152.0000    -4.4220    99.0220     5.2830     4.2780     5.2570    25.0220     2.3440 
  152.1250    -4.5870    97.7520     5.2820     4.2310     5.2050    25.0130     2.3520 
  152.2500    -4.6590    97.7680     5.2140     4.1540     5.0720    25.0050     2.3600 
  152.3750    -4.7510    97.0200     5.0840     4.0560     4.9920    25.0100     2.3640 
  152.5000    -4.8450    94.3780     4.9320     3.9450     5.0220    25.0190     2.3620 
  152.6250    -4.8370    92.2810     4.8550     3.8470     5.1660    25.0240     2.3560 
  152.7500    -4.9060    92.4900     4.9620     3.8180     5.2470    25.0240     2.3480 
  152.8750    -5.0330    92.9480     5.3690     3.9450     5.4300    25.0240     2.3460 
  153.0000    -5.1020    89.9800     6.1770     4.3300     5.8080    25.0260     2.3580 
  153.1250    -5.1850    85.1110     7.5000     5.1370     6.7340    25.0370     2.3820 
  153.2500    -5.2720    81.6570     9.1410     6.3380     9.5390    25.0490     2.4030 
  153.3750    -5.3490    77.5710    10.8030     7.8100    15.3710    25.0490     2.4010 
  153.5000    -5.4550    72.0910    12.1130     9.2400    22.8880    25.0630     2.3720 
  153.6250    -5.5410    72.9670    12.7660    10.1790    23.4250    25.1030     2.3330 
  153.7500    -5.5760    79.8260    13.0910    10.6850    18.7210    25.1500     2.3150 
  153.8750    -5.5730    83.3560    13.5990    11.1310    14.1420    25.1880     2.3300 
  154.0000    -5.5250    78.3910    14.7960    11.9790    13.8030    25.1930     2.3610 
  154.1250    -5.4590    72.7650    17.0380    13.7470    18.9890    25.1730     2.3730 
  154.2500    -5.4610    72.1890    19.7890    16.3260    27.9130    25.1800     2.3490 
  154.3750    -5.4100    72.9050    22.1980    19.1480    34.1910    25.2520     2.2990 
  154.5000    -5.2810    73.2000    23.3270    21.1190    35.4190    25.3200     2.2510 
  154.6250    -5.2330    74.0380    22.4520    21.0420    34.8620    25.3090     2.2330 
  154.7500    -5.1950    75.5340    20.3230    19.5090    30.8670    25.2460     2.2400 
  154.8750    -5.1320    75.7200    17.7100    17.3120    24.3440    25.1770     2.2560 
  155.0000    -5.1660    74.7590    15.1850    15.0100    17.9680    25.1460     2.2690 
  155.1250    -5.2430    74.9020    13.0580    12.8830    16.9460    25.1700     2.2760 
  155.2500    -5.2880    78.2090    11.3490    11.0230    16.3920    25.1470     2.2850 
  155.3750    -5.4430    84.9020    10.1340     9.5540    11.4170    25.0780     2.2990 
  155.5000    -5.7500    89.7560     9.5070     8.5850     7.9590    25.0260     2.3150 
  155.6250    -6.0650    89.4280     9.6490     8.2730     7.8020    25.0080     2.3260 
  155.7500    -6.4550    88.4090    10.4500     8.5600     9.9520    25.0300     2.3280 
  155.8750    -6.9740    87.6940    11.8250     9.4780    13.6000    25.0570     2.3230 
  156.0000    -7.4620    84.7040    13.5970    11.0080    16.0840    25.0690     2.3120 
  156.1250    -7.9220    79.2190    15.4990    13.0080    16.2430    25.0850     2.2980 
  156.2500    -8.4200    76.7170    17.2690    15.0220    17.7830    25.1430     2.2860 
  156.3750    -8.8520    76.7520    18.8720    16.7800    21.6800    25.1980     2.2780 
  156.5000    -9.2380    77.3460    20.4830    18.3050    24.7640    25.2270     2.2750 
  156.6250    -9.6230    79.0640    22.5540    19.9830    23.8100    25.2380     2.2720 
  156.7500    -9.9050    79.5800    25.4220    22.2890    24.1320    25.2460     2.2630 
  156.8750   -10.1200    75.8740    29.2330    25.6090    26.2650    25.2690     2.2460 
  157.0000   -10.3150    68.9370    33.6220    30.0060    34.2620    25.3040     2.2220 
  157.1250   -10.4370    64.2200    37.0050    34.4160    50.1150    25.2230     2.1990 
  157.2500   -10.5490    63.3880    37.5800    36.4410    55.4820    25.0420     2.1840 
  157.3750   -10.6760    65.1190    34.8130    34.4070    49.9340    24.9030     2.1810 
  157.5000   -10.7130    69.0450    29.8490    29.0590    39.0160    24.8310     2.1910 
  157.6250   -10.7580    74.0200    24.7390    23.1530    26.0880    24.7750     2.2130 
  157.7500   -10.8380    77.6900    20.8550    18.7420    16.6880    24.7210     2.2390 
  157.8750   -10.8700    80.3000    18.6150    16.1720    13.3860    24.6880     2.2610 
  158.0000   -10.9370    81.9170    18.0600    15.1820    14.2320    24.6960     2.2760 
  158.1250   -11.1290    81.5100    18.8970    15.5210    19.4880    24.7020     2.2820 
  158.2500   -11.2830    78.8980    20.0680    16.5140    23.7660    24.6890     2.2810 
  158.3750   -11.3840    76.7480    20.8650    17.5700    22.1590    24.6370     2.2770 
  158.5000   -11.5590    77.6170    20.7920    18.0460    18.3810    24.5580     2.2780 
  158.6250   -11.7000    81.0640    19.6840    17.4840    16.2860    24.4850     2.2900 
  158.7500   -11.6810    84.3450    18.1530    16.3430    15.9400    24.4200     2.3100 
  158.8750   -11.5610    87.0980    16.7120    15.1040    15.6280    24.3870     2.3260 
  159.0000   -11.4050    88.2050    15.7020    14.1140    14.0850    24.4070     2.3310 
  159.1250   -11.1360    85.9050    15.3200    13.6070    12.4330    24.5130     2.3190 
  159.2500   -10.8950    83.0860    15.3900    13.5280    12.5050    24.5750     2.2990 
  159.3750   -10.7510    80.8490    15.7520    13.8120    14.0200    24.5700     2.2800 
  159.5000   -10.5400    81.7510    16.2170    14.3450    16.5520    24.5370     2.2680 
  159.6250   -10.3180    87.5600    16.5700    14.9540    16.9370    24.5330     2.2630 
  159.7500   -10.2380    94.3330    16.7050    15.4330    16.9470    24.5570     2.2600 
  159.8750   -10.2160    96.0520    16.6270    15.6810    17.1040    24.5910     2.2590 
  160.0000   -10.2250    90.7070    16.4390    15.7170    17.1440    24.6050     2.2620 
  160.1250   -10.2720    85.7150    16.3370    15.6830    16.8630    24.6060     2.2690 
  160.2500   -10.2410    84.7430    16.4710    15.7750    15.9960    24.5880     2.2770 
  160.3750   -10.1480    84.7350    16.8910    16.1130    15.3550    24.5920     2.2810 
  160.5000   -10.0780    84.4480    17.5130    16.7220    14.9810    24.6230     2.2780 
  160.6250    -9.9660    84.9990    18.0200    17.4370    16.5310    24.6530     2.2700 
  160.7500    -9.8570    85.4390    18.0120    17.8040    19.1320    24.6700     2.2640 
  160.8750    -9.8340    84.7150    17.2360    17.3690    20.5870    24.6830     2.2670 
  161.0000    -9.7890    85.2680    15.7470    15.9790    19.8200    24.7140     2.2810 
  161.1250    -9.7080    92.0860    14.0000    14.0110    15.9920    24.7500     2.3080 
  161.2500    -9.7280    99.5280    12.7160    12.2940    12.8090    24.7600     2.3350 
  161.3750    -9.8260   101.3500    12.4140    11.3210    11.7520    24.7480     2.3520 
  161.5000    -9.9560    98.4600    13.4190    11.3840    12.0800    24.7170     2.3520 
  161.6250   -10.2190    95.0180    16.0420    12.9720    14.5820    24.6850     2.3320 
  161.7500   -10.5270    91.9610    19.7080    16.0680    20.7600    24.6590     2.3030 
  161.8750   -10.7670    87.3390    23.5830    20.4080    32.0370    24.6650     2.2760 
  162.0000   -10.9690    82.8250    26.4560    24.7880    41.5200    24.6890     2.2620 
  162.1250   -11.2300    82.6680    26.9470    26.7210    42.8170    24.7090     2.2670 
  162.2500   -11.4340    87.1370    25.5670    25.8780    36.8410    24.7420     2.2860 
  162.3750   -11.5800    94.3580    23.5170    23.6530    29.4650    24.8000     2.3060 
