~V
VERS. 2.00: Ver 2.00
~W
STRT.M 49.0000:
STOP.M 284.0000:
STEP.M 0.1250:
NULL. -999.2500:
UWI. F11034:
~C
DEPT.M :
GR.API :
RML.OHMM :
RI. :
RXO.OHMM :
CALI.CM :
DEN.GM/CC :
SP.MV :
~A
# ...
  184.0000    65.7640   109.1710   104.6490    87.9860    25.4320     2.2560   -20.7650 
  184.1250    63.7630   121.9770   116.5220   104.8830    25.4610     2.2470   -20.7830 
  184.2500    61.3370   136.4430   130.0440   123.6090    25.4770     2.2370   -20.8440 
  184.3750    61.1620   150.7740   143.4720   138.2780    25.4860     2.2290   -20.9100 
  184.5000    61.7880   162.4640   154.3680   151.7000    25.4420     2.2250   -20.9600 
  184.6250    61.1060   170.3140   161.5320   162.0270    25.3130     2.2250   -20.9910 
  184.7500    60.2310   174.2890   164.8710   169.7100    25.1400     2.2270   -21.0360 
  184.8750    60.3970   175.2200   165.1660   171.8000    25.0160     2.2320   -21.1280 
  185.0000    59.3920   174.1180   163.5190   170.3960    25.0000     2.2360   -21.2420 
  185.1250    56.0120   172.1130   161.2860   166.9290    25.1120     2.2380   -21.3020 
  185.2500    52.9570   169.8450   159.3460   162.7020    25.2980     2.2370   -21.3030 
  185.3750    52.6380   167.7630   158.2860   158.6220    25.4380     2.2350   -21.2940 
  185.5000    53.4990   166.5230   158.7910   157.4480    25.4880     2.2330   -21.2870 
  185.6250    54.0190   166.6920   161.1600   159.5020    25.4950     2.2310   -21.2640 
  185.7500    54.4950   168.8310   165.7290   161.3420    25.4900     2.2300   -21.1810 
  185.8750    54.6860   173.8530   172.7380   163.6520    25.4620     2.2290   -21.0220 
  186.0000    53.7030   181.5300   181.9610   169.3180    25.3760     2.2290   -20.8190 
  186.1250    53.8780   190.1290   191.0320   179.1750    25.2620     2.2280   -20.6350 
  186.2500    56.1490   195.0560   195.9200   191.2780    25.2410     2.2260   -20.4930 
  186.3750    58.5410   189.9120   191.8030   202.2270    25.2910     2.2230   -20.3490 
  186.5000    59.7030   168.5800   172.9420   210.3630    25.3210     2.2180   -20.1690 
  186.6250    60.7820   133.2990   141.4880   200.6750    25.3100     2.2160   -19.9860 
  186.7500    62.2480    94.9860   105.1330   167.7580    25.2890     2.2220   -19.8530 
  186.8750    63.1440    65.9360    73.6770   122.1830    25.2390     2.2400   -19.7930 
  187.0000    64.7350    49.5620    54.5400    79.1580    25.1470     2.2640   -19.8070 
  187.1250    66.9350    44.2690    46.8640    53.6270    25.0730     2.2820   -19.8550 
  187.2500    67.3420    48.8940    49.1740    59.4570    25.0810     2.2870   -19.9150 
  187.3750    65.5720    62.9140    61.1630    89.9440    25.1450     2.2770   -20.0240 
  187.5000    63.1040    86.5490    83.9110   138.0670    25.2260     2.2600   -20.2260 
  187.6250    60.6350   116.4230   114.5210   181.1520    25.3140     2.2460   -20.4720 
  187.7500    58.5240   148.7600   148.3430   188.3930    25.4090     2.2350   -20.7040 
  187.8750    57.6270   178.1890   179.1520   177.4080    25.5230     2.2250   -20.8970 
  188.0000    57.9040   199.8450   199.9130   176.3900    25.6450     2.2120   -21.0630 
  188.1250    57.5430   214.5890   211.0880   186.9890    25.7560     2.1980   -21.2220 
  188.2500    55.6390   222.5490   215.6380   205.7240    25.8110     2.1870   -21.3610 
  188.3750    53.4520   223.3380   214.8620   222.6720    25.7870     2.1830   -21.4530 
  188.5000    51.9570   217.1450   207.6390   224.5650    25.6970     2.1880   -21.4960 
  188.6250    51.5430   205.6020   195.2490   209.7180    25.5540     2.2000   -21.5250 
  188.7500    53.5350   191.5130   180.3570   178.9660    25.3890     2.2140   -21.5660 
  188.8750    57.4240   177.9810   165.9820   143.1780    25.1970     2.2270   -21.6250 
  189.0000    60.2700   167.4200   154.7120   124.8690    25.0230     2.2370   -21.6800 
  189.1250    60.7880   159.6890   146.6310   122.6140    24.9550     2.2430   -21.7000 
  189.2500    60.0240   153.7150   140.7970   128.6260    25.0600     2.2460   -21.7120 
  189.3750    59.5260   148.2920   136.0080   134.7630    25.2690     2.2490   -21.7290 
  189.5000    59.8250   142.4960   131.2390   135.5220    25.4210     2.2530   -21.7420 
  189.6250    60.6820   136.3330   126.2400   130.1650    25.4650     2.2570   -21.7520 
  189.7500    60.3950   130.3810   121.4080   121.0760    25.4570     2.2610   -21.7480 
  189.8750    57.4900   125.2250   117.2780   110.7610    25.4460     2.2630   -21.7240 
  190.0000    54.8140   121.0930   114.1410   104.4800    25.4450     2.2610   -21.6900 
  190.1250    55.2600   117.4300   111.5320   104.0710    25.4450     2.2570   -21.6900 
  190.2500    56.9820   113.5920   108.8280   108.3570    25.4430     2.2540   -21.7230 
  190.3750    56.9770   109.1510   105.5520   111.7110    25.4350     2.2560   -21.7530 
  190.5000    55.8570   104.0450   101.5040   106.8300    25.4270     2.2610   -21.7550 
  190.6250    56.2510    98.7880    97.0850    96.4480    25.4120     2.2690   -21.7550 
  190.7500    57.9000    93.9310    92.7920    88.5800    25.3790     2.2770   -21.7890 
  190.8750    59.1960    89.8190    88.9810    84.7210    25.3380     2.2830   -21.8730 
  191.0000    59.4440    86.5520    85.7910    83.3790    25.3070     2.2850   -21.9740 
  191.1250    60.2300    83.7530    82.9420    80.4070    25.2590     2.2830   -22.0530 
  191.2500    61.8120    81.0750    80.1370    75.9750    25.1230     2.2820   -22.1120 
  191.3750    63.7470    78.4190    77.2740    71.4110    24.8390     2.2820   -22.1940 
  191.5000    63.7090    76.2160    74.7020    67.1930    24.4940     2.2850   -22.3340 
  191.6250    60.8950    75.2480    73.1270    64.0890    24.2950     2.2890   -22.4940 
  191.7500    57.8150    76.4750    73.4340    61.7460    24.3930     2.2920   -22.6280 
  191.8750    57.7440    80.8100    76.4970    60.8250    24.7140     2.2910   -22.7290 
  192.0000    59.8600    89.3330    83.4160    67.1690    25.0280     2.2840   -22.8430 
  192.1250    59.3070   101.4230    93.7710    82.3870    25.2140     2.2710   -23.0030 
  192.2500    55.3800   115.7500   106.4690   105.3070    25.3090     2.2580   -23.1840 
  192.3750    53.0770   130.2870   119.6930   133.5490    25.3460     2.2480   -23.3480 
  192.5000    56.1210   142.0330   130.6150   153.0660    25.3250     2.2450   -23.4650 
  192.6250    59.9920   149.3950   137.5320   153.6900    25.2700     2.2470   -23.5470 
  192.7500    60.9570   152.4090   140.2400   141.3610    25.2280     2.2500   -23.6280 
  192.8750    60.4360   152.5350   139.9070   132.5340    25.2110     2.2530   -23.7430 
  193.0000    60.4890   151.8400   138.3870   130.2670    25.2120     2.2550   -23.8640 
  193.1250    59.3300   151.8030   137.2740   127.1020    25.2290     2.2560   -23.9380 
  193.2500    56.0290   152.8150   137.1660   122.8010    25.2630     2.2550   -23.9820 
  193.3750    53.1890   154.6550   138.0160   120.7710    25.2960     2.2530   -24.0280 
  193.5000    53.7780   156.8320   139.5070   122.0060    25.3270     2.2480   -24.1110 
  193.6250    56.4380   158.7290   141.0880   126.9480    25.3720     2.2410   -24.2140 
  193.7500    58.9480   159.8130   142.2570   133.8940    25.4290     2.2350   -24.3030 
  193.8750    60.3080   159.7100   142.6180   138.8530    25.4680     2.2310   -24.3300 
  194.0000    60.7800   158.2830   141.9350   139.0550    25.4810     2.2300   -24.3160 
  194.1250    60.7550   156.1590   140.6170   136.1780    25.4810     2.2320   -24.3280 
  194.2500    60.3460   154.0610   139.2270   133.6730    25.4780     2.2350   -24.3590 
  194.3750    60.2870   152.5470   138.2510   133.5630    25.4750     2.2380   -24.3890 
  194.5000    60.9830   151.9100   138.0050   136.0820    25.4770     2.2390   -24.3970 
  194.6250    60.5160   151.7400   138.2070   140.2030    25.4800     2.2400   -24.4090 
  194.7500    57.3770   151.3790   138.3210   144.9770    25.4820     2.2420   -24.4400 
  194.8750    52.1550   150.1800   137.7720   147.3670    25.4760     2.2470   -24.4970 
  195.0000    49.1170   147.6260   136.0440   145.4600    25.4600     2.2520   -24.5290 
  195.1250    50.4210   144.0460   133.3280   141.1760    25.4380     2.2540   -24.5000 
