~V
VERS. 2.00: Ver 2.00
~W
STRT.M 40.0000:
STOP.M 275.0000:
STEP.M 0.1250:
NULL. -999.2500:
UWI. F11027:
~C
DEPT.M :
DEN.GM/CC :
GR.API :
RML.OHMM :
RI. :
RXO.OHMM :
CALI.CM :
SP.MV :
~A
# ...
   85.0000     2.2870    74.0040     8.3360     6.9410     7.0280    25.4920   -18.7190 
   85.1250     2.2710    77.2960     7.6910     6.3090     6.1350    25.3280   -16.7210 
   85.2500     2.2510    80.0810     7.4320     5.9490     5.8930    25.0790   -15.0120 
   85.3750     2.2360    81.0610     7.5090     5.8860     6.3850    24.7330   -13.6180 
   85.5000     2.2290    80.9030     7.7390     6.0390     7.3180    24.5270   -12.5240 
   85.6250     2.2320    81.0630     7.8410     6.2230     8.6040    24.6270   -11.7170 
   85.7500     2.2440    80.2730     7.6670     6.2290     8.9090    24.9330   -11.1050 
   85.8750     2.2640    80.8940     7.2310     5.9890     7.1400    25.2330   -10.6770 
   86.0000     2.2910    87.8940     6.6790     5.5780     5.4120    25.3520   -10.3820 
   86.1250     2.3190    96.9890     6.2370     5.1680     4.6870    25.3050   -10.1610 
   86.2500     2.3400    98.2030     6.0240     4.8940     4.6390    25.2670    -9.8510 
   86.3750     2.3500    93.6410     6.0590     4.8000     4.6970    25.2440    -9.5140 
   86.5000     2.3480    89.6080     6.2880     4.8800     4.9420    25.1850    -9.2350 
   86.6250     2.3340    87.8460     6.6140     5.1000     5.4760    25.0650    -9.1420 
   86.7500     2.3160    86.1940     6.9110     5.3510     5.9640    24.9740    -9.2620 
   86.8750     2.2970    85.0670     7.1180     5.5560     6.0240    24.9380    -9.4470 
   87.0000     2.2800    84.5080     7.2340     5.6830     6.0970    24.9220    -9.7410 
   87.1250     2.2640    84.0130     7.3230     5.7580     6.4110    24.8750   -10.1750 
   87.2500     2.2470    84.0350     7.4800     5.8610     6.5690    24.8920   -10.6350 
   87.3750     2.2320    82.2130     7.7510     6.0450     6.4250    24.9090   -11.0820 
   87.5000     2.2200    78.3200     8.1190     6.3260     6.5290    24.8300   -11.4750 
   87.6250     2.2140    78.3350     8.4940     6.6640     7.1880    24.6270   -11.8180 
   87.7500     2.2140    80.1880     8.7620     6.9600     7.9180    24.4390   -12.1180 
   87.8750     2.2180    79.4720     8.8700     7.1350     7.9150    24.2830   -12.3780 
   88.0000     2.2230    75.5920     8.8360     7.1660     7.5780    24.1310   -12.5550 
   88.1250     2.2260    74.3660     8.7500     7.0860     7.4220    23.9880   -12.6190 
   88.2500     2.2260    76.0690     8.7270     7.0050     7.3540    23.9110   -12.6740 
   88.3750     2.2240    77.7440     8.8020     6.9830     7.3270    23.8910   -12.7650 
   88.5000     2.2220    77.0920     8.9210     7.0160     7.4290    23.9210   -12.8600 
   88.6250     2.2260    75.2860     8.9150     6.9980     7.7920    24.0330   -12.9090 
   88.7500     2.2380    76.9390     8.6580     6.8010     8.1120    24.2080   -12.8270 
   88.8750     2.2590    82.8440     8.1300     6.3770     7.8920    24.3670   -12.6710 
   89.0000     2.2820    90.4970     7.4610     5.8050     7.0220    24.4150   -12.4820 
   89.1250     2.2910    95.4750     6.9730     5.2900     6.0110    24.4240   -12.2910 
   89.2500     2.2770    97.6300     6.9800     5.0360     5.5080    24.4510   -12.1800 
   89.3750     2.2530    96.6710     7.7330     5.2090     6.0690    24.4780   -12.1180 
   89.5000     2.2480    89.6140     9.3690     5.9650     8.0070    24.4740   -12.1030 
   89.6250     2.3010    78.5240    11.8990     7.5570    11.8860    24.4780   -12.1580 
   89.7500     2.4020    69.3350    14.6320     9.8080    13.5290    24.4000   -12.3260 
   89.8750     2.5150    65.4650    16.6990    12.2030    16.9000    24.1770   -12.6360 
   90.0000     2.5890    65.6480    17.2760    13.7230    18.8860    23.9960   -13.0860 
   90.1250     2.5760    67.6850    15.9240    13.3120    16.0020    23.9220   -13.6700 
   90.2500     2.4980    70.5070    13.6780    11.7710    12.4090    23.9110   -14.3000 
   90.3750     2.3910    71.5120    11.4660    10.0130    10.2500    23.9460   -14.8890 
   90.5000     2.2930    71.6200     9.8810     8.5850     9.4480    24.0040   -15.4050 
   90.6250     2.2280    70.6550     9.1490     7.7230     9.3090    24.0190   -15.9230 
   90.7500     2.1910    68.2890     8.9390     7.2880     9.1470    23.9650   -16.5590 
   90.8750     2.1720    67.0150     9.0200     7.1610     9.0400    23.8810   -17.2230 
   91.0000     2.1620    68.8060     9.2090     7.2250     9.0760    23.8200   -17.8470 
   91.1250     2.1540    72.2070     9.3830     7.3880     9.2240    23.7950   -18.2740 
   91.2500     2.1470    72.9280     9.4960     7.5650     9.2770    23.8050   -18.5640 
   91.3750     2.1380    71.6180     9.5450     7.7210     9.2520    23.8190   -18.7760 
   91.5000     2.1310    71.1000     9.5360     7.8280     9.1980    23.8260   -18.9820 
   91.6250     2.1290    70.9420     9.4690     7.8590     9.2440    23.8230   -19.2140 
   91.7500     2.1340    70.0010     9.3480     7.8200     9.3980    23.8300   -19.2930 
   91.8750     2.1460    67.7790     9.1600     7.6990     9.4840    23.8770   -19.2170 
   92.0000     2.1630    66.2980     8.8970     7.4850     9.2670    23.9870   -18.9270 
   92.1250     2.1830    69.9190     8.5680     7.1680     8.8980    24.1250   -18.4620 
   92.2500     2.2000    75.3860     8.2370     6.8070     8.3210    24.2640   -17.7760 
   92.3750     2.2110    79.2420     7.9620     6.4660     7.4870    24.3680   -16.9360 
   92.5000     2.2170    82.0420     7.7720     6.1960     6.9180    24.4090   -15.9550 
   92.6250     2.2160    83.1900     7.6660     6.0170     6.6650    24.4100   -14.8940 
   92.7500     2.2150    81.5340     7.5890     5.8960     6.5790    24.4100   -13.7820 
   92.8750     2.2150    80.0150     7.5110     5.8200     6.4480    24.4100   -12.6880 
   93.0000     2.2160    82.2930     7.4300     5.7870     6.4010    24.4110   -11.7370 
   93.1250     2.2170    86.3080     7.3720     5.8180     6.2420    24.4200   -11.0310 
   93.2500     2.2150    87.3390     7.3490     5.8970     6.1470    24.4320   -10.5220 
   93.3750     2.2110    85.0560     7.3510     5.9960     6.1490    24.4290   -10.1380 
   93.5000     2.2050    81.5770     7.3430     6.0710     6.1900    24.4200    -9.8750 
   93.6250     2.2000    81.2450     7.2770     6.0760     6.1890    24.4290    -9.6590 
   93.7500     2.1970    86.4830     7.1440     6.0090     6.2020    24.4500    -9.5370 
   93.8750     2.1960    91.7810     6.9630     5.8870     6.3310    24.4450    -9.4600 
   94.0000     2.1960    91.6190     6.7780     5.7520     6.5380    24.4270    -9.4480 
   94.1250     2.1940    87.7300     6.6610     5.6650     6.6870    24.4080    -9.3860 
   94.2500     2.1890    85.3260     6.6480     5.6530     6.8320    24.3830    -9.3960 
   94.3750     2.1820    83.8060     6.7530     5.7300     7.0110    24.3760    -9.4620 
   94.5000     2.1760    80.9880     6.9540     5.8890     7.2270    24.3750    -9.5400 
   94.6250     2.1750    77.4570     7.1980     6.0960     7.3960    24.4120    -9.6130 
   94.7500     2.1810    77.0850     7.3950     6.2780     7.4860    24.4680    -9.6920 
   94.8750     2.1940    80.3790     7.4810     6.3780     7.4490    24.5690    -9.8360 
   95.0000     2.2100    84.8370     7.4190     6.3540     7.3230    24.7080    -9.8940 
   95.1250     2.2240    89.6130     7.1980     6.1780     6.9990    24.8080    -9.9350 
   95.2500     2.2330    94.2680     6.9070     5.9020     6.3950    24.8470    -9.8660 
   95.3750     2.2360    95.6920     6.6460     5.5940     5.8940    24.8370    -9.7980 
   95.5000     2.2350    93.7440     6.5390     5.3430     5.7120    24.7790    -9.7780 
   95.6250     2.2340    90.6300     6.7840     5.2830     5.7050    24.6910    -9.8600 
   95.7500     2.2370    90.1420     7.4870     5.4760     5.7360    24.6050   -10.0250 
   95.8750     2.2420    92.7650     8.4590     5.9680     5.8330    24.5370   -10.2490 
   96.0000     2.2460    95.2170     9.3190     6.7600     6.0450    24.4870   -10.6450 
   96.1250     2.2460    94.0790     9.9430     7.7940     6.5610    24.4660   -11.1510 
