~V
VERS. 2.00: Ver 2.00
~W
STRT.M 52.0000:
STOP.M 282.0000:
STEP.M 0.1250:
NULL. -999.2500:
UWI. F11052:
~C
DEPT.M :
SP.MV :
GR.API :
RML.OHMM :
RI. :
RXO.OHMM :
CALI.CM :
DEN.GM/CC :
~A
# ...
  108.2500   -10.6700    69.7750     7.9640     7.0290     9.0970    24.6080     2.1450 
  108.3750   -10.6190    69.7050     7.9870     7.0020     8.9740    24.6010     2.1630 
  108.5000   -10.5500    69.5020     8.1190     7.0560     8.6590    24.5960     2.1950 
  108.6250   -10.5190    68.0450     8.3690     7.2230     8.7740    24.6800     2.2320 
  108.7500   -10.5190    65.0250     8.6550     7.4550     9.4380    24.7410     2.2590 
  108.8750   -10.5000    62.8800     8.8860     7.6820     9.8570    24.7330     2.2720 
  109.0000   -10.4390    62.9680     8.9850     7.8250     9.9500    24.6840     2.2710 
  109.1250   -10.3490    64.5820     8.9080     7.8190    10.0800    24.7000     2.2580 
  109.2500   -10.2690    66.5760     8.7440     7.7110    10.3160    24.7460     2.2390 
  109.3750   -10.2030    69.3250     8.5820     7.5690    10.2970    24.5690     2.2190 
  109.5000   -10.1740    72.0790     8.4970     7.4650     9.7830    24.0990     2.2020 
  109.6250   -10.0430    73.6940     8.5290     7.4510     9.4260    23.9500     2.1930 
  109.7500    -9.8620    73.0250     8.6330     7.5070     9.2770    23.9140     2.1910 
  109.8750    -9.6820    69.5400     8.7680     7.6110     9.3010    23.9020     2.1940 
  110.0000    -9.4770    65.5310     8.8940     7.7320     9.3820    23.8710     2.2010 
  110.1250    -9.3740    65.0720     8.9780     7.8300     9.4930    23.8790     2.2110 
  110.2500    -9.3040    68.1110     9.0170     7.8870     9.5420    23.9070     2.2220 
  110.3750    -9.2910    70.4490     9.0170     7.9020     9.4920    23.9340     2.2320 
  110.5000    -9.2370    70.1790     8.9840     7.8830     9.4280    23.9350     2.2380 
  110.6250    -9.1900    69.6010     8.9290     7.8390     9.3130    23.9200     2.2380 
  110.7500    -9.2400    68.9930     8.8710     7.7860     9.2840    23.9120     2.2360 
  110.8750    -9.3030    68.3560     8.8240     7.7390     9.3490    23.9130     2.2330 
  111.0000    -9.4280    69.1010     8.8040     7.7110     9.3610    23.9180     2.2300 
  111.1250    -9.5680    70.1720     8.8240     7.7160     9.3190    23.9170     2.2260 
  111.2500    -9.6680    69.8760     8.8830     7.7520     9.3260    23.9130     2.2210 
  111.3750    -9.7310    68.6390     8.9640     7.8120     9.2970    23.9030     2.2150 
  111.5000    -9.7730    69.8320     9.0280     7.8800     9.1920    23.8910     2.2100 
  111.6250    -9.7620    73.4220     8.9870     7.8910     8.8970    23.9170     2.2030 
  111.7500    -9.6310    75.0450     8.7870     7.7800     8.6260    23.9600     2.1960 
  111.8750    -9.3890    73.7390     8.4280     7.5130     8.2860    24.0100     2.1910 
  112.0000    -9.0820    71.9940     7.9850     7.1260     8.0330    24.0370     2.1930 
  112.1250    -8.7330    74.1530     7.6310     6.7410     7.8360    24.0420     2.2080 
  112.2500    -8.4510    77.3110     7.5150     6.5130     7.7250    24.0320     2.2330 
  112.3750    -8.2930    76.2870     7.7080     6.5360     7.6320    23.9950     2.2620 
  112.5000    -8.2320    72.5260     8.1800     6.8320     8.3840    23.9220     2.2910 
  112.6250    -8.2720    71.3440     8.7980     7.3540     9.5690    23.8420     2.3160 
  112.7500    -8.3460    71.4530     9.3280     7.9040    12.0680    23.8020     2.3370 
  112.8750    -8.5590    71.0610     9.6120     8.3050    14.4950    23.8230     2.3510 
  113.0000    -8.8980    70.4080     9.5910     8.4320    11.2500    23.9060     2.3540 
  113.1250    -9.3180    70.1300     9.2940     8.2570     9.3460    24.0060     2.3400 
  113.2500    -9.7300    68.1750     8.8930     7.9400     8.7690    24.1630     2.3160 
  113.3750    -9.9790    66.2620     8.4880     7.5810     8.8940    24.4330     2.2860 
  113.5000   -10.1300    68.2240     8.1340     7.2490     8.6280    24.8200     2.2570 
  113.6250   -10.1830    72.6460     7.8790     7.0000     7.8270    25.0860     2.2330 
  113.7500   -10.3520    75.7840     7.7360     6.8410     7.0700    25.1890     2.2120 
  113.8750   -10.6280    76.6230     7.7240     6.7820     7.1870    25.1690     2.1920 
  114.0000   -10.9200    75.7920     7.8360     6.8260     7.8920    25.0940     2.1720 
  114.1250   -11.2060    73.7570     8.0270     6.9590     8.2740    24.9750     2.1530 
  114.2500   -11.4370    70.7350     8.1960     7.1060     8.4130    24.8880     2.1390 
  114.3750   -11.6920    68.0310     8.2790     7.2050     8.6230    24.8560     2.1340 
  114.5000   -11.9670    67.2150     8.2530     7.2160     8.8410    24.8180     2.1380 
  114.6250   -12.1910    68.2490     8.1370     7.1280     8.8800    24.7190     2.1450 
  114.7500   -12.3160    68.9920     8.0120     7.0030     8.9040    24.6050     2.1470 
  114.8750   -12.3110    69.4780     7.9250     6.8900     9.1330    24.5080     2.1420 
  115.0000   -12.1770    71.0820     7.9020     6.8250     9.3060    24.4360     2.1350 
  115.1250   -12.0430    73.1460     7.9470     6.8270     8.5570    24.3940     2.1450 
  115.2500   -11.9770    73.0860     8.0290     6.8760     7.7850    24.3480     2.1760 
  115.3750   -11.9660    70.6920     8.1280     6.9550     7.5320    24.2590     2.2200 
  115.5000   -12.0170    68.0310     8.2310     7.0460     7.8560    24.1870     2.2560 
  115.6250   -12.1650    69.4240     8.3310     7.1450     8.2400    24.2400     2.2660 
  115.7500   -12.3250    73.2200     8.4150     7.2450     8.4780    24.2960     2.2530 
  115.8750   -12.4340    75.6690     8.4560     7.3320     8.6270    24.3520     2.2290 
  116.0000   -12.5590    74.8020     8.4160     7.3730     8.8070    24.4600     2.2040 
  116.1250   -12.5250    72.5590     8.2410     7.3120     8.9340    24.6630     2.1850 
  116.2500   -12.3190    71.3240     7.9500     7.1460     8.7250    24.7960     2.1740 
  116.3750   -11.9410    71.8070     7.5770     6.8890     8.3730    24.8970     2.1770 
  116.5000   -11.3700    75.5790     7.1830     6.5800     7.6730    24.9580     2.1960 
  116.6250   -10.6760    82.3800     6.8560     6.2900     7.0060    24.9740     2.2280 
  116.7500    -9.8380    87.0060     6.6470     6.0770     6.7960    24.9690     2.2590 
  116.8750    -8.9620    88.6060     6.5670     5.9700     6.5890    25.0160     2.2810 
  117.0000    -8.0160    89.0520     6.5780     5.9580     6.1590    25.0760     2.2920 
  117.1250    -7.1510    88.7280     6.5810     5.9820     6.0310    25.0660     2.2910 
  117.2500    -6.3980    87.5070     6.4630     5.9250     6.5450    25.0060     2.2860 
  117.3750    -5.6400    87.6650     6.1690     5.7060     6.6040    24.9910     2.2810 
  117.5000    -4.9210    90.0020     5.7270     5.3190     5.9420    25.0370     2.2820 
  117.6250    -4.2280    92.9510     5.2540     4.8540     4.9730    25.0570     2.2910 
  117.7500    -3.6420    95.6680     4.8910     4.4560     4.3430    24.9530     2.3070 
  117.8750    -3.2090    98.2420     4.7090     4.2040     4.1440    24.7660     2.3230 
  118.0000    -2.9060    97.9200     4.7210     4.1200     4.2660    24.6210     2.3380 
  118.1250    -2.6270    94.3050     4.9300     4.2140     4.9110    24.5800     2.3500 
  118.2500    -2.4190    94.0370     5.2850     4.4450     5.9620    24.6170     2.3610 
  118.3750    -2.3860    99.2490     5.7800     4.8080     6.7800    24.6660     2.3720 
  118.5000    -2.6100   105.7210     6.4080     5.2990     6.8980    24.7450     2.3860 
  118.6250    -3.1660   103.6030     7.1340     5.9140     7.5590    24.9310     2.4010 
  118.7500    -3.9470    94.1780     7.8230     6.5650     9.2460    25.1160     2.4080 
  118.8750    -4.8720    85.2030     8.3330     7.1260     9.6890    25.1080     2.3980 
  119.0000    -5.8650    81.6240     8.5530     7.4590     8.6430    24.9910     2.3680 
  119.1250    -6.9430    82.3970     8.4480     7.4750     7.9210    25.0130     2.3230 
  119.2500    -8.0280    80.6430     8.2080     7.3190     7.9330    25.0910     2.2820 
  119.3750    -9.1460    77.0960     8.0020     7.1350     8.0350    25.1740     2.2540 
