~V
VERS. 2.00: Ver 2.00
~W
STRT.M 52.0000:
STOP.M 286.0000:
STEP.M 0.1250:
NULL. -999.2500:
UWI. F11061:
~C
DEPT.M :
GR.API :
RML.OHMM :
RI. :
RXO.OHMM :
CALI.CM :
DEN.GM/CC :
SP.MV :
~A
# ...
  175.7500    59.6030    60.6150    58.8290    54.0750    24.6510     2.2760   -29.2930 
  175.8750    62.7210    61.2680    59.0710    49.7210    24.7010     2.2730   -29.3260 
  176.0000    60.7920    63.5920    60.9840    53.9030    24.7570     2.2670   -29.3820 
  176.1250    57.9530    66.5390    63.6830    64.2010    24.8020     2.2620   -29.4440 
  176.2500    57.4000    69.1020    66.2150    71.2460    24.8260     2.2590   -29.5070 
  176.3750    58.3550    70.6170    67.8500    70.6040    24.8140     2.2600   -29.5730 
  176.5000    59.5800    70.9050    68.2260    68.2900    24.7350     2.2630   -29.6370 
  176.6250    60.6680    70.7380    67.9440    67.9900    24.5820     2.2650   -29.6800 
  176.7500    61.5890    71.0520    67.8650    67.6650    24.3890     2.2630   -29.6950 
  176.8750    61.3640    72.6190    68.7580    65.9020    24.2430     2.2570   -29.6870 
  177.0000    60.1440    76.2280    71.4230    64.4780    24.2790     2.2490   -29.6540 
  177.1250    58.4170    81.9770    76.0340    67.3110    24.4940     2.2430   -29.5970 
  177.2500    56.1740    89.7900    82.6030    72.0320    24.7180     2.2400   -29.5190 
  177.3750    54.3880    99.2500    90.8290    76.1390    24.8190     2.2420   -29.4250 
  177.5000    53.8470   109.3280    99.8760    81.1260    24.8260     2.2450   -29.3180 
  177.6250    52.5730   118.4620   108.3350    90.1360    24.8280     2.2490   -29.2080 
  177.7500    50.3120   125.3470   114.9960   101.7190    24.8380     2.2530   -29.1160 
  177.8750    48.8050   129.3320   119.2020   108.9520    24.8410     2.2570   -29.0380 
  178.0000    49.0890   130.4880   120.8860   103.7110    24.8290     2.2600   -28.9570 
  178.1250    50.2370   130.3110   121.2720    91.0260    24.8090     2.2570   -28.8730 
  178.2500    50.9190   130.1020   121.5210    83.1260    24.8060     2.2480   -28.7920 
  178.3750    51.1610   130.4520   122.2840    83.9080    24.8470     2.2330   -28.7070 
  178.5000    51.0000   130.8620   123.3200    89.3070    24.9550     2.2160   -28.5930 
  178.6250    51.0990   129.8530   123.3510    96.9400    25.0990     2.2010   -28.4540 
  178.7500    51.5900   125.8050   120.7930   102.2320    25.1800     2.1900   -28.2870 
  178.8750    51.0960   117.6190   114.3770   103.4280    25.1060     2.1820   -28.0920 
  179.0000    49.9990   105.0170   103.4140    98.7570    24.9000     2.1790   -27.8940 
  179.1250    48.9410    90.2660    89.8180    84.0500    24.7350     2.1810   -27.7060 
  179.2500    47.7280    75.9600    76.1010    64.9520    24.7350     2.1920   -27.5220 
  179.3750    46.6750    64.1400    64.4450    53.0480    24.8660     2.2110   -27.3300 
  179.5000    48.0510    56.2990    56.5230    45.6960    25.0550     2.2330   -27.1410 
  179.6250    54.2300    51.9410    51.9940    41.1470    25.1560     2.2520   -26.9600 
  179.7500    62.5520    50.2470    50.1310    43.4850    25.1230     2.2660   -26.7800 
  179.8750    67.6110    50.4190    50.2080    53.3130    25.0180     2.2750   -26.6080 
  180.0000    67.2000    51.8990    51.7450    60.9670    24.8660     2.2790   -26.4590 
  180.1250    64.0010    54.1650    54.2100    61.2770    24.6780     2.2790   -26.3160 
  180.2500    60.1110    56.9730    57.3270    57.6090    24.5010     2.2730   -26.1840 
  180.3750    58.2240    60.0780    60.8190    56.4570    24.3830     2.2620   -26.0840 
  180.5000    59.8580    62.8190    64.0290    59.7410    24.3210     2.2510   -26.0150 
  180.6250    61.2460    64.2710    66.0110    69.7230    24.2650     2.2450   -25.9620 
  180.7500    60.4890    63.5800    65.8290    81.8500    24.2040     2.2460   -25.9260 
  180.8750    60.9830    60.4180    63.0280    88.8850    24.1460     2.2520   -25.9010 
  181.0000    64.2170    55.2720    57.9690    79.7600    24.0530     2.2610   -25.8610 
  181.1250    65.5330    49.7140    52.2820    66.4440    23.9350     2.2690   -25.8050 
  181.2500    64.0660    44.9350    47.2420    56.0050    23.8530     2.2760   -25.7400 
  181.3750    62.3570    41.4350    43.4150    48.0790    23.8460     2.2790   -25.6680 
  181.5000    60.9710    39.2690    40.9170    45.6760    23.8610     2.2820   -25.5830 
  181.6250    59.8790    37.9950    39.3370    47.9420    23.8580     2.2840   -25.5040 
  181.7500    60.1720    37.4050    38.4530    48.6630    23.8300     2.2870   -25.4420 
  181.8750    62.3480    37.5600    38.2850    44.6260    23.7860     2.2890   -25.3990 
  182.0000    63.4910    38.8670    39.1710    40.2770    23.7520     2.2860   -25.3920 
  182.1250    61.4830    41.5100    41.2830    40.9300    23.7620     2.2800   -25.4290 
  182.2500    58.2810    45.6020    44.7620    46.2360    23.7600     2.2730   -25.5040 
  182.3750    58.0620    51.1110    49.6330    54.3060    23.6950     2.2690   -25.6030 
  182.5000    61.8420    58.0080    55.8910    61.9460    23.6160     2.2670   -25.7410 
  182.6250    64.9060    65.9260    63.1310    67.3620    23.5740     2.2660   -25.9200 
  182.7500    63.6850    74.6150    71.0260    72.4870    23.5800     2.2640   -26.1150 
  182.8750    59.3230    83.8170    79.2850    80.7580    23.6250     2.2600   -26.3150 
  183.0000    55.8030    92.9820    87.4250    95.5310    23.6970     2.2510   -26.5200 
  183.1250    53.9920   101.2460    94.7400   115.6210    23.8110     2.2410   -26.7150 
  183.2500    52.9000   107.7060   100.4510   129.1150    23.9740     2.2300   -26.8910 
  183.3750    51.1940   111.7520   103.9870   129.8060    24.1710     2.2220   -27.0640 
  183.5000    49.9150   113.1320   105.0530   124.4730    24.3670     2.2170   -27.2360 
  183.6250    49.6090   112.8200   104.4890   120.0270    24.5280     2.2170   -27.3890 
  183.7500    48.6900   111.7210   103.1350   117.0410    24.6160     2.2230   -27.5160 
  183.8750    48.2110   110.3570   101.5360   114.7320    24.6440     2.2330   -27.6220 
  184.0000    50.0600   108.8860    99.9160   112.7690    24.6540     2.2460   -27.6920 
  184.1250    52.0520   107.4140    98.3700   112.4700    24.6660     2.2570   -27.7260 
  184.2500    52.2320   106.2360    97.1140   111.2780    24.6810     2.2620   -27.7370 
  184.3750    51.5380   105.8680    96.5640   105.8220    24.6850     2.2600   -27.7320 
  184.5000    52.1450   107.1550    97.4550   100.4120    24.6670     2.2520   -27.6900 
  184.6250    52.9910   110.3190   100.0260    98.4170    24.6170     2.2430   -27.6210 
  184.7500    52.5700   115.1580   104.1700    95.6410    24.5360     2.2360   -27.5520 
  184.8750    51.4780   121.0060   109.3610    97.7120    24.4580     2.2340   -27.4870 
  185.0000    50.9960   126.6200   114.5650   103.0100    24.4000     2.2360   -27.4220 
  185.1250    52.2740   130.8230   118.7040   110.4960    24.3760     2.2400   -27.3640 
  185.2500    55.2880   132.9790   121.1540   113.9610    24.3740     2.2440   -27.3090 
  185.3750    58.4670   133.1440   121.8970   110.2360    24.3790     2.2470   -27.2410 
  185.5000    60.8270   131.9000   121.3940   100.4180    24.3920     2.2470   -27.1710 
  185.6250    60.6210   130.2390   120.5260    95.7610    24.4130     2.2440   -27.1170 
  185.7500    57.5490   128.6610   119.7740   100.0520    24.4320     2.2410   -27.0610 
  185.8750    53.7820   127.0670   119.0870   105.4400    24.4280     2.2380   -26.9810 
  186.0000    51.8950   124.4630   117.5830   108.0150    24.3640     2.2390   -26.8700 
  186.1250    52.4470   119.5660   114.0010   100.2390    24.2460     2.2410   -26.7250 
  186.2500    54.1020   111.2930   107.1750    84.4530    24.1120     2.2440   -26.5340 
  186.3750    54.5580    99.4600    96.7260    74.1490    24.0170     2.2490   -26.3140 
  186.5000    53.9220    85.2440    83.5380    73.1470    23.9430     2.2590   -26.0810 
  186.6250    55.9160    71.3080    70.2120    68.4190    23.8290     2.2750   -25.8220 
  186.7500    60.8650    59.6980    58.8900    53.5790    23.6340     2.2950   -25.5390 
  186.8750    64.8680    51.3670    50.6410    37.4170    23.3940     2.3120   -25.2550 
