~V
VERS. 2.00: Ver 2.00
~W
STRT.M 55.0000:
STOP.M 286.0000:
STEP.M 0.1250:
NULL. -999.2500:
UWI. F11067:
~C
DEPT.M :
GR.API :
RML.OHMM :
RI. :
RXO.OHMM :
CALI.CM :
DEN.GM/CC :
SP.MV :
~A
# ...
   66.2500    95.3410     9.3160     6.7970     8.4640    24.8130     2.4340    -1.1720 
   66.3750    90.7660    10.1220     7.4970     9.8600    24.8010     2.4490    -1.3770 
   66.5000    87.9790    10.8990     8.0700    10.5710    24.7670     2.4420    -1.6180 
   66.6250    89.1090    11.4030     8.3600    11.7350    24.7410     2.4090    -1.8870 
   66.7500    90.7450    11.5890     8.4260    10.7820    24.7540     2.3740    -2.1510 
   66.8750    90.8230    11.5330     8.3710     8.7850    24.8110     2.3550    -2.4080 
   67.0000    89.3710    11.3800     8.2940     8.1850    24.8330     2.3590    -2.6740 
   67.1250    86.7240    11.2040     8.1790     9.2440    24.7600     2.3710    -2.9290 
   67.2500    86.3820    10.9530     7.9570     9.9680    24.6370     2.3680    -3.1800 
   67.3750    90.1680    10.5750     7.6510     9.1730    24.5690     2.3480    -3.4160 
   67.5000    95.5810    10.1510     7.4120     8.5210    24.5510     2.3330    -3.6390 
   67.6250    97.6440     9.9720     7.4870     7.8630    24.5510     2.3520    -3.8640 
   67.7500    94.6570    10.2700     7.9720     8.1760    24.5500     2.4010    -4.1170 
   67.8750    88.5980    11.1240     8.8760    10.6360    24.5450     2.4510    -4.4110 
   68.0000    82.8740    12.3690    10.0180    17.9860    24.5170     2.4650    -4.7410 
   68.1250    79.8730    13.4930    10.8680    23.2640    24.4340     2.4210    -5.1060 
   68.2500    76.6510    13.9710    11.0430    18.2260    24.3260     2.3440    -5.4890 
   68.3750    71.6340    13.6380    10.5890    12.6120    24.2600     2.2640    -5.8650 
   68.5000    67.8600    12.7240     9.8480    10.5800    24.2400     2.2030    -6.2190 
   68.6250    67.3310    11.7200     9.2170    10.4720    24.2420     2.1710    -6.5190 
   68.7500    67.1080    11.0170     8.8700    10.5480    24.2400     2.1550    -6.7330 
   68.8750    66.3050    10.7070     8.8020    10.6810    24.2390     2.1460    -6.8570 
   69.0000    67.3210    10.7210     8.9240    10.8240    24.2350     2.1370    -6.8720 
   69.1250    70.7250    10.9210     9.1180    10.7860    24.2270     2.1290    -6.7540 
   69.2500    71.3250    11.1010     9.2490    10.8680    24.2230     2.1270    -6.5170 
   69.3750    69.3430    11.1180     9.2060    11.0810    24.2270     2.1380    -6.1900 
   69.5000    69.8570    10.8620     8.9120    11.2280    24.2550     2.1660    -5.7950 
   69.6250    76.3420    10.2710     8.3490    10.3630    24.3420     2.2080    -5.3290 
   69.7500    86.4580     9.5220     7.7160     8.7520    24.4760     2.2530    -4.8540 
   69.8750    96.1990     8.8230     7.2040     7.4190    24.6440     2.2940    -4.3860 
   70.0000   100.3780     8.3740     6.9590     7.0840    24.8170     2.3290    -3.9680 
   70.1250    96.2690     8.3500     7.0850     7.6470    24.8630     2.3600    -3.6230 
   70.2500    91.4300     8.6410     7.4520     9.3210    24.8290     2.3810    -3.3650 
   70.3750    91.3780     9.0680     7.8670    11.8030    24.7950     2.3890    -3.1760 
   70.5000    96.2090     9.3850     8.0760    12.3980    24.7710     2.3830    -3.0740 
   70.6250   102.7180     9.3160     7.8640     9.6060    24.7680     2.3700    -3.0680 
   70.7500   107.0410     8.8920     7.3890     8.1470    24.7820     2.3620    -3.1260 
   70.8750   108.0070     8.2740     6.8540     7.2430    24.8240     2.3640    -3.2250 
   71.0000   107.1110     7.6920     6.4360     6.6460    24.8570     2.3710    -3.3520 
   71.1250   106.3750     7.3930     6.2720     6.5090    24.8770     2.3710    -3.5450 
   71.2500   103.4470     7.4210     6.3330     6.8290    24.8990     2.3590    -3.7790 
   71.3750    97.3700     7.7420     6.5590     7.7190    24.9100     2.3330    -4.0750 
   71.5000    89.3640     8.2540     6.8680    10.5530    24.8990     2.2990    -4.3900 
   71.6250    81.9370     8.7940     7.1400    15.9060    24.8590     2.2600    -4.7130 
   71.7500    77.5850     9.2080     7.3060    14.9970    24.8400     2.2220    -5.0230 
   71.8750    74.5360     9.4630     7.4100    11.8120    24.8760     2.1940    -5.3120 
   72.0000    70.3750     9.6690     7.6060    10.3710    24.9440     2.1920    -5.5470 
   72.1250    65.6890    10.1300     8.1750    10.6960    24.9650     2.2430    -5.6870 
   72.2500    64.5070    11.1230     9.3080    11.9840    24.9190     2.3430    -5.7410 
   72.3750    66.2750    12.8770    11.2270    15.6830    24.8490     2.4730    -5.6980 
   72.5000    66.9380    15.5430    14.1480    24.2330    24.7980     2.6000    -5.5780 
   72.6250    64.6870    19.3470    18.3810    36.5140    24.7580     2.6820    -5.4230 
   72.7500    62.2690    24.1270    23.7290    42.4900    24.7500     2.7130    -5.2770 
   72.8750    62.3900    29.8900    30.1680    49.8740    24.7770     2.7080    -5.1730 
   73.0000    66.2410    36.5470    37.4890    63.9720    24.8310     2.6940    -5.1320 
   73.1250    70.4890    43.2120    44.0880    85.2690    24.8660     2.6870    -5.1630 
   73.2500    72.1070    47.6490    46.7940    98.9210    24.8880     2.6790    -5.2810 
   73.3750    72.8090    47.5190    43.1670    94.5360    24.8810     2.6470    -5.4870 
   73.5000    74.5280    42.0160    34.3420    72.5370    24.7950     2.5760    -5.7860 
   73.6250    75.3720    32.7850    24.7340    41.2050    24.6310     2.4650    -6.1410 
   73.7500    73.9440    23.8750    17.4770    20.9580    24.4500     2.3480    -6.5200 
   73.8750    71.5770    17.2300    12.8330    12.8400    24.3050     2.2530    -6.8710 
   74.0000    71.4320    13.1660    10.1690    10.6580    24.1530     2.1950    -7.1990 
   74.1250    72.9710    11.3150     8.9480    10.4590    24.1020     2.1750    -7.4840 
   74.2500    73.4460    10.5810     8.4840    10.3410    24.1220     2.1740    -7.7230 
   74.3750    71.0070    10.4580     8.4650    10.3630    24.2140     2.1780    -7.9140 
   74.5000    67.3100    10.5960     8.6630    10.5480    24.3360     2.1790    -8.0630 
   74.6250    67.6770    10.8100     8.9730    10.7760    24.4510     2.1780    -8.1620 
   74.7500    70.7480    11.0590     9.3720    10.9070    24.5550     2.1870    -8.2210 
   74.8750    73.1620    11.3760     9.8470    11.6920    24.6680     2.2130    -8.2650 
   75.0000    74.4940    11.7540    10.3330    15.4020    24.7960     2.2530    -8.2770 
   75.1250    76.4810    12.0910    10.6830    26.0330    24.7870     2.2950    -8.3030 
   75.2500    77.3620    12.2620    10.7910    31.3210    24.7110     2.3240    -8.3160 
   75.3750    74.8570    12.1980    10.6200    21.8010    24.6020     2.3370    -8.3210 
   75.5000    71.8540    11.9200    10.2470    16.5970    24.5240     2.3340    -8.3170 
   75.6250    72.2150    11.5340     9.8080    18.8590    24.5000     2.3170    -8.3110 
   75.7500    73.0710    11.1940     9.4370    20.3200    24.4980     2.2900    -8.3010 
   75.8750    72.6290    10.9750     9.1870    15.3130    24.4880     2.2550    -8.2830 
   76.0000    71.8310    10.8940     9.0650    11.4750    24.4580     2.2180    -8.2750 
   76.1250    71.4420    10.9350     9.0470    10.2590    24.4280     2.1920    -8.2250 
   76.2500    70.7420    11.0250     9.0800    10.2450    24.4000     2.1790    -8.1850 
   76.3750    68.9270    11.1180     9.1370    10.5550    24.3910     2.1760    -8.1310 
   76.5000    67.7920    11.1720     9.1870    10.7740    24.3920     2.1810    -8.0770 
   76.6250    69.7640    11.1270     9.1700    10.8030    24.3820     2.1960    -8.0090 
   76.7500    74.3410    10.9800     9.0750    10.6560    24.3470     2.2130    -7.9230 
   76.8750    77.9930    10.7530     8.9210    10.3030    24.2870     2.2270    -7.8370 
   77.0000    77.5470    10.5010     8.7470     9.8030    24.2470     2.2300    -7.7320 
   77.1250    74.5260    10.2950     8.5940     9.4860    24.2360     2.2180    -7.6440 
   77.2500    72.9770    10.1750     8.4990     9.2860    24.2370     2.2030    -7.5460 
   77.3750    74.4610    10.1530     8.4820     9.1870    24.2300     2.1960    -7.4690 
