~V
VERS. 2.00: Ver 2.00
~W
STRT.M 51.0000:
STOP.M 240.0000:
STEP.M 0.1250:
NULL. -999.2500:
UWI. F11016:
~C
DEPT.M :
GR.API :
RML.OHMM :
RI. :
RXO.OHMM :
CALI.CM :
DEN.GM/CC :
SP.MV :
~A
# ...
   73.5000    86.5920     6.6080     5.1620     5.5890    23.1950     2.3500   -17.5530 
   73.6250    83.2850     6.6860     5.2640     5.4220    23.3800     2.3410   -17.9480 
   73.7500    82.4740     6.7960     5.3850     5.2240    23.5260     2.3270   -18.4840 
   73.8750    81.8510     7.0460     5.5860     5.3060    23.6010     2.3060   -19.1470 
   74.0000    77.4630     7.4700     5.8970     5.6380    23.6570     2.2780   -19.9020 
   74.1250    69.5200     8.0190     6.2990     6.1960    23.7700     2.2450   -20.6950 
   74.2500    62.5270     8.5980     6.7400     6.9890    23.9770     2.2090   -21.4860 
   74.3750    60.4490     9.0870     7.1440     7.7180    24.2750     2.1750   -22.2310 
   74.5000    61.2340     9.4230     7.4590     8.1830    24.5670     2.1460   -22.9090 
   74.6250    60.1540     9.6240     7.6800     8.4170    24.6980     2.1260   -23.4770 
   74.7500    56.6070     9.7480     7.8320     8.5330    24.5730     2.1160   -23.9020 
   74.8750    54.8080     9.8530     7.9460     8.5770    24.2240     2.1160   -24.1750 
   75.0000    56.5760     9.9650     8.0390     8.6050    23.8540     2.1260   -24.2960 
   75.1250    59.4380    10.0660     8.1080     8.6280    23.6080     2.1420   -24.2990 
   75.2500    60.8280    10.1190     8.1310     8.6500    23.4610     2.1620   -24.2030 
   75.3750    59.4430    10.0890     8.0860     8.6970    23.3480     2.1820   -24.0140 
   75.5000    56.1560     9.9730     7.9730     8.7320    23.2370     2.2010   -23.7330 
   75.6250    53.2190     9.7940     7.8040     8.7140    23.1400     2.2180   -23.3740 
   75.7500    52.9260     9.5780     7.5980     8.5610    23.0860     2.2310   -22.9470 
   75.8750    56.5980     9.3550     7.3720     8.2550    23.1120     2.2400   -22.4850 
   76.0000    62.2570     9.1480     7.1490     7.9120    23.1930     2.2450   -22.0400 
   76.1250    66.7070     8.9800     6.9490     7.6340    23.2520     2.2460   -21.6480 
   76.2500    67.6890     8.8740     6.7890     7.4060    23.2480     2.2460   -21.3390 
   76.3750    65.9230     8.8720     6.7040     7.2850    23.1610     2.2470   -21.1490 
   76.5000    66.1870     9.0120     6.7280     7.3140    23.0520     2.2530   -21.0980 
   76.6250    70.0280     9.3220     6.8840     7.4680    23.0110     2.2650   -21.2100 
   76.7500    73.4290     9.7890     7.1760     7.7170    23.0660     2.2820   -21.4980 
   76.8750    70.8700    10.3150     7.5520     8.2870    23.1850     2.2980   -21.9560 
   77.0000    64.4400    10.7290     7.8970     9.4220    23.2890     2.3060   -22.5360 
   77.1250    60.3170    10.8720     8.0910    11.3720    23.3030     2.3010   -23.1800 
   77.2500    59.0090    10.6740     8.0600    14.2570    23.2060     2.2820   -23.8500 
   77.3750    57.1220    10.1930     7.8020    15.1980    23.0320     2.2570   -24.4990 
   77.5000    54.6980     9.6300     7.4290    12.7360    22.8510     2.2330   -25.0940 
   77.6250    53.8620     9.1820     7.0800    10.2580    22.7130     2.2160   -25.5980 
   77.7500    54.3320     8.9420     6.8350     9.3370    22.6230     2.2060   -25.9870 
   77.8750    53.4650     8.9170     6.7290     9.0960    22.5670     2.2020   -26.2400 
   78.0000    50.8970     9.0220     6.7330     9.0200    22.5390     2.2000   -26.3690 
   78.1250    48.6260     9.1570     6.7910     9.0140    22.5300     2.1990   -26.4030 
   78.2500    48.4370     9.2660     6.8650     9.0840    22.5280     2.1990   -26.3570 
   78.3750    50.7050     9.3190     6.9300     9.1880    22.5140     2.2010   -26.2420 
   78.5000    53.0070     9.3190     6.9730     9.4150    22.4700     2.2050   -26.0590 
   78.6250    54.1510     9.2690     6.9850     9.8380    22.4070     2.2100   -25.8230 
   78.7500    56.0380     9.1680     6.9530    10.2520    22.3770     2.2140   -25.5460 
   78.8750    58.8560     9.0050     6.8620    10.0560    22.4170     2.2160   -25.2280 
   79.0000    59.9320     8.7780     6.7090     9.4660    22.5080     2.2150   -24.8770 
   79.1250    58.5830     8.4890     6.5080     9.0110    22.6120     2.2130   -24.5090 
   79.2500    57.3720     8.1550     6.2790     8.6280    22.7240     2.2110   -24.1120 
   79.3750    57.0780     7.8160     6.0600     8.1530    22.8110     2.2090   -23.6900 
   79.5000    56.4790     7.5350     5.8890     7.7460    22.8540     2.2070   -23.2440 
   79.6250    56.2170     7.3670     5.8000     7.5850    22.8660     2.2040   -22.7650 
   79.7500    58.1710     7.3560     5.8190     7.5790    22.8740     2.2010   -22.2470 
   79.8750    61.7330     7.5300     5.9680     7.5690    22.9010     2.1980   -21.6830 
   80.0000    63.6850     7.8550     6.2300     7.5890    22.9500     2.1950   -21.0620 
   80.1250    62.8570     8.2530     6.5550     7.7300    23.0110     2.1930   -20.3630 
   80.2500    60.8910     8.6230     6.8690     8.0910    23.0970     2.1910   -19.5900 
   80.3750    59.2450     8.8160     7.0610     8.4010    23.2350     2.1930   -18.7090 
   80.5000    59.1700     8.7330     7.0430     8.5190    23.3710     2.2010   -17.7240 
   80.6250    62.6040     8.3630     6.7930     8.4330    23.4940     2.2170   -16.6640 
   80.7500    69.4120     7.7710     6.3440     7.9920    23.6510     2.2410   -15.5700 
   80.8750    76.7410     7.0820     5.7820     7.1440    23.8720     2.2710   -14.5080 
   81.0000    82.7760     6.4270     5.2170     6.1040    24.0510     2.3000   -13.5430 
   81.1250    87.4780     5.8880     4.7270     5.3090    24.1200     2.3230   -12.7240 
   81.2500    89.8140     5.5120     4.3630     4.9080    24.1150     2.3370   -12.0810 
   81.3750    89.9940     5.4190     4.2050     4.7720    24.0930     2.3450   -11.6990 
   81.5000    89.8160     5.7740     4.3430     4.8220    24.0720     2.3540   -11.6110 
   81.6250    88.3400     6.7680     4.8860     5.2000    24.0390     2.3710   -11.8150 
   81.7500    83.6540     8.5390     5.9410     6.4910    24.0150     2.3990   -12.2930 
   81.8750    76.7160    11.0300     7.5540     9.4870    24.0380     2.4320   -13.0030 
   82.0000    69.7170    13.7090     9.4670    14.5590    24.0680     2.4550   -13.8740 
   82.1250    63.6140    15.7760    11.1930    23.0270    23.9690     2.4550   -14.8320 
   82.2500    59.1770    16.5050    12.1900    30.7650    23.6310     2.4270   -15.8090 
   82.3750    57.8710    15.4880    11.9970    26.8460    23.1020     2.3760   -16.7350 
   82.5000    59.6250    13.3570    10.8730    16.0970    22.6600     2.3190   -17.5650 
   82.6250    62.2440    11.1900     9.5050     9.9990    22.4310     2.2720   -18.2700 
   82.7500    63.2740     9.6590     8.3880     8.4420    22.3530     2.2420   -18.8240 
   82.8750    62.1220     8.9650     7.7280     8.0470    22.3660     2.2250   -19.2140 
   83.0000    60.6500     8.8350     7.4400     7.7500    22.4230     2.2170   -19.4360 
   83.1250    60.6060     8.9230     7.3540     7.4630    22.4820     2.2130   -19.5250 
   83.2500    62.3380     9.0260     7.3460     7.3510    22.5280     2.2100   -19.5200 
   83.3750    65.4030     9.0460     7.3340     7.4240    22.5850     2.2090   -19.4570 
   83.5000    68.3660     8.9890     7.2880     7.5330    22.6610     2.2090   -19.3750 
   83.6250    69.1010     8.9010     7.2160     7.6410    22.7650     2.2100   -19.2940 
   83.7500    68.0720     8.8200     7.1360     7.7820    22.8730     2.2110   -19.2210 
   83.8750    68.1250     8.7780     7.0700     7.9370    22.9520     2.2120   -19.1610 
   84.0000    69.6370     8.7720     7.0280     8.0780    22.9870     2.2130   -19.1190 
   84.1250    70.6980     8.7850     7.0040     8.1920    22.9890     2.2130   -19.0760 
   84.2500    70.2530     8.8030     6.9900     8.2780    22.9670     2.2110   -19.0400 
   84.3750    68.2890     8.8160     6.9780     8.3400    22.9520     2.2070   -19.0030 
   84.5000    65.8840     8.8270     6.9660     8.3730    22.9610     2.2010   -18.9560 
   84.6250    64.7970     8.8450     6.9540     8.4040    22.9820     2.1950   -18.9000 
