~V
VERS. 2.00: Ver 2.00
~W
STRT.M 53.0000:
STOP.M 287.0000:
STEP.M 0.1250:
NULL. -999.2500:
UWI. F11059:
~C
DEPT.M :
GR.API :
RML.OHMM :
RI. :
RXO.OHMM :
CALI.CM :
DEN.GM/CC :
SP.MV :
~A
# ...
  221.7500    59.7070    78.8250    76.3720    50.1170    24.8400     2.2070    -7.8060 
  221.8750    59.5880    79.7180    77.3300    53.6870    24.8280     2.2120    -7.9270 
  222.0000    57.6130    80.8420    79.2450    54.5760    24.7800     2.2150    -8.0390 
  222.1250    56.3930    82.8180    82.3620    55.2870    24.7110     2.2140    -8.1500 
  222.2500    59.7960    85.7680    86.4250    56.9960    24.7700     2.2070    -8.2620 
  222.3750    64.5360    89.3590    90.7110    83.3540    24.8130     2.1970    -8.3860 
  222.5000    64.5550    92.7590    94.3140    88.1020    24.8340     2.1880    -8.5050 
  222.6250    61.4570    95.3610    96.7580    80.5440    24.8300     2.1820    -8.6100 
  222.7500    59.8810    96.9050    98.0560    78.3360    24.8260     2.1800    -8.6990 
  222.8750    59.9460    97.6300    98.7590    87.5280    24.8150     2.1810    -8.7890 
  223.0000    58.4520    98.5330    99.9990    89.7190    24.7980     2.1830    -8.8940 
  223.1250    57.9830   100.5020   102.7030    92.4080    24.7800     2.1900    -9.0050 
  223.2500    60.2000   104.1920   107.4800   101.4470    24.7640     2.2030    -9.1070 
  223.3750    61.1500   110.0580   114.6360   105.7220    24.7370     2.2220    -9.1820 
  223.5000    58.7450   117.0510   123.1020   113.7610    24.7150     2.2390    -9.2620 
  223.6250    56.7900   126.0940   131.8750   137.3300    24.7050     2.2470    -9.3570 
  223.7500    58.4720   138.3010   139.9000   145.9450    24.7020     2.2440    -9.4660 
  223.8750    60.3240   151.2890   146.1680   147.9410    24.6990     2.2320    -9.5760 
  224.0000    59.7260   160.4450   150.8330   154.3370    24.6620     2.2190    -9.6650 
  224.1250    59.3570   164.8390   154.0980   156.1440    24.5810     2.2100    -9.7330 
  224.2500    60.1770   166.5210   155.9680   156.5660    24.4420     2.2040    -9.7960 
  224.3750    59.3920   166.4230   155.7830   157.0200    24.5880     2.1980    -9.8470 
  224.5000    56.2500   164.1320   153.5240   149.3530    24.6650     2.1940    -9.8930 
  224.6250    54.6730   159.4700   149.0990   147.6870    24.6900     2.1920    -9.9240 
  224.7500    56.6110   152.2850   142.3550   113.7190    24.6830     2.1940    -9.9500 
  224.8750    59.1220   142.1330   132.6320   101.3680    24.6790     2.2000    -9.9670 
  225.0000    60.6270   129.7940   120.6200   103.3490    24.6830     2.2080    -9.9980 
  225.1250    61.8030   116.1430   107.4430   104.4820    24.6890     2.2190   -10.0360 
  225.2500    64.2210   102.5210    94.8420    93.4090    24.6960     2.2310   -10.0750 
  225.3750    66.5760    90.8720    85.1010    76.7010    24.7090     2.2420   -10.1380 
  225.5000    65.7410    82.1700    78.8820    69.7160    24.7230     2.2470   -10.1960 
  225.6250    62.4870    76.9050    76.2730    72.0370    24.7290     2.2460   -10.2460 
  225.7500    60.5100    75.0140    76.7670    81.0260    24.7330     2.2420   -10.2970 
  225.8750    61.1030    76.2760    79.6530    93.3600    24.7420     2.2430   -10.3430 
  226.0000    61.6430    79.1480    83.2900   100.1430    24.7400     2.2500   -10.3640 
  226.1250    61.0960    82.5630    86.6140    97.3230    24.7320     2.2580   -10.3780 
  226.2500    60.8520    85.6700    88.9910    89.2810    24.7220     2.2610   -10.3920 
  226.3750    60.9440    87.9590    90.3020    84.4310    24.7090     2.2550   -10.3970 
  226.5000    61.1210    89.6940    91.1850    92.8210    24.7110     2.2450   -10.4200 
  226.6250    61.0830    91.2520    92.1160   106.1800    24.7240     2.2390   -10.4660 
  226.7500    60.0660    93.0560    93.5840   106.1590    24.7280     2.2380   -10.5170 
  226.8750    59.6090    95.7100    96.3340   100.3410    24.7280     2.2420   -10.5850 
  227.0000    61.2680    99.4880   100.4970   101.0920    24.7310     2.2420   -10.6720 
  227.1250    62.8640   104.4760   105.9010   105.1390    24.7390     2.2360   -10.7590 
  227.2500    62.1800   110.2900   111.8030   117.2030    24.7430     2.2240   -10.8470 
  227.3750    60.8200   115.6460   116.3570   130.8120    24.7410     2.2100   -10.9320 
  227.5000    61.5650   118.9260   117.9410   133.4100    24.7380     2.2010   -11.0020 
  227.6250    62.4700   119.0150   115.9440   127.4130    24.7370     2.1970   -11.0570 
  227.7500    62.9040   115.8090   111.1170   118.8550    24.7410     2.1970   -11.0980 
  227.8750    63.0880   110.1080   104.9400   114.4890    24.7440     2.1960   -11.1220 
  228.0000    62.6850   103.8060    98.9110   104.7800    24.7390     2.1940   -11.1360 
  228.1250    62.2630    97.7690    93.4300    97.4990    24.7320     2.1930   -11.1580 
  228.2500    62.1090    92.2260    88.3710    96.2270    24.7260     2.1980   -11.1940 
  228.3750    62.3900    87.0540    83.5340    93.5560    24.7180     2.2140   -11.2320 
  228.5000    62.4850    82.0610    78.9520    82.7880    24.7040     2.2330   -11.2710 
  228.6250    63.2940    77.3480    74.8670    68.1490    24.6730     2.2450   -11.3090 
  228.7500    65.1740    73.1520    71.4880    56.8330    24.6150     2.2450   -11.3480 
  228.8750    65.2680    69.8820    69.0690    52.5550    24.5560     2.2290   -11.3860 
  229.0000    63.8960    67.5870    67.5090    55.1940    24.5700     2.2110   -11.4250 
  229.1250    62.7020    66.3190    66.7940    61.0740    24.6540     2.2030   -11.4560 
  229.2500    62.0300    66.0620    66.9030    61.9160    24.7210     2.2090   -11.4630 
  229.3750    62.0960    66.9330    67.9990    61.3820    24.7390     2.2230   -11.4670 
  229.5000    63.7120    68.7460    70.0310    66.7200    24.7420     2.2350   -11.4810 
  229.6250    67.3110    71.4780    73.0560    78.1570    24.7540     2.2380   -11.4950 
  229.7500    70.6310    75.0520    76.9880    86.7570    24.7690     2.2330   -11.5090 
  229.8750    71.5770    79.3720    81.6270    85.5570    24.7810     2.2250   -11.5210 
  230.0000    71.6110    84.0720    86.4910    83.5470    24.7840     2.2190   -11.5230 
  230.1250    71.8500    88.9780    91.3540    95.3960    24.7800     2.2180   -11.5240 
  230.2500    71.3480    94.0250    96.1720   115.9970    24.7760     2.2200   -11.5260 
  230.3750    70.1760    99.1690   100.8930   116.5980    24.7790     2.2200   -11.5110 
  230.5000    69.4610   103.9560   104.8570   114.6750    24.7870     2.2140   -11.4760 
  230.6250    69.3060   107.2940   106.4880   115.6020    24.7910     2.2040   -11.4420 
  230.7500    68.8480   107.5550   103.9220   122.7390    24.7780     2.1930   -11.4070 
  230.8750    67.1130   102.6120    95.8110   134.0540    24.7310     2.1910   -11.3750 
  231.0000    66.5400    93.6360    84.8970   128.2820    24.6630     2.1970   -11.3520 
  231.1250    68.3540    82.7470    74.0720    98.7220    24.6130     2.2100   -11.3370 
  231.2500    70.7790    72.6180    65.7480    64.6180    24.5910     2.2250   -11.3460 
  231.3750    72.1650    65.9420    61.7980    53.2900    24.5790     2.2400   -11.3770 
  231.5000    71.5210    62.9600    61.5220    56.7020    24.5470     2.2520   -11.4280 
  231.6250    69.3400    63.2240    64.0540    64.7280    24.4660     2.2600   -11.4710 
  231.7500    66.5430    65.6390    67.9760    70.0390    24.3970     2.2620   -11.5100 
  231.8750    65.1160    68.5940    71.2080    75.4130    24.4170     2.2590   -11.5600 
  232.0000    66.0640    70.4750    72.4260    80.1590    24.5620     2.2560   -11.6060 
  232.1250    67.3760    70.6830    71.6330    78.5330    24.6620     2.2560   -11.6370 
  232.2500    67.8110    69.4910    69.7390    72.0470    24.6830     2.2580   -11.6540 
  232.3750    68.9190    67.7290    67.8110    67.3830    24.6640     2.2570   -11.6660 
  232.5000    70.8910    66.2050    66.2580    67.3370    24.6430     2.2500   -11.6670 
  232.6250    70.7200    65.0250    64.8710    71.3320    24.6400     2.2400   -11.6770 
  232.7500    68.6310    63.9450    63.3030    72.0730    24.6510     2.2320   -11.7000 
  232.8750    69.3270    62.6510    61.4420    69.7870    24.6630     2.2330   -11.7270 
