~V
VERS. 2.00: Ver 2.00
~W
STRT.M 51.0000:
STOP.M 282.0000:
STEP.M 0.1250:
NULL. -999.2500:
UWI. F11065:
~C
DEPT.M :
GR.API :
RML.OHMM :
RI. :
RXO.OHMM :
CALI.CM :
DEN.GM/CC :
SP.MV :
~A
# ...
  197.2500    75.9840    62.3670    61.9650    63.3610    24.8590     2.2920   -17.5830 
  197.3750    77.0470    62.9010    61.2190    55.1480    24.9080     2.2920   -17.4180 
  197.5000    72.0690    66.2700    63.2400    56.3720    24.9490     2.2850   -17.3390 
  197.6250    66.0130    72.3720    68.1360    64.8340    25.0050     2.2740   -17.3020 
  197.7500    65.3390    80.6430    75.5490    77.6140    25.0840     2.2630   -17.2870 
  197.8750    69.2800    90.2370    84.6870    93.0710    25.1210     2.2570   -17.3040 
  198.0000    71.8410    99.9580    94.0040   103.9850    25.1310     2.2530   -17.3980 
  198.1250    70.7430   109.3200   102.7810   115.7010    25.1360     2.2480   -17.6350 
  198.2500    68.2580   118.2350   110.9640   136.3130    25.1480     2.2390   -17.8660 
  198.3750    68.3780   126.6120   118.8140   159.9760    25.1670     2.2280   -18.1760 
  198.5000    69.0430   134.0620   126.2600   171.9030    25.1780     2.2150   -18.4270 
  198.6250    66.3030   139.6280   132.3600   174.3010    25.2170     2.2040   -18.6600 
  198.7500    61.0410   142.2240   135.7370   173.0200    25.2720     2.1970   -18.9140 
  198.8750    60.2450   140.6510   134.7900   155.0410    25.2880     2.1970   -19.1830 
  199.0000    64.9220   136.0700   130.5700   140.9020    25.2860     2.2020   -19.4040 
  199.1250    69.4980   129.8790   124.5620   143.1430    25.2670     2.2090   -19.5990 
  199.2500    69.5610   123.7820   118.5760   150.6850    25.2440     2.2180   -19.8270 
  199.3750    68.5920   119.7060   114.6390   145.4440    25.2370     2.2260   -19.9530 
  199.5000    70.6180   118.2840   113.5060   125.0230    25.2720     2.2290   -20.1130 
  199.6250    73.2650   119.5900   115.4150   107.5250    25.3100     2.2280   -20.2180 
  199.7500    73.8470   123.0650   120.0010   115.3080    25.3310     2.2220   -20.3260 
  199.8750    71.8440   127.4040   126.2710   127.5820    25.3440     2.2160   -20.3350 
  200.0000    69.1910   130.3000   131.9570   140.5740    25.3490     2.2130   -20.3450 
  200.1250    68.0940   129.4960   134.5590   152.5680    25.3660     2.2130   -20.3260 
  200.2500    68.7560   123.2810   131.4200   159.2150    25.3720     2.2170   -20.2400 
  200.3750    68.9950   110.9970   120.2340   152.0300    25.3500     2.2250   -20.1970 
  200.5000    67.0110    96.2960   104.5410   137.7890    25.3420     2.2380   -20.0700 
  200.6250    64.1150    82.7780    88.5390   122.0840    25.3930     2.2560   -19.9950 
  200.7500    63.1690    73.6020    76.0400    96.4820    25.4550     2.2710   -19.9440 
  200.8750    64.9670    72.0620    70.7180    70.5830    25.4410     2.2730   -19.9620 
  201.0000    67.4000    78.2900    73.2030    59.9070    25.4070     2.2590   -20.0360 
  201.1250    67.4950    93.1650    84.9240    72.8440    25.4150     2.2370   -20.1240 
  201.2500    63.8560   117.3380   107.2820   109.7770    25.4720     2.2160   -20.3140 
  201.3750    59.8120   150.4160   141.2090   195.5300    25.4880     2.2110   -20.5130 
  201.5000    59.1980   184.4350   178.0100   284.3130    25.4480     2.2210   -20.8010 
  201.6250    60.8260   210.4870   205.7690   324.9490    25.3960     2.2400   -21.0330 
  201.7500    62.6860   222.7470   215.6900   320.6520    25.3940     2.2580   -21.2570 
  201.8750    63.5270   222.5870   209.9710   263.5140    25.4660     2.2620   -21.4560 
  202.0000    63.1480   221.8550   203.6180   206.2770    25.6020     2.2480   -21.6210 
  202.1250    61.2420   228.5740   205.2390   179.4610    25.7670     2.2250   -21.7440 
  202.2500    57.7950   246.3730   218.5330   192.6650    25.8720     2.2030   -21.8240 
  202.3750    55.1230   275.3040   244.1180   244.9540    25.8530     2.2000   -21.8640 
  202.5000    54.6640   307.1170   274.2470   336.5500    25.7470     2.2130   -21.8360 
  202.6250    56.0140   332.7880   300.1900   437.4910    25.6260     2.2340   -21.8410 
  202.7500    57.1970   343.9730   313.1490   413.3690    25.5710     2.2540   -21.7690 
  202.8750    58.1610   334.2100   306.6140   306.2030    25.5940     2.2640   -21.7190 
  203.0000    59.8850   309.8020   287.1380   237.8670    25.5880     2.2650   -21.6080 
  203.1250    60.6500   276.1890   259.8510   217.9480    25.5540     2.2610   -21.5340 
  203.2500    57.9500   238.1460   228.2270   205.7000    25.5410     2.2530   -21.4170 
  203.3750    54.6200   199.8270   194.7510   203.6410    25.6000     2.2420   -21.1980 
  203.5000    55.3180   164.8480   162.7620   191.6550    25.7430     2.2290   -20.9890 
  203.6250    59.4840   135.6080   134.8490   164.2400    25.9600     2.2200   -20.6770 
  203.7500    62.7530   113.3310   112.7170   141.3180    26.0660     2.2180   -20.4190 
  203.8750    62.6640    99.0100    97.8940   111.9540    26.0020     2.2230   -20.2010 
  204.0000    63.0960    90.3690    88.6320    98.8270    25.9060     2.2330   -19.9960 
  204.1250    65.1650    86.1120    83.8460    91.9420    25.8570     2.2410   -19.7730 
  204.2500    66.0900    85.0500    82.4660    87.2770    25.8360     2.2470   -19.5000 
  204.3750    63.7560    86.4920    83.8440    87.0100    25.8230     2.2480   -19.3610 
  204.5000    61.1780    89.2410    86.6970    89.8130    25.8230     2.2490   -19.2440 
  204.6250    60.5760    92.5510    90.2530    89.7810    25.8420     2.2500   -19.2800 
  204.7500    61.5040    95.5280    93.6570    93.0600    25.8660     2.2460   -19.3830 
  204.8750    63.3670    96.8550    95.5710   103.2000    25.8870     2.2390   -19.4410 
  205.0000    64.5590    96.0790    95.2860   110.8470    25.8770     2.2310   -19.5710 
  205.1250    64.5530    93.4010    92.7700   113.9430    25.8610     2.2270   -19.6960 
  205.2500    63.9680    89.8510    88.9350   109.4830    25.8640     2.2280   -19.9190 
  205.3750    63.9050    87.4340    85.7720   109.8090    25.8700     2.2310   -20.0860 
  205.5000    63.0770    87.8290    85.3460   109.3810    25.8250     2.2320   -20.2490 
  205.6250    62.2300    92.1190    89.2000   105.9690    25.7490     2.2280   -20.3480 
  205.7500    63.0430   100.5320    98.0900   110.3870    25.6560     2.2200   -20.4060 
  205.8750    62.3790   111.8480   111.9660   142.6850    25.5940     2.2150   -20.4350 
  206.0000    58.8460   121.0800   126.5220   199.2400    25.5770     2.2140   -20.3510 
  206.1250    55.3040   122.2320   134.7350   195.5110    25.5740     2.2190   -20.1970 
  206.2500    54.6220   110.9680   127.8270   178.1080    25.5450     2.2330   -19.9500 
  206.3750    56.4000    87.5960   101.5930   139.3230    25.4540     2.2610   -19.6930 
  206.5000    59.3410    61.8580    70.3010    99.8470    25.3270     2.3010   -19.3550 
  206.6250    65.1580    40.4690    44.5500    56.6450    25.1280     2.3460   -18.9530 
  206.7500    73.3500    26.1590    27.8650    30.0970    24.8140     2.3820   -18.5010 
  206.8750    82.9500    19.0170    19.6530    14.1980    24.5840     2.3920   -18.0450 
  207.0000    91.5940    16.0460    15.8260    11.1040    24.4390     2.3790   -17.7030 
  207.1250    96.1230    16.0480    14.7570    11.3830    24.3630     2.3540   -17.5370 
  207.2500    93.2790    18.3980    15.7980    13.6270    24.3540     2.3270   -17.5030 
  207.3750    83.8410    22.9940    19.3110    20.1770    24.5590     2.3090   -17.6480 
  207.5000    75.5550    28.9240    24.9790    30.5990    24.9450     2.2980   -17.9100 
  207.6250    72.7950    35.3270    32.2210    36.5930    25.2380     2.2880   -18.2690 
  207.7500    72.8830    41.1580    39.6570    38.7710    25.3690     2.2770   -18.6800 
  207.8750    72.3710    45.1700    45.1470    44.0660    25.4540     2.2670   -19.1730 
  208.0000    72.6840    47.2420    47.9660    50.7680    25.5450     2.2610   -19.6450 
  208.1250    73.5910    47.6330    48.3960    54.1230    25.5880     2.2590   -20.0010 
  208.2500    71.8300    46.9350    47.2780    53.5890    25.6060     2.2620   -20.3010 
  208.3750    68.3900    45.8470    45.4130    49.5010    25.5910     2.2720   -20.4540 
