~V
VERS. 2.00: Ver 2.00
~W
STRT.M 50.0000:
STOP.M 270.0000:
STEP.M 0.1250:
NULL. -999.2500:
UWI. F11070:
~C
DEPT.M :
DEN.GM/CC :
GR.API :
RML.OHMM :
RI. :
RXO.OHMM :
CALI.CM :
SP.MV :
~A
# ...
  162.5000     2.5290    66.4220    16.7680    16.6590    18.0320    24.6730   -20.0580 
  162.6250     2.5380    66.5230    16.6240    16.4940    17.2680    24.6730   -19.7530 
  162.7500     2.5410    64.1760    16.1370    16.0100    16.5280    24.6660   -19.3870 
  162.8750     2.5370    61.4660    15.4120    15.2990    15.3320    24.6670   -18.9560 
  163.0000     2.5300    61.4740    14.6300    14.5190    14.1300    24.6760   -18.4890 
  163.1250     2.5240    63.4980    14.0050    13.8480    13.0920    24.6580   -17.8830 
  163.2500     2.5180    65.3180    13.6060    13.3560    12.6550    24.6410   -17.1830 
  163.3750     2.5140    64.4850    13.4170    13.0490    12.2660    24.6560   -16.4050 
  163.5000     2.5140    61.4890    13.3680    12.8850    11.9480    24.6490   -15.5710 
  163.6250     2.5180    59.3740    13.3510    12.7840    12.0740    24.6160   -14.7930 
  163.7500     2.5170    60.1800    13.2840    12.6560    12.2660    24.6430   -14.1830 
  163.8750     2.5090    61.5950    13.1700    12.4870    12.1760    24.6560   -13.8060 
  164.0000     2.4960    61.8800    13.0460    12.3040    11.6610    24.5670   -13.6730 
  164.1250     2.4870    62.6090    12.9700    12.1470    11.1190    24.4190   -13.8840 
  164.2500     2.4840    62.9710    12.9750    12.0400    10.9250    24.4720   -14.3020 
  164.3750     2.4890    61.0290    13.0870    12.0030    11.4740    24.5900   -14.8110 
  164.5000     2.4970    58.2740    13.3160    12.0590    12.0660    24.6010   -15.3330 
  164.6250     2.5080    58.4430    13.6720    12.2500    11.6610    24.5610   -15.7660 
  164.7500     2.5240    60.1150    14.1180    12.5570    11.9010    24.5540   -16.0650 
  164.8750     2.5470    60.3440    14.6290    12.9520    13.2280    24.5630   -16.1310 
  165.0000     2.5700    58.4180    15.1830    13.3970    15.4230    24.5760   -15.9120 
  165.1250     2.5780    55.5390    15.7650    13.8610    16.2820    24.5460   -15.3940 
  165.2500     2.5740    53.9870    16.3290    14.2980    16.2510    24.4660   -14.7220 
  165.3750     2.5730    53.4410    16.7980    14.6500    15.7190    24.3710   -14.4500 
  165.5000     2.5780    53.1240    17.0610    14.8330    15.5380    24.2940   -14.4230 
  165.6250     2.5850    53.3080    16.9410    14.7270    16.2900    24.2860   -14.3170 
  165.7500     2.5800    54.2550    16.4370    14.3460    15.6430    24.3690   -14.0980 
  165.8750     2.5660    55.8370    15.6320    13.7490    14.6000    24.4870   -13.8930 
  166.0000     2.5540    56.3140    14.7410    13.0760    13.5970    24.5550   -13.6590 
  166.1250     2.5520    53.9790    14.1130    12.5560    12.8430    24.5500   -13.3960 
  166.2500     2.5550    52.1660    13.9590    12.3510    12.3230    24.5370   -13.1600 
  166.3750     2.5580    53.8970    14.3360    12.5410    12.4630    24.5300   -12.9840 
  166.5000     2.5580    58.1260    15.0600    13.0600    13.0990    24.5130   -12.8700 
  166.6250     2.5530    59.7920    15.5720    13.5570    14.1900    24.4370   -12.8190 
  166.7500     2.5410    57.8990    15.2800    13.5070    15.3560    24.3160   -12.8160 
  166.8750     2.5250    57.2800    13.9550    12.6190    15.9980    24.2480   -12.8270 
  167.0000     2.5030    62.0950    11.9060    11.0430    13.9120    24.2600   -12.8330 
  167.1250     2.4700    72.5580     9.8850     9.3220     9.6160    24.3430   -12.8400 
  167.2500     2.4370    83.2900     8.4410     7.9510     6.7630    24.4020   -12.8890 
  167.3750     2.4170    88.5730     7.6510     7.0580     5.8370    24.3020   -12.9990 
  167.5000     2.4140    88.0360     7.3390     6.5770     6.0060    24.1880   -13.1300 
  167.6250     2.4140    85.5690     7.2210     6.3520     7.3230    24.2680   -13.2010 
  167.7500     2.4010    85.6820     6.9790     6.1360     8.4870    24.4000   -13.1760 
  167.8750     2.3810    88.6600     6.5020     5.8080     7.3260    24.4820   -13.0760 
  168.0000     2.3630    91.4870     5.8670     5.3650     5.5980    24.4800   -12.9740 
  168.1250     2.3570    92.1830     5.2830     4.9080     4.8460    24.5070   -12.9770 
  168.2500     2.3600    91.9400     4.8870     4.5470     4.7480    24.5260   -13.1040 
  168.3750     2.3690    92.1130     4.6950     4.3230     4.6800    24.5450   -13.3460 
  168.5000     2.3800    94.4810     4.6520     4.2310     4.5820    24.5610   -13.6820 
  168.6250     2.3930    98.0610     4.6730     4.2310     4.5290    24.5750   -14.0750 
  168.7500     2.4040   100.5810     4.6850     4.2590     4.5380    24.5680   -14.4660 
  168.8750     2.4060    99.3090     4.6830     4.2880     4.6250    24.5570   -14.8680 
  169.0000     2.3980    94.4760     4.6840     4.3120     4.7070    24.5320   -15.3080 
  169.1250     2.3850    91.8960     4.7110     4.3340     4.7280    24.4670   -15.7300 
  169.2500     2.3770    92.9310     4.7720     4.3630     4.7810    24.3520   -16.1160 
  169.3750     2.3730    97.1090     4.8780     4.4130     4.8720    24.2960   -16.5080 
  169.5000     2.3750   101.1410     5.0390     4.5020     4.9660    24.3310   -16.9880 
  169.6250     2.3840   100.9370     5.2920     4.6620     5.1770    24.3550   -17.7190 
  169.7500     2.3960    97.6650     5.6410     4.9020     5.5500    24.4150   -18.5740 
  169.8750     2.4050    93.1950     6.0810     5.2240     5.9260    24.5670   -19.2820 
  170.0000     2.4090    89.4860     6.5780     5.6160     6.2550    24.6750   -19.6810 
  170.1250     2.4100    87.4360     7.0790     6.0430     6.8900    24.7000   -20.1580 
  170.2500     2.4150    87.8660     7.5270     6.4430     7.8390    24.7020   -20.2980 
  170.3750     2.4270    89.5810     7.8780     6.7690     8.5020    24.7710   -20.4980 
  170.5000     2.4410    88.2830     8.1180     7.0000     8.2790    24.9600   -20.7500 
  170.6250     2.4420    84.3870     8.2560     7.1340     7.4360    25.2620   -21.0180 
  170.7500     2.4310    81.8730     8.3370     7.2110     7.3720    25.4210   -21.2380 
  170.8750     2.4180    80.4360     8.3810     7.2420     7.5190    25.4750   -21.3980 
  171.0000     2.4080    80.0870     8.4010     7.2330     7.4360    25.5060   -21.5370 
  171.1250     2.3900    81.6120     8.4090     7.2020     7.3420    25.6000   -21.6770 
  171.2500     2.3520    82.7240     8.4420     7.1920     7.2780    25.7100   -21.8420 
  171.3750     2.3050    82.8290     8.5520     7.2470     7.2110    25.6310   -22.0430 
  171.5000     2.2750    84.5420     8.7900     7.4100     7.2450    25.2480   -22.2630 
  171.6250     2.2800    89.6120     9.2000     7.7270     7.9980    24.9020   -22.4900 
  171.7500     2.2990    90.8970     9.7480     8.1740     9.0190    24.7920   -22.7450 
  171.8750     2.3050    87.8190    10.4300     8.7460     9.9270    24.7450   -22.9860 
  172.0000     2.2980    86.0720    11.2610     9.4560    10.7680    24.5870   -23.2150 
  172.1250     2.3010    87.1330    12.3080    10.3510    11.7150    24.2730   -23.4890 
  172.2500     2.3220    88.3650    13.5520    11.4150    13.2170    24.0030   -23.7970 
  172.3750     2.3470    88.1090    14.9300    12.6160    15.5320    23.8980   -24.0960 
  172.5000     2.3630    86.4450    16.2900    13.8560    17.1520    23.8640   -24.3500 
  172.6250     2.3700    84.6820    17.3800    14.9190    17.1720    23.7970   -24.5370 
  172.7500     2.3800    84.3890    18.0970    15.6740    16.8660    23.7130   -24.6700 
  172.8750     2.3940    86.5670    18.4470    16.0820    15.9800    23.5770   -24.7840 
  173.0000     2.4090    88.0600    18.5360    16.2040    16.0240    23.4390   -24.9050 
  173.1250     2.4170    87.4890    18.5000    16.1430    16.8650    23.3450   -25.0440 
  173.2500     2.4180    86.8110    18.4620    16.0510    18.7690    23.3130   -25.1820 
  173.3750     2.4190    87.1730    18.4510    15.9880    18.7260    23.2530   -25.2980 
  173.5000     2.4190    88.1240    18.4980    15.9940    16.0910    23.1940   -25.3810 
  173.6250     2.4150    87.6800    18.8390    16.2310    14.7880    23.3440   -25.4330 
