~V
VERS. 2.00: Ver 2.00
~W
STRT.M 50.0000:
STOP.M 220.0000:
STEP.M 0.1250:
NULL. -999.2500:
UWI. F11004:
~C
DEPT.M :
SP.MV :
GR.API :
RML.OHMM :
RI. :
RXO.OHMM :
CALI.CM :
DEN.GM/CC :
~A
# ...
  128.7500    -8.5260    64.0210    16.7130    15.2380    15.2030    24.5530     2.5320 
  128.8750    -8.4800    63.7870    16.1820    14.7940    14.2960    24.5330     2.5480 
  129.0000    -8.4520    60.8750    15.8920    14.5150    13.8750    24.5170     2.5650 
  129.1250    -8.3690    55.7770    15.8390    14.4330    13.9530    24.5340     2.5740 
  129.2500    -8.2910    53.2280    15.9480    14.5140    14.4210    24.5770     2.5690 
  129.3750    -8.2830    55.5070    16.1570    14.7140    14.8970    24.6170     2.5530 
  129.5000    -8.2910    59.2390    16.4650    15.0150    15.0680    24.6210     2.5300 
  129.6250    -8.2740    62.3590    16.8850    15.4060    15.0620    24.6130     2.5070 
  129.7500    -8.2520    65.7800    17.4540    15.9180    15.1310    24.6230     2.4900 
  129.8750    -8.2390    69.8640    18.1740    16.5710    15.4950    24.6540     2.4820 
  130.0000    -8.2770    70.6220    18.9190    17.2920    16.1910    24.6690     2.4810 
  130.1250    -8.3120    68.5630    19.4140    17.8460    16.8550    24.6370     2.4810 
  130.2500    -8.3200    67.3060    19.4180    17.9970    17.1390    24.5660     2.4820 
  130.3750    -8.3180    68.4910    18.8200    17.6200    17.2740    24.4900     2.4870 
  130.5000    -8.3530    71.0990    17.6180    16.6840    17.1770    24.4650     2.4940 
  130.6250    -8.4180    71.0740    16.1350    15.4540    15.8010    24.4810     2.4910 
  130.7500    -8.4880    69.7790    14.6140    14.1300    13.8030    24.4760     2.4740 
  130.8750    -8.5610    69.7840    13.2420    12.8860    12.4780    24.4200     2.4560 
  131.0000    -8.6480    69.9170    12.2070    11.9000    11.6610    24.3080     2.4560 
  131.1250    -8.7650    70.0770    11.5660    11.2390    10.5080    24.1530     2.4700 
  131.2500    -8.8870    71.0930    11.3660    10.9520     9.3750    23.9910     2.4820 
  131.3750    -8.9750    71.2990    11.5850    11.0390     9.0290    23.8870     2.4820 
  131.5000    -9.0550    68.0120    12.1740    11.5040     9.4970    23.8670     2.4670 
  131.6250    -9.1050    64.1120    12.9340    12.2030    10.2860    23.8480     2.4430 
  131.7500    -9.0910    63.3500    13.7260    13.0240    11.4600    23.7900     2.4200 
  131.8750    -9.0350    65.4120    14.4540    13.8510    12.8700    23.7770     2.4090 
  132.0000    -8.9600    66.9040    15.1000    14.6160    13.9150    23.9650     2.4140 
  132.1250    -8.8880    65.0180    15.7130    15.3420    14.4650    24.2460     2.4240 
  132.2500    -8.8020    61.1340    16.2660    16.0140    15.0000    24.4390     2.4380 
  132.3750    -8.7410    59.4630    16.6540    16.5420    16.1600    24.4800     2.4570 
  132.5000    -8.7390    61.7970    16.6970    16.7160    17.8230    24.3500     2.4730 
  132.6250    -8.8350    63.3080    16.4200    16.5220    18.6580    24.0520     2.4790 
  132.7500    -9.0130    63.1220    15.9360    16.0470    17.4920    23.6670     2.4780 
  132.8750    -9.2030    61.7170    15.4360    15.4800    14.7470    23.4350     2.4710 
  133.0000    -9.4080    59.0140    15.1500    15.0560    12.7240    23.6040     2.4600 
  133.1250    -9.6610    56.8240    15.1300    14.8760    12.6360    23.9860     2.4460 
  133.2500    -9.9500    57.0820    15.3440    14.9490    13.7890    24.3130     2.4350 
  133.3750   -10.2160    57.7390    15.7180    15.2390    14.6280    24.3980     2.4230 
  133.5000   -10.4230    56.7650    16.1750    15.6910    14.6040    24.2740     2.4040 
  133.6250   -10.6210    57.2500    16.6440    16.2010    14.7440    24.2320     2.3830 
  133.7500   -10.8600    61.4430    17.1370    16.7430    15.4600    24.3500     2.3620 
  133.8750   -11.1360    66.5380    17.7260    17.3570    16.8200    24.5050     2.3350 
  134.0000   -11.4140    68.1950    18.5830    18.1870    18.3670    24.4490     2.2960 
  134.1250   -11.7340    67.8510    19.8240    19.3350    19.0650    24.1560     2.2600 
  134.2500   -12.1090    68.1240    21.5700    20.9140    18.3300    23.7800     2.2400 
  134.3750   -12.5270    69.8690    23.8730    23.0060    17.3420    23.5210     2.2350 
  134.5000   -12.9780    69.9100    26.6980    25.6710    19.5510    23.4160     2.2370 
  134.6250   -13.4420    68.8220    29.7030    28.6520    24.3710    23.3350     2.2390 
  134.7500   -13.8920    67.6810    32.6160    31.6910    29.1520    23.3230     2.2380 
  134.8750   -14.3440    67.1970    35.2460    34.5390    32.3090    23.5390     2.2310 
  135.0000   -14.7900    67.5050    37.5280    37.0160    34.4690    24.0120     2.2190 
  135.1250   -15.1740    68.2500    39.6160    39.2170    39.4700    24.4730     2.2090 
  135.2500   -15.5540    69.1410    41.5210    41.1820    47.4410    24.7450     2.2050 
  135.3750   -15.9910    70.0050    43.0940    42.8090    54.7600    24.8270     2.2060 
  135.5000   -16.4210    70.6120    44.0770    43.8550    57.9050    24.8130     2.2120 
  135.6250   -16.8030    70.5490    44.7670    44.5530    59.6510    24.7890     2.2230 
  135.7500   -17.2070    71.1370    45.8610    45.4750    61.1970    24.7470     2.2380 
  135.8750   -17.6440    73.2170    48.3730    47.4790    59.8600    24.7080     2.2510 
  136.0000   -18.0870    73.7570    54.1070    52.2150    56.1700    24.7480     2.2570 
  136.1250   -18.5290    70.7680    64.0130    60.8980    57.7860    24.8680     2.2550 
  136.2500   -18.9570    66.1310    84.2590    75.1100    67.6550    24.9840     2.2430 
  136.3750   -19.3770    63.1330   108.8740    95.9460    88.5170    25.0220     2.2250 
  136.5000   -19.8040    60.2600   139.0070   123.2220   120.0810    24.9830     2.2070 
  136.6250   -20.2090    54.9250   170.5300   151.3340   141.6270    24.9530     2.1980 
  136.7500   -20.5230    48.3750   196.8940   174.5710   141.5190    24.9640     2.1940 
  136.8750   -20.7920    45.4170   213.8580   189.6660   135.9600    24.9780     2.1930 
  137.0000   -21.0610    47.9540   223.0000   197.7920   129.2970    24.9650     2.1940 
  137.1250   -21.2640    51.5340   231.9020   205.2250   119.8740    24.9670     2.1920 
  137.2500   -21.3980    54.5610   244.3870   215.4820   118.0620    25.0040     2.1870 
  137.3750   -21.4680    56.3330   261.0010   229.4700   133.1470    25.0900     2.1800 
  137.5000   -21.4910    55.1890   277.7970   244.5530   159.4230    25.3270     2.1770 
  137.6250   -21.4400    51.3630   287.0280   254.6540   165.6310    25.7760     2.1730 
  137.7500   -21.3440    49.3700   282.6200   254.5640   141.5980    26.3190     2.1650 
  137.8750   -21.2110    52.6040   263.7130   242.3850   102.7710    26.7160     2.1570 
  138.0000   -21.0330    58.4190   234.5860   219.8950    75.3360    26.7150     2.1520 
  138.1250   -20.8500    60.9080   204.2580   194.4520    66.3970    26.3610     2.1490 
  138.2500   -20.6210    59.4200   177.5690   170.6470    72.5470    25.8110     2.1440 
  138.3750   -20.3670    57.2030   156.9240   151.3040    84.6280    25.2930     2.1440 
  138.5000   -20.1380    56.9050   143.7290   138.2920    83.3170    24.9720     2.1570 
  138.6250   -19.9550    58.6960   136.2310   130.4830    70.4030    24.7380     2.1770 
  138.7500   -19.7800    61.3780   133.6940   127.3610    57.5530    24.4730     2.1920 
  138.8750   -19.5910    64.0790   135.4860   128.3410    48.2920    24.1550     2.1960 
  139.0000   -19.4060    66.7120   141.8160   133.5420    41.3980    23.8630     2.1940 
  139.1250   -19.2640    67.3610   151.5430   141.8850    37.3060    23.6640     2.1970 
  139.2500   -19.1580    64.8580   163.4100   152.2220    36.7420    23.5810     2.2020 
  139.3750   -19.0470    59.8840   175.0640   162.4210    38.5530    23.5850     2.2070 
  139.5000   -18.9000    56.5950   182.7660   169.1660    42.4030    23.5970     2.2120 
  139.6250   -18.8140    57.3660   185.2040   171.2890    46.8750    23.5720     2.2160 
  139.7500   -18.7790    61.6100   182.8520   169.1080    47.5210    23.5220     2.2190 
  139.8750   -18.7100    66.3460   177.6720   164.2440    44.3010    23.4630     2.2230 
