~V
VERS. 2.00: Ver 2.00
~W
STRT.M 51.0000:
STOP.M 277.0000:
STEP.M 0.1250:
NULL. -999.2500:
UWI. F11053:
~C
DEPT.M :
GR.API :
RML.OHMM :
RI. :
RXO.OHMM :
CALI.CM :
DEN.GM/CC :
SP.MV :
~A
# ...
   62.2500    74.5920     8.4690     7.5300     8.8570    25.7640     2.1610   -25.0900 
   62.3750    81.6900     8.0200     7.0760     8.0260    25.7400     2.1670   -24.7980 
   62.5000    90.0660     7.6510     6.7060     7.2630    25.6800     2.1950   -24.4760 
   62.6250    95.5120     7.4630     6.5220     6.9070    25.6290     2.2420   -24.1540 
   62.7500    97.2000     7.4940     6.5570     7.1940    25.5980     2.2970   -23.8290 
   62.8750    95.7490     7.7210     6.7910     7.8510    25.5840     2.3420   -23.5280 
   63.0000    91.9340     8.0590     7.1440     8.4160    25.5820     2.3590   -23.2430 
   63.1250    90.2500     8.3600     7.4590     8.0000    25.5880     2.3470   -23.0210 
   63.2500    92.8770     8.5080     7.6120     7.7370    25.6100     2.3170   -22.8850 
   63.3750    97.3210     8.4480     7.5470     7.6540    25.6660     2.2920   -22.8310 
   63.5000   100.7700     8.1840     7.2750     7.2940    25.7610     2.2880   -22.8080 
   63.6250   103.9240     7.8250     6.9130     6.6240    25.8440     2.3020   -22.7990 
   63.7500   107.4930     7.4820     6.5720     6.1710    25.8640     2.3210   -22.7880 
   63.8750   110.4200     7.2370     6.3350     6.1000    25.8190     2.3340   -22.7520 
   64.0000   111.9050     7.1600     6.2640     6.1250    25.7710     2.3340   -22.6820 
   64.1250   111.0020     7.2380     6.3460     6.1270    25.7210     2.3300   -22.5840 
   64.2500   107.7420     7.4270     6.5390     6.3380    25.6570     2.3240   -22.4590 
   64.3750   104.1970     7.6720     6.7840     6.8340    25.5780     2.3170   -22.3430 
   64.5000   103.2100     7.9000     7.0080     7.0270    25.5020     2.3060   -22.2460 
   64.6250   103.8060     8.0560     7.1600     7.1570    25.4630     2.2890   -22.1840 
   64.7500   103.3960     8.1140     7.2130     7.0890    25.4540     2.2700   -22.1550 
   64.8750   102.4460     8.0680     7.1650     7.1670    25.4540     2.2540   -22.1420 
   65.0000   101.4430     7.9350     7.0300     7.3000    25.4540     2.2450   -22.1500 
   65.1250    98.2090     7.7720     6.8630     7.3000    25.4520     2.2420   -22.1670 
   65.2500    92.8090     7.6490     6.7260     7.1480    25.4450     2.2430   -22.2000 
   65.3750    87.8650     7.6440     6.6970     6.9740    25.4250     2.2450   -22.2170 
   65.5000    87.2050     7.8570     6.8830     6.9810    25.4020     2.2520   -22.2340 
   65.6250    88.9630     8.2930     7.2960     7.5510    25.3900     2.2720   -22.2230 
   65.7500    87.4700     8.8970     7.8890     8.9850    25.3860     2.3030   -22.2060 
   65.8750    80.8900     9.5400     8.5420    11.9080    25.3850     2.3350   -22.2060 
   66.0000    74.3710    10.0110     9.0240    14.2250    25.3840     2.3430   -22.2510 
   66.1250    71.4840    10.1910     9.1870    12.4310    25.3810     2.3180   -22.3250 
   66.2500    70.7520    10.0880     9.0460     9.9840    25.3620     2.2620   -22.4160 
   66.3750    70.8260     9.8140     8.7400     8.8560    25.3020     2.1950   -22.5260 
   66.5000    71.3900     9.5420     8.4580     8.6810    25.1930     2.1410   -22.6310 
   66.6250    70.2180     9.3780     8.3090     8.6810    25.0870     2.1090   -22.6930 
   66.7500    68.1620     9.3200     8.2870     8.6360    25.0220     2.0980   -22.6730 
   66.8750    69.2960     9.2790     8.2960     8.6020    24.9970     2.1010   -22.5400 
   67.0000    73.6360     9.1230     8.1730     8.7160    24.9940     2.1150   -22.2850 
   67.1250    79.2160     8.8120     7.8380     8.6680    24.9980     2.1400   -21.9430 
   67.2500    88.6450     8.3390     7.3050     8.1220    25.0110     2.1770   -21.5290 
   67.3750   101.9820     7.7360     6.6740     7.3020    25.0430     2.2260   -21.0550 
   67.5000   111.4280     7.1600     6.1180     6.6880    25.0800     2.2770   -20.5620 
   67.6250   112.6330     6.8410     5.7790     6.2600    25.1210     2.3150   -20.1420 
   67.7500   107.1010     6.9320     5.7590     6.2160    25.1570     2.3270   -19.8290 
   67.8750    97.5600     7.4780     6.1140     6.7300    25.1800     2.3140   -19.6620 
   68.0000    87.4860     8.5030     6.8820     7.8660    25.1750     2.2960   -19.6330 
   68.1250    79.6250     9.7960     7.9030     8.9190    25.1200     2.3060   -19.6880 
   68.2500    74.3190    11.0180     8.9160     9.5320    25.0060     2.3530   -19.7950 
   68.3750    71.6390    11.8010     9.6100     9.5930    24.8810     2.4260   -19.9240 
   68.5000    74.2550    11.8820     9.7210     9.3070    24.8180     2.4850   -20.0640 
   68.6250    80.5100    11.5020     9.4160     9.0620    24.8000     2.4990   -20.1700 
   68.7500    84.8060    11.0190     8.9690     9.2350    24.7980     2.4630   -20.2630 
   68.8750    83.9650    10.7010     8.6060     9.2810    24.7980     2.3940   -20.3280 
   69.0000    80.0020    10.6870     8.4710     9.0970    24.8000     2.3180   -20.3910 
   69.1250    75.8490    10.8730     8.5270     9.1250    24.8100     2.2550   -20.4580 
   69.2500    71.2760    11.0910     8.6720     9.4290    24.8330     2.2090   -20.5490 
   69.3750    66.5980    11.1970     8.7990     9.9440    24.8820     2.1760   -20.6550 
   69.5000    64.1200    11.1090     8.8290    10.2050    24.9320     2.1590   -20.7510 
   69.6250    65.0280    10.9130     8.7700    10.0610    24.9720     2.1560   -20.8240 
   69.7500    67.1120    10.7210     8.6660     9.7690    24.9900     2.1640   -20.8590 
   69.8750    68.0000    10.5920     8.5570     9.6290    24.9960     2.1760   -20.8480 
   70.0000    67.8820    10.5220     8.4640     9.5210    25.0000     2.1840   -20.7730 
   70.1250    68.6060    10.4530     8.3850     9.4200    25.0020     2.1820   -20.6250 
   70.2500    69.8950    10.3620     8.3060     9.4530    25.0020     2.1730   -20.4180 
   70.3750    70.1700    10.2720     8.2150     9.5560    25.0000     2.1610   -20.1960 
   70.5000    70.7660    10.2330     8.1150     9.6130    24.9970     2.1530   -19.9900 
   70.6250    73.4640    10.2570     8.0330     9.6030    24.9950     2.1500   -19.7840 
   70.7500    76.3870    10.3180     7.9950     9.6240    24.9940     2.1490   -19.5890 
   70.8750    77.0560    10.3800     8.0220     9.7440    24.9940     2.1510   -19.3930 
   71.0000    74.8770    10.4100     8.1070     9.8660    25.0000     2.1550   -19.2310 
   71.1250    71.1810    10.4070     8.2070     9.9550    25.0250     2.1590   -19.1050 
   71.2500    68.0190    10.3760     8.2810     9.9610    25.0760     2.1620   -19.0100 
   71.3750    66.8790    10.3190     8.3090     9.9310    25.1410     2.1610   -18.9100 
   71.5000    67.8530    10.2310     8.2880     9.7970    25.1850     2.1590   -18.8120 
   71.6250    68.1240    10.1340     8.2460     9.6190    25.2250     2.1550   -18.7150 
   71.7500    66.6170    10.0560     8.2050     9.4650    25.2750     2.1530   -18.5930 
   71.8750    65.3030    10.0180     8.1750     9.4140    25.3250     2.1540   -18.4710 
   72.0000    66.4250    10.0070     8.1430     9.3190    25.3860     2.1570   -18.3140 
   72.1250    69.0940     9.9800     8.0890     9.2700    25.4520     2.1610   -18.1560 
   72.2500    70.5150     9.9100     7.9960     9.3320    25.5030     2.1640   -17.9960 
   72.3750    69.2420     9.8160     7.8800     9.4310    25.5500     2.1650   -17.8460 
   72.5000    67.3300     9.7770     7.7940     9.3510    25.6280     2.1600   -17.6720 
   72.6250    67.2870     9.8570     7.7840     9.1970    25.7270     2.1560   -17.5030 
   72.7500    69.3940    10.0800     7.8830     9.7710    25.8350     2.1610   -17.3250 
   72.8750    73.0420    10.4510     8.1210    11.8930    25.9510     2.1850   -17.1470 
   73.0000    77.5790    11.0320     8.5780    15.1390    26.0010     2.2390   -16.9450 
   73.1250    81.8810    11.8720     9.2830    15.1070    25.9490     2.3130   -16.7450 
   73.2500    83.5350    12.9810    10.2160    14.0190    25.8430     2.3940   -16.5670 
   73.3750    80.4180    14.2000    11.2450    15.1820    25.7130     2.4690   -16.4530 
