~V
VERS. 2.00: Ver 2.00
~W
STRT.M 50.0000:
STOP.M 283.0000:
STEP.M 0.1250:
NULL. -999.2500:
UWI. F11066:
~C
DEPT.M :
GR.API :
RML.OHMM :
RI. :
RXO.OHMM :
CALI.CM :
DEN.GM/CC :
SP.MV :
~A
# ...
  230.0000    61.9090    70.3510    66.5680    65.9620    24.7420     2.2800    -6.7940 
  230.1250    62.5120    74.3060    69.7130    71.5560    24.9500     2.2510    -6.8160 
  230.2500    63.2210    79.6770    74.3050    79.1850    25.3690     2.2150    -6.8590 
  230.3750    62.8650    85.9010    79.8460    83.2040    25.4020     2.1870    -6.8710 
  230.5000    61.6750    92.1520    85.5250    93.2490    25.2240     2.1700    -6.8940 
  230.6250    61.2160    97.4250    90.3590   100.5830    25.0060     2.1600    -6.8560 
  230.7500    61.7270   101.3240    93.9740   107.5220    24.9790     2.1540    -6.8160 
  230.8750    61.6170   103.7200    96.2930   111.9170    24.9850     2.1550    -6.7750 
  231.0000    62.0360   104.6180    97.3460   110.1470    24.9880     2.1610    -6.7680 
  231.1250    63.7030   103.7010    96.9170   107.3850    24.9610     2.1720    -6.7960 
  231.2500    63.7340   101.3000    95.2390   102.1560    24.9650     2.1870    -6.7960 
  231.3750    62.2440    97.9470    92.6420    94.4140    24.9220     2.2090    -6.8240 
  231.5000    63.0890    94.6060    89.8220    85.1210    24.8820     2.2320    -6.8370 
  231.6250    66.3480    92.5110    87.8150    82.0230    24.8770     2.2390    -6.8710 
  231.7500    67.5320    91.9630    87.1810    82.5340    24.8870     2.2290    -6.8780 
  231.8750    65.8280    92.6650    87.9860    98.2530    24.8830     2.2100    -6.8570 
  232.0000    63.3020    93.7260    89.6940   105.7570    25.0200     2.1910    -6.8030 
  232.1250    63.7610    93.6480    91.0420   109.5550    25.2810     2.1760    -6.6510 
  232.2500    67.8120    91.7120    90.9130   107.6980    25.4990     2.1720    -6.4590 
  232.3750    72.1990    87.9950    88.9680   100.3850    25.5850     2.1780    -6.2120 
  232.5000    73.1280    83.3210    85.6960    88.2100    25.4100     2.1890    -5.9560 
  232.6250    71.0340    79.0390    82.2590    79.0740    25.5360     2.2060    -5.6960 
  232.7500    69.8700    75.7600    79.4520    76.9830    25.0340     2.2270    -5.4260 
  232.8750    68.6940    73.0160    76.9450    76.5560    24.8180     2.2480    -5.1520 
  233.0000    66.8270    69.6280    73.6390    77.8690    25.1650     2.2720    -4.9030 
  233.1250    65.8870    64.0630    67.9610    76.4050    25.8540     2.3160    -4.7430 
  233.2500    66.9790    56.7440    60.3500    67.4580    26.0870     2.3670    -4.6320 
  233.3750    68.9680    49.0200    52.1850    54.1730    25.4540     2.3980    -4.5900 
  233.5000    69.7580    42.4430    45.0420    44.1090    25.0930     2.3980    -4.5930 
  233.6250    69.5260    38.4070    40.2920    35.6930    25.2550     2.3840    -4.6590 
  233.7500    70.7860    36.8340    37.8770    36.2920    25.2980     2.3700    -4.7930 
  233.8750    72.9550    37.6990    37.8300    42.1500    25.1770     2.3560    -4.9720 
  234.0000    73.8100    40.9530    40.1900    42.5310    25.2900     2.3310    -5.1870 
  234.1250    73.0320    47.0530    45.5290    42.5430    25.0440     2.2970    -5.4410 
  234.2500    72.8400    55.7170    53.6260    51.7260    25.2000     2.2680    -5.7350 
  234.3750    72.0730    66.8960    64.4080    71.3030    25.6030     2.2510    -6.0600 
  234.5000    68.8950    80.0320    77.1970    89.8960    25.5340     2.2410    -6.3610 
  234.6250    64.4110    93.3220    90.0510   105.6590    25.5880     2.2290    -6.6700 
  234.7500    62.5090   103.8560   100.1360   114.3020    25.4530     2.2140    -6.9640 
  234.8750    63.8380   109.5400   105.4990   119.3280    24.8410     2.2020    -7.2570 
  235.0000    65.4130   110.3030   105.9850   121.2710    24.4970     2.1950    -7.5420 
  235.1250    63.7770   107.9780   103.0910   116.4500    24.5350     2.1960    -7.8180 
  235.2500    61.8090   105.5120    99.6790   106.9110    24.6610     2.2030    -8.0920 
  235.3750    62.2360   104.2700    97.1800   100.9040    24.9610     2.2100    -8.3430 
  235.5000    64.1780   104.9300    96.3910   102.0270    25.4980     2.2110    -8.6420 
  235.6250    64.8920   107.9830    97.9260   107.8080    25.2400     2.2010    -8.8930 
  235.7500    63.2140   112.6730   101.2100   113.4010    24.9280     2.1900    -9.1350 
  235.8750    59.7340   118.2130   105.6150   119.5760    24.7760     2.1860    -9.3630 
  236.0000    57.0730   123.6210   110.2810   122.9050    24.7800     2.1940    -9.5720 
  236.1250    58.1940   127.7040   114.1380   123.0120    24.6080     2.2090    -9.7600 
  236.2500    61.7740   130.0340   116.6200   123.1870    24.5290     2.2170    -9.8720 
  236.3750    66.3030   130.5180   117.4760   125.3680    24.5630     2.2160    -9.9840 
  236.5000    69.3460   129.4640   116.8100   126.6650    24.6660     2.2140   -10.0500 
  236.6250    68.3630   127.3800   114.9260   121.8260    24.6070     2.2150   -10.1090 
  236.7500    65.4290   124.8920   112.4880   118.6240    24.5280     2.2210   -10.1400 
  236.8750    63.7410   122.0880   109.7280   117.7850    24.4640     2.2300   -10.1300 
  237.0000    64.3980   118.9530   106.7860   116.8050    24.4670     2.2430   -10.1010 
  237.1250    65.4050   116.0730   104.2090   115.8370    24.4770     2.2610    -9.9980 
  237.2500    65.0710   114.9100   103.1590   113.1120    24.4510     2.2870    -9.9070 
  237.3750    63.0210   117.4080   105.3370   112.0650    24.4220     2.3210    -9.7340 
  237.5000    60.6190   125.6810   112.8160   109.9750    24.4420     2.3630    -9.5300 
  237.6250    58.0080   143.1680   129.3790   117.7470    24.4840     2.4170    -9.2830 
  237.7500    55.7000   168.8740   154.5350   154.7070    24.5210     2.4880    -9.0120 
  237.8750    55.7030   197.0130   183.6890   244.7510    24.5050     2.5680    -8.7130 
  238.0000    58.6030   208.8960   202.5340   325.6050    24.4420     2.6360    -8.3840 
  238.1250    60.2470   173.8160   181.9810   338.8840    24.4020     2.6640    -8.0550 
  238.2500    58.2590   115.0200   129.5000   246.2340    24.3910     2.6650    -7.6530 
  238.3750    57.7780    65.0310    75.2170   109.0360    24.3830     2.6530    -7.1770 
  238.5000    61.3800    34.0980    38.5900    36.2350    24.3260     2.6300    -6.5860 
  238.6250    64.7550    19.0950    21.1510    15.7100    24.2350     2.5690    -5.8840 
  238.7500    63.3260    11.4340    12.8590     8.8310    24.1990     2.4840    -5.1560 
  238.8750    59.0440     7.7930     8.5490     6.8470    24.2330     2.4140    -4.4450 
  239.0000    58.2640     6.2830     6.5360     6.9240    24.2730     2.3820    -3.7560 
  239.1250    62.7530     5.9490     5.8010     7.3650    24.2460     2.3790    -3.0900 
  239.2500    69.1770     6.0190     5.6100     7.3160    24.2250     2.3830    -2.5210 
  239.3750    73.4090     6.1820     5.6740     6.9840    24.1970     2.3880    -2.0810 
  239.5000    72.2950     6.2680     5.8000     6.8530    24.1650     2.3950    -1.8170 
  239.6250    66.5400     6.2250     5.8740     6.9040    24.1130     2.4030    -1.7400 
  239.7500    60.9870     6.1140     5.8770     7.1420    24.1220     2.4070    -1.7330 
  239.8750    59.3240     5.9790     5.8170     7.3420    24.1470     2.4070    -1.7810 
  240.0000    61.8070     5.8670     5.7300     7.4390    24.1440     2.4030    -1.8620 
  240.1250    65.8710     5.8590     5.6930     7.2470    24.0530     2.3960    -1.9590 
  240.2500    69.4510     6.0060     5.7660     7.3730    23.9770     2.3890    -2.0800 
  240.3750    72.1540     6.3260     5.9690     7.8430    23.9440     2.3890    -2.1730 
  240.5000    75.1610     6.7860     6.2800     8.9300    23.9400     2.3960    -2.2240 
  240.6250    79.8730     7.2840     6.6240     9.4130    23.9970     2.4060    -2.2020 
  240.7500    86.9930     7.6880     6.9000     9.3930    24.1040     2.4100    -2.1700 
  240.8750    95.7500     7.9250     7.0530     9.2320    24.2170     2.4070    -2.1020 
  241.0000   101.8590     7.9960     7.0810     9.1190    24.3330     2.4040    -2.0070 
  241.1250   105.1360     7.9590     7.0190     9.1560    24.4020     2.4030    -1.9290 
