~V
VERS. 2.00: Ver 2.00
~W
STRT.M 60.0000:
STOP.M 276.0000:
STEP.M 0.1250:
NULL. -999.2500:
UWI. F11026:
~C
DEPT.M :
DEN.GM/CC :
GR.API :
RML.OHMM :
RI. :
RXO.OHMM :
CALI.CM :
SP.MV :
~A
# ...
  116.2500     2.2690    74.5550    10.9190     9.5400    13.0030    23.8650   -12.3660 
  116.3750     2.2080    72.1210    10.2080     9.0620     9.7110    23.7710   -12.6740 
  116.5000     2.1620    68.8720     9.3500     8.3440     8.6500    23.6630   -12.8840 
  116.6250     2.1350    67.7880     8.7090     7.7210     8.7560    23.5860   -12.9910 
  116.7500     2.1160    67.8240     8.3680     7.3200     8.8570    23.5870   -13.0220 
  116.8750     2.1000    68.0270     8.2620     7.1220     8.7090    23.6430   -13.0580 
  117.0000     2.0880    69.9420     8.2730     7.0400     8.3380    23.6990   -13.1280 
  117.1250     2.0800    73.4580     8.2820     6.9870     8.0840    23.7480   -13.2890 
  117.2500     2.0770    76.5750     8.2250     6.9120     7.8870    23.7630   -13.5790 
  117.3750     2.0800    77.1710     8.0940     6.8140     7.6840    23.7080   -13.9930 
  117.5000     2.0890    75.2570     7.9230     6.7080     7.7090    23.5740   -14.4860 
  117.6250     2.1010    74.5670     7.7850     6.6180     7.7600    23.3850   -15.0000 
  117.7500     2.1140    77.6060     7.7420     6.5610     7.7450    23.2040   -15.5170 
  117.8750     2.1240    81.3540     7.8190     6.5570     7.6570    23.0660   -15.9650 
  118.0000     2.1310    80.0890     7.9980     6.6250     7.7040    22.9850   -16.3180 
  118.1250     2.1360    74.9120     8.2350     6.7840     7.7800    22.9200   -16.4930 
  118.2500     2.1420    73.2040     8.4730     7.0040     8.0480    22.9080   -16.4370 
  118.3750     2.1490    75.1940     8.6900     7.2480     8.3850    22.9940   -16.1830 
  118.5000     2.1590    77.3450     8.8770     7.4740     8.5590    23.2040   -15.8040 
  118.6250     2.1750    76.5160     9.0280     7.6440     8.5280    23.3840   -15.4380 
  118.7500     2.1960    74.6640     9.1460     7.7610     8.4890    23.5440   -15.1020 
  118.8750     2.2170    73.7680     9.2290     7.8410     8.6020    23.6600   -14.8300 
  119.0000     2.2320    73.9690     9.2770     7.8990     8.7890    23.6860   -14.6830 
  119.1250     2.2350    73.7640     9.2790     7.9380     8.9110    23.5670   -14.8320 
  119.2500     2.2270    72.6310     9.2270     7.9480     8.9060    23.5210   -15.2210 
  119.3750     2.2130    72.1120     9.1070     7.9050     8.9530    23.5320   -15.6240 
  119.5000     2.1960    72.9660     8.9150     7.7910     8.9880    23.6040   -15.9030 
  119.6250     2.1840    74.1690     8.6660     7.6030     8.8470    23.7220   -16.0890 
  119.7500     2.1770    74.1160     8.4130     7.3920     8.5230    23.7930   -16.1900 
  119.8750     2.1770    73.2230     8.2060     7.2010     8.2280    23.7420   -16.1470 
  120.0000     2.1830    72.6260     8.0830     7.0600     7.9680    23.6170   -15.9420 
  120.1250     2.1910    72.1530     8.0790     6.9940     7.8550    23.4850   -15.5720 
  120.2500     2.1990    72.1190     8.1700     6.9950     7.8860    23.4250   -15.2040 
  120.3750     2.2040    73.7720     8.3290     7.0630     7.9200    23.4150   -15.0200 
  120.5000     2.2060    76.1340     8.5270     7.1980     7.8640    23.3890   -15.1320 
  120.6250     2.2070    76.8960     8.7350     7.3970     7.9650    23.3550   -15.4530 
  120.7500     2.2060    77.4320     8.9210     7.6220     8.1730    23.3800   -15.8070 
  120.8750     2.2060    79.9500     9.0600     7.8330     8.3240    23.4370   -16.1270 
  121.0000     2.2060    81.8130     9.1140     7.9890     8.3170    23.5240   -16.3770 
  121.1250     2.2030    77.6510     9.0340     8.0360     8.3060    23.6280   -16.6300 
  121.2500     2.1980    72.0970     8.8400     7.9740     8.4060    23.7560   -16.8320 
  121.3750     2.1900    69.1840     8.5770     7.8170     8.6080    23.8380   -16.9010 
  121.5000     2.1790    68.8290     8.3080     7.6050     8.7530    23.8590   -16.7990 
  121.6250     2.1660    67.8210     8.1020     7.3950     8.5880    23.8640   -16.5870 
  121.7500     2.1530    66.1360     7.9740     7.2320     8.4890    23.9090   -16.4070 
  121.8750     2.1410    66.5710     7.9130     7.1350     8.5490    23.9950   -16.3360 
  122.0000     2.1360    68.4210     7.9020     7.1070     8.6270    24.0620   -16.3910 
  122.1250     2.1420    67.0490     7.9310     7.1390     8.4620    24.1060   -16.4400 
  122.2500     2.1530    64.6140     7.9860     7.1920     8.2940    24.1350   -16.4000 
  122.3750     2.1660    65.4090     8.0650     7.2460     8.4020    24.1770   -16.3660 
  122.5000     2.1760    68.2640     8.1670     7.2880     8.6660    24.2660   -16.3840 
  122.6250     2.1810    68.2870     8.2920     7.3260     8.6900    24.4150   -16.2870 
  122.7500     2.1830    66.5280     8.4360     7.3860     8.6660    24.5150   -16.0580 
  122.8750     2.1840    65.6790     8.5990     7.4940     8.7400    24.5440   -15.7250 
  123.0000     2.1840    65.0790     8.7830     7.6640     8.9610    24.5230   -15.3160 
  123.1250     2.1850    65.5940     8.9870     7.8770     9.4210    24.5060   -14.8730 
  123.2500     2.1900    67.9080     9.2030     8.0880    10.1080    24.4530   -14.5090 
  123.3750     2.2040    69.7190     9.4260     8.2800    10.5990    24.2420   -14.2430 
  123.5000     2.2250    71.3220     9.6590     8.4700    10.9150    23.9280   -14.0570 
  123.6250     2.2480    73.3090     9.9130     8.6950    10.4900    23.5980   -14.0800 
  123.7500     2.2600    71.6480    10.1750     8.9510    10.0100    23.4720   -14.3010 
  123.8750     2.2540    66.0950    10.4050     9.1940    10.1490    23.4690   -14.5960 
  124.0000     2.2290    63.2330    10.5330     9.3440    10.7330    23.5000   -14.9600 
  124.1250     2.1930    66.9810    10.4660     9.2940    11.0660    23.5140   -15.4780 
  124.2500     2.1600    68.9250    10.2320     9.0690    10.7270    23.4840   -16.0510 
  124.3750     2.1380    65.8910     9.8960     8.7450     9.9180    23.4120   -16.5410 
  124.5000     2.1290    61.1820     9.5500     8.4190     9.6140    23.3590   -16.8320 
  124.6250     2.1320    61.4370     9.2840     8.1820     9.2760    23.3310   -16.8870 
  124.7500     2.1410    64.9510     9.1000     8.0350     9.2240    23.3060   -16.7960 
  124.8750     2.1540    68.6600     8.9550     7.9420     9.7620    23.2860   -16.6210 
  125.0000     2.1700    70.6140     8.7940     7.8380    10.0480    23.2790   -16.3770 
  125.1250     2.1840    69.5740     8.5750     7.6740     9.9460    23.2930   -16.0540 
  125.2500     2.1920    67.4800     8.3250     7.4700     9.9930    23.3470   -15.6790 
  125.3750     2.1920    66.2190     8.0880     7.2660    10.2300    23.4630   -15.3080 
  125.5000     2.1860    67.7990     7.9010     7.0960     9.3540    23.6050   -15.0200 
  125.6250     2.1780    72.6400     7.7810     6.9840     8.5880    23.6910   -14.7690 
  125.7500     2.1720    77.2680     7.6890     6.9070     8.2840    23.6770   -14.5190 
  125.8750     2.1670    78.2410     7.5870     6.8370     8.3130    23.6430   -14.3130 
  126.0000     2.1640    74.6170     7.4600     6.7540     8.3580    23.6930   -14.1360 
  126.1250     2.1640    71.0580     7.3170     6.6610     8.4550    23.8340   -13.9550 
  126.2500     2.1650    71.6870     7.1960     6.5760     8.5600    24.0030   -13.7180 
  126.3750     2.1690    73.9030     7.1230     6.5090     8.6560    24.1690   -13.4510 
  126.5000     2.1740    73.4590     7.1080     6.4670     8.8140    24.2650   -13.2530 
  126.6250     2.1790    70.6850     7.1460     6.4610     9.0230    24.1750   -13.2130 
  126.7500     2.1810    70.7350     7.2040     6.4870     9.2880    24.0870   -13.2660 
  126.8750     2.1800    75.1120     7.2680     6.5450     9.3180    24.0470   -13.3980 
  127.0000     2.1770    79.7520     7.3300     6.6290     9.1500    24.0100   -13.6290 
  127.1250     2.1760    78.1280     7.3940     6.7320     9.0400    23.9160   -13.8560 
  127.2500     2.1780    73.3740     7.4650     6.8460     9.1220    23.8140   -14.1030 
  127.3750     2.1850    70.5420     7.5450     6.9740     9.2570    23.7230   -14.3900 
