~V
VERS. 2.00: Ver 2.00
~W
STRT.M 53.0000:
STOP.M 279.0000:
STEP.M 0.1250:
NULL. -999.2500:
UWI. F11068:
~C
DEPT.M :
GR.API :
RML.OHMM :
RI. :
RXO.OHMM :
CALI.CM :
SP.MV :
DEN.GM/CC :
~A
# ...
  255.5000    67.4630    16.2590    16.4080    14.1460    24.9260    -9.4500     2.1750 
  255.6250    64.2650    15.9530    15.6670    15.7810    25.0280    -9.5100     2.1610 
  255.7500    62.7140    16.4450    15.8050    16.5350    24.7460    -9.4960     2.1570 
  255.8750    65.4770    17.4390    16.6030    17.1070    24.2240    -9.4310     2.1560 
  256.0000    69.4860    18.6680    17.7760    19.7720    23.9230    -9.3520     2.1600 
  256.1250    69.4250    20.0210    19.0490    22.9030    24.0610    -9.3360     2.1840 
  256.2500    67.0760    21.6670    20.4040    22.6160    24.3810    -9.3600     2.2410 
  256.3750    66.1100    24.0570    22.2440    22.3930    24.6210    -9.3570     2.3350 
  256.5000    67.4440    27.7780    25.3110    24.5040    24.6590    -9.3320     2.4570 
  256.6250    67.4240    33.4520    30.8370    31.5040    24.6020    -9.2310     2.5810 
  256.7500    63.8500    39.8120    38.2940    53.2430    24.4730    -9.0940     2.6720 
  256.8750    57.0950    44.2210    45.1170   110.9600    24.3480    -8.8880     2.7120 
  257.0000    49.4320    43.6740    46.4740   205.3180    24.2910    -8.5870     2.6980 
  257.1250    44.1500    36.6800    38.7350   146.0960    24.1890    -8.1650     2.6390 
  257.2500    42.2820    27.3100    27.9660    63.9350    23.9840    -7.6460     2.5630 
  257.3750    43.5370    18.9120    18.9150    23.9840    23.8480    -7.1180     2.4860 
  257.5000    46.2460    13.0260    13.0370     9.5700    23.9820    -6.6140     2.4180 
  257.6250    48.8520     9.8520    10.0390     6.5930    24.2370    -6.2030     2.3720 
  257.7500    50.4970     8.3080     8.4820     5.9700    24.4280    -5.9150     2.3530 
  257.8750    52.3520     7.7780     7.7820     6.0880    24.4650    -5.8000     2.3660 
  258.0000    54.5810     7.6860     7.5730     6.2090    24.2560    -5.8870     2.4040 
  258.1250    55.5480     7.6780     7.5820     6.2640    23.8070    -6.1400     2.4490 
  258.2500    55.7290     7.6440     7.5870     6.5310    23.6140    -6.4840     2.4800 
  258.3750    55.8280     7.5640     7.5320     6.8820    23.6900    -6.8470     2.4880 
  258.5000    56.5320     7.4610     7.4260     6.9130    23.7320    -7.2280     2.4770 
  258.6250    58.7180     7.3590     7.3000     7.0450    23.5680    -7.5840     2.4560 
  258.7500    61.0150     7.2670     7.1770     6.9080    23.5050    -7.9020     2.4370 
  258.8750    61.8360     7.1850     7.0630     6.3680    23.7460    -8.0970     2.4290 
  259.0000    61.6690     7.1130     6.9500     5.9260    24.1360    -8.1980     2.4310 
  259.1250    61.1140     7.0570     6.8340     5.8820    24.4860    -8.2660     2.4400 
  259.2500    59.1560     7.0170     6.7210     6.0010    24.7150    -8.3160     2.4470 
  259.3750    56.6820     6.9930     6.6190     6.0810    24.8800    -8.3660     2.4500 
  259.5000    56.9000     6.9840     6.5350     5.9940    25.1260    -8.3980     2.4440 
  259.6250    59.0460     6.9890     6.4670     5.9660    25.2090    -8.5140     2.4200 
  259.7500    58.8700     7.0010     6.4070     5.9280    25.0730    -8.6140     2.3810 
  259.8750    56.4170     7.0170     6.3470     6.0280    24.7570    -8.7420     2.3350 
  260.0000    54.0390     7.0320     6.2820     6.1590    24.5820    -8.8910     2.2990 
  260.1250    53.9370     7.0470     6.2140     5.9180    24.9060    -9.0620     2.2910 
  260.2500    56.2550     7.0720     6.1560     5.4570    25.5010    -9.2420     2.3070 
  260.3750    59.3860     7.1240     6.1290     5.2330    25.7500    -9.3940     2.3330 
  260.5000    60.1870     7.2180     6.1490     5.2640    25.5620    -9.5560     2.3550 
  260.6250    57.6830     7.3570     6.2260     5.5070    25.2570    -9.6640     2.3640 
  260.7500    56.8570     7.5050     6.3320     5.7870    24.9520    -9.8110     2.3640 
  260.8750    58.5550     7.6270     6.4340     5.8390    24.8110    -9.9680     2.3590 
  261.0000    60.7340     7.6950     6.5020     5.5250    24.9280   -10.0670     2.3520 
  261.1250    61.1020     7.7000     6.5140     5.3710    25.2200   -10.0360     2.3520 
  261.2500    59.2350     7.6740     6.4870     5.5520    25.5590    -9.9080     2.3630 
  261.3750    56.0180     7.6420     6.4430     6.0900    25.8100    -9.7380     2.3790 
  261.5000    55.0220     7.6130     6.4030     6.8470    25.9520    -9.5410     2.3830 
  261.6250    57.2210     7.5760     6.3700     8.1350    25.7270    -9.2800     2.3550 
  261.7500    60.1500     7.5140     6.3240     9.5830    25.1660    -8.9550     2.2990 
  261.8750    62.2630     7.4140     6.2450     9.7810    24.7990    -8.5840     2.2300 
  262.0000    63.9720     7.2810     6.1230     8.9390    24.8580    -8.1850     2.1730 
  262.1250    64.1100     7.1290     5.9700     7.2570    25.2090    -7.7990     2.1500 
  262.2500    61.0980     6.9850     5.8200     6.2520    25.3750    -7.4100     2.1630 
  262.3750    57.7000     6.8730     5.7000     5.9090    25.4720    -7.0570     2.2080 
  262.5000    56.8050     6.8060     5.6220     5.8600    25.5750    -6.7310     2.2680 
  262.6250    57.7800     6.7900     5.5890     5.5810    25.4370    -6.4820     2.3170 
  262.7500    58.3850     6.8010     5.5810     5.4280    25.2930    -6.2790     2.3330 
  262.8750    58.1690     6.8160     5.5800     5.3930    25.3870    -6.0670     2.3170 
  263.0000    59.1950     6.8200     5.5740     5.4040    25.7580    -5.8580     2.2860 
  263.1250    61.6650     6.8070     5.5580     5.3830    25.7920    -5.6480     2.2670 
  263.2500    62.4110     6.7900     5.5360     5.2990    25.7010    -5.4850     2.2690 
  263.3750    61.1770     6.7800     5.5170     5.3020    25.6880    -5.3390     2.2880 
  263.5000    59.4700     6.7900     5.5070     5.3870    25.7110    -5.2280     2.3090 
  263.6250    58.8270     6.8260     5.5160     5.3210    25.7800    -5.1190     2.3220 
  263.7500    59.9230     6.8810     5.5420     5.2210    25.7130    -5.0470     2.3250 
  263.8750    61.3270     6.9470     5.5840     5.2070    25.5170    -5.0620     2.3230 
  264.0000    61.0900     7.0160     5.6350     5.2160    25.3440    -5.1410     2.3230 
  264.1250    60.0440     7.0760     5.6820     5.1790    25.2640    -5.2910     2.3330 
  264.2500    59.6790     7.1260     5.7170     5.3220    25.3030    -5.4830     2.3530 
  264.3750    60.2750     7.1640     5.7340     5.4510    25.3540    -5.7070     2.3740 
  264.5000    60.6070     7.1870     5.7320     5.5280    25.2250    -5.9460     2.3830 
  264.6250    61.6920     7.1920     5.7160     5.6970    24.9640    -6.1680     2.3710 
  264.7500    62.9960     7.1840     5.6950     5.8230    24.9670    -6.3270     2.3470 
  264.8750    62.1360     7.1700     5.6750     5.7950    25.1230    -6.4300     2.3210 
  265.0000    59.4980     7.1580     5.6590     5.6390    25.2270    -6.4820     2.3030 
  265.1250    58.9480     7.1590     5.6510     5.6570    25.1690    -6.4720     2.2970 
  265.2500    61.2460     7.1730     5.6530     5.6850    25.2650    -6.4290     2.3030 
  265.3750    62.9410     7.2010     5.6670     5.5220    25.6520    -6.3360     2.3180 
  265.5000    61.1990     7.2390     5.6950     5.3450    26.5760    -6.1820     2.3340 
  265.6250    57.8020     7.2850     5.7330     5.3650    27.6970    -6.0530     2.3300 
  265.7500    56.9300     7.3280     5.7690     5.5680    28.4830    -5.9650     2.2930 
  265.8750    58.2980     7.3580     5.7950     5.8730    28.9980    -5.8760     2.2270 
  266.0000    58.7570     7.3670     5.8070     6.3140    29.2800    -5.8330     2.1590 
  266.1250    56.9710     7.3490     5.8030     6.1490    29.3480    -5.8040     2.1300 
  266.2500    55.8070     7.3140     5.7910     5.9480    29.2160    -5.7930     2.1510 
  266.3750    57.2530     7.2770     5.7790     5.6020    28.9500    -5.8000     2.2080 
  266.5000    60.3080     7.2510     5.7730     5.3080    28.6630    -5.8190     2.2710 
  266.6250    61.8500     7.2510     5.7790     5.3900    28.2400    -5.7610     2.3010 
