~V
VERS. 2.00: Ver 2.00
~W
STRT.M 57.0000:
STOP.M 276.0000:
STEP.M 0.1250:
NULL. -999.2500:
UWI. F11063:
~C
DEPT.M :
DEN.GM/CC :
GR.API :
RML.OHMM :
RI. :
RXO.OHMM :
CALI.CM :
SP.MV :
~A
# ...
  237.0000     2.3290   110.3990     6.5890     7.2200     8.1030    24.5130   -10.0460 
  237.1250     2.3470   113.8780     6.6550     7.2030     8.5220    24.5280    -9.6020 
  237.2500     2.3640   118.6150     6.6790     7.1000     8.6640    24.4930    -9.2260 
  237.3750     2.3760   121.4080     6.7030     6.9420     8.5830    24.4660    -8.9810 
  237.5000     2.3840   122.4090     6.7870     6.7880     8.4710    24.4560    -8.7650 
  237.6250     2.3910   127.0430     7.0000     6.7460     8.4730    24.4600    -8.6700 
  237.7500     2.3980   132.2010     7.3510     6.8700     8.6290    24.4700    -8.6550 
  237.8750     2.4050   131.1500     7.8540     7.1730     8.9570    24.5140    -8.5800 
  238.0000     2.4140   124.4020     8.4950     7.6190     9.8330    24.5670    -8.5760 
  238.1250     2.4290   117.1940     9.1560     8.1050    10.8730    24.5790    -8.6560 
  238.2500     2.4440   111.6310     9.6130     8.4590    11.2780    24.5740    -8.6700 
  238.3750     2.4510   108.7770     9.6790     8.5560    11.0300    24.5700    -8.6840 
  238.5000     2.4460   109.8350     9.3270     8.3720    11.0150    24.5520    -8.7340 
  238.6250     2.4300   112.3800     8.7570     8.0020    10.9010    24.5460    -8.7830 
  238.7500     2.4120   112.4670     8.3090     7.6420    10.0470    24.5480    -8.8410 
  238.8750     2.3960   111.4550     8.1110     7.3820     9.5150    24.5440    -8.8990 
  239.0000     2.3880   110.7960     8.1210     7.2320     9.8570    24.5520    -8.9540 
  239.1250     2.3930   108.3370     8.2350     7.1750    11.2980    24.5430    -9.0300 
  239.2500     2.3990   105.4070     8.4530     7.2340    12.8410    24.5450    -9.0760 
  239.3750     2.3990   103.8000     8.9960     7.5480    12.9310    24.5440    -9.0990 
  239.5000     2.3950   102.1590    10.2280     8.3350    12.4460    24.5340    -9.1800 
  239.6250     2.3970    97.8000    12.7690    10.0280    14.0450    24.5210    -9.1800 
  239.7500     2.3970    90.8060    17.6650    12.7870    22.6310    24.5150    -9.1800 
  239.8750     2.3870    82.5320    21.6370    16.6220    41.8000    24.5830    -9.2390 
  240.0000     2.3660    75.3410    25.4250    20.9370    65.4720    24.6700    -9.2170 
  240.1250     2.3350    72.1520    27.7830    24.0710    53.4300    24.7340    -9.1540 
  240.2500     2.3010    72.0200    27.8640    25.1230    35.7030    24.7830    -9.1830 
  240.3750     2.2740    70.3490    26.5410    24.5040    30.3010    24.8030    -9.1850 
  240.5000     2.2640    67.9270    24.9910    23.2190    29.7220    24.7930    -9.1800 
  240.6250     2.2670    68.0430    23.9100    22.0050    29.5040    24.7960    -9.2290 
  240.7500     2.2720    69.8340    23.1080    20.9630    29.1650    24.8080    -9.2500 
  240.8750     2.2740    71.5010    22.2620    19.9440    27.3720    24.8020    -9.2990 
  241.0000     2.2790    72.3350    21.2720    18.8840    23.6370    24.7990    -9.4000 
  241.1250     2.2840    73.0900    20.4070    17.9710    20.7590    24.7890    -9.4760 
  241.2500     2.2840    73.6600    19.9660    17.4190    20.6160    24.8090    -9.5710 
  241.3750     2.2800    73.8740    19.9870    17.2780    20.8770    24.8460    -9.6880 
  241.5000     2.2730    73.9150    20.2250    17.3920    21.2700    24.8900    -9.7480 
  241.6250     2.2670    74.3290    20.2320    17.4250    23.7460    24.9060    -9.8390 
  241.7500     2.2640    75.1140    19.8830    17.1970    25.6870    24.8990    -9.8910 
  241.8750     2.2690    75.1930    19.4450    16.8220    22.5160    24.8660    -9.8930 
  242.0000     2.2850    74.7580    19.2790    16.5490    17.9760    24.8290    -9.9250 
  242.1250     2.2990    74.1890    19.5230    16.5660    17.7240    24.7820    -9.9320 
  242.2500     2.3000    72.2300    19.8240    16.7370    19.2520    24.7300    -9.9100 
  242.3750     2.2870    68.4880    19.7880    16.8110    18.0600    24.6530    -9.9050 
  242.5000     2.2740    66.3440    19.1660    16.5300    16.7470    24.6050    -9.8760 
  242.6250     2.2760    69.4040    18.0260    15.7730    16.9090    24.6020    -9.8560 
  242.7500     2.2900    73.1470    16.9110    14.8600    17.2090    24.6430    -9.8730 
  242.8750     2.3040    73.7230    16.1720    14.0740    17.3730    24.7330    -9.8760 
  243.0000     2.3100    71.0150    15.9090    13.5850    17.4170    24.8470    -9.8940 
  243.1250     2.3110    68.5530    16.0100    13.4440    17.4200    24.8970    -9.9740 
  243.2500     2.3130    67.9660    16.1400    13.4530    17.3230    24.9070   -10.0130 
  243.3750     2.3170    70.5240    16.1350    13.4430    16.7850    24.8910   -10.0850 
  243.5000     2.3180    75.4620    16.0520    13.3650    16.2730    24.8390   -10.2180 
  243.6250     2.3100    77.7160    16.1800    13.3670    15.9920    24.7940   -10.2990 
  243.7500     2.2970    74.3050    16.7100    13.6440    15.8480    24.7490   -10.4530 
  243.8750     2.2820    68.5550    17.7830    14.3730    16.8030    24.6410   -10.6250 
  244.0000     2.2700    64.9940    19.5720    15.7200    20.2080    24.5020   -10.7490 
  244.1250     2.2610    65.0800    22.3960    17.9480    25.5830    24.4590   -10.9440 
  244.2500     2.2500    66.1280    26.0860    20.9400    31.0820    24.5140   -11.1640 
  244.3750     2.2340    66.0150    30.3170    24.5130    37.9320    24.6090   -11.3520 
  244.5000     2.2140    64.3260    34.5040    28.2800    44.4850    24.6690   -11.5610 
  244.6250     2.1970    63.3400    37.8800    31.6250    45.8810    24.6380   -11.7390 
  244.7500     2.1870    63.4350    40.2710    34.2370    43.7170    24.6470   -11.8960 
  244.8750     2.1810    62.2830    41.7190    36.0330    42.7330    24.7220   -12.0490 
  245.0000     2.1780    58.8310    42.2260    36.9800    42.9070    24.8080   -12.1410 
  245.1250     2.1700    57.1040    41.3690    36.7760    43.3160    24.8840   -12.1340 
  245.2500     2.1620    58.6300    38.9700    35.2880    45.8670    24.9100   -12.1220 
  245.3750     2.1650    62.4630    34.8650    32.2590    48.0870    24.9100   -12.0230 
  245.5000     2.1830    66.0490    29.4400    27.8600    39.6730    24.9050   -11.8480 
  245.6250     2.2070    68.7520    23.7270    22.9170    29.8970    24.8970   -11.6660 
  245.7500     2.2230    72.0020    18.8080    18.5040    22.9680    24.8840   -11.3680 
  245.8750     2.2320    75.5760    15.1520    15.0930    17.1510    24.8500   -11.0890 
  246.0000     2.2390    78.9800    12.8240    12.7820    13.2280    24.8140   -10.8890 
  246.1250     2.2500    82.4670    11.7560    11.5730    12.0680    24.8080   -10.6730 
  246.2500     2.2610    86.4100    11.3900    11.0490    12.0940    24.7860   -10.5170 
  246.3750     2.2670    87.5620    11.4010    10.9520    12.4020    24.7410   -10.4760 
  246.5000     2.2710    84.9840    11.4780    11.0100    12.5710    24.6720   -10.4680 
  246.6250     2.2760    81.2350    11.2790    10.9080    11.8600    24.6180   -10.5770 
  246.7500     2.2820    77.7320    10.7320    10.4960    10.9950    24.5960   -10.7460 
  246.8750     2.2840    75.5390     9.9390     9.8200     9.9590    24.5890   -10.9290 
  247.0000     2.2850    76.4780     9.1170     9.0570     8.8990    24.5850   -11.1580 
  247.1250     2.2930    80.6330     8.5270     8.4420     8.2340    24.6010   -11.3850 
  247.2500     2.3040    84.7280     8.2610     8.0890     7.8890    24.6530   -11.5640 
  247.3750     2.3090    87.1510     8.3740     8.0650     8.5030    24.6550   -11.7560 
  247.5000     2.3050    87.2150     8.9240     8.4260    10.3340    24.5530   -11.9390 
  247.6250     2.3030    84.4030    10.0800     9.3030    11.8650    24.3200   -12.0840 
  247.7500     2.3050    80.8620    11.7710    10.6460    12.7970    23.9940   -12.2810 
  247.8750     2.3110    78.8500    13.9360    12.4560    15.0240    23.7040   -12.4050 
  248.0000     2.3180    79.1250    16.4980    14.7130    20.5660    23.6460   -12.4760 
  248.1250     2.3180    79.7060    19.4980    17.4710    25.4490    23.8640   -12.5990 
