~V
VERS. 2.00: Ver 2.00
~W
STRT.M 63.0000:
STOP.M 273.0000:
STEP.M 0.1250:
NULL. -999.2500:
UWI. F11030:
~C
DEPT.M :
DEN.GM/CC :
GR.API :
RML.OHMM :
RI. :
RXO.OHMM :
CALI.CM :
SP.MV :
~A
# ...
  186.7500     2.2470    63.1780   179.1910   171.0430   115.7960    24.3970   -16.9080 
  186.8750     2.2370    60.7970   174.7680   166.7070   119.5370    24.4920   -16.5360 
  187.0000     2.2220    60.2270   170.0920   162.2950   120.9640    24.6600   -16.1600 
  187.1250     2.2110    61.4590   164.5980   157.3680   120.8080    24.7520   -15.8550 
  187.2500     2.2080    62.6520   156.6030   150.6330   120.2210    24.6970   -15.4380 
  187.3750     2.2190    64.2670   143.2710   139.2070   110.3590    24.5460   -15.0500 
  187.5000     2.2420    65.6880   122.2070   119.2120    87.9320    24.3370   -14.7830 
  187.6250     2.2690    64.5460    93.6540    89.4140    68.2330    24.2160   -14.4180 
  187.7500     2.2900    63.5300    64.5650    59.2080    56.0440    24.1970   -13.9040 
  187.8750     2.2970    66.4030    40.5720    35.7560    40.6160    24.2470   -13.3560 
  188.0000     2.2940    75.9940    24.2640    20.8900    21.1780    24.1970   -12.7870 
  188.1250     2.2930    92.2490    15.6880    13.4730    10.0440    23.9470   -12.3010 
  188.2500     2.3060   104.1770    11.2510     9.7060     6.8520    23.6920   -12.0780 
  188.3750     2.3340   105.5260     9.2390     8.0060     6.3200    23.5380   -11.9850 
  188.5000     2.3690    99.6220     8.6610     7.5440     6.3750    23.4430   -12.0150 
  188.6250     2.3990    96.0940     9.1070     8.0350     6.6100    23.2810   -12.4970 
  188.7500     2.4110    95.7670    10.1030     9.0650     6.7810    22.9460   -13.3260 
  188.8750     2.3970    93.5930    11.4200    10.3840     7.2830    22.6070   -14.3880 
  189.0000     2.3530    88.5030    12.8940    11.8020     8.3360    22.5030   -15.6870 
  189.1250     2.2820    81.3930    14.4940    13.2990    10.3770    22.9330   -17.0930 
  189.2500     2.2060    75.7620    16.2670    14.9660    12.6610    23.6760   -18.3850 
  189.3750     2.1460    74.0060    18.2720    16.8860    15.6470    24.4070   -19.5680 
  189.5000     2.1170    74.6580    20.4860    19.0520    21.8130    24.8110   -20.5770 
  189.6250     2.1320    77.3050    22.7770    21.3130    30.3460    24.9490   -21.2720 
  189.7500     2.1740    80.5790    25.0030    23.4450    34.9030    24.9880   -21.8780 
  189.8750     2.2220    80.7010    27.2580    25.4750    32.6260    25.0130   -22.4030 
  190.0000     2.2610    77.1510    29.9460    27.8140    25.9300    25.0410   -22.7590 
  190.1250     2.2780    74.6660    34.0720    31.5070    23.7280    25.0680   -22.9820 
  190.2500     2.2780    74.4290    40.2910    37.2700    30.3590    25.1200   -23.1250 
  190.3750     2.2700    72.1700    49.0200    45.6460    42.8240    25.1930   -23.1780 
  190.5000     2.2600    68.5870    59.9150    56.5090    58.8220    25.2010   -23.3250 
  190.6250     2.2520    67.9130    71.3570    68.3150    81.3840    25.1590   -23.6320 
  190.7500     2.2450    66.5670    80.8180    78.0110    93.3970    25.1010   -23.8870 
  190.8750     2.2430    63.3690    86.6750    83.6360    82.5670    25.0660   -24.1360 
  191.0000     2.2450    60.8830    88.6360    85.0440    71.9340    25.0520   -24.3890 
  191.1250     2.2510    61.8880    87.4510    83.3710    65.6070    25.0360   -24.5410 
  191.2500     2.2570    62.8420    85.2610    80.9420    65.3740    25.0040   -24.6950 
  191.3750     2.2590    63.5040    83.1380    78.8300    66.1850    24.9800   -24.9250 
  191.5000     2.2580    65.4580    81.5230    77.3610    67.5230    24.9780   -25.1140 
  191.6250     2.2540    67.6870    80.4160    76.3930    73.9180    24.9650   -25.1660 
  191.7500     2.2520    67.8520    79.4870    75.5500    78.3540    24.9400   -25.1840 
  191.8750     2.2530    66.4300    78.5670    74.6810    76.1510    24.9210   -25.1330 
  192.0000     2.2590    65.1870    77.5850    73.7360    69.2970    24.9090   -25.0480 
  192.1250     2.2680    66.1780    76.4930    72.7010    62.5110    24.9080   -25.1680 
  192.2500     2.2780    68.6190    75.2520    71.5490    59.4610    24.9190   -25.4500 
  192.3750     2.2860    70.7830    73.7730    70.1700    58.1500    24.9170   -25.7230 
  192.5000     2.2900    71.4130    71.9940    68.4590    57.5350    24.9040   -25.9990 
  192.6250     2.2900    69.2060    69.9490    66.4230    59.0040    24.9240   -26.2840 
  192.7500     2.2860    66.4590    67.9240    64.3800    59.2980    24.9680   -26.2850 
  192.8750     2.2800    66.8400    66.2060    62.6590    54.9200    25.0440   -26.0570 
  193.0000     2.2740    70.6240    65.0110    61.5040    52.2620    25.0940   -25.8260 
  193.1250     2.2740    72.2150    64.4420    61.0360    53.1300    25.0910   -25.4670 
  193.2500     2.2790    68.0580    64.1570    60.8900    57.4310    25.0410   -24.9610 
  193.3750     2.2860    62.6010    63.7670    60.6570    58.2170    24.9550   -24.4610 
  193.5000     2.2940    61.6830    62.8660    59.8960    56.4580    24.8450   -23.8440 
  193.6250     2.3000    65.2750    61.0450    58.1320    54.7430    24.7440   -23.1420 
  193.7500     2.3040    69.6590    58.5230    55.5780    55.3980    24.6760   -22.7060 
  193.8750     2.3080    73.1260    55.7160    52.6860    53.5420    24.6330   -22.5050 
  194.0000     2.3110    74.9330    53.1880    50.0920    48.8860    24.6200   -22.3530 
  194.1250     2.3130    74.5380    51.4690    48.4850    43.1210    24.6330   -22.2640 
  194.2500     2.3210    73.8780    50.1780    47.5650    40.2070    24.6460   -22.1070 
  194.3750     2.3420    74.8540    48.3710    46.3220    39.9890    24.6020   -21.7610 
  194.5000     2.3830    76.2990    44.8930    43.2880    41.1830    24.4800   -21.4290 
  194.6250     2.4340    75.7940    38.8580    37.1630    39.5370    24.2030   -21.1190 
  194.7500     2.4750    76.3280    31.5050    29.4940    30.0960    23.9340   -20.7300 
  194.8750     2.4940    84.0240    24.3220    22.2190    18.2530    23.8390   -20.3810 
  195.0000     2.4900    99.9610    18.5210    16.6360    10.9210    24.0780   -20.1050 
  195.1250     2.4750   112.1900    14.8360    13.2530     9.0910    24.4760   -19.8290 
  195.2500     2.4610   114.8340    12.7340    11.3470     9.0660    24.7950   -19.6790 
  195.3750     2.4490   111.2480    11.8970    10.5950     9.8710    24.9650   -19.8340 
  195.5000     2.4330   106.6940    12.1220    10.8280    10.7400    24.9910   -20.1050 
  195.6250     2.4130   100.3330    13.5420    12.1460    11.4170    24.9430   -20.4190 
  195.7500     2.3970    92.9090    15.9230    14.4420    12.4260    24.8960   -20.9000 
  195.8750     2.3870    85.7010    19.1030    17.8120    16.3970    24.8750   -21.4150 
  196.0000     2.3810    78.5830    23.0190    22.2900    22.8560    24.8580   -21.8940 
  196.1250     2.3620    73.8200    27.8490    27.8400    27.9980    24.8880   -22.4730 
  196.2500     2.3210    71.9930    33.3520    33.9420    30.3310    25.0100   -23.0490 
  196.3750     2.2640    70.7650    39.2430    40.2880    36.7370    25.1620   -23.4790 
  196.5000     2.2060    68.5960    45.2800    46.6530    50.6080    25.2640   -23.9370 
  196.6250     2.1700    66.4780    51.2290    52.7860    63.8540    25.2840   -24.3940 
  196.7500     2.1630    64.3600    56.5560    58.2860    67.2930    25.2460   -24.6420 
  196.8750     2.1790    63.2650    60.5100    62.3460    64.6910    25.2040   -24.7100 
  197.0000     2.2040    64.8760    62.4180    64.1070    64.4870    25.1800   -24.6750 
  197.1250     2.2270    66.8540    61.7800    63.0150    67.4670    25.1710   -24.4790 
  197.2500     2.2460    66.5690    59.5840    60.2580    66.5640    25.1540   -24.2830 
  197.3750     2.2610    64.6420    56.7330    56.7930    57.5590    25.1190   -24.1810 
  197.5000     2.2760    63.9350    54.0940    53.4740    47.6510    25.0760   -23.9770 
  197.6250     2.2900    63.9930    52.5450    51.1720    45.9540    25.0630   -23.7510 
  197.7500     2.3010    64.4660    52.3490    50.1910    46.9280    25.0630   -23.6570 
  197.8750     2.3090    66.4380    53.6320    50.7080    46.9950    25.0720   -23.6340 
