~V
VERS. 2.00: Ver 2.00
~W
STRT.M 53.0000:
STOP.M 276.0000:
STEP.M 0.1250:
NULL. -999.2500:
UWI. F11074:
~C
DEPT.M :
DEN.GM/CC :
SP.MV :
GR.API :
RML.OHMM :
RI. :
RXO.OHMM :
CALI.CM :
~A
# ...
  199.2500     2.1780   -17.1540    76.3710   168.0330   159.6190   131.3910    24.9860 
  199.3750     2.1770   -17.1230    76.0730   168.4540   160.8620   134.5360    25.0630 
  199.5000     2.1760   -17.0310    75.1160   171.2230   164.2270   137.7980    25.1260 
  199.6250     2.1760   -16.9310    72.5300   175.9310   169.1980   142.0040    25.1480 
  199.7500     2.1770   -16.8440    69.6930   181.2270   174.5140   146.9480    25.1500 
  199.8750     2.1780   -16.7890    68.1660   186.1360   179.2540   154.7200    25.1500 
  200.0000     2.1780   -16.7490    68.9650   189.7140   182.5230   163.2580    25.1500 
  200.1250     2.1780   -16.6550    70.3440   190.5960   183.0390   175.6440    25.1500 
  200.2500     2.1800   -16.5460    68.7630   188.6220   180.8530   176.4190    25.1500 
  200.3750     2.1860   -16.5020    64.9790   184.1070   176.5360   168.1340    25.1500 
  200.5000     2.1950   -16.5210    63.4270   178.1860   171.4270   153.4270    25.1500 
  200.6250     2.2040   -16.5500    68.6390   172.7920   167.5320   141.5710    25.1500 
  200.7500     2.2070   -16.5760    75.0090   169.4030   165.9650   142.0710    25.1500 
  200.8750     2.2020   -16.5870    75.9490   168.5370   166.9490   147.9170    25.1500 
  201.0000     2.1920   -16.6110    71.0480   169.9370   169.8630   153.3530    25.1500 
  201.1250     2.1840   -16.6750    67.6490   174.0380   172.6090   154.5020    25.1500 
  201.2500     2.1780   -16.7450    68.2380   178.4360   175.8400   151.4820    25.1500 
  201.3750     2.1780   -16.7640    70.6910   183.3540   179.6810   148.1770    25.1500 
  201.5000     2.1790   -16.7320    73.4220   189.5100   184.8470   150.4650    25.1500 
  201.6250     2.1770   -16.6750    73.8280   197.5390   192.1690   157.6970    25.1500 
  201.7500     2.1750   -16.6180    70.8870   205.8440   200.2900   166.3080    25.1500 
  201.8750     2.1800   -16.5750    66.5730   211.3750   206.4570   174.1220    25.1470 
  202.0000     2.1930   -16.5110    64.0260   210.2730   207.0460   185.2270    25.1210 
  202.1250     2.2110   -16.4010    65.4130   198.1760   197.6420   196.7770    25.0410 
  202.2500     2.2280   -16.2480    68.9300   177.8120   179.9640   204.7330    24.9390 
  202.3750     2.2470   -16.0990    71.9720   153.1770   157.1780   206.9290    24.8700 
  202.5000     2.2690   -15.9840    72.1370   128.5130   133.2420   194.6980    24.8270 
  202.6250     2.2840   -15.8850    69.3620   112.0500   107.6110   150.7910    24.8130 
  202.7500     2.2850   -15.7790    67.7320    95.2240    91.5860   102.2530    24.8080 
  202.8750     2.2760   -15.6320    67.8520    83.3820    80.7760    78.2970    24.8080 
  203.0000     2.2680   -15.4890    67.8070    76.1660    74.5540    75.4630    24.8080 
  203.1250     2.2710   -15.3870    67.5830    72.6540    71.6640    87.4110    24.8080 
  203.2500     2.2870   -15.3200    71.2000    70.2750    69.4190    89.3560    24.8080 
  203.3750     2.3120   -15.2340    79.5210    67.3960    66.2780    73.0420    24.8080 
  203.5000     2.3360   -15.1210    86.5560    63.4750    62.0210    54.4860    24.8080 
  203.6250     2.3400   -15.0300    85.1240    59.5270    58.0240    51.9320    24.8080 
  203.7500     2.3370   -14.9640    80.9450    56.8990    55.6030    54.1850    24.8080 
  203.8750     2.3410   -14.9440    78.9460    56.0230    55.0030    54.8210    24.8080 
  204.0000     2.3490   -14.9240    77.0620    56.6220    55.7590    52.0530    24.8080 
  204.1250     2.3430   -14.8600    72.5060    58.0760    57.1030    56.5560    24.8080 
  204.2500     2.3210   -14.7980    68.3440    59.4530    58.1220    61.4160    24.8080 
  204.3750     2.2950   -14.7730    68.4270    60.1450    58.2450    64.2080    24.8080 
  204.5000     2.2750   -14.7640    73.8700    59.6910    57.0830    61.5860    24.8080 
  204.6250     2.2660   -14.7070    80.4930    57.5150    54.2050    59.2160    24.8080 
  204.7500     2.2640   -14.6040    83.6920    53.9910    50.1720    56.8980    24.8080 
  204.8750     2.2660   -14.4840    82.5920    49.7240    45.6770    55.0590    24.8080 
  205.0000     2.2720   -14.3780    79.5660    45.4250    41.4060    49.2400    24.8080 
  205.1250     2.2800   -14.3100    78.6420    41.7670    37.9730    41.0880    24.8080 
  205.2500     2.2890   -14.2430    80.2690    39.0300    35.5660    35.0550    24.8080 
  205.3750     2.2970   -14.1430    82.7920    37.4400    34.3590    31.9280    24.8080 
  205.5000     2.3030   -14.0650    84.4990    37.0660    34.3380    32.6410    24.8080 
  205.6250     2.3040   -14.0390    85.4030    37.8110    35.2470    37.1670    24.8120 
  205.7500     2.3010   -14.0400    85.4780    38.8570    36.2150    42.0370    24.8260 
  205.8750     2.2970   -14.0410    85.9410    39.3750    36.4800    44.4940    24.8500 
  206.0000     2.2960   -14.0510    86.3970    38.7020    35.5730    42.1890    24.8660 
  206.1250     2.3040   -14.1000    86.2560    36.7670    33.6800    35.7100    24.8710 
  206.2500     2.3180   -14.1730    86.2050    34.8050    32.1270    29.6190    24.8710 
  206.3750     2.3280   -14.2640    87.4240    34.0520    32.1940    27.0450    24.8710 
  206.5000     2.3260   -14.3730    89.6740    35.5040    34.7920    29.7810    24.8710 
  206.6250     2.3100   -14.5030    90.2690    40.3830    40.3340    38.3630    24.8710 
  206.7500     2.2920   -14.6350    90.2280    48.1030    47.0710    49.0560    24.8710 
  206.8750     2.2810   -14.7540    90.4250    55.3790    54.5420    57.4550    24.8710 
  207.0000     2.2800   -14.8540    89.5720    60.0060    60.0080    60.2380    24.8710 
  207.1250     2.2870   -14.9240    88.1570    60.3500    61.2320    57.4810    24.8710 
  207.2500     2.2920   -14.9630    86.2070    58.8120    60.0510    52.4150    24.8710 
  207.3750     2.2920   -14.9570    82.8670    58.0790    59.0090    50.0380    24.8710 
  207.5000     2.2830   -14.9010    77.6930    59.9260    60.1200    60.9280    24.8710 
  207.6250     2.2640   -14.8130    72.7320    64.6860    64.2510    77.1280    24.8710 
  207.7500     2.2450   -14.7050    71.5100    69.9710    69.3950    81.9100    24.8710 
  207.8750     2.2350   -14.5940    73.9900    73.2780    73.0460    76.5490    24.8710 
  208.0000     2.2370   -14.4850    77.1590    73.0500    73.3210    71.4650    24.8710 
  208.1250     2.2480   -14.3690    77.9400    69.7630    70.2490    71.9420    24.8710 
  208.2500     2.2610   -14.2670    76.8450    66.2330    66.6280    75.7690    24.8710 
  208.3750     2.2690   -14.2440    75.7240    63.7420    63.9720    74.9300    24.8710 
  208.5000     2.2710   -14.3060    77.2720    62.4200    62.4970    61.3550    24.8710 
  208.6250     2.2730   -14.4170    81.8640    63.1810    62.7280    45.7070    24.8710 
  208.7500     2.2790   -14.5860    84.2420    67.7610    66.3190    45.3690    24.8710 
  208.8750     2.2810   -14.8470    82.0490    77.7750    75.2330    66.8080    24.8710 
  209.0000     2.2690   -15.1470    76.5870    93.1550    89.8360   105.3000    24.8700 
  209.1250     2.2490   -15.4600    72.4170   110.2410   106.9470   124.5100    24.8580 
  209.2500     2.2350   -15.7930    71.7920   121.3350   118.9830   113.5280    24.8270 
  209.3750     2.2330   -16.1410    73.3510   122.3200   121.4380    99.2850    24.7870 
  209.5000     2.2350   -16.4460    73.8890   116.3220   116.3770   101.6360    24.7460 
  209.6250     2.2350   -16.6800    72.9850   110.3540   110.2270   114.0960    24.7200 
  209.7500     2.2320   -16.8780    73.9180   106.8570   106.2860   119.2080    24.6880 
  209.8750     2.2270   -17.0530    76.7150   104.1240   103.2760   108.0720    24.6360 
  210.0000     2.2250   -17.2130    78.7490   100.8330    99.7100    90.0150    24.5000 
  210.1250     2.2270   -17.3640    78.1030    98.5350    96.6280    79.8650    24.2540 
  210.2500     2.2310   -17.4930    76.1080   100.3490    97.1160    81.9020    24.0690 
  210.3750     2.2330   -17.5680    73.3630   108.5890   103.8840    97.5200    24.1410 
