~V
VERS. 2.00: Ver 2.00
~W
STRT.M 58.0000:
STOP.M 277.0000:
STEP.M 0.1250:
NULL. -999.2500:
UWI. F11038:
~C
DEPT.M :
GR.API :
RML.OHMM :
RI. :
RXO.OHMM :
CALI.CM :
DEN.GM/CC :
SP.MV :
~A
# ...
  148.0000   119.3800     5.9260     4.6610     4.8200    24.8020     2.3540   -12.6340 
  148.1250   115.1800     5.9000     4.6320     4.8470    24.8300     2.3580   -12.7280 
  148.2500   106.9340     5.8630     4.5960     4.8760    24.8150     2.3600   -12.8380 
  148.3750   104.2190     5.8170     4.5550     4.9000    24.7540     2.3610   -12.9430 
  148.5000   106.7480     5.7690     4.5130     4.8570    24.7090     2.3630   -13.0420 
  148.6250   106.1250     5.7320     4.4780     4.7670    24.6820     2.3640   -13.1360 
  148.7500   106.4900     5.7140     4.4580     4.6390    24.6780     2.3660   -13.2500 
  148.8750   111.4630     5.7200     4.4590     4.5280    24.6550     2.3650   -13.3730 
  149.0000   116.0550     5.7520     4.4850     4.6210    24.5820     2.3630   -13.5800 
  149.1250   114.2150     5.8130     4.5360     4.7110    24.4880     2.3590   -13.8150 
  149.2500   108.4570     5.8850     4.5970     4.7570    24.4650     2.3520   -14.0630 
  149.3750   102.1190     5.9490     4.6490     4.7270    24.4930     2.3420   -14.3400 
  149.5000    99.3350     5.9840     4.6780     4.6170    24.5330     2.3300   -14.6300 
  149.6250   101.5130     5.9660     4.6660     4.5910    24.5560     2.3210   -14.9300 
  149.7500   103.9550     5.9050     4.6190     4.6000    24.5720     2.3180   -15.1940 
  149.8750   102.7870     5.8130     4.5440     4.5370    24.6110     2.3220   -15.4490 
  150.0000    99.5190     5.7090     4.4530     4.3480    24.6940     2.3310   -15.6030 
  150.1250    99.9660     5.6110     4.3640     4.2090    24.7440     2.3400   -15.7050 
  150.2500   103.7250     5.5290     4.2900     4.2750    24.7590     2.3490   -15.7480 
  150.3750   106.7710     5.4670     4.2380     4.4560    24.7590     2.3550   -15.7000 
  150.5000   106.1670     5.4300     4.2140     4.5570    24.7560     2.3580   -15.5960 
  150.6250   103.8440     5.4410     4.2330     4.4610    24.7370     2.3590   -15.4600 
  150.7500   103.4480     5.5170     4.3070     4.3740    24.6880     2.3610   -15.3530 
  150.8750   103.3210     5.6740     4.4440     4.4650    24.6150     2.3640   -15.2560 
  151.0000   102.3710     5.9100     4.6460     4.7710    24.5450     2.3650   -15.2530 
  151.1250   103.0460     6.1950     4.9010     5.1080    24.4180     2.3610   -15.3130 
  151.2500   104.8360     6.4520     5.1540     5.2560    24.2270     2.3520   -15.4470 
  151.3750   105.4720     6.6140     5.3490     5.0980    24.0680     2.3410   -15.6500 
  151.5000   104.3860     6.6360     5.4390     4.9130    23.9670     2.3310   -15.8940 
  151.6250   105.2940     6.4900     5.3870     4.8710    23.8990     2.3250   -16.1420 
  151.7500   109.0720     6.2450     5.2380     4.8270    23.8420     2.3240   -16.3450 
  151.8750   112.0970     5.9610     5.0380     4.5640    23.8080     2.3280   -16.5230 
  152.0000   110.5040     5.7010     4.8380     4.2840    23.7960     2.3360   -16.6460 
  152.1250   105.1680     5.5200     4.6840     4.1020    23.7880     2.3480   -16.7650 
  152.2500   101.2060     5.4160     4.5880     4.0180    23.7470     2.3620   -16.8830 
  152.3750   100.3570     5.3730     4.5470     3.9920    23.6950     2.3740   -17.0300 
  152.5000   100.5990     5.3590     4.5480     4.0660    23.6110     2.3830   -17.1450 
  152.6250   100.1770     5.3460     4.5660     4.1380    23.5000     2.3840   -17.2230 
  152.7500    99.9130     5.3290     4.5820     4.1900    23.4440     2.3780   -17.3070 
  152.8750   101.2240     5.3410     4.6080     4.2030    23.5730     2.3680   -17.3770 
  153.0000   102.3120     5.4320     4.6730     4.2400    23.8350     2.3550   -17.4820 
  153.1250   101.5070     5.6670     4.8310     4.3800    24.0520     2.3420   -17.5890 
  153.2500   102.0640     6.0110     5.0740     4.6490    24.1440     2.3310   -17.7250 
  153.3750   104.4200     6.3890     5.3590     5.0630    24.1590     2.3230   -17.8180 
  153.5000   105.3610     6.6860     5.6010     5.7590    24.1610     2.3190   -17.9300 
  153.6250   104.5990     6.7570     5.6750     5.9650    24.1500     2.3160   -18.0160 
  153.7500   105.9010     6.6190     5.5730     5.7470    24.1550     2.3130   -18.1050 
  153.8750   107.5250     6.3710     5.3600     5.4560    24.1740     2.3100   -18.2080 
  154.0000   105.5990     6.1860     5.1630     5.6130    24.2000     2.3060   -18.2930 
  154.1250   102.5600     6.3320     5.1670     6.1290    24.2350     2.2990   -18.3430 
  154.2500   102.3780     6.9270     5.4780     6.4740    24.2790     2.2880   -18.3150 
  154.3750   102.1520     8.0410     6.1830     6.6750    24.3290     2.2720   -18.2680 
  154.5000    97.8230     9.7360     7.3280     7.5970    24.3650     2.2540   -18.2410 
  154.6250    90.4160    11.9990     8.9410    10.0140    24.4350     2.2450   -18.3150 
  154.7500    85.3350    14.3880    10.7850    12.4840    24.5050     2.2490   -18.4220 
  154.8750    83.2110    16.5630    12.6430    12.8240    24.6140     2.2640   -18.5390 
  155.0000    83.7260    18.4490    14.3650    12.9010    24.8050     2.2780   -18.6750 
  155.1250    85.7250    20.2770    15.9860    16.1810    25.0600     2.2770   -18.8440 
  155.2500    84.6020    22.2810    17.7070    22.2550    25.2490     2.2550   -19.1030 
  155.3750    79.1550    24.4610    19.6250    28.7550    25.3410     2.2190   -19.4400 
  155.5000    73.1390    26.6080    21.6370    30.1480    25.3710     2.1830   -19.8550 
  155.6250    72.7950    28.2800    23.3430    26.1970    25.3250     2.1630   -20.2600 
  155.7500    77.2050    29.3610    24.4800    24.1410    25.2450     2.1610   -20.6550 
  155.8750    81.5650    30.0620    25.1420    24.3350    25.3710     2.1720   -21.0900 
  156.0000    82.2800    30.8690    25.7470    23.8520    25.6410     2.1860   -21.5790 
  156.1250    78.1690    32.5080    26.9490    23.4720    26.1070     2.1930   -22.1570 
  156.2500    73.2350    35.2550    29.0860    21.5410    26.0330     2.1940   -22.7130 
  156.3750    70.3760    39.1490    32.3270    22.7700    26.0300     2.1930   -23.2200 
  156.5000    70.3580    43.8990    36.5720    30.2340    26.4290     2.1940   -23.6010 
  156.6250    73.1130    48.8400    41.3440    39.7740    25.6880     2.1960   -23.9760 
  156.7500    74.4650    53.1790    45.7800    43.0000    25.5830     2.1970   -24.3470 
  156.8750    72.9940    56.5490    49.3910    46.3460    26.0830     2.1950   -24.6840 
  157.0000    70.8570    59.0550    52.1420    50.2540    26.2460     2.1910   -24.9240 
  157.1250    68.9020    61.2200    54.4070    52.0370    26.4060     2.1880   -25.0350 
  157.2500    66.6760    63.7420    56.8530    55.4060    25.7570     2.1880   -25.1020 
  157.3750    65.0020    66.9390    59.8410    60.3260    25.4500     2.1900   -25.1780 
  157.5000    65.3300    70.7400    63.4120    65.8520    25.4140     2.1920   -25.3130 
  157.6250    68.2770    74.5320    67.1410    68.0550    25.4210     2.1940   -25.4450 
  157.7500    72.1840    77.3730    70.1300    71.4310    25.4910     2.1950   -25.5750 
  157.8750    75.4420    78.5820    71.6200    77.0830    25.6490     2.1970   -25.6320 
  158.0000    74.9990    78.0750    71.3720    82.2690    25.6200     2.2020   -25.6630 
  158.1250    71.5250    76.5650    69.9100    72.9060    25.6430     2.2120   -25.7140 
  158.2500    70.6390    75.6390    68.7610    63.4330    25.8070     2.2230   -25.7790 
  158.3750    73.1890    76.5220    69.1240    61.9120    26.0610     2.2300   -25.8150 
  158.5000    76.4190    80.0120    71.8300    69.5480    25.7230     2.2260   -25.7730 
  158.6250    76.5310    86.5550    77.4880    81.8070    25.5100     2.2060   -25.7400 
  158.7500    74.2180    94.4740    84.7720   101.9990    25.4420     2.1800   -25.7050 
  158.8750    71.8780   101.5990    91.7580   129.4090    25.5260     2.1590   -25.7130 
  159.0000    70.4110   105.5880    96.0450   157.4700    25.3660     2.1510   -25.7340 
  159.1250    69.9810   104.4950    95.4550   151.8580    25.6290     2.1580   -25.6870 
