~V
VERS. 2.00: Ver 2.00
~W
STRT.M 52.0000:
STOP.M 279.0000:
STEP.M 0.1250:
NULL. -999.2500:
UWI. F11031:
~C
DEPT.M :
DEN.GM/CC :
GR.API :
RML.OHMM :
RI. :
RXO.OHMM :
CALI.CM :
SP.MV :
~A
# ...
   85.7500     2.2270    59.0020    10.0220     8.2320     8.7310    23.8540   -24.4180 
   85.8750     2.1880    56.5110    10.1540     7.9870     8.6540    24.4410   -25.0100 
   86.0000     2.1700    55.4510    10.4190     8.0090     8.8390    24.6390   -25.4460 
   86.1250     2.1720    60.0520    10.2790     7.9270     8.9210    24.4380   -25.6210 
   86.2500     2.1870    69.3150     9.5800     7.5270     8.4380    24.2790   -25.5590 
   86.3750     2.2090    77.9350     8.5590     6.8700     7.5080    24.0870   -25.3730 
   86.5000     2.2350    83.0900     7.6990     6.2220     6.4440    23.8090   -25.1890 
   86.6250     2.2650    84.1300     7.5950     5.9680     5.9990    23.7330   -25.0920 
   86.7500     2.3050    80.5210     8.4150     6.2760     5.7250    23.7620   -25.1530 
   86.8750     2.3570    74.8060    10.2320     7.2430     6.6930    23.8330   -25.5060 
   87.0000     2.4160    70.2030    12.8720     8.8400    10.6320    23.7340   -26.1350 
   87.1250     2.4540    66.9580    15.5010    10.6720    20.7130    23.6510   -27.0350 
   87.2500     2.4500    64.1490    16.7080    11.7870    25.7440    23.4090   -28.1460 
   87.3750     2.4010    61.4460    15.8020    11.5760    18.7350    23.0900   -29.3670 
   87.5000     2.3240    58.7950    13.4980    10.3190    11.9030    22.7450   -30.5840 
   87.6250     2.2500    57.2090    11.3170     8.8890    10.2760    22.5570   -31.6860 
   87.7500     2.1980    58.6310    10.0170     7.8810     9.8790    22.4940   -32.6620 
   87.8750     2.1710    63.6370     9.5520     7.3820     9.8250    22.8790   -33.4650 
   88.0000     2.1640    68.4310     9.6150     7.2880     9.8260    23.2800   -34.0810 
   88.1250     2.1700    68.6750     9.8870     7.4230     9.8880    23.3690   -34.4900 
   88.2500     2.1770    66.3960    10.1180     7.5720     9.9200    23.3630   -34.7160 
   88.3750     2.1810    64.8570    10.2290     7.6560     9.9400    23.3750   -34.7990 
   88.5000     2.1780    64.5630    10.2010     7.6650     9.9900    23.4380   -34.7460 
   88.6250     2.1680    63.9240    10.0460     7.6180    10.1000    23.4870   -34.4950 
   88.7500     2.1550    62.1060     9.8290     7.5420    10.1970    23.5740   -34.0710 
   88.8750     2.1470    60.5380     9.5810     7.4330    10.1860    23.5610   -33.4410 
   89.0000     2.1480    60.5110     9.3330     7.2780    10.0180    23.4830   -32.5970 
   89.1250     2.1600    62.2820     9.1020     7.0590     9.6600    23.5900   -31.5700 
   89.2500     2.1790    64.7790     8.8660     6.7940     9.0590    23.6070   -30.4820 
   89.3750     2.2000    67.5800     8.6040     6.5070     8.6180    23.6510   -29.3210 
   89.5000     2.2200    71.8930     8.3150     6.2270     8.8680    23.5480   -28.1170 
   89.6250     2.2370    77.0050     8.0370     5.9960     8.0970    23.3280   -27.0010 
   89.7500     2.2510    79.7510     7.8120     5.8250     6.9200    23.2180   -25.9770 
   89.8750     2.2610    80.4140     7.6670     5.7160     6.2410    23.1800   -25.0860 
   90.0000     2.2670    80.1950     7.5940     5.6470     5.9380    23.1360   -24.4300 
   90.1250     2.2700    81.1430     7.5560     5.5840     6.0770    23.1960   -24.0880 
   90.2500     2.2730    82.8360     7.5210     5.5070     6.0590    23.1020   -23.9380 
   90.3750     2.2770    85.5750     7.5070     5.4350     5.7200    23.0860   -23.9990 
   90.5000     2.2790    87.9350     7.5550     5.4060     5.3800    23.1980   -24.3260 
   90.6250     2.2740    89.3650     7.7430     5.4800     5.3300    22.9840   -24.9070 
   90.7500     2.2600    89.9200     8.0720     5.6520     5.7930    22.7010   -25.6280 
   90.8750     2.2390    86.0050     8.4920     5.8880     6.8730    22.4830   -26.4370 
   91.0000     2.2170    78.3060     8.8800     6.1060     7.4320    22.3920   -27.2910 
   91.1250     2.2010    72.1120     9.0400     6.1900     7.4800    22.4900   -28.1320 
   91.2500     2.1950    71.7610     8.9480     6.1300     7.2330    22.5700   -28.9640 
   91.3750     2.2010    75.0730     8.7060     5.9870     6.9960    22.6300   -29.8320 
   91.5000     2.2160    77.0630     8.5000     5.8720     6.7470    22.5700   -30.7400 
   91.6250     2.2390    75.8760     8.5410     5.9130     6.6890    22.5040   -31.6820 
   91.7500     2.2610    74.3870     8.8450     6.1210     6.8770    22.5200   -32.7350 
   91.8750     2.2760    74.6020     9.3360     6.4580     7.4810    22.6060   -33.9440 
   92.0000     2.2770    76.5410     9.8520     6.8420     8.5610    22.7350   -35.2190 
   92.1250     2.2610    74.2960    10.1600     7.1480     9.4890    22.8280   -36.4990 
   92.2500     2.2410    67.2670    10.1820     7.3000     9.9190    22.8890   -37.8040 
   92.3750     2.2280    60.1400     9.9670     7.2900     9.9350    22.9430   -39.0210 
   92.5000     2.2260    57.8200     9.6390     7.1650     9.7550    22.7400   -40.0710 
   92.6250     2.2300    60.3340     9.3230     6.9850     9.5220    22.0640   -40.9590 
   92.7500     2.2320    61.4330     9.0770     6.8050     9.5800    21.5460   -41.6640 
   92.8750     2.2270    59.6320     8.9120     6.6510     9.9860    21.4280   -42.1080 
   93.0000     2.2190    58.6100     8.8310     6.5350    10.5150    21.4810   -42.3230 
   93.1250     2.2130    59.3200     8.8390     6.4720    10.7230    21.5880   -42.3560 
   93.2500     2.2100    58.9830     8.8990     6.4530    10.6510    21.7680   -42.2430 
   93.3750     2.2060    55.8510     8.9730     6.4610    10.5390    21.9520   -42.0020 
   93.5000     2.2010    52.7780     9.0210     6.4630    10.5380    22.2300   -41.6080 
   93.6250     2.1950    54.6030     9.0020     6.4210    10.6840    22.4860   -41.0470 
   93.7500     2.1930    57.5160     8.9110     6.3250    10.6300    22.5660   -40.3750 
   93.8750     2.1940    58.2840     8.7540     6.1700    10.1770    22.5290   -39.6030 
   94.0000     2.2000    56.1210     8.5460     5.9590     9.3660    22.4230   -38.7390 
   94.1250     2.2060    55.5750     8.3200     5.7340     8.5640    22.4330   -37.8070 
   94.2500     2.2120    57.1780     8.1320     5.5620     8.1760    22.5330   -36.8100 
   94.3750     2.2130    59.1390     8.0480     5.4940     7.6930    22.7170   -35.7310 
   94.5000     2.2080    60.6880     8.1500     5.5640     7.3770    22.8500   -34.6310 
   94.6250     2.1950    62.3200     8.5240     5.8090     7.9030    22.8960   -33.5000 
   94.7500     2.1760    63.9740     9.0830     6.1790     9.3700    23.0840   -32.3020 
   94.8750     2.1580    63.7160     9.6940     6.6190    10.5330    23.3610   -31.1600 
   95.0000     2.1440    61.5220    10.1850     7.0470    11.2930    23.6090   -30.1690 
   95.1250     2.1390    58.8700    10.3600     7.3410    13.7490    23.4470   -29.2950 
   95.2500     2.1420    56.7820    10.2350     7.4380    16.7760    22.9560   -28.5240 
   95.3750     2.1520    55.7860     9.9040     7.3320    15.2460    22.8730   -27.9270 
   95.5000     2.1640    55.2560     9.5180     7.0770    11.7310    23.0080   -27.4650 
   95.6250     2.1730    54.7730     9.2250     6.7670    10.0680    23.1240   -27.1170 
   95.7500     2.1760    54.4170     9.0610     6.4990     9.7060    23.0410   -26.9310 
   95.8750     2.1700    55.1980     9.0090     6.3200     9.6380    22.9150   -26.8310 
   96.0000     2.1590    57.0990     9.0100     6.2330     9.4630    22.8110   -26.7020 
   96.1250     2.1490    59.2460     8.9660     6.1900     9.1120    22.7640   -26.5660 
   96.2500     2.1440    60.3470     8.8300     6.1260     8.8810    22.7500   -26.4270 
   96.3750     2.1460    60.1140     8.6310     6.0320     8.8750    22.7170   -26.2280 
   96.5000     2.1550    59.6030     8.4610     5.9480     8.8740    22.6830   -25.9630 
   96.6250     2.1680    59.7800     8.4930     5.9550     8.5780    22.7890   -25.6760 
   96.7500     2.1810    60.7610     8.7820     6.0890     8.3310    22.8210   -25.4130 
   96.8750     2.1920    62.0350     9.2850     6.3520     8.7140    22.7620   -25.1690 
