~V
VERS. 2.00: Ver 2.00
~W
STRT.M 57.0000:
STOP.M 280.0000:
STEP.M 0.1250:
NULL. -999.2500:
UWI. F11041:
~C
DEPT.M :
SP.MV :
GR.API :
RML.OHMM :
RI. :
RXO.OHMM :
CALI.CM :
DEN.GM/CC :
~A
# ...
  214.5000    -1.4250    62.8990   128.2520   113.0600   107.7110    24.8910     2.2000 
  214.6250    -1.5420    63.7570   170.6950   148.2580   128.3480    24.8550     2.1920 
  214.7500    -1.7360    63.2260   227.2370   191.0210   160.6410    24.8500     2.1850 
  214.8750    -2.0160    61.7290   294.2470   236.1440   187.9450    24.8460     2.1770 
  215.0000    -2.3150    59.3540   358.7760   275.3560   201.3240    24.8190     2.1700 
  215.1250    -2.5050    59.8090   392.3770   296.5460   211.9620    24.7610     2.1700 
  215.2500    -2.5780    63.4310   385.5330   297.5390   212.5680    24.7180     2.1760 
  215.3750    -2.6370    66.1990   346.8950   280.2560   193.6020    24.7500     2.1860 
  215.5000    -2.7610    63.2110   293.2710   250.4050   156.7000    24.7630     2.1950 
  215.6250    -2.9390    56.8910   240.2100   215.1230   142.2930    24.7330     2.2010 
  215.7500    -3.1270    54.5840   195.9710   176.9360   136.3380    24.7740     2.2070 
  215.8750    -3.2600    56.2010   162.6090   145.4660   130.6420    24.8900     2.2140 
  216.0000    -3.3220    58.3280   139.6650   126.5300   127.2680    25.0150     2.2210 
  216.1250    -3.3560    60.1980   126.6970   115.0330   121.3490    25.1020     2.2220 
  216.2500    -3.4380    62.3990   120.1090   108.9220   117.0780    25.1190     2.2200 
  216.3750    -3.6210    63.3520   118.1870   107.1850   105.7110    25.0870     2.2170 
  216.5000    -3.8470    62.9530   119.4470   108.6620    92.1410    25.0380     2.2170 
  216.6250    -3.9820    64.8310   122.9670   112.3230    77.8420    24.8760     2.2180 
  216.7500    -4.0330    68.2340   127.5640   116.8500    74.7480    24.7430     2.2160 
  216.8750    -4.0230    68.9650   132.5290   121.6680    86.7710    24.7750     2.2140 
  217.0000    -4.0170    65.4060   136.8470   126.1460   110.1290    24.8710     2.2130 
  217.1250    -4.0900    61.4920   138.8340   129.1030   114.3210    24.8540     2.2180 
  217.2500    -4.2250    59.8110   137.7090   129.7270   113.5740    24.7830     2.2270 
  217.3750    -4.3220    59.2730   132.8290   127.2720   111.0990    24.6900     2.2360 
  217.5000    -4.3100    59.9170   124.0720   121.4300   102.9440    24.6190     2.2440 
  217.6250    -4.2320    62.7800   111.8410   112.1080    94.4530    24.6790     2.2460 
  217.7500    -4.1660    65.9310    98.4040   100.9560    87.0530    24.8420     2.2400 
  217.8750    -4.1510    68.0860    85.6100    89.4910    76.2260    25.0140     2.2240 
  218.0000    -4.2060    68.7130    75.1070    79.3460    63.2770    25.0400     2.2020 
  218.1250    -4.2730    68.3530    68.5630    72.3400    65.0360    24.9090     2.1870 
  218.2500    -4.2300    68.8570    65.4380    68.4500    62.8070    24.8420     2.1870 
  218.3750    -4.0730    70.4260    64.8510    67.1050    61.7660    24.8150     2.1990 
  218.5000    -3.9430    70.7140    65.2600    66.9880    61.6180    24.7750     2.2140 
  218.6250    -3.9390    68.3910    64.4800    66.0740    61.5850    24.6990     2.2210 
  218.7500    -3.9980    66.3970    61.7200    63.3460    62.1250    24.6960     2.2230 
  218.8750    -4.0800    66.8610    57.8850    59.3260    63.8680    24.7600     2.2260 
  219.0000    -4.1260    68.1330    54.9260    55.6070    60.1810    24.8120     2.2310 
  219.1250    -4.0970    67.2050    55.4350    54.5380    52.8440    24.8020     2.2350 
  219.2500    -4.0650    65.7720    60.2710    57.1790    62.1770    24.7210     2.2320 
  219.3750    -4.0920    65.6820    69.9920    64.1440    73.7530    24.6010     2.2250 
  219.5000    -4.1750    66.3150    84.4720    75.2940    81.3680    24.5220     2.2160 
  219.6250    -4.2690    66.7360   102.6930    89.6350    94.5270    24.4960     2.2140 
  219.7500    -4.3420    67.0970   120.9200   107.4890   107.7270    24.4640     2.2170 
  219.8750    -4.3790    66.8390   135.8630   123.2510   111.9100    24.4030     2.2230 
  220.0000    -4.3390    65.4560   145.8780   131.8020   110.1950    24.3570     2.2260 
  220.1250    -4.2380    64.3100   151.6010   136.1810   103.5880    24.3620     2.2210 
  220.2500    -4.1990    64.2060   155.9810   138.4540   103.7170    24.4250     2.2110 
  220.3750    -4.2280    64.2720   160.0180   139.7670   111.7320    24.5080     2.2020 
  220.5000    -4.2110    64.6270   163.7200   140.9170   123.5830    24.6190     2.1950 
  220.6250    -4.0560    64.1320   166.5670   142.1520   131.7390    24.7630     2.1870 
  220.7500    -3.8260    60.7970   167.8250   142.7530   136.9270    24.9000     2.1760 
  220.8750    -3.5860    56.6000   166.3430   141.7550   136.8730    24.9540     2.1620 
  221.0000    -3.4230    54.5080   161.5400   138.4940   132.5420    24.9510     2.1490 
  221.1250    -3.4090    55.8770   153.0940   132.4510   118.8250    24.8270     2.1440 
  221.2500    -3.4230    59.1990   142.3930   124.5490    97.4980    24.5830     2.1440 
  221.3750    -3.3720    62.2260   130.7330   115.6800    83.6570    24.3890     2.1510 
  221.5000    -3.2640    64.4090   120.1250   106.8760    85.8170    24.3850     2.1670 
  221.6250    -3.1650    66.2370   114.7170    99.5300    94.4270    24.4510     2.1930 
  221.7500    -3.1170    66.8950   116.3830    94.4140    97.3670    24.4180     2.2180 
  221.8750    -3.1070    63.7820   125.2870    91.9320    97.7770    24.3350     2.2340 
  222.0000    -3.1230    58.8650   137.7180    91.9980    97.9390    24.3070     2.2400 
  222.1250    -3.1160    60.0660   144.4870    94.1040    99.2320    24.3380     2.2370 
  222.2500    -3.0230    65.7230   140.1780    96.1860   103.0260    24.3500     2.2330 
  222.3750    -2.8700    69.2470   126.2300    96.0340   107.7220    24.3520     2.2320 
  222.5000    -2.7690    66.9710   108.1030    91.9170   111.1530    24.3850     2.2360 
  222.6250    -2.7860    63.4710    92.6580    83.5150   106.6220    24.4710     2.2450 
  222.7500    -2.8480    63.9210    82.9690    71.4420    77.9820    24.4770     2.2560 
  222.8750    -2.8880    66.2250    71.3590    60.9920    49.4610    24.3810     2.2680 
  223.0000    -2.8600    66.3070    63.7170    55.9780    46.9990    24.2710     2.2770 
  223.1250    -2.7110    64.3360    60.6360    54.5240    48.2640    24.2840     2.2790 
  223.2500    -2.5340    64.9230    60.2780    55.3050    49.9790    24.4260     2.2770 
  223.3750    -2.4250    66.7160    60.4560    56.6270    52.5850    24.5030     2.2740 
  223.5000    -2.3840    65.4970    58.4860    56.0810    53.9780    24.5060     2.2750 
  223.6250    -2.2970    63.7450    51.9280    50.8830    52.0140    24.4670     2.2870 
  223.7500    -2.1250    67.3810    42.4910    42.3110    44.5430    24.4480     2.3110 
  223.8750    -1.9110    75.0040    32.7340    32.9250    32.3510    24.4320     2.3460 
  224.0000    -1.6640    79.0300    24.6870    24.9590    21.4480    24.4170     2.3850 
  224.1250    -1.4930    76.8490    19.4260    19.6120    18.0740    24.4120     2.4150 
  224.2500    -1.4410    75.7600    16.1760    16.1670    17.1870    24.4440     2.4300 
  224.3750    -1.4530    78.8590    14.3800    14.0870    16.7480    24.4890     2.4300 
  224.5000    -1.4190    82.5630    13.6140    12.9820    16.0610    24.5130     2.4260 
  224.6250    -1.3530    84.1870    13.8080    12.7870    15.6660    24.5240     2.4190 
  224.7500    -1.3150    85.5950    14.9250    13.3900    15.7920    24.5270     2.4060 
  224.8750    -1.3320    86.3910    17.2950    14.9820    16.0430    24.4980     2.3890 
  225.0000    -1.4490    82.7440    21.4300    17.9430    18.6920    24.4380     2.3660 
  225.1250    -1.6510    75.6630    28.3620    23.2180    27.6250    24.4580     2.3340 
  225.2500    -1.8580    70.4040    37.9790    30.8860    40.9150    24.5350     2.2980 
  225.3750    -2.0150    68.3010    49.6390    40.4400    49.3310    24.5930     2.2680 
  225.5000    -2.1210    67.9700    56.8510    53.8690    53.1300    24.6560     2.2510 
  225.6250    -2.1910    69.3640    64.4520    60.8700    55.1420    24.6840     2.2440 
