~V
VERS. 2.00: Ver 2.00
~W
STRT.M 58.0000:
STOP.M 271.0000:
STEP.M 0.1250:
NULL. -999.2500:
UWI. F11072:
~C
DEPT.M :
DEN.GM/CC :
GR.API :
RML.OHMM :
RI. :
RXO.OHMM :
CALI.CM :
SP.MV :
~A
# ...
  125.5000     2.2900    93.7200     5.3650     4.5910     5.1160    24.7920    -5.1640 
  125.6250     2.2930    90.6370     5.6660     4.8260     5.3580    24.6920    -5.4140 
  125.7500     2.2970    84.8000     6.0210     5.1150     5.6030    24.4780    -5.6690 
  125.8750     2.2990    79.8930     6.3830     5.4220     5.7260    24.1690    -5.9050 
  126.0000     2.2960    79.0620     6.6940     5.7010     5.8790    23.8860    -6.1080 
  126.1250     2.2880    81.1930     6.8700     5.8840     6.1870    23.6490    -6.2600 
  126.2500     2.2780    81.1840     6.8970     5.9510     6.4580    23.4540    -6.3620 
  126.3750     2.2720    78.4210     6.7890     5.9040     6.4420    23.3630    -6.4120 
  126.5000     2.2740    75.1340     6.5960     5.7720     6.1360    23.3370    -6.4080 
  126.6250     2.2820    74.7250     6.3840     5.6020     5.8940    23.3530    -6.3570 
  126.7500     2.2910    76.8940     6.2190     5.4510     5.7880    23.4530    -6.2800 
  126.8750     2.2940    80.6270     6.1320     5.3560     5.8100    23.6020    -6.1930 
  127.0000     2.2870    84.1880     6.1370     5.3390     5.8100    23.8020    -6.1110 
  127.1250     2.2730    86.2400     6.2380     5.4140     5.7260    23.9990    -6.0460 
  127.2500     2.2580    85.4610     6.3910     5.5480     5.7660    24.0960    -5.9870 
  127.3750     2.2500    83.1020     6.5450     5.7010     6.0790    24.1200    -5.9240 
  127.5000     2.2520    81.1580     6.6390     5.8210     6.4000    24.1160    -5.8530 
  127.6250     2.2610    80.3760     6.6010     5.8380     6.4980    24.0750    -5.7710 
  127.7500     2.2720    80.3670     6.4410     5.7450     6.4720    24.0760    -5.6860 
  127.8750     2.2850    79.4330     6.2050     5.5690     6.2720    24.1700    -5.6130 
  128.0000     2.2990    79.5360     5.9690     5.3650     5.9810    24.3350    -5.5670 
  128.1250     2.3190    81.8880     5.8110     5.2010     5.8350    24.5310    -5.5590 
  128.2500     2.3370    83.0110     5.7420     5.1000     5.7370    24.7020    -5.5910 
  128.3750     2.3490    82.9000     5.7420     5.0560     5.9230    24.7840    -5.6700 
  128.5000     2.3470    81.8470     5.7820     5.0560     6.3390    24.8070    -5.7920 
  128.6250     2.3330    79.9440     5.8700     5.1050     6.7700    24.7720    -5.9640 
  128.7500     2.3200    76.5680     6.0570     5.2320     6.4570    24.7160    -6.1730 
  128.8750     2.3200    72.1390     6.4290     5.4990     6.2530    24.6780    -6.4060 
  129.0000     2.3390    67.9510     7.0640     5.9710     6.4060    24.6260    -6.6600 
  129.1250     2.3720    64.6520     8.0060     6.7100     6.9040    24.5760    -6.9370 
  129.2500     2.3950    63.2850     9.0820     7.6100     7.6780    24.5830    -7.2330 
  129.3750     2.3880    61.6440    10.0880     8.5260     8.4820    24.5990    -7.5400 
  129.5000     2.3500    57.6010    10.8040     9.2740     9.3480    24.5630    -7.8500 
  129.6250     2.2940    55.1980    11.0150     9.6380     9.7650    24.4680    -8.1440 
  129.7500     2.2450    57.5700    10.8530     9.6560     9.7230    24.4100    -8.4090 
  129.8750     2.2140    63.6300    10.5140     9.4560     9.5740    24.4270    -8.6380 
  130.0000     2.1980    69.3790    10.2000     9.2050     9.4310    24.4760    -8.8210 
  130.1250     2.1940    70.1190    10.0510     9.0380     9.3250    24.4860    -8.9430 
  130.2500     2.1950    66.9650    10.0230     8.9630     9.3590    24.4910    -9.0120 
  130.3750     2.1980    62.6810    10.0390     8.9370     9.5230    24.4610    -9.0390 
  130.5000     2.2020    59.0200    10.0250     8.9040     9.6010    24.3510    -9.0330 
  130.6250     2.2080    57.5030     9.9440     8.8280     9.5180    24.2500    -9.0030 
  130.7500     2.2140    59.7940     9.8260     8.7240     9.3860    24.1990    -8.9670 
  130.8750     2.2190    65.5550     9.7100     8.6210     9.2610    24.2270    -8.9320 
  131.0000     2.2220    68.7210     9.6330     8.5510     9.2110    24.2900    -8.9050 
  131.1250     2.2220    66.1670     9.6370     8.5480     9.0790    24.3130    -8.8870 
  131.2500     2.2170    63.7440     9.7200     8.6100     9.0220    24.3020    -8.8780 
  131.3750     2.2100    64.7830     9.8640     8.7220     9.1610    24.2880    -8.8720 
  131.5000     2.2010    66.8480    10.0330     8.8560     9.3020    24.2370    -8.8680 
  131.6250     2.1960    64.3170    10.1660     8.9700     9.4330    24.1650    -8.8720 
  131.7500     2.1960    60.1780    10.2200     9.0310     9.5780    24.1390    -8.8860 
  131.8750     2.1980    59.6810    10.1810     9.0260     9.7700    24.1360    -8.9080 
  132.0000     2.1970    62.8470    10.0700     8.9640     9.8340    24.1620    -8.9340 
  132.1250     2.1870    63.1030     9.9540     8.8860     9.7310    24.2540    -8.9710 
  132.2500     2.1730    61.8950     9.9160     8.8520     9.6300    24.3470    -9.0140 
  132.3750     2.1670    64.8030    10.0140     8.9160     9.6930    24.4700    -9.0640 
  132.5000     2.1810    69.1360    10.2650     9.1040    10.0280    24.6330    -9.1310 
  132.6250     2.2150    67.6160    10.6390     9.4130    11.1620    24.7640    -9.2150 
  132.7500     2.2490    63.1780    11.0170     9.7530    13.2090    24.8950    -9.3100 
  132.8750     2.2650    59.8360    11.3000    10.0380    16.5570    25.0090    -9.4110 
  133.0000     2.2550    56.5170    11.4190    10.1960    21.6910    25.0130    -9.5100 
  133.1250     2.2260    52.6800    11.3400    10.1710    21.5850    24.9700    -9.5910 
  133.2500     2.2010    53.2110    11.1580    10.0280    16.1650    24.9680    -9.6590 
  133.3750     2.1860    58.6610    10.9560     9.8350    12.1950    24.9660    -9.7150 
  133.5000     2.1810    63.2720    10.7920     9.6560    10.8670    24.9840    -9.7520 
  133.6250     2.1810    60.5020    10.6890     9.5340    10.7000    25.0300    -9.7570 
  133.7500     2.1820    54.5010    10.6170     9.4630    10.5460    25.0810    -9.7320 
  133.8750     2.1830    51.3240    10.5530     9.4270    10.4200    25.1510    -9.6850 
  134.0000     2.1840    51.9470    10.4960     9.4150    10.2950    25.2220    -9.6150 
  134.1250     2.1830    53.1370    10.4650     9.4330    10.2090    25.2270    -9.5220 
  134.2500     2.1810    55.3600    10.4660     9.4770    10.1650    25.1410    -9.3980 
  134.3750     2.1790    58.5430    10.4780     9.5320    10.1810    25.0020    -9.2330 
  134.5000     2.1760    60.0830    10.4610     9.5630    10.1930    24.8610    -9.0160 
  134.6250     2.1770    60.7900    10.3380     9.4990    10.1380    24.7430    -8.7400 
  134.7500     2.1830    62.4910    10.0780     9.3040     9.9570    24.6580    -8.4240 
  134.8750     2.1960    62.1790     9.6730     8.9610     9.6460    24.5460    -8.0830 
  135.0000     2.2140    60.5430     9.1500     8.4910     9.1350    24.4040    -7.7400 
  135.1250     2.2360    63.7340     8.5520     7.9310     8.2420    24.2570    -7.4200 
  135.2500     2.2590    68.7410     7.9380     7.3470     7.2440    24.1750    -7.1420 
  135.3750     2.2810    69.1570     7.3450     6.7760     6.6330    24.1800    -6.9300 
  135.5000     2.3020    67.6150     6.8160     6.2590     6.5990    24.2190    -6.8060 
  135.6250     2.3180    73.0650     6.4560     5.8820     6.8090    24.2910    -6.8020 
  135.7500     2.3210    80.7350     6.3450     5.7050     6.6610    24.4610    -6.8980 
  135.8750     2.3040    82.3890     6.5530     5.7880     6.2870    24.6340    -7.0730 
  136.0000     2.2720    76.8320     7.0930     6.1540     6.2460    24.7000    -7.3000 
  136.1250     2.2360    67.9950     7.9050     6.7930     7.1770    24.6810    -7.5460 
  136.2500     2.2080    60.8950     8.7400     7.5280     8.5450    24.6350    -7.7700 
  136.3750     2.1960    57.5660     9.3800     8.1860     9.6250    24.5930    -7.9510 
  136.5000     2.2000    56.8760     9.6610     8.6070     9.9700    24.5630    -8.0750 
  136.6250     2.2170    57.9280     9.5120     8.6690     9.5670    24.4680    -8.1180 
