~V
VERS. 2.00: Ver 2.00
~W
STRT.M 57.0000:
STOP.M 283.0000:
STEP.M 0.1250:
NULL. -999.2500:
UWI. F11039:
~C
DEPT.M :
SP.MV :
GR.API :
RML.OHMM :
RI. :
RXO.OHMM :
CALI.CM :
DEN.GM/CC :
~A
# ...
  237.0000   -13.6950    58.9220    64.0580    59.2950    65.2030    24.1970     2.2710 
  237.1250   -13.9150    59.8110    68.5290    63.5450    71.9670    24.1500     2.2610 
  237.2500   -14.1560    63.3260    72.4270    67.5490    83.7390    24.1360     2.2510 
  237.3750   -14.4390    65.2390    74.0380    69.7410    97.7730    24.1490     2.2460 
  237.5000   -14.7800    62.6740    73.1340    69.6480   103.5520    24.1730     2.2470 
  237.6250   -15.1760    58.4600    70.5560    67.7750    99.8520    24.1970     2.2540 
  237.7500   -15.5680    55.8980    68.0740    65.5770    86.0920    24.2320     2.2620 
  237.8750   -15.9380    56.8790    67.9990    65.1780    72.7710    24.3090     2.2670 
  238.0000   -16.2830    60.4480    70.9680    67.4760    67.5220    24.4160     2.2680 
  238.1250   -16.6100    63.6740    77.5820    72.5870    73.8170    24.5020     2.2660 
  238.2500   -16.9190    62.8490    86.7640    79.8970    89.8030    24.5540     2.2640 
  238.3750   -17.1850    57.1760    97.7980    88.1950   101.2800    24.5930     2.2620 
  238.5000   -17.3960    53.3550   108.6830    95.7420   106.8820    24.6200     2.2610 
  238.6250   -17.5520    53.0950   115.7880   101.3680   110.6450    24.6300     2.2600 
  238.7500   -17.6720    54.4420   117.9310   104.4830   115.3420    24.6290     2.2610 
  238.8750   -17.7480    56.0730   117.0640   104.9180   117.2050    24.6320     2.2630 
  239.0000   -17.7820    56.3080   114.7650   103.8990   119.6090    24.6340     2.2650 
  239.1250   -17.7750    55.2560   112.2200   102.3940   119.9410    24.6340     2.2660 
  239.2500   -17.7220    54.2510   110.5570   101.4030   115.1510    24.6300     2.2630 
  239.3750   -17.6510    54.9650   110.7970   101.9560   107.4130    24.6170     2.2560 
  239.5000   -17.5520    55.4380   112.3440   103.8030   105.1550    24.5970     2.2460 
  239.6250   -17.4170    53.7890   113.8920   105.9790   111.2240    24.5760     2.2400 
  239.7500   -17.2540    52.1130   113.6720   106.9460   118.1130    24.5570     2.2390 
  239.8750   -17.0850    51.5530   109.6740   104.7110   124.7760    24.5300     2.2470 
  240.0000   -16.9130    52.0900   102.7060    99.5470   125.8050    24.4860     2.2590 
  240.1250   -16.7460    55.4250    94.6950    92.8670   121.9870    24.4460     2.2760 
  240.2500   -16.5660    60.1730    87.9600    86.7410   105.4350    24.4230     2.2950 
  240.3750   -16.3620    60.6590    84.4070    83.1900    87.3280    24.4020     2.3130 
  240.5000   -16.1740    56.9500    83.3820    82.0340    81.5120    24.3730     2.3280 
  240.6250   -16.0080    56.0940    83.7290    82.3720    91.3380    24.3360     2.3360 
  240.7500   -15.8540    60.5670    84.0870    82.9400   115.3570    24.2770     2.3400 
  240.8750   -15.6980    65.2580    83.3260    82.5450   113.6310    24.1960     2.3400 
  241.0000   -15.5530    67.2660    81.7630    81.2680    96.3870    24.1280     2.3400 
  241.1250   -15.4180    67.7990    80.4400    79.9680    82.4850    24.0910     2.3360 
  241.2500   -15.2890    68.8310    80.6110    79.8320    73.8060    24.0450     2.3270 
  241.3750   -15.1470    69.4220    83.4260    82.0970    74.2470    24.0410     2.3090 
  241.5000   -14.9750    68.6040    88.2330    86.3380    81.6340    24.1080     2.2880 
  241.6250   -14.7620    64.9580    94.0710    91.7220    95.4850    24.2130     2.2700 
  241.7500   -14.5150    58.3710    99.7090    97.0790   113.2460    24.3030     2.2590 
  241.8750   -14.2500    52.0340   103.5910   100.8840   124.1020    24.3460     2.2560 
  242.0000   -13.9490    50.6320   105.0830   102.4370   118.7180    24.3720     2.2560 
  242.1250   -13.6150    53.9870   103.9010   101.4130   110.5920    24.4130     2.2530 
  242.2500   -13.2720    56.7560   100.1740    97.9050   111.3280    24.4680     2.2480 
  242.3750   -12.9030    57.3460    94.1520    92.1340   113.8630    24.4950     2.2430 
  242.5000   -12.5190    58.8210    87.1290    85.3300   112.2280    24.4950     2.2400 
  242.6250   -12.1350    60.0280    80.2020    78.5260    99.9350    24.4750     2.2430 
  242.7500   -11.7660    59.9970    74.4470    72.7490    81.4830    24.4370     2.2520 
  242.8750   -11.3840    59.9420    70.9120    69.0580    70.2760    24.3750     2.2690 
  243.0000   -10.9980    60.0660    69.2440    67.2330    67.1650    24.3140     2.2900 
  243.1250   -10.6260    57.9190    68.8300    66.7920    70.4750    24.2490     2.3110 
  243.2500   -10.2670    53.9890    68.8350    66.9940    78.5510    24.1460     2.3240 
  243.3750    -9.9090    52.8240    68.3520    66.9790    92.8220    24.0290     2.3220 
  243.5000    -9.5540    54.5040    67.0360    66.2640   101.8780    23.9350     2.3120 
  243.6250    -9.1940    55.7200    64.8940    64.7380    92.3550    23.9130     2.3020 
  243.7500    -8.8160    55.8750    62.0380    62.4300    82.8490    23.9750     2.3010 
  243.8750    -8.4260    57.7180    58.3420    59.1570    79.9230    24.0750     2.3140 
  244.0000    -8.0390    61.7340    53.8090    54.9260    77.9880    24.1380     2.3320 
  244.1250    -7.6470    65.2960    48.4320    49.7260    72.3680    24.1420     2.3480 
  244.2500    -7.2190    68.8460    42.4460    43.7880    59.6980    24.0640     2.3540 
  244.3750    -6.8200    73.9860    36.4170    37.6750    41.8760    23.9820     2.3520 
  244.5000    -6.4420    76.3360    31.0030    32.1040    30.3420    23.9830     2.3460 
  244.6250    -6.0910    73.3690    26.6150    27.5160    24.5710    24.0130     2.3380 
  244.7500    -5.7930    68.2210    23.4200    24.0830    22.9420    24.0760     2.3270 
  244.8750    -5.5310    67.0540    21.5390    21.9290    21.6360    24.1910     2.3130 
  245.0000    -5.2900    68.8940    20.5590    20.6760    20.9770    24.2930     2.3010 
  245.1250    -5.0680    68.5900    20.2160    20.0970    21.5320    24.3420     2.3000 
  245.2500    -4.8790    63.7750    20.2430    19.9570    23.2010    24.3610     2.3110 
  245.3750    -4.7150    58.7780    20.4390    20.0750    24.2190    24.3710     2.3360 
  245.5000    -4.5620    57.7940    20.7660    20.3470    24.7170    24.3780     2.3670 
  245.6250    -4.4060    59.3770    21.4310    20.9070    25.8810    24.3810     2.4000 
  245.7500    -4.2460    61.4480    22.7440    22.0100    26.5790    24.3640     2.4350 
  245.8750    -4.1080    62.6640    25.0210    23.9760    28.2500    24.3140     2.4730 
  246.0000    -3.9970    61.2480    27.8190    26.4920    33.1090    24.2640     2.5140 
  246.1250    -3.9000    56.4460    30.3840    28.9310    44.4410    24.2480     2.5500 
  246.2500    -3.8390    51.0720    31.7560    30.4020    59.7820    24.2380     2.5680 
  246.3750    -3.7940    49.6020    30.8540    29.7610    63.5400    24.2230     2.5520 
  246.5000    -3.7640    51.2140    28.1670    27.3230    45.7570    24.2030     2.5050 
  246.6250    -3.7890    54.0690    24.6930    24.0490    26.7280    24.1930     2.4440 
  246.7500    -3.8530    57.0710    21.6280    21.1030    18.6830    24.2260     2.3870 
  246.8750    -3.9280    61.4290    19.9760    19.3800    18.2400    24.3100     2.3480 
  247.0000    -4.0040    65.2610    19.5830    18.7610    19.6860    24.3810     2.3300 
  247.1250    -4.1110    65.2230    20.0720    18.9830    21.1030    24.4120     2.3260 
  247.2500    -4.2330    61.4000    20.9280    19.6560    22.3800    24.4110     2.3300 
  247.3750    -4.3480    59.5350    21.5290    20.2550    23.8410    24.3900     2.3390 
  247.5000    -4.4600    61.3780    21.4740    20.3280    25.7930    24.3630     2.3520 
  247.6250    -4.5490    64.4060    20.6410    19.6810    28.5940    24.3570     2.3660 
  247.7500    -4.6080    67.9170    19.1880    18.3990    31.4570    24.3690     2.3770 
  247.8750    -4.6550    70.8390    17.5290    16.8260    26.2760    24.4000     2.3760 
  248.0000    -4.7060    70.5970    16.1970    15.4700    18.8230    24.4790     2.3630 
  248.1250    -4.7340    69.2080    15.5230    14.6420    15.1950    24.6240     2.3430 
