~V
VERS. 2.00: Ver 2.00
~W
STRT.M 55.0000:
STOP.M 281.0000:
STEP.M 0.1250:
NULL. -999.2500:
UWI. F11051:
~C
DEPT.M :
SP.MV :
GR.API :
RML.OHMM :
RI. :
RXO.OHMM :
CALI.CM :
DEN.GM/CC :
~A
# ...
  257.5000    -7.8560    54.5460     7.0160     5.6670     5.6980    23.7460     2.3600 
  257.6250    -7.8520    58.7410     7.0470     5.7260     5.6980    23.6990     2.3550 
  257.7500    -7.8480    63.5520     7.0530     5.8170     5.6370    23.7250     2.3590 
  257.8750    -7.8490    64.4040     7.0610     5.9320     5.6270    23.6850     2.3770 
  258.0000    -7.8640    61.7530     7.1150     6.0620     5.5620    23.6820     2.4030 
  258.1250    -7.9110    60.7280     7.2560     6.1930     5.5380    23.7800     2.4240 
  258.2500    -7.9820    61.2530     7.4540     6.3160     5.6710    23.9110     2.4300 
  258.3750    -8.0570    60.6570     7.6630     6.4260     5.8190    24.0260     2.4260 
  258.5000    -8.1170    58.0730     7.8310     6.5140     5.8670    24.3900     2.4200 
  258.6250    -8.1630    55.0790     7.9090     6.5690     5.7130    24.7810     2.4130 
  258.7500    -8.1940    54.0390     7.9090     6.5900     5.5110    24.6600     2.3990 
  258.8750    -8.2210    54.6750     7.8490     6.5750     5.4390    24.0710     2.3740 
  259.0000    -8.2410    55.7660     7.7620     6.5290     5.4690    23.6720     2.3430 
  259.1250    -8.2420    57.7910     7.6880     6.4710     5.6450    23.6670     2.3190 
  259.2500    -8.2210    59.8180     7.6640     6.4320     6.0420    23.7370     2.3110 
  259.3750    -8.1870    59.1570     7.7090     6.4370     6.3110    23.8280     2.3200 
  259.5000    -8.1710    56.0990     7.8210     6.4990     6.2090    24.0700     2.3390 
  259.6250    -8.1770    54.8350     7.9780     6.6270     6.2400    24.3490     2.3580 
  259.7500    -8.1990    55.2070     8.1460     6.7990     7.5540    24.3270     2.3760 
  259.8750    -8.2300    55.2770     8.3280     6.9940    10.7780    24.1640     2.3910 
  260.0000    -8.2710    55.6920     8.5390     7.1880    13.0220    24.0570     2.4030 
  260.1250    -8.3110    54.3680     8.7700     7.3630    12.1760    24.0760     2.4140 
  260.2500    -8.3450    50.8550     8.9920     7.5220     9.7870    24.1200     2.4280 
  260.3750    -8.3740    49.9030     9.1800     7.6720     8.4310    24.0750     2.4440 
  260.5000    -8.3890    53.8730     9.3220     7.8140     8.1420    24.0480     2.4600 
  260.6250    -8.4020    56.3030     9.4060     7.9250     7.3970    24.0370     2.4700 
  260.7500    -8.4240    54.6690     9.4270     7.9800     6.5250    24.0420     2.4760 
  260.8750    -8.4460    53.8110     9.3780     7.9720     5.9210    23.9880     2.4780 
  261.0000    -8.4640    55.3570     9.2840     7.9250     6.0590    23.9520     2.4770 
  261.1250    -8.4920    55.3400     9.2380     7.8960     6.8620    23.9460     2.4710 
  261.2500    -8.5270    54.4290     9.3320     7.9320     7.4800    23.9900     2.4620 
  261.3750    -8.5560    55.9890     9.5790     8.0560     7.2830    24.0570     2.4550 
  261.5000    -8.5700    60.1130     9.9270     8.2550     6.8100    24.1140     2.4530 
  261.6250    -8.5670    62.3960    10.2560     8.4810     7.7010    24.1050     2.4540 
  261.7500    -8.5630    61.5670    10.4470     8.6550     9.5630    24.1230     2.4530 
  261.8750    -8.5590    60.0580    10.4480     8.7260    10.5910    24.1540     2.4500 
  262.0000    -8.5480    59.9880    10.2700     8.6760    10.9990    24.2210     2.4470 
  262.1250    -8.5290    59.9150     9.9780     8.5170    11.5970    24.3140     2.4450 
  262.2500    -8.5100    59.3060     9.6940     8.3210    11.5480    24.3010     2.4360 
  262.3750    -8.4950    59.7300     9.5000     8.1380    10.3110    24.2500     2.4150 
  262.5000    -8.4900    61.0010     9.4570     8.0070     8.9370    24.2830     2.3790 
  262.6250    -8.4840    61.3980     9.5710     7.9610     8.7490    24.6750     2.3380 
  262.7500    -8.4700    59.9010     9.7210     7.9840     9.6210    25.0430     2.3030 
  262.8750    -8.4500    58.4080     9.8220     8.0610    11.3350    25.0880     2.2760 
  263.0000    -8.4310    59.1090     9.8440     8.1670    12.4850    24.9210     2.2600 
  263.1250    -8.4030    60.1830     9.7890     8.2610    12.7250    24.8120     2.2650 
  263.2500    -8.3680    58.7450     9.6670     8.2950    13.0840    24.8920     2.2880 
  263.3750    -8.3380    56.1770     9.4480     8.2250    15.0830    24.8010     2.3260 
  263.5000    -8.3170    56.5780     9.0920     8.0340    17.2720    24.4290     2.3680 
  263.6250    -8.3070    58.3790     8.6000     7.7300    16.2150    24.1020     2.3970 
  263.7500    -8.3090    56.1260     8.0970     7.3920    11.9290    23.9950     2.4110 
  263.8750    -8.3250    52.2880     7.6940     7.0830     8.3160    24.0540     2.4140 
  264.0000    -8.3320    50.7140     7.4410     6.8430     6.7460    24.1860     2.4130 
  264.1250    -8.3400    52.3360     7.3460     6.7070     6.3960    24.1590     2.4030 
  264.2500    -8.3760    55.0450     7.3360     6.6480     6.8420    24.2090     2.3820 
  264.3750    -8.4250    58.1770     7.3620     6.6420     7.3310    24.2950     2.3580 
  264.5000    -8.4690    59.9790     7.3830     6.6570     7.6250    24.3610     2.3400 
  264.6250    -8.4890    57.5450     7.3770     6.6610     7.4530    24.3660     2.3250 
  264.7500    -8.4760    53.7920     7.3590     6.6420     7.0830    24.3780     2.3060 
  264.8750    -8.4490    52.0150     7.3350     6.6010     6.8300    24.4150     2.2830 
  265.0000    -8.4280    52.7450     7.2970     6.5460     6.5630    24.4060     2.2620 
  265.1250    -8.4040    54.3610     7.2500     6.4980     6.5770    24.5310     2.2600 
  265.2500    -8.3560    55.3900     7.2240     6.4780     6.6660    24.7650     2.2860 
  265.3750    -8.3030    56.1950     7.2580     6.5040     6.8930    24.9200     2.3330 
  265.5000    -8.2540    55.7630     7.3740     6.5860     7.2460    24.8820     2.3760 
  265.6250    -8.2140    53.6510     7.5640     6.7240     8.7330    24.6370     2.3880 
  265.7500    -8.1910    51.5390     7.7470     6.8810    12.1050    24.3630     2.3750 
  265.8750    -8.1760    50.0150     7.8680     7.0190    15.4350    24.2240     2.3470 
  266.0000    -8.1640    48.9090     7.9150     7.1050    13.7390    24.2770     2.3180 
  266.1250    -8.1370    49.6080     7.9090     7.1170     9.6420    24.4820     2.3140 
  266.2500    -8.1080    52.4880     7.8900     7.0800     7.0220    24.6680     2.3380 
  266.3750    -8.0780    55.6860     7.8720     7.0210     5.8780    24.6600     2.3770 
  266.5000    -8.0630    56.9270     7.8470     6.9580     5.3830    24.4070     2.4100 
  266.6250    -8.0390    55.3940     7.7940     6.8940     5.3030    24.2630     2.4170 
  266.7500    -8.0340    52.8550     7.7140     6.8190     5.3960    24.2730     2.4150 
  266.8750    -8.0280    51.3600     7.6250     6.7330     5.6310    24.3790     2.4110 
  267.0000    -8.0160    52.6540     7.5430     6.6460     5.9270    24.4310     2.4100 
  267.1250    -8.0310    54.7640     7.4850     6.5720     6.3730    24.4620     2.4080 
  267.2500    -8.0600    55.0380     7.4570     6.5200     6.7530    24.5150     2.4050 
  267.3750    -8.0760    54.4590     7.4560     6.4880     7.0820    24.5860     2.4000 
  267.5000    -8.0550    54.4900     7.4770     6.4770     7.3290    24.6810     2.3940 
  267.6250    -8.0450    54.6730     7.5190     6.4920     7.3640    24.8850     2.3870 
  267.7500    -8.0380    54.0160     7.5780     6.5290     7.7860    24.9450     2.3720 
  267.8750    -8.0220    53.2570     7.6650     6.5810     8.5070    24.7960     2.3520 
  268.0000    -8.0150    53.4650     7.7750     6.6380     9.5040    24.6290     2.3330 
  268.1250    -8.0160    53.1520     7.8650     6.6810     8.3530    24.5870     2.3230 
  268.2500    -8.0040    51.8080     7.8860     6.6840     7.8270    24.6980     2.3170 
  268.3750    -8.0060    51.3050     7.8130     6.6340     7.4420    24.7810     2.3120 
  268.5000    -8.0170    53.6350     7.6630     6.5330     7.2990    24.6610     2.3070 
  268.6250    -8.0120    57.1800     7.4810     6.3980     7.0960    24.3750     2.3140 
