~V
VERS. 2.00: Ver 2.00
~W
STRT.M 55.0000:
STOP.M 283.0000:
STEP.M 0.1250:
NULL. -999.2500:
UWI. F11062:
~C
DEPT.M :
SP.MV :
GR.API :
RML.OHMM :
RI. :
RXO.OHMM :
CALI.CM :
DEN.GM/CC :
~A
# ...
  178.7500   -18.8680    59.4980   107.7620   106.7110    82.5570    23.4550     2.2380 
  178.8750   -18.9040    58.5470   113.1400   111.5810    86.5610    23.4290     2.2350 
  179.0000   -18.9400    59.1900   119.1860   117.4650    98.1960    23.4110     2.2320 
  179.1250   -19.0000    60.0580   123.2910   121.8270   113.1670    23.3930     2.2290 
  179.2500   -19.0660    58.6740   124.3620   123.3250   121.7500    23.3680     2.2280 
  179.3750   -19.1280    56.0080   122.8130   122.0760   120.6210    23.3250     2.2290 
  179.5000   -19.1870    54.9350   120.5450   119.6630   109.8680    23.2650     2.2320 
  179.6250   -19.2490    57.7340   120.8070   119.0790    96.4890    23.1900     2.2350 
  179.7500   -19.2990    62.4780   125.3400   122.2890    90.3190    23.1450     2.2360 
  179.8750   -19.3620    66.1600   134.5650   129.9600    89.8200    23.1380     2.2290 
  180.0000   -19.4650    65.1200   147.5460   141.4160    94.5140    23.1680     2.2160 
  180.1250   -19.5580    59.3170   161.9100   154.6010   108.8290    23.2390     2.2000 
  180.2500   -19.6590    54.5460   174.0780   166.0870   125.9290    23.3260     2.1870 
  180.3750   -19.7560    54.0200   181.4970   173.3990   136.4240    23.4070     2.1830 
  180.5000   -19.8530    55.0730   183.1260   175.4100   138.5710    23.5000     2.1870 
  180.6250   -19.9500    52.7930   179.5390   172.3730   135.6010    23.6320     2.1970 
  180.7500   -20.0380    50.2220   174.3110   167.4650   129.2900    23.7350     2.2060 
  180.8750   -20.1080    51.7150   169.6310   162.7820   122.9840    23.7520     2.2120 
  181.0000   -20.1250    56.4650   166.4970   159.4530   118.3740    23.6870     2.2130 
  181.1250   -20.1260    58.1130   164.8440   157.6550   117.8720    23.6060     2.2100 
  181.2500   -20.1150    57.4830   163.4460   156.3570   119.3370    23.5780     2.2060 
  181.3750   -20.0940    58.5580   161.3510   154.7040   121.1920    23.6270     2.2050 
  181.5000   -20.0550    59.2260   157.9740   152.0950   121.2800    23.7260     2.2100 
  181.6250   -19.9910    56.1270   153.2290   148.3040   118.1140    23.7790     2.2200 
  181.7500   -19.9140    53.2630   148.0850   144.0480   112.1890    23.7950     2.2320 
  181.8750   -19.8230    53.6390   143.3790   140.0330   105.0390    23.7960     2.2410 
  182.0000   -19.7230    56.0840   139.6930   136.8210    99.0450    23.8290     2.2440 
  182.1250   -19.6040    58.2670   137.3220   134.7730    94.8580    23.8770     2.2410 
  182.2500   -19.4900    60.4210   135.6280   133.3930    95.4490    23.9070     2.2370 
  182.3750   -19.3580    61.6430   133.8570   132.0090    95.0320    23.9190     2.2340 
  182.5000   -19.2320    59.9300   131.1280   129.7690    93.7440    23.9320     2.2320 
  182.6250   -19.1230    57.1870   126.4430   125.6100    92.5350    23.9530     2.2320 
  182.7500   -19.0200    56.1730   120.2840   119.8190    90.3670    23.9610     2.2340 
  182.8750   -18.9270    55.4460   113.9440   113.4810    87.6030    23.9520     2.2420 
  183.0000   -18.8630    53.2480   109.4020   108.4350    79.7310    23.9280     2.2520 
  183.1250   -18.8250    50.8560   109.4550   107.4190    66.3050    23.8720     2.2600 
  183.2500   -18.7950    51.2260   114.4660   111.0780    59.1620    23.7680     2.2590 
  183.3750   -18.7790    52.5940   123.6670   118.9340    64.4220    23.6300     2.2490 
  183.5000   -18.7390    52.5940   134.6420   128.8440    77.8700    23.5060     2.2350 
  183.6250   -18.6970    52.8960   143.0370   136.7230    89.7580    23.4220     2.2260 
  183.7500   -18.6400    53.9290   145.8140   139.4640    90.5190    23.3580     2.2250 
  183.8750   -18.5780    54.1700   142.4370   136.2810    83.1340    23.2930     2.2310 
  184.0000   -18.4800    53.6000   135.6180   129.3380    70.5410    23.2200     2.2400 
  184.1250   -18.3680    55.6520   131.0920   123.6540    58.7850    23.1740     2.2470 
  184.2500   -18.2430    59.4850   132.6860   123.1630    55.2120    23.1540     2.2480 
  184.3750   -18.0960    60.4920   141.1510   129.2620    61.0540    23.1400     2.2420 
  184.5000   -17.9700    57.9030   156.0480   141.5860    67.2720    23.1250     2.2300 
  184.6250   -17.8540    54.4770   175.6090   158.9140    72.6240    23.1000     2.2150 
  184.7500   -17.7370    51.7090   195.9690   177.5800    77.7910    23.0800     2.2020 
  184.8750   -17.6070    49.7840   215.3650   194.8050    80.5620    23.0720     2.1930 
  185.0000   -17.4860    49.6730   231.7700   208.4850    79.0200    23.0570     2.1880 
  185.1250   -17.3580    51.0300   242.0010   216.9050    77.0570    23.0060     2.1840 
  185.2500   -17.2370    50.8070   246.7580   220.8270    76.5730    22.9220     2.1800 
  185.3750   -17.1070    49.0310   245.9400   220.2660    75.9050    22.8710     2.1750 
  185.5000   -16.9580    48.0260   239.1750   214.9300    74.5200    22.8710     2.1720 
  185.6250   -16.7830    49.5610   225.6340   203.9790    73.6700    22.9060     2.1760 
  185.7500   -16.5970    52.6690   208.0660   189.4230    75.4790    22.9680     2.1860 
  185.8750   -16.4240    54.5570   189.0420   173.2950    77.7760    23.0740     2.1980 
  186.0000   -16.2660    54.5360   170.5850   157.4190    78.1750    23.2580     2.2090 
  186.1250   -16.1370    53.2870   153.5380   142.7560    78.5480    23.4920     2.2150 
  186.2500   -16.0020    53.2490   137.1810   128.7630    83.4570    23.7370     2.2160 
  186.3750   -15.9040    54.5820   121.0180   114.8900    92.3290    23.9150     2.2160 
  186.5000   -15.8420    56.7260   105.1890   101.0820    89.9360    23.9920     2.2160 
  186.6250   -15.8020    58.2580    90.8990    88.2580    73.6360    24.0040     2.2220 
  186.7500   -15.7920    57.7290    79.0840    77.3840    61.7280    23.9750     2.2320 
  186.8750   -15.7770    57.0020    70.2760    69.0910    53.8000    23.8840     2.2460 
  187.0000   -15.7360    57.9010    64.3840    63.4410    47.9410    23.7590     2.2590 
  187.1250   -15.6780    61.0290    61.0560    60.2340    45.6560    23.6490     2.2680 
  187.2500   -15.6120    63.4100    58.9860    58.2870    45.2470    23.5780     2.2730 
  187.3750   -15.5180    63.1400    57.4960    56.9450    44.7960    23.5500     2.2770 
  187.5000   -15.4030    61.6920    56.2120    55.8100    42.6210    23.5480     2.2790 
  187.6250   -15.2680    62.1410    55.1390    54.8110    36.7690    23.5540     2.2810 
  187.7500   -15.1240    63.4700    54.4760    54.0990    32.5240    23.5440     2.2810 
  187.8750   -14.9710    62.2980    54.4440    53.8850    31.6560    23.5030     2.2820 
  188.0000   -14.8510    58.5530    55.0840    54.2440    33.6810    23.4210     2.2820 
  188.1250   -14.7360    56.1730    56.1570    55.0240    37.1860    23.2810     2.2810 
  188.2500   -14.6270    56.0150    57.0220    55.6830    40.9300    23.0990     2.2780 
  188.3750   -14.5320    58.5060    57.0760    55.6830    44.1670    22.9380     2.2730 
  188.5000   -14.4580    62.5300    55.8580    54.5710    44.5840    22.8260     2.2670 
  188.6250   -14.3960    63.9350    53.1630    52.1020    40.5810    22.7370     2.2620 
  188.7500   -14.3530    61.3470    49.8730    49.0490    37.1270    22.6390     2.2610 
  188.8750   -14.3550    57.9760    46.9050    46.2340    36.7290    22.5270     2.2630 
  189.0000   -14.3580    57.7390    45.0960    44.3990    35.6920    22.4340     2.2630 
  189.1250   -14.3650    61.2800    45.2450    44.2630    33.4830    22.4690     2.2610 
  189.2500   -14.3810    64.0530    47.0030    45.5890    33.0720    22.7320     2.2580 
  189.3750   -14.4060    64.2400    49.8420    47.9920    35.9520    23.0880     2.2570 
  189.5000   -14.4280    62.6210    53.0200    50.8500    40.7370    23.3200     2.2600 
  189.6250   -14.4350    60.2970    55.6570    53.3210    43.0550    23.3280     2.2650 
  189.7500   -14.4670    58.3900    57.3780    54.8920    43.3520    23.2260     2.2690 
  189.8750   -14.4520    59.5330    58.2960    55.5170    42.4910    23.0980     2.2710 
