~V
VERS. 2.00: Ver 2.00
~W
STRT.M 53.0000:
STOP.M 257.0000:
STEP.M 0.1250:
NULL. -999.2500:
UWI. F11022:
~C
DEPT.M :
GR.API :
RML.OHMM :
RI. :
RXO.OHMM :
CALI.CM :
SP.MV :
DEN.GM/CC :
~A
# ...
  109.2500    63.9780     8.0110     6.8700     7.7250    27.8130   -26.7920     2.2130 
  109.3750    60.8290     8.0170     6.7970     8.3490    28.1710   -26.7130     2.1840 
  109.5000    58.5250     8.1830     6.8530     9.6780    28.6750   -26.6300     2.1380 
  109.6250    55.4900     8.3970     7.0070    10.7900    29.3570   -26.4320     2.0890 
  109.7500    52.6600     8.5240     7.1670    11.4580    30.0220   -26.3390     2.0510 
  109.8750    51.8540     8.5090     7.2750    11.8940    30.4830   -26.2730     2.0290 
  110.0000    52.1770     8.4130     7.3270    12.0810    30.5790   -26.0180     2.0250 
  110.1250    51.7400     8.4270     7.4070    11.8350    30.1370   -25.7620     2.0500 
  110.2500    52.7680     8.6790     7.6140    11.3500    29.4090   -25.5870     2.0970 
  110.3750    55.6840     9.1910     7.9930    11.1010    28.6100   -25.3100     2.1460 
  110.5000    57.4190     9.8920     8.5160    11.4040    27.8380   -24.9230     2.1820 
  110.6250    57.9090    10.5520     9.0430    13.1440    26.9680   -24.5520     2.2080 
  110.7500    59.0600    10.8410     9.3260    14.8850    26.3790   -24.1350     2.2220 
  110.8750    59.7660    10.5260     9.1670    13.8470    26.1770   -23.6450     2.2050 
  111.0000    60.1280     9.5980     8.5200    11.6680    26.2350   -23.2550     2.1580 
  111.1250    65.4730     8.2960     7.5200     9.8280    26.3820   -22.9480     2.1100 
  111.2500    75.4060     7.0880     6.5190     8.1670    26.4910   -22.4730     2.0840 
  111.3750    84.2850     6.2580     5.7480     6.6600    26.5190   -22.0070     2.0810 
  111.5000    89.3340     5.9290     5.3350     5.9220    26.4550   -21.7460     2.1050 
  111.6250    89.8180     6.1810     5.3930     5.9510    26.2450   -21.4390     2.1590 
  111.7500    86.1350     6.8920     5.8550     6.9680    25.9200   -21.1350     2.2280 
  111.8750    78.5850     7.9970     6.6950     9.6950    25.7030   -20.9910     2.2910 
  112.0000    68.6100     9.3450     7.8220    13.7020    25.7850   -20.8290     2.3100 
  112.1250    60.5610    10.5660     8.9700    13.4890    26.2940   -20.6620     2.2650 
  112.2500    57.7230    11.2300     9.7310    12.4000    26.8510   -20.6540     2.2130 
  112.3750    59.8400    11.0570     9.8060    11.4990    27.0880   -20.5870     2.1940 
  112.5000    63.6900    10.0690     9.1600    10.4510    26.8340   -20.4240     2.2110 
  112.6250    70.4150     8.6070     8.0400     7.7910    26.4220   -20.3920     2.2430 
  112.7500    80.4450     7.2460     6.9240     5.5960    26.0990   -20.3010     2.2620 
  112.8750    89.1980     6.2870     6.0600     4.7200    25.9830   -20.0870     2.2570 
  113.0000    94.6020     5.8450     5.5570     4.5740    25.9700   -19.9590     2.2290 
  113.1250    96.5990     5.9420     5.4770     4.8900    25.9220   -19.9140     2.1910 
  113.2500    94.9980     6.3080     5.6620     5.5720    25.7680   -19.7870     2.1670 
  113.3750    89.0620     6.7000     5.9490     6.3230    25.4920   -19.7380     2.1760 
  113.5000    83.3230     6.8800     6.1570     6.9790    25.0900   -19.8230     2.2170 
  113.6250    84.6510     6.7020     6.1310     6.7230    24.7280   -19.8150     2.2630 
  113.7500    90.6620     6.3450     5.9360     5.8450    24.5600   -19.8040     2.2840 
  113.8750    96.2400     6.0150     5.6950     5.4480    24.5190   -19.9390     2.2830 
  114.0000    96.1860     5.8690     5.5330     5.7990    24.5220   -20.1140     2.2790 
  114.1250    93.4310     5.9870     5.5540     6.2650    24.4900   -20.1440     2.2880 
  114.2500    94.9390     6.2740     5.7220     6.2130    24.4570   -20.2050     2.3070 
  114.3750    99.2790     6.6440     5.9790     6.3710    24.4550   -20.3570     2.3250 
  114.5000   101.1440     7.0010     6.2410     7.1730    24.4990   -20.4420     2.3360 
  114.6250    98.5490     7.2210     6.3990     7.6250    24.5450   -20.5100     2.3270 
  114.7500    94.7390     7.2600     6.4150     7.0270    24.5590   -20.7030     2.2980 
  114.8750    90.9830     7.1240     6.3010     6.2540    24.5480   -20.8420     2.2580 
  115.0000    88.7630     6.8760     6.1030     5.8600    24.5210   -20.8490     2.2260 
  115.1250    88.8430     6.6120     5.8810     5.8130    24.5070   -21.0030     2.2170 
  115.2500    87.4460     6.4380     5.7060     5.8050    24.5030   -21.1930     2.2230 
  115.3750    83.2840     6.4390     5.6420     5.8770    24.5070   -21.2730     2.2350 
  115.5000    79.0930     6.6810     5.7480     6.0720    24.5220   -21.3970     2.2460 
  115.6250    79.2210     7.2440     6.0980     6.3840    24.5540   -21.5900     2.2500 
  115.7500    82.5870     8.0500     6.6520     7.6990    24.5830   -21.6460     2.2510 
  115.8750    85.5580     8.9500     7.3220    11.1720    24.6170   -21.7250     2.2570 
  116.0000    85.4830     9.6650     7.9220    16.7380    24.6400   -21.9560     2.2600 
  116.1250    84.4070     9.7900     8.1480    14.5380    24.6440   -22.0630     2.2430 
  116.2500    85.3110     9.3580     7.9600    10.0250    24.6290   -22.0870     2.2120 
  116.3750    87.3540     8.6160     7.4870     8.0710    24.5970   -22.1980     2.1890 
  116.5000    89.7190     7.8850     6.9440     7.4540    24.5740   -22.3030     2.1880 
  116.6250    90.1460     7.4370     6.5400     6.9150    24.5650   -22.3280     2.2050 
  116.7500    87.6800     7.2760     6.3280     6.5580    24.5570   -22.3660     2.2160 
  116.8750    83.1010     7.3250     6.2860     6.5100    24.5300   -22.4360     2.2130 
  117.0000    80.9880     7.4850     6.3510     6.6980    24.4770   -22.4410     2.2040 
  117.1250    83.5920     7.6770     6.4670     6.9270    24.4160   -22.4290     2.1970 
  117.2500    86.3870     7.8400     6.5850     7.1830    24.3730   -22.5620     2.1950 
  117.3750    85.7930     7.9410     6.6750     7.3160    24.3500   -22.6600     2.1950 
  117.5000    82.5190     7.9730     6.7270     7.4880    24.3290   -22.6290     2.1950 
  117.6250    80.7430     7.9570     6.7400     7.4930    24.2820   -22.7520     2.1940 
  117.7500    82.1220     7.9390     6.7400     7.4200    24.2420   -22.9450     2.1920 
  117.8750    83.4670     7.9430     6.7480     7.3500    24.2170   -22.9970     2.1920 
  118.0000    81.5750     7.9710     6.7710     7.4590    24.2090   -23.0540     2.1900 
  118.1250    77.9920     8.0150     6.8080     7.6500    24.2090   -23.2250     2.1830 
  118.2500    76.1160     8.0520     6.8400     7.7110    24.2090   -23.2460     2.1760 
  118.3750    76.2930     8.0680     6.8520     7.7580    24.2090   -23.2710     2.1720 
  118.5000    77.0430     8.0600     6.8360     7.8390    24.2090   -23.4070     2.1770 
  118.6250    77.1590     8.0440     6.7940     7.9190    24.2120   -23.3800     2.1870 
  118.7500    76.3260     8.0500     6.7490     7.8920    24.2450   -23.3840     2.1940 
  118.8750    74.9870     8.0940     6.7240     7.9170    24.3410   -23.4850     2.1950 
  119.0000    74.4930     8.1780     6.7350     8.0110    24.4880   -23.4660     2.1880 
  119.1250    75.0520     8.3010     6.8020     8.0200    24.5710   -23.3980     2.1730 
  119.2500    75.2820     8.4500     6.9130     7.8530    24.6170   -23.4770     2.1580 
  119.3750    75.0400     8.6220     7.0540     7.7390    24.6360   -23.5240     2.1420 
  119.5000    74.3820     8.8040     7.2070     7.7960    24.6580   -23.4270     2.1250 
  119.6250    74.8110     8.9590     7.3530     7.7970    24.6890   -23.4380     2.1090 
  119.7500    76.9820     9.0560     7.4810     7.8600    24.7010   -23.4690     2.0960 
  119.8750    79.0470     9.0900     7.5910     7.9330    24.6560   -23.4190     2.0880 
  120.0000    79.4620     9.0790     7.6860     8.0790    24.5850   -23.3890     2.0890 
  120.1250    77.9100     9.0600     7.7700     8.2000    24.5270   -23.4250     2.1000 
  120.2500    77.0720     9.0580     7.8430     8.3480    24.4720   -23.3940     2.1160 
  120.3750    77.8380     9.0710     7.8930     8.7120    24.4440   -23.2900     2.1280 
