~V
VERS. 2.00: Ver 2.00
~W
STRT.M 57.0000:
STOP.M 278.0000:
STEP.M 0.1250:
NULL. -999.2500:
UWI. F11043:
~C
DEPT.M :
SP.MV :
GR.API :
RML.OHMM :
RI. :
RXO.OHMM :
CALI.CM :
DEN.GM/CC :
~A
# ...
  158.2500   -24.9730    76.7100    41.4050    31.6650    35.5610    24.3020     2.2530 
  158.3750   -25.1160    75.9980    41.7140    32.1650    35.8310    24.3080     2.2510 
  158.5000   -25.2340    77.7700    41.7900    32.5230    37.0860    24.2820     2.2470 
  158.6250   -25.3420    78.6760    41.4470    32.5830    37.2250    24.2790     2.2390 
  158.7500   -25.4600    78.6160    40.6940    32.3270    36.4710    24.3020     2.2330 
  158.8750   -25.5940    79.8020    39.5890    31.7730    34.6770    24.3240     2.2320 
  159.0000   -25.7380    80.6910    38.2640    30.9960    33.0010    24.3170     2.2350 
  159.1250   -25.8870    78.4050    36.8450    30.0820    31.6150    24.2900     2.2390 
  159.2500   -26.0440    76.7050    35.4200    29.1230    31.0590    24.2990     2.2400 
  159.3750   -26.2170    79.2270    34.0990    28.1930    30.6040    24.3140     2.2360 
  159.5000   -26.4100    84.9730    33.1810    27.4890    30.5880    24.3080     2.2290 
  159.6250   -26.6150    88.9260    33.4170    27.5110    30.3330    24.2770     2.2250 
  159.7500   -26.8110    87.4340    35.2710    28.6280    29.6750    24.2700     2.2280 
  159.8750   -26.9820    81.5660    39.1370    31.2360    29.6980    24.2820     2.2360 
  160.0000   -27.1260    75.4320    45.0400    35.5610    33.8480    24.3110     2.2440 
  160.1250   -27.2450    72.8970    52.3700    41.4630    50.7890    24.3050     2.2490 
  160.2500   -27.3580    72.2980    59.1860    47.4390    68.8880    24.2710     2.2490 
  160.3750   -27.4810    70.9040    63.8640    52.0230    71.1420    24.2350     2.2500 
  160.5000   -27.6340    68.3750    65.9620    54.4970    61.8470    24.2030     2.2560 
  160.6250   -27.8370    66.4030    67.0020    55.5680    57.5590    24.2080     2.2690 
  160.7500   -28.0730    65.3450    69.9420    57.5040    54.5680    24.2270     2.2830 
  160.8750   -28.3160    63.9630    76.9390    62.1850    57.6380    24.2270     2.2960 
  161.0000   -28.5340    61.9520    89.3070    70.9800    71.8080    24.2040     2.3020 
  161.1250   -28.6840    59.9010   108.2830    85.3050    88.4620    24.2050     2.2950 
  161.2500   -28.7650    59.5060   131.3870   103.4720   104.3380    24.2170     2.2780 
  161.3750   -28.7880    59.8590   154.3950   122.4230   127.9520    24.2020     2.2550 
  161.5000   -28.7790    57.8550   170.2870   137.0140   157.8200    24.1830     2.2310 
  161.6250   -28.7680    54.1010   169.9020   140.1170   188.0830    24.1680     2.2150 
  161.7500   -28.8050    53.2630   156.6200   132.7250   213.4030    24.1360     2.2100 
  161.8750   -28.8650    56.4180   137.6400   119.1280   210.8550    24.0940     2.2130 
  162.0000   -28.9200    61.4000   120.1370   104.8960   169.4180    24.0590     2.2250 
  162.1250   -28.9670    65.3550   109.3410    95.0590   123.8950    24.0710     2.2470 
  162.2500   -29.0170    67.4820   105.1260    90.5970   101.9180    24.0610     2.2700 
  162.3750   -29.0870    66.4970   106.8360    91.3800   102.3920    24.0450     2.2840 
  162.5000   -29.1910    63.3780   113.4300    96.7130   111.8250    24.0440     2.2800 
  162.6250   -29.3240    59.7430   123.6620   105.7570   116.8230    24.0700     2.2600 
  162.7500   -29.4560    56.4740   134.2950   115.7900   118.9590    24.0720     2.2430 
  162.8750   -29.5680    55.7390   142.1640   124.1150   121.3700    24.0530     2.2370 
  163.0000   -29.6520    57.9280   144.2010   127.9290   128.6000    24.0460     2.2390 
  163.1250   -29.7010    61.2820   137.5920   124.3140   128.6740    24.0640     2.2430 
  163.2500   -29.7220    63.6240   125.1050   115.0160   115.3230    24.0600     2.2480 
  163.3750   -29.7140    64.4460   110.2140   102.7150    90.4990    24.0390     2.2570 
  163.5000   -29.6840    64.2420    96.5660    90.6380    70.7820    24.0280     2.2720 
  163.6250   -29.6330    63.1430    87.3710    81.8790    61.2950    24.0370     2.2890 
  163.7500   -29.5960    62.0990    82.7250    76.9470    58.7600    24.0500     2.3020 
  163.8750   -29.5740    62.6720    82.2770    75.7100    59.9750    24.0490     2.3070 
  164.0000   -29.5530    65.7440    85.3440    77.6810    66.8890    24.0340     2.3040 
  164.1250   -29.5040    69.6070    91.6940    82.7710    75.6820    24.0330     2.2990 
  164.2500   -29.4230    70.7930   100.4780    90.2250    80.5120    24.0370     2.2930 
  164.3750   -29.3120    69.9520   111.6070    99.9740    83.5710    24.0260     2.2850 
  164.5000   -29.1770    69.9250   124.9140   111.9000    91.9460    23.9780     2.2760 
  164.6250   -28.9640    69.1450   139.3850   125.2440   127.8040    23.9730     2.2660 
  164.7500   -28.6440    66.8180   152.1270   137.4330   169.4960    24.0060     2.2540 
  164.8750   -28.4880    65.6460   160.0150   145.5860   182.2860    24.0280     2.2420 
  165.0000   -28.3720    67.4540   160.9910   147.5380   164.6570    23.9960     2.2350 
  165.1250   -28.4050    70.9870   155.5000   142.9200   147.8970    23.9990     2.2370 
  165.2500   -28.2630    73.1450   149.0840   136.3600   130.8170    24.0290     2.2470 
  165.3750   -28.1680    73.0800   146.1950   132.0060   120.6060    24.0260     2.2580 
  165.5000   -28.1040    69.9400   150.0360   133.1510   110.8700    23.9760     2.2650 
  165.6250   -28.0610    65.3300   164.0850   143.4170   112.3370    23.9670     2.2680 
  165.7500   -28.0440    62.8750   187.6360   162.6610   128.4060    24.0000     2.2700 
  165.8750   -28.0640    64.0160   219.3500   189.9790   179.2170    24.0330     2.2650 
  166.0000   -28.1200    65.8610   254.3730   221.2690   252.7950    24.0240     2.2460 
  166.1250   -28.2000    64.8000   280.9390   246.7940   317.4570    23.9750     2.2220 
  166.2500   -28.2790    61.4270   290.3090   258.5760   309.0740    23.9700     2.2080 
  166.3750   -28.3480    58.2700   282.2940   255.0850   241.6550    24.0020     2.2040 
  166.5000   -28.4090    58.7890   264.5160   241.4490   170.9610    24.0110     2.2070 
  166.6250   -28.4750    62.3480   246.1490   225.2820   126.1020    23.9750     2.2150 
  166.7500   -28.5530    65.5290   231.5220   211.5630   105.8530    23.9720     2.2210 
  166.8750   -28.6400    67.8630   221.1810   201.3260    97.2080    24.0010     2.2240 
  167.0000   -28.7330    69.0490   215.3130   195.0130    90.7680    24.0120     2.2270 
  167.1250   -28.8480    68.5980   215.5030   194.2320    96.3020    23.9890     2.2280 
  167.2500   -29.0330    66.7420   222.0640   199.2850   104.6670    24.0060     2.2260 
  167.3750   -29.3510    65.7390   235.9290   210.9950   123.8220    24.0370     2.2190 
  167.5000   -29.6760    64.3070   256.9500   229.2720   162.1650    24.0470     2.2100 
  167.6250   -29.8890    60.1900   282.7970   252.2370   239.9770    24.0330     2.1960 
  167.7500   -30.0140    55.0400   306.3240   273.8240   349.6970    24.0320     2.1830 
  167.8750   -30.1430    52.2860   320.9410   288.3860   448.6460    24.0440     2.1730 
  168.0000   -30.3760    53.0560   323.4500   292.6580   459.2980    24.0520     2.1700 
  168.1250   -30.5070    55.2140   316.2360   287.5040   453.1650    24.0480     2.1710 
  168.2500   -30.7000    56.3120   308.4370   280.5860   408.8220    24.0410     2.1730 
  168.3750   -30.8560    56.5550   304.7780   276.5430   363.1050    24.0430     2.1750 
  168.5000   -30.9880    57.0170   305.6810   276.4510   352.8510    24.0450     2.1760 
  168.6250   -31.0800    57.6640   307.1870   277.3990   403.4710    24.0330     2.1750 
  168.7500   -31.1320    57.3630   303.7970   274.6620   487.2220    24.0140     2.1700 
  168.8750   -31.1550    56.6780   293.1460   265.9380   510.1830    23.9700     2.1680 
  169.0000   -31.1630    55.7200   277.1310   252.3130   412.0200    23.9240     2.1760 
  169.1250   -31.1590    55.9270   261.9410   238.6000   287.4810    23.8830     2.1930 
  169.2500   -31.1320    56.5370   253.6710   230.2870   224.8410    23.8680     2.2110 
  169.3750   -31.0670    56.2120   255.7300   230.8350   209.2620    23.8650     2.2240 
