~V
VERS. 2.00: Ver 2.00
~W
STRT.M 50.0000:
STOP.M 283.0000:
STEP.M 0.1250:
NULL. -999.2500:
UWI. F11058:
~C
DEPT.M :
DEN.GM/CC :
GR.API :
RML.OHMM :
RI. :
RXO.OHMM :
CALI.CM :
SP.MV :
~A
# ...
  106.2500     2.2790    73.9660     8.7160     7.4070     9.0590    23.8980   -23.5730 
  106.3750     2.3220    71.1060     9.2730     8.0020     9.4960    23.9670   -23.8470 
  106.5000     2.3330    71.7070     9.5870     8.4680     9.6120    23.9550   -24.1470 
  106.6250     2.3060    72.7210     9.5460     8.6100     9.6800    23.8370   -24.4650 
  106.7500     2.2650    71.5570     9.2940     8.4980     9.5870    23.7500   -24.6260 
  106.8750     2.2320    70.4970     8.9830     8.2610     9.5060    23.7060   -24.5680 
  107.0000     2.2130    70.6190     8.7410     8.0330     9.4120    23.6680   -24.3420 
  107.1250     2.2070    71.5610     8.6260     7.9010     9.5030    23.5890   -23.9760 
  107.2500     2.2050    71.8500     8.5620     7.8270     9.7780    23.5170   -23.5640 
  107.3750     2.2080    71.4190     8.4630     7.7370     9.9690    23.5250   -23.0970 
  107.5000     2.2170    72.4160     8.2750     7.5660     9.6680    23.6400   -22.5600 
  107.6250     2.2310    75.8030     8.0070     7.3040     8.8070    23.8410   -21.9560 
  107.7500     2.2450    80.0070     7.7610     7.0380     7.4400    24.0150   -21.4590 
  107.8750     2.2500    83.0250     7.6300     6.8510     6.8330    24.0700   -21.0340 
  108.0000     2.2440    83.5210     7.6660     6.8000     7.5870    23.9840   -20.6070 
  108.1250     2.2300    80.2630     7.8750     6.9200     9.0230    23.8550   -20.3680 
  108.2500     2.2170    73.7160     8.1480     7.1400     9.3690    23.7880   -20.1980 
  108.3750     2.2110    68.3330     8.3840     7.3840     9.5540    23.7890   -20.0790 
  108.5000     2.2110    67.7710     8.5150     7.5640     9.8590    23.8360   -20.1310 
  108.6250     2.2150    69.3140     8.5510     7.6190     9.9320    23.9310   -20.1870 
  108.7500     2.2170    69.1750     8.6450     7.6530     9.9230    23.9740   -20.1460 
  108.8750     2.2250    67.3830     8.9550     7.8190    10.1180    24.0190   -20.0410 
  109.0000     2.2500    65.9650     9.5780     8.2490    10.8610    24.1040   -19.8080 
  109.1250     2.3020    65.8410    10.4970     9.0300    13.0180    24.2810   -19.4660 
  109.2500     2.3640    65.3550    11.4130     9.9810    19.2900    24.4680   -19.2280 
  109.3750     2.4090    63.1290    12.0070    10.8100    32.8370    24.6070   -19.1870 
  109.5000     2.4130    59.4180    12.0360    11.1630    41.9920    24.6380   -19.3440 
  109.6250     2.3650    56.4600    11.4180    10.8030    34.5510    24.6280   -19.8200 
  109.7500     2.2950    55.3760    10.5400    10.0820    22.4620    24.7020   -20.5580 
  109.8750     2.2260    57.2420     9.7180     9.3170    15.6050    24.8700   -21.4340 
  110.0000     2.1780    61.0280     9.1560     8.7200    12.5920    25.0030   -22.3890 
  110.1250     2.1610    63.1740     8.9280     8.4080    11.6890    25.0510   -23.3290 
  110.2500     2.1670    64.1380     8.8780     8.2910    12.0060    25.0040   -24.0830 
  110.3750     2.1870    64.6510     8.8720     8.2600    12.1210    24.8800   -24.6170 
  110.5000     2.2080    64.5390     8.8090     8.2100    11.6030    24.7450   -24.9040 
  110.6250     2.2190    63.5190     8.6200     8.0560    10.6900    24.6930   -24.8770 
  110.7500     2.2220    64.6990     8.3490     7.8160    10.3140    24.6760   -24.5990 
  110.8750     2.2220    68.5250     8.0620     7.5430    10.1730    24.6090   -24.2890 
  111.0000     2.2210    70.8090     7.8470     7.3130     9.5930    24.3740   -24.0430 
  111.1250     2.2170    69.8870     7.8080     7.2270     9.0010    23.9890   -23.9370 
  111.2500     2.2070    67.6040     7.9460     7.3050     9.5900    23.9290   -24.1350 
  111.3750     2.1930    64.8950     8.2270     7.5330    10.8030    24.3350   -24.4610 
  111.5000     2.1790    62.1820     8.5760     7.8610    11.6710    24.8030   -24.7760 
  111.6250     2.1660    60.6480     8.8850     8.2000    11.9400    25.0960   -25.3080 
  111.7500     2.1530    61.3300     9.0880     8.4630    12.0350    25.2620   -25.9810 
  111.8750     2.1400    62.8360     9.1690     8.6090    12.0510    25.3680   -26.5950 
  112.0000     2.1330    62.8800     9.1560     8.6450    12.0590    25.3730   -27.1380 
  112.1250     2.1360    61.6900     9.0910     8.6100    12.1400    25.1630   -27.4830 
  112.2500     2.1480    62.2430     9.0170     8.5560    12.4860    24.8500   -27.5960 
  112.3750     2.1630    64.3740     8.9460     8.5030    12.5470    24.6290   -27.6490 
  112.5000     2.1770    66.0870     8.8800     8.4580    12.0250    24.4680   -27.7360 
  112.6250     2.1860    67.0710     8.8250     8.4310    11.3910    24.1890   -27.7180 
  112.7500     2.1870    67.7490     8.7810     8.4150    11.1780    23.8560   -27.6540 
  112.8750     2.1790    67.8830     8.7490     8.4040    11.2500    23.7070   -27.5990 
  113.0000     2.1640    67.9170     8.7320     8.3940    11.2670    23.8100   -27.5830 
  113.1250     2.1510    67.5150     8.7270     8.3850    11.2160    23.9500   -27.5700 
  113.2500     2.1460    65.9810     8.7230     8.3780    11.0610    23.9330   -27.5740 
  113.3750     2.1500    64.3570     8.7060     8.3680    10.7550    23.8160   -27.5650 
  113.5000     2.1590    64.6830     8.6540     8.3400    10.4830    23.6960   -27.4550 
  113.6250     2.1660    67.1200     8.5380     8.2610    10.5660    23.6170   -27.2780 
  113.7500     2.1700    68.9120     8.3580     8.1250    10.6460    23.5970   -27.0460 
  113.8750     2.1750    69.5690     8.1160     7.9250    10.0080    23.6240   -26.5950 
  114.0000     2.1820    70.8100     7.8230     7.6610     9.2960    23.7000   -25.9230 
  114.1250     2.1970    75.1300     7.5050     7.3430     9.2820    23.7560   -25.1500 
  114.2500     2.2210    81.3000     7.2130     7.0230     9.7860    23.7700   -24.2080 
  114.3750     2.2460    86.0790     7.0020     6.7530     9.8230    23.7330   -23.2070 
  114.5000     2.2630    87.5890     6.9250     6.5870     9.2780    23.6580   -22.4260 
  114.6250     2.2590    85.0210     7.0420     6.5960     8.8320    23.6220   -21.9090 
  114.7500     2.2370    79.2150     7.3030     6.7620     9.2960    23.7360   -21.6080 
  114.8750     2.2070    72.5650     7.6410     7.0470     9.9000    23.9630   -21.6970 
  115.0000     2.1810    67.0220     7.9680     7.3840    10.3570    24.1650   -22.0480 
  115.1250     2.1670    63.4720     8.1800     7.6740    10.7340    24.1400   -22.5820 
  115.2500     2.1620    62.5760     8.2670     7.8540    10.5850    23.9750   -23.3050 
  115.3750     2.1590    63.1500     8.2650     7.9240     9.7850    23.8290   -24.0280 
  115.5000     2.1550    63.0440     8.2450     7.9320     9.2170    23.7700   -24.5990 
  115.6250     2.1530    62.0840     8.2820     7.9460     9.3140    23.7450   -24.8950 
  115.7500     2.1570    63.7340     8.3880     8.0000     9.7100    23.6890   -24.8670 
  115.8750     2.1660    68.9050     8.5410     8.0960    10.2820    23.6040   -24.5560 
  116.0000     2.1780    74.3600     8.6990     8.2140    10.6480    23.5340   -24.0490 
  116.1250     2.1860    75.7500     8.8200     8.3210    10.5620    23.5040   -23.4790 
  116.2500     2.1890    73.3580     8.9000     8.3990    10.3180    23.5010   -22.9390 
  116.3750     2.1870    72.8000     8.9460     8.4490    10.2000    23.5220   -22.5040 
  116.5000     2.1830    76.9500     8.9730     8.4810    10.2680    23.5340   -22.1820 
  116.6250     2.1810    79.7050     8.9890     8.5020    10.1270    23.5110   -21.9680 
  116.7500     2.1840    76.3300     8.9960     8.5180    10.2790    23.4660   -21.8740 
  116.8750     2.1910    70.3110     8.9940     8.5260    10.6940    23.4000   -21.8660 
  117.0000     2.1990    66.9720     8.9900     8.5280    10.9900    23.3390   -21.9620 
  117.1250     2.2010    67.8440     8.9910     8.5270    11.2210    23.3440   -22.0520 
  117.2500     2.1980    70.2830     9.0010     8.5300    11.2600    23.4330   -22.1120 
  117.3750     2.1920    71.7940     9.0150     8.5380    11.2640    23.6070   -22.1530 
