~V
VERS. 2.00: Ver 2.00
~W
STRT.M 65.0000:
STOP.M 225.0000:
STEP.M 0.1250:
NULL. -999.2500:
UWI. F11012:
~C
DEPT.M :
SP.MV :
GR.API :
RML.OHMM :
RI. :
RXO.OHMM :
CALI.CM :
DEN.GM/CC :
~A
# ...
  110.0000   -11.2000    79.2810     5.5630     4.8840     4.9630    23.1280     2.3860 
  110.1250   -11.4930    81.4480     4.9640     4.2900     3.9690    23.1110     2.3520 
  110.2500   -11.8390    80.2240     5.0770     4.2220     4.0990    23.0800     2.3330 
  110.3750   -12.2090    75.9750     5.6290     4.5290     4.8150    22.8910     2.3130 
  110.5000   -12.5690    71.3990     6.3940     5.0810     5.7460    22.6000     2.2920 
  110.6250   -12.9120    69.6440     7.1240     5.7030     6.2830    22.3880     2.2760 
  110.7500   -13.2420    67.8700     7.5600     6.1840     6.4650    22.3530     2.2660 
  110.8750   -13.5540    63.2140     7.6900     6.4390     6.5690    22.3400     2.2570 
  111.0000   -13.8290    59.6340     7.6040     6.4880     6.5110    22.3210     2.2490 
  111.1250   -14.0800    61.5740     7.4340     6.4120     6.3420    22.3420     2.2430 
  111.2500   -14.3110    66.9750     7.2850     6.2900     6.1960    22.3500     2.2380 
  111.3750   -14.5330    69.9700     7.1770     6.1660     6.1760    22.2930     2.2350 
  111.5000   -14.7460    68.6780     7.0920     6.0440     6.2270    22.2040     2.2380 
  111.6250   -14.9250    65.5440     7.0080     5.9220     6.3660    22.1360     2.2460 
  111.7500   -15.0370    64.0810     6.9170     5.8010     6.4270    22.1710     2.2560 
  111.8750   -15.1090    64.2060     6.8390     5.6920     6.3520    22.3170     2.2620 
  112.0000   -15.1310    64.6470     6.8080     5.6150     6.2190    22.4680     2.2600 
  112.1250   -15.1040    65.3290     6.8480     5.5910     6.1960    22.5300     2.2520 
  112.2500   -15.0150    67.9460     6.9800     5.6430     6.3040    22.5080     2.2400 
  112.3750   -14.8740    71.2270     7.1830     5.7600     6.4110    22.5020     2.2300 
  112.5000   -14.6960    71.2060     7.4400     5.9330     6.5170    22.5450     2.2170 
  112.6250   -14.5090    67.2060     7.7280     6.1480     6.5800    22.6300     2.2030 
  112.7500   -14.3400    63.6410     8.0260     6.3940     6.6640    22.6610     2.1940 
  112.8750   -14.1960    63.0650     8.3170     6.6540     6.8240    22.6130     2.1970 
  113.0000   -14.0880    62.9780     8.5870     6.9160     6.9630    22.5860     2.2090 
  113.1250   -14.0170    61.8340     8.8150     7.1550     7.0010    22.6200     2.2200 
  113.2500   -14.0110    62.7030     8.9520     7.3220     6.8840    22.6650     2.2210 
  113.3750   -14.0370    64.9910     8.9690     7.3900     6.8190    22.7330     2.2130 
  113.5000   -14.0800    64.7230     8.8500     7.3410     6.9490    22.8630     2.2030 
  113.6250   -14.1480    61.2660     8.6110     7.1840     7.1880    23.0220     2.1930 
  113.7500   -14.2250    56.8880     8.2990     6.9570     7.1340    23.1410     2.1820 
  113.8750   -14.2830    55.9960     7.9960     6.7250     6.7560    23.1910     2.1720 
  114.0000   -14.3330    58.4350     7.7500     6.5240     6.4240    23.1530     2.1650 
  114.1250   -14.3760    59.9530     7.5860     6.3800     6.2260    23.0790     2.1640 
  114.2500   -14.4040    59.2270     7.5160     6.3070     6.2070    23.0760     2.1670 
  114.3750   -14.4440    61.4150     7.5030     6.2850     6.1910    23.1460     2.1690 
  114.5000   -14.4980    66.6390     7.5180     6.2980     6.1530    23.2750     2.1690 
  114.6250   -14.5620    69.5150     7.5380     6.3260     6.2050    23.3030     2.1690 
  114.7500   -14.6340    68.4350     7.5390     6.3470     6.3360    23.2490     2.1670 
  114.8750   -14.7030    66.3310     7.5160     6.3520     6.3710    23.2620     2.1630 
  115.0000   -14.7540    63.6090     7.4800     6.3460     6.3540    23.3400     2.1590 
  115.1250   -14.7780    61.5030     7.4620     6.3540     6.3390    23.4310     2.1570 
  115.2500   -14.7690    62.0290     7.5410     6.4290     6.3610    23.4420     2.1640 
  115.3750   -14.7330    63.5710     7.7580     6.6050     6.4580    23.2460     2.1800 
  115.5000   -14.6610    62.4620     8.1200     6.8910     6.7150    22.8540     2.2010 
  115.6250   -14.5540    59.4500     8.5740     7.2540     7.6440    22.3870     2.2220 
  115.7500   -14.4630    59.1930     8.9870     7.6040    10.9120    22.0060     2.2350 
  115.8750   -14.3940    62.4030     9.2200     7.8310    15.2610    21.9590     2.2400 
  116.0000   -14.3380    64.5220     9.1930     7.8590    15.0960    22.0560     2.2390 
  116.1250   -14.3010    63.1380     8.9210     7.6780     9.8480    22.1500     2.2340 
  116.2500   -14.2750    64.2640     8.4950     7.3390     7.1590    22.2420     2.2300 
  116.3750   -14.2680    69.4870     8.0760     6.9680     6.3980    22.2850     2.2310 
  116.5000   -14.3120    74.9920     7.7520     6.6470     6.4550    22.2530     2.2310 
  116.6250   -14.4070    77.1850     7.5690     6.4310     6.4900    22.2020     2.2260 
  116.7500   -14.4990    75.5910     7.5600     6.3700     6.3960    22.2700     2.2140 
  116.8750   -14.5850    72.0400     7.6720     6.4230     6.3670    22.3990     2.1990 
  117.0000   -14.6800    68.0040     7.8630     6.5510     6.5200    22.4730     2.1840 
  117.1250   -14.7570    65.5220     8.0740     6.7060     6.9090    22.4240     2.1720 
  117.2500   -14.8010    65.5510     8.2220     6.8300     7.3790    22.3050     2.1720 
  117.3750   -14.7980    65.3230     8.2570     6.8800     6.9900    22.1950     2.1870 
  117.5000   -14.7230    63.6560     8.1720     6.8480     6.2850    22.0750     2.2140 
  117.6250   -14.5710    63.1640     8.0100     6.7510     6.0680    21.9460     2.2400 
  117.7500   -14.3640    65.4080     7.8460     6.6320     6.2950    21.9040     2.2490 
  117.8750   -14.1320    65.8710     7.7570     6.5520     6.3390    21.9130     2.2430 
  118.0000   -13.8830    63.0730     7.7890     6.5560     6.1320    21.9330     2.2290 
  118.1250   -13.6270    59.9220     7.9530     6.6630     6.0990    21.9510     2.2130 
  118.2500   -13.3910    60.1560     8.2280     6.8690     6.4520    22.0400     2.2000 
  118.3750   -13.1860    63.9150     8.5230     7.1150     7.2120    22.1530     2.1910 
  118.5000   -13.0220    68.9780     8.7540     7.3390     8.1950    22.2310     2.1900 
  118.6250   -12.8970    70.6870     8.8520     7.4810     8.6590    22.1480     2.1940 
  118.7500   -12.8140    67.9860     8.7770     7.4900     7.6710    21.9540     2.1970 
  118.8750   -12.7520    65.4890     8.6160     7.4100     7.1500    21.8380     2.1980 
  119.0000   -12.7040    63.4560     8.4470     7.2940     6.9600    21.8100     2.2020 
  119.1250   -12.6740    60.3550     8.3320     7.1890     6.9510    21.8130     2.2090 
  119.2500   -12.6290    59.3630     8.3070     7.1320     6.8820    21.8040     2.2180 
  119.3750   -12.5680    61.7580     8.3460     7.1210     6.6880    21.7950     2.2230 
  119.5000   -12.4900    64.7430     8.4200     7.1450     6.4350    21.8150     2.2250 
  119.6250   -12.3960    66.8390     8.5050     7.1920     6.4280    21.8600     2.2260 
  119.7500   -12.3030    68.5800     8.5940     7.2640     6.7460    21.8660     2.2290 
  119.8750   -12.2290    69.1910     8.7160     7.3740     7.4140    21.8540     2.2330 
  120.0000   -12.1730    66.8850     8.9210     7.5570     8.1860    21.8910     2.2390 
  120.1250   -12.1230    64.4020     9.2700     7.8530     8.8880    22.0410     2.2470 
  120.2500   -12.1010    66.1870     9.8840     8.3350     9.3320    22.2140     2.2570 
  120.3750   -12.0940    68.1720    10.8440     9.0460     9.8100    22.3670     2.2650 
  120.5000   -12.0920    64.6470    12.2070    10.0400     9.9300    22.4950     2.2680 
  120.6250   -12.1010    56.2360    13.8110    11.2520     9.5160    22.4750     2.2670 
  120.7500   -12.0820    51.9070    14.9800    12.2410     9.9740    22.3630     2.2800 
  120.8750   -12.0230    53.9080    14.9770    12.3880    12.4980    22.4270     2.3200 
  121.0000   -11.9370    59.5560    13.5090    11.3910    18.1160    22.7720     2.3780 
  121.1250   -11.8480    66.0050    11.0470     9.5730    21.7220    23.1120     2.4190 
