~V
VERS. 2.00: Ver 2.00
~W
STRT.M 7.0000:
STOP.M 259.0000:
STEP.M 0.1250:
NULL. -999.2500:
UWI. F11018:
~C
DEPT.M :
DEN.GM/CC :
SP.MV :
GR.API :
RML.OHMM :
RI. :
RXO.OHMM :
CALI.CM :
~A
# ...
  220.7500     2.2480   -20.7230    58.4270    85.0260    71.7220    40.3190    23.6380 
  220.8750     2.2660   -20.7100    60.3950    80.9410    69.4270    42.4940    23.6770 
  221.0000     2.2900   -20.7110    61.4010    71.0200    62.4550    41.2260    23.5950 
  221.1250     2.3130   -20.7460    63.7740    57.3210    51.6100    39.3620    23.5640 
  221.2500     2.3310   -20.8010    68.2350    44.6350    40.4260    35.6650    23.5600 
  221.3750     2.3450   -20.8920    70.7530    35.6300    31.8710    27.4420    23.5150 
  221.5000     2.3450   -21.0110    70.0170    30.6190    26.6440    17.9670    23.4330 
  221.6250     2.3250   -21.1300    68.3580    29.1170    24.4730    12.7890    23.4330 
  221.7500     2.2930   -21.2320    66.8010    30.9220    25.2300    13.9490    23.5230 
  221.8750     2.2720   -21.3280    64.5560    34.9900    28.1080    19.4740    23.5640 
  222.0000     2.2690   -21.3960    65.4550    40.6730    32.7840    25.7800    23.5910 
  222.1250     2.2830   -21.4160    70.4490    46.7220    38.4760    28.2780    23.6280 
  222.2500     2.3120   -21.3710    71.0500    50.1120    42.8620    26.8710    23.6520 
  222.3750     2.3560   -21.2780    66.3730    48.2930    43.1900    25.8400    23.6390 
  222.5000     2.4180   -21.1520    62.6480    40.8310    38.1960    27.3350    23.5370 
  222.6250     2.4940   -20.9930    62.3470    30.2700    29.4540    30.9530    23.3280 
  222.7500     2.5510   -20.7920    60.6420    20.6460    20.6050    31.7880    23.0630 
  222.8750     2.5450   -20.5540    57.2020    13.7930    13.9650    24.2910    22.8960 
  223.0000     2.4840   -20.2880    54.4120     9.5760     9.6740    14.6140    22.8170 
  223.1250     2.4210   -20.0280    51.2560     7.2580     7.1390     8.3190    22.7580 
  223.2500     2.3870   -19.8260    49.1140     6.2780     5.8810     6.3160    22.7610 
  223.3750     2.3680   -19.6770    49.1240     5.9530     5.3100     5.7450    23.0410 
  223.5000     2.3560   -19.5640    49.4800     6.0100     5.1980     5.5340    23.3830 
  223.6250     2.3550   -19.4780    49.0070     6.2530     5.3660     5.3850    23.5250 
  223.7500     2.3680   -19.4520    47.2880     6.5150     5.6510     5.4990    23.4730 
  223.8750     2.3840   -19.5480    46.2980     6.6630     5.8790     5.8550    23.4120 
  224.0000     2.3930   -19.7900    46.3010     6.6240     5.9500     6.1650    23.3400 
  224.1250     2.3940   -20.1300    47.6990     6.3940     5.8280     6.1800    23.2770 
  224.2500     2.3890   -20.5520    51.7580     6.0410     5.5480     5.6700    23.1590 
  224.3750     2.3820   -21.0660    57.6060     5.6980     5.2310     5.0820    22.9970 
  224.5000     2.3790   -21.6580    64.6100     5.0720     4.9470     4.7720    22.8490 
  224.6250     2.3860   -22.2960    69.3910     4.8230     4.7380     4.7260    22.6780 
  224.7500     2.4030   -22.9840    70.6690     4.8490     4.6380     4.8070    22.4660 
  224.8750     2.4140   -23.6900    74.5530     5.0030     4.6380     5.0090    22.3060 
  225.0000     2.4120   -24.3820    84.2070     5.2840     4.7440     5.5520    22.3080 
  225.1250     2.4050   -25.0660    94.3600     5.6790     4.9570     6.2470    22.5560 
  225.2500     2.4020   -25.7000    94.7580     6.1580     5.2770     7.0750    22.9600 
  225.3750     2.4000   -26.2860    87.3110     6.6340     5.6440     7.0100    23.2200 
  225.5000     2.3990   -26.8260    81.7810     7.0350     6.0020     6.8520    23.3050 
  225.6250     2.3970   -27.3170    83.6640     7.3110     6.2930     6.7800    23.2770 
  225.7500     2.3960   -27.7500    90.3270     7.4410     6.4680     6.8540    23.1600 
  225.8750     2.3970   -28.1250    95.6950     7.4920     6.5570     6.9940    22.9620 
  226.0000     2.3970   -28.4730    99.2250     7.5190     6.5970     7.1130    22.7850 
  226.1250     2.3920   -28.7690   102.0800     7.5530     6.6140     7.2180    22.7080 
  226.2500     2.3780   -29.0430   103.5210     7.5960     6.6150     7.3240    22.7790 
  226.3750     2.3640   -29.2780   102.1040     7.6440     6.6050     7.4190    23.0090 
  226.5000     2.3600   -29.4530    98.6730     7.7150     6.5980     7.5020    23.2220 
  226.6250     2.3670   -29.6400    95.6400     7.8450     6.6280     7.4000    23.3220 
  226.7500     2.3760   -29.8450    95.3550     8.0890     6.7540     7.3720    23.3900 
  226.8750     2.3760   -30.0150    97.4650     8.4510     6.9820     7.4700    23.4770 
  227.0000     2.3720   -30.1540    98.5940     8.9390     7.3150     7.9400    23.5480 
  227.1250     2.3720   -30.2990    97.7880     9.5690     7.7570     9.1820    23.5390 
  227.2500     2.3810   -30.4400    96.5560    10.4090     8.3480    10.6580    23.4900 
  227.3750     2.3930   -30.6090    94.1030    11.4970     9.1150    10.9960    23.4350 
  227.5000     2.4000   -30.8290    88.1130    12.8860    10.1200    10.8370    23.4070 
  227.6250     2.4010   -31.0480    81.3260    14.5720    11.3990    11.9590    23.4000 
  227.7500     2.3960   -31.2330    81.6260    16.4350    12.9310    14.7620    23.3970 
  227.8750     2.3940   -31.4050    85.2590    18.1800    14.4970    16.5800    23.3750 
  228.0000     2.3980   -31.5540    85.3920    19.5400    15.8620    17.3730    23.3370 
  228.1250     2.4060   -31.6940    85.2790    20.3400    16.8250    17.6500    23.3310 
  228.2500     2.4070   -31.8010    87.7040    20.5550    17.2640    17.9820    23.3940 
  228.3750     2.3990   -31.8490    89.5250    20.5310    17.4080    17.8320    23.4810 
  228.5000     2.3830   -31.8610    89.2700    20.4750    17.4300    17.6750    23.5820 
  228.6250     2.3680   -31.8400    87.0790    20.4600    17.4310    17.9930    23.6690 
  228.7500     2.3560   -31.7910    82.7840    20.4480    17.4290    18.1790    23.6970 
  228.8750     2.3490   -31.7420    79.2360    20.3870    17.3970    18.0450    23.6900 
  229.0000     2.3490   -31.6560    80.3130    20.2760    17.3220    17.9300    23.6650 
  229.1250     2.3520   -31.5210    86.1110    20.1740    17.2300    17.6080    23.6480 
  229.2500     2.3540   -31.3910    92.1140    20.2300    17.2250    16.6840    23.6430 
  229.3750     2.3530   -31.2550    94.1700    20.5450    17.4160    15.7480    23.6430 
  229.5000     2.3480   -31.0510    89.5670    21.1470    17.8720    15.7930    23.6430 
  229.6250     2.3410   -30.8120    81.8710    21.9460    18.5760    16.7270    23.6430 
  229.7500     2.3350   -30.5360    79.3580    22.7030    19.3760    17.5340    23.6410 
  229.8750     2.3300   -30.1770    78.6780    23.1660    20.0110    17.7230    23.6270 
  230.0000     2.3260   -29.7310    76.0920    23.2260    20.3150    17.5070    23.5850 
  230.1250     2.3230   -29.2370    74.0930    22.9680    20.2700    17.2740    23.4940 
  230.2500     2.3250   -28.6730    74.6200    22.6060    20.0050    16.8100    23.3540 
  230.3750     2.3310   -28.0310    75.7140    22.3300    19.7470    16.5680    23.2050 
  230.5000     2.3320   -27.3560    75.1110    22.1520    19.5750    16.7490    23.1130 
  230.6250     2.3270   -26.6170    72.7230    21.9850    19.4630    17.4030    23.0600 
  230.7500     2.3230   -25.8220    71.1650    21.6510    19.2830    17.6650    22.9490 
  230.8750     2.3260   -25.0670    71.1730    21.0500    18.9090    17.4190    22.8860 
  231.0000     2.3330   -24.3840    71.7910    20.2050    18.3040    16.9250    22.9640 
  231.1250     2.3390   -23.7230    74.2920    19.2830    17.5550    16.4290    23.0990 
  231.2500     2.3460   -23.1360    81.6810    18.5990    16.8820    16.1080    23.2190 
  231.3750     2.3600   -22.6520    89.4110    18.3910    16.5020    15.6270    23.2600 
  231.5000     2.3810   -22.2270    91.7650    18.8210    16.5840    15.0050    23.2530 
  231.6250     2.3990   -21.8970    90.6190    19.9250    17.2260    14.8350    23.2500 
  231.7500     2.4010   -21.6820    90.3030    21.6520    18.4950    16.2390    23.2350 
  231.8750     2.3920   -21.4850    86.9680    23.6280    20.1340    18.0620    23.2200 
