~V
VERS. 2.00: Ver 2.00
~W
STRT.M 53.0000:
STOP.M 257.0000:
STEP.M 0.1250:
NULL. -999.2500:
UWI. F11022:
~C
DEPT.M :
GR.API :
RML.OHMM :
RI. :
RXO.OHMM :
CALI.CM :
SP.MV :
DEN.GM/CC :
~A
   53.0000    45.7470    39.6690     1.2830     0.2460    25.8280  -999.2500  -999.2500 
   53.1250    44.9750    33.7340     1.2770     0.1930    25.8280  -999.2500  -999.2500 
   53.2500    44.1000    28.3320     1.2610     0.2080    25.8280  -999.2500  -999.2500 
   53.3750    44.0870    25.0780     1.2380     0.3070    25.8280  -999.2500  -999.2500 
   53.5000    43.7750    23.8560     1.2130     0.3620    25.8280  -999.2500  -999.2500 
   53.6250    42.4340    24.3460     1.2030     0.3830    25.8280  -999.2500  -999.2500 
   53.7500    41.5850    26.0200     1.2090     0.4070    25.8280  -999.2500  -999.2500 
   53.8750    41.6490    28.9550     1.2260     0.3750    25.8280  -999.2500  -999.2500 
   54.0000    43.2360    33.3280     1.2450     0.2620    25.8280  -999.2500  -999.2500 
   54.1250    45.6090    37.9150     1.2590     0.1750    25.8280  -999.2500  -999.2500 
   54.2500    45.4030    39.3270     1.2620     0.1900    25.8280  -999.2500  -999.2500 
   54.3750    42.2140    35.8450     1.2510     0.2740    25.8270   111.2300  -999.2500 
   54.5000    39.0750    29.6230     1.2250     0.3050    25.8270   111.2300  -999.2500 
   54.6250    40.0530    24.4250     1.1860     0.2550    25.8260   137.1880  -999.2500 
   54.7500    43.2050    20.7680     1.1490     0.1890    25.8270   137.1460  -999.2500 
   54.8750    45.5780    17.9590     1.1200     0.1320    25.8280   137.1030  -999.2500 
   55.0000    45.7830    15.3890     1.1000     0.0990    25.8280   137.0610  -999.2500 
   55.1250    44.3660    13.0800     1.0790     0.0810    25.8280   136.9200  -999.2500 
   55.2500    43.3550    11.8410     1.0570     0.0730    25.8280   136.3660  -999.2500 
   55.3750    43.4090    12.0640     1.0450     0.0750    25.8260   135.8310  -999.2500 
   55.5000    44.2070    13.3570     1.0470     0.0680    25.8240   135.3900  -999.2500 
   55.6250    44.1550    14.6180     1.0610     0.0560    25.8230   134.8800  -999.2500 
   55.7500    42.7520    14.8270     1.0720     0.0460    25.8250   134.4090     1.9340 
   55.8750    40.8560    14.1680     1.0710     0.0390    25.8270   134.0240     1.9340 
   56.0000    38.7990    13.6290     1.0660     0.0390    25.8260   133.5850     1.9470 
   56.1250    38.2480    14.3850     1.0800     0.0290    25.8240   133.1300     1.9590 
   56.2500    39.5440    16.2800     1.1150     0.0120    25.8240   132.6770     1.9620 
   56.3750    41.3730    18.0610     1.1550     0.0030    25.8250   132.2240     1.9640 
   56.5000    41.8910    18.4980     1.1730     0.0000    25.8260   131.6710     1.9700 
   56.6250    41.1730    17.6200     1.1600     0.0000    25.8240   131.1510     1.9720 
   56.7500    41.2000    16.5810     1.1370     0.0010    25.8220   130.6520     1.9700 
   56.8750    40.5970    15.9950     1.1250     0.0050    25.8220   129.9610     1.9720 
   57.0000    37.9850    15.8310     1.1280     0.0150    25.8220   129.2430     1.9770 
   57.1250    35.6130    15.4810     1.1300     0.0350    25.8220   128.5770     1.9770 
   57.2500    35.8330    14.6620     1.1180     0.0670    25.8220   127.7790     1.9740 
   57.3750    37.4610    13.5990     1.0990     0.1070    25.8220   127.0050     1.9790 
   57.5000    38.0350    12.7180     1.0820     0.1230    25.8220   126.2180     1.9920 
   57.6250    37.7710    12.2470     1.0770     0.1370    25.8220   125.3500     1.9970 
   57.7500    38.7740    11.9970     1.0740     0.1420    25.8220   124.4670     1.9820 
   57.8750    40.6550    11.8680     1.0660     0.1500    25.8220   123.5560     1.9530 
   58.0000    42.1490    11.8160     1.0510     0.1520    25.8220   122.6060     1.9220 
   58.1250    43.4870    11.7310     1.0300     0.1240    25.8220   121.5780     1.8960 
   58.2500    45.2420    11.3310     1.0060     0.0890    25.8220   120.5040     1.8710 
   58.3750    46.6990    10.3780     0.9820     0.0640    25.8220   119.3940     1.8480 
   58.5000    47.2750     9.0920     0.9680     0.0520    25.8220   118.2380     1.8310 
   58.6250    46.9690     8.3350     0.9820     0.0510    25.8220   117.0510     1.8280 
   58.7500    46.9130     8.6230     1.0190     0.0480    25.8220   115.7760     1.8410 
   58.8750    46.9240    10.1380     1.0610     0.0410    25.8220   114.5100     1.8620 
   59.0000    46.8970    12.4680     1.0880     0.0370    25.8220   113.3020     1.8790 
   59.1250    46.8840    13.3610     1.0920     0.0300    25.8220   111.9440     1.8850 
   59.2500    46.8160    11.8010     1.0900     0.0300    25.8220   110.5620     1.8900 
   59.3750    46.5880     9.4710     1.0960     0.0280    25.8220   109.1940     1.8950 
   59.5000    46.1230     8.0190     1.1120     0.0270    25.8220   107.7860     1.8960 
   59.6250    44.8210     8.0290     1.1230     0.0360    25.8220   106.3720     1.8970 
   59.7500    43.1590     8.8680     1.1190     0.0370    25.8220   105.0040     1.9070 
   59.8750    40.8680     9.6540     1.1000     0.0290    25.8220   103.6220     1.9200 
   60.0000    37.9140     9.5080     1.0760     0.0170    25.8220   102.2270     1.9240 
   60.1250    35.7380     8.7420     1.0580     0.0090    25.8220   100.9170     1.9270 
   60.2500    36.8940     8.4520     1.0530     0.0130    25.8220    99.5580     1.9430 
   60.3750    40.7780     9.0560     1.0610     0.0200    25.8220    98.1390     1.9700 
   60.5000    43.3460    10.6920     1.0770     0.0230    25.8220    96.7540     1.9880 
   60.6250    43.2990    12.8440     1.0920     0.0220    25.8220    95.2820     1.9830 
   60.7500    42.3260    13.3510     1.1020     0.0180    25.8220    93.7400     1.9730 
   60.8750    40.7990    11.2880     1.1080     0.0110    25.8220    92.0970     1.9770 
   61.0000    39.2540     8.4120     1.1090     0.0060    25.8220    90.3290     1.9900 
   61.1250    39.2870     6.6270     1.1050     0.0020    25.8220    88.3460     1.9960 
   61.2500    39.8320     6.0410     1.0970     0.0010    25.8230    86.3260     1.9950 
   61.3750    40.0600     6.4710     1.0850     0.0010    25.8240    84.1820     2.0050 
   61.5000    41.4900     7.5150     1.0710     0.0010    25.8230    81.8410     2.0310 
   61.6250    45.1770     8.1040     1.0580     0.0020    25.8230    79.3620     2.0520 
   61.7500    49.2930     7.6810     1.0520     0.0010    25.8220    76.7050     2.0510 
   61.8750    53.8270     6.8370     1.0580     0.0010    25.8220    73.9580     2.0420 
   62.0000    58.1910     6.1800     1.0740     0.0030    25.8220    70.9780     2.0450 
   62.1250    58.7010     5.8940     1.0950     0.0020    25.8220    67.8080     2.0620 
   62.2500    55.5010     5.7810     1.1080     0.0020    25.8220    64.4120     2.0750 
   62.3750    53.2080     5.7290     1.1060     0.0020    25.8220    60.8740     2.0730 
   62.5000    54.6760     5.7220     1.0820     0.0010    25.8220    57.1550     2.0700 
   62.6250    56.8730     5.1580     1.0180     0.0000    25.8220    53.0830     2.0940 
   62.7500    56.8330     3.3890     0.8890     0.0010    25.8220    48.8430     2.1420 
   62.8750    56.0440     1.7680     0.7020     0.0030    25.8220    44.3560     2.2040 
   63.0000    55.2320     0.9550     0.5180     0.0070    25.8220    39.6770     2.2780 
   63.1250    54.8500     0.6730     0.4080     0.0110    25.8220    34.8010     2.3800 
   63.2500    56.7520     0.6020     0.3690     0.0500    25.8190    29.7500     2.4940 
   63.3750    60.8650     0.6800     0.3910     0.2840    25.8080    24.4390     2.5740 
   63.5000    64.9750     0.9070     0.4750     1.2800    25.8950    18.9450     2.5540 
   63.6250    66.7070     1.3660     0.6830     2.9510    26.5230    13.4520     2.4000 
   63.7500    67.6110     2.0800     1.0900     4.2100    27.7830     8.1060     2.2090 
   63.8750    69.0780     3.0090     1.7950     4.7950    28.8000     3.1850     2.0670 
   64.0000    71.7380     3.8910     2.8220     5.1830    28.2910    -1.1640     2.0200 
   64.1250    75.7200     4.4230     3.9470     5.8200    27.1240    -4.8490     2.0710 
