~V
VERS. 2.00: Ver 2.00
~W
STRT.M 57.0000:
STOP.M 283.0000:
STEP.M 0.1250:
NULL. -999.2500:
UWI. F11039:
~C
DEPT.M :
SP.MV :
GR.API :
RML.OHMM :
RI. :
RXO.OHMM :
CALI.CM :
DEN.GM/CC :
~A
# ...
  203.2500    -5.9590    73.6030     7.7810     6.5540     6.5370    23.8600     2.3910 
  203.3750    -6.7180    77.6400     7.9930     6.6830     6.5730    23.7750     2.3860 
  203.5000    -7.5770    80.2890     8.2530     6.8530     6.6160    23.7410     2.3880 
  203.6250    -8.5240    80.7940     8.5460     7.0490     6.6300    23.7340     2.3950 
  203.7500    -9.5190    80.5070     8.7770     7.2440     6.6900    23.7700     2.4030 
  203.8750   -10.6030    82.6830     8.8620     7.4070     7.0800    23.8120     2.4070 
  204.0000   -11.7390    86.4360     8.9640     7.5310     7.6290    23.8700     2.4070 
  204.1250   -12.8930    88.9190     9.0090     7.6240     8.1610    23.9530     2.4030 
  204.2500   -14.0010    89.6630     9.0330     7.6940     8.3000    24.0390     2.3970 
  204.3750   -15.0220    89.7510     9.0660     7.7460     8.2250    24.1400     2.3920 
  204.5000   -15.9430    88.0520     9.0990     7.7780     8.0930    24.1990     2.3920 
  204.6250   -16.7310    84.6160     9.0950     7.7800     7.5940    24.2320     2.3950 
  204.7500   -17.3900    81.9180     9.0350     7.7430     6.9740    24.2410     2.3970 
  204.8750   -17.8790    83.1800     8.9200     7.6620     7.2540    24.2570     2.3950 
  205.0000   -18.2370    85.3950     8.7690     7.5600     7.8940    24.2990     2.3870 
  205.1250   -18.4800    86.3270     8.6390     7.4660     8.1400    24.3390     2.3770 
  205.2500   -18.6190    86.0600     8.6890     7.4130     8.0190    24.3640     2.3670 
  205.3750   -18.6220    86.1730     8.9360     7.4530     8.1110    24.3880     2.3610 
  205.5000   -18.5040    85.8110     9.5150     7.6240     8.2170    24.3710     2.3600 
  205.6250   -18.2710    82.3800    10.5550     7.9850     8.5280    24.3490     2.3640 
  205.7500   -17.9070    76.0820    11.5870     8.5880     9.0190    24.3270     2.3750 
  205.8750   -17.3880    69.4350    12.9060     9.4760     9.6060    24.3140     2.3960 
  206.0000   -16.7110    64.4960    14.3650    10.4940    10.6200    24.2980     2.4250 
  206.1250   -15.8600    62.7310    15.5930    11.4160    12.4670    24.2830     2.4530 
  206.2500   -14.8570    64.4210    16.1580    11.9510    14.8920    24.2520     2.4720 
  206.3750   -13.7470    67.9560    15.5990    11.7410    15.1210    24.1980     2.4720 
  206.5000   -12.5750    71.3170    14.1880    10.8940    13.5080    24.1490     2.4580 
  206.6250   -11.3850    76.1570    12.3720     9.6750    11.3030    24.1280     2.4370 
  206.7500   -10.2380    82.0310    10.6950     8.4490     8.8400    24.1270     2.4190 
  206.8750    -9.2140    84.6830     9.6550     7.5820     7.8490    24.1530     2.4130 
  207.0000    -8.3320    82.7430     9.2710     7.1440     7.6590    24.1490     2.4160 
  207.1250    -7.6200    80.3340     9.4630     7.1310     7.9940    24.1150     2.4240 
  207.2500    -7.0360    80.4460    10.0860     7.4820     8.3910    24.0730     2.4330 
  207.3750    -6.5570    80.6650    10.9520     8.1020     9.3830    24.0800     2.4410 
  207.5000    -6.1180    78.8220    11.7560     8.7610    10.3250    24.1520     2.4510 
  207.6250    -5.6890    77.2100    12.2540     9.2620    12.3110    24.1910     2.4610 
  207.7500    -5.2310    78.2970    12.2510     9.4320    15.4870    24.1110     2.4640 
  207.8750    -4.6630    80.0550    11.5920     9.1070    20.9870    23.9050     2.4520 
  208.0000    -4.0210    76.8960    10.5230     8.4280    29.3640    23.6810     2.4290 
  208.1250    -3.3280    68.3830     9.3060     7.5720    31.2610    23.4660     2.4050 
  208.2500    -2.6760    58.6480     8.2010     6.7310    15.2260    23.2510     2.3890 
  208.3750    -2.0780    53.7000     7.4370     6.0880     8.3450    23.3570     2.3860 
  208.5000    -1.6020    53.8700     7.0130     5.6810     6.0890    23.8260     2.3930 
  208.6250    -1.2410    55.7930     6.8930     5.5110     5.6150    24.5710     2.4030 
  208.7500    -1.0050    55.5230     7.0170     5.5520     5.5630    25.3450     2.4100 
  208.8750    -0.9260    55.3540     7.3300     5.7780     5.6440    25.6390     2.4130 
  209.0000    -0.9450    59.1130     7.6940     6.0870     5.8310    25.3070     2.4130 
  209.1250    -1.0100    64.4340     7.9970     6.3960     6.1560    24.7590     2.4100 
  209.2500    -1.0800    68.6240     8.1440     6.6220     6.7820    24.4770     2.4050 
  209.3750    -1.1600    71.5910     8.0560     6.6780     7.5710    24.3740     2.4010 
  209.5000    -1.2160    74.5110     7.7970     6.5800     7.9640    24.3210     2.3990 
  209.6250    -1.2570    77.1130     7.4460     6.3660     7.4390    24.3010     2.4000 
  209.7500    -1.3080    79.0620     7.0860     6.0970     6.5990    24.3180     2.4030 
  209.8750    -1.3600    78.3830     6.7790     5.8310     6.2660    24.3260     2.4060 
  210.0000    -1.4160    72.8710     6.5340     5.6000     6.1410    24.3010     2.4050 
  210.1250    -1.4990    67.0840     6.3530     5.4170     6.0040    24.2660     2.4000 
  210.2500    -1.6150    67.9700     6.2450     5.2950     5.7950    24.2310     2.3940 
  210.3750    -1.7390    74.6560     6.2710     5.2810     5.7080    24.2420     2.3890 
  210.5000    -1.8690    77.6580     6.4700     5.4070     5.7610    24.2830     2.3870 
  210.6250    -2.0040    76.3390     6.8680     5.7000     5.9840    24.3310     2.3900 
  210.7500    -2.1420    73.9160     7.4370     6.1540     6.4880    24.3690     2.3970 
  210.8750    -2.2830    71.7260     8.0790     6.7080     7.2290    24.3800     2.4060 
  211.0000    -2.4330    69.5940     8.6390     7.2290     8.4170    24.3830     2.4120 
  211.1250    -2.5740    69.7140     8.9990     7.6040     9.7050    24.3820     2.4120 
  211.2500    -2.7180    73.1870     9.1030     7.7590     9.6580    24.3830     2.4040 
  211.3750    -2.8710    76.0620     8.9600     7.6610     9.2380    24.3840     2.3890 
  211.5000    -3.0330    75.9370     8.7390     7.4380     8.6630    24.3850     2.3750 
  211.6250    -3.2180    73.4310     8.5930     7.2160     8.7190    24.3840     2.3670 
  211.7500    -3.3970    70.7250     8.6820     7.1330     9.3690    24.3840     2.3670 
  211.8750    -3.5840    70.2320     9.2560     7.3950     9.5050    24.3840     2.3720 
  212.0000    -3.7490    71.0090    10.4230     8.1100     9.7630    24.3830     2.3760 
  212.1250    -3.8910    71.4750    12.3270     9.4170    10.8560    24.3830     2.3720 
  212.2500    -3.9910    71.7670    15.0750    11.4560    13.4910    24.3870     2.3580 
  212.3750    -4.0750    72.2230    18.8600    14.4970    18.4350    24.3930     2.3340 
  212.5000    -4.1480    72.1040    23.5050    18.4580    24.2530    24.4030     2.3050 
  212.6250    -4.1830    69.2010    28.9490    23.3160    28.5680    24.4140     2.2790 
  212.7500    -4.1820    64.9080    35.1250    28.9880    33.2220    24.4100     2.2600 
  212.8750    -4.1410    62.7400    41.9680    35.3800    39.7860    24.3840     2.2530 
  213.0000    -4.1160    62.4690    48.9330    41.9790    48.1300    24.3640     2.2540 
  213.1250    -4.0900    62.4110    55.2360    48.1210    61.0190    24.3520     2.2550 
  213.2500    -4.0740    62.4290    59.8490    52.9000    77.3820    24.3430     2.2500 
  213.3750    -4.0380    61.5860    61.4030    55.0250    83.9420    24.3990     2.2350 
  213.5000    -4.0140    60.1330    60.3610    54.7180    73.2220    24.4840     2.2160 
  213.6250    -4.0080    59.4520    57.7820    52.7720    62.3400    24.5550     2.1990 
  213.7500    -4.0390    59.9620    55.0990    50.4180    55.8410    24.5790     2.1910 
  213.8750    -4.1270    60.8740    53.6500    48.9090    51.7110    24.5630     2.1930 
  214.0000    -4.2260    62.2190    53.6090    48.5980    48.1180    24.5320     2.2010 
  214.1250    -4.3540    63.1950    54.7590    49.4170    47.3200    24.5020     2.2110 
  214.2500    -4.4990    62.4230    56.6590    51.0690    50.9150    24.4850     2.2220 
  214.3750    -4.6720    60.3180    58.7540    53.1440    56.5370    24.4140     2.2310 
