~V
VERS. 2.00: Ver 2.00
~W
STRT.M 53.0000:
STOP.M 279.0000:
STEP.M 0.1250:
NULL. -999.2500:
UWI. F11057:
~C
DEPT.M :
GR.API :
RML.OHMM :
RI. :
RXO.OHMM :
CALI.CM :
DEN.GM/CC :
SP.MV :
~A
# ...
  199.2500    66.9650   192.8680   159.4310   268.1540    24.4270     2.1770   -14.4430 
  199.3750    68.2170   160.3800   131.9020   204.8500    24.4270     2.1870   -14.3900 
  199.5000    71.2780   134.2410   110.9450   147.9930    24.4270     2.1990   -14.3060 
  199.6250    74.1710   117.0510    98.0620   106.5250    24.4270     2.2090   -14.2220 
  199.7500    73.2690   107.9160    92.1210    87.9820    24.4270     2.2100   -14.1600 
  199.8750    68.4860   107.0990    93.2560    88.9400    24.4270     2.2060   -14.0980 
  200.0000    64.7760   114.6590   101.5270   105.6100    24.4330     2.2040   -14.0630 
  200.1250    64.9090   130.9560   117.4240   131.1930    24.4680     2.2070   -14.1100 
  200.2500    64.7460   151.4200   137.1250   152.9560    24.5480     2.2040   -14.1880 
  200.3750    62.8590   170.0770   155.0470   162.1380    24.6420     2.1860   -14.3030 
  200.5000    60.9520   180.4750   164.7550   156.7610    24.6950     2.1650   -14.4540 
  200.6250    62.6420   179.6000   163.8300   138.2060    24.7180     2.1540   -14.6220 
  200.7500    64.9090   175.1560   160.4040   128.9860    24.7860     2.1490   -14.8020 
  200.8750    64.7350   173.1600   159.8760   147.6520    24.9440     2.1410   -14.9550 
  201.0000    63.1610   175.6410   163.4790   159.3200    25.1070     2.1320   -15.0900 
  201.1250    62.0150   180.1480   168.4380   154.0590    25.1720     2.1260   -15.1890 
  201.2500    61.6100   181.6330   170.0320   153.9130    25.1850     2.1260   -15.2400 
  201.3750    61.0890   177.9940   166.5030   154.4460    25.1850     2.1280   -15.2670 
  201.5000    61.0390   170.2550   159.0450   152.0010    25.1850     2.1280   -15.2310 
  201.6250    62.1250   160.0080   148.9700   193.0640    25.1850     2.1300   -15.1460 
  201.7500    63.5900   147.8030   136.6640   219.9140    25.1850     2.1380   -15.0240 
  201.8750    66.3530   133.1160   122.0740   188.2170    25.1850     2.1560   -14.8610 
  202.0000    69.6510   116.9470   106.8090   127.1210    25.1860     2.1770   -14.6760 
  202.1250    69.9470   102.0800    93.6420   113.0160    25.1890     2.1900   -14.4380 
  202.2500    67.7020    89.8600    83.1370   116.3710    25.1950     2.1950   -14.1820 
  202.3750    67.0050    79.9830    74.5910   105.5760    25.1950     2.1990   -13.9120 
  202.5000    71.1620    71.5470    67.1340    79.5350    25.1920     2.2060   -13.6270 
  202.6250    75.6870    64.4610    60.9890    64.9590    25.1870     2.2130   -13.3620 
  202.7500    76.2530    58.9620    56.5360    72.1400    25.1820     2.2140   -13.0810 
  202.8750    74.6490    55.0920    53.6720    85.9810    25.1690     2.2110   -12.8010 
  203.0000    73.4790    52.1480    51.4710    79.1820    25.1400     2.2110   -12.5420 
  203.1250    73.8030    48.6220    48.9660    61.5100    25.1260     2.2180   -12.2730 
  203.2500    75.2360    45.1520    45.3330    52.0630    25.1180     2.2240   -12.0170 
  203.3750    77.7180    42.1540    42.0960    47.7180    25.0970     2.2270   -11.7470 
  203.5000    80.3770    40.6350    40.1650    54.1190    25.0490     2.2340   -11.4800 
  203.6250    80.5970    40.7720    39.8780    55.4210    25.0060     2.2530   -11.1840 
  203.7500    78.2380    41.0940    40.0260    60.1060    24.9800     2.2860   -10.8580 
  203.8750    75.4860    40.1290    39.2180    66.8480    24.9450     2.3400   -10.5360 
  204.0000    74.3020    36.8790    36.3250    72.1750    24.8620     2.4220   -10.1750 
  204.1250    76.5670    31.1730    30.9710    70.1470    24.7720     2.5180    -9.8300 
  204.2500    81.5530    24.6170    24.7090    50.7080    24.6760     2.5740    -9.4830 
  204.3750    88.6850    18.5250    18.8490    27.3090    24.5700     2.5600    -9.1170 
  204.5000    95.8130    13.8230    14.2450    14.9050    24.4460     2.4990    -8.7720 
  204.6250    99.8130    11.0640    11.3420    12.1200    24.4620     2.4390    -8.4460 
  204.7500   102.1280     9.6320     9.6200    11.1830    24.6490     2.4040    -8.1500 
  204.8750   101.2470     9.0280     8.7070    10.4650    24.7510     2.3960    -7.8680 
  205.0000    96.1190     8.7870     8.2520     9.4590    24.6910     2.4040    -7.6370 
  205.1250    87.8840     8.5890     8.0000     8.4090    24.5500     2.4150    -7.4760 
  205.2500    80.2160     8.3610     7.7990     7.9720    24.4260     2.4160    -7.3600 
  205.3750    75.8210     8.1790     7.6520     7.8560    24.3340     2.4120    -7.3450 
  205.5000    75.4750     8.0900     7.5690     7.8060    24.2810     2.4130    -7.4000 
  205.6250    78.0470     8.0680     7.5240     7.6060    24.2190     2.4220    -7.6020 
  205.7500    79.6360     8.0750     7.4860     7.4410    24.0960     2.4330    -7.9250 
  205.8750    80.8030     8.1580     7.4840     7.4950    23.9200     2.4410    -8.3640 
  206.0000    82.7470     8.3960     7.5790     8.2670    23.7560     2.4390    -8.9210 
  206.1250    85.6790     8.8720     7.8390     9.3940    23.7880     2.4270    -9.5530 
  206.2500    92.6680     9.5160     8.2280    10.2870    24.0070     2.4170   -10.2730 
  206.3750   106.3730    10.2440     8.6900    10.2860    24.3440     2.4150   -11.0210 
  206.5000   120.1190    10.9670     9.1600    10.2430    24.6700     2.4210   -11.7960 
  206.6250   119.8910    11.6000     9.5750    10.7290    24.8890     2.4140   -12.4910 
  206.7500   110.8960    12.1220     9.9120    11.6520    24.9640     2.3890   -13.0880 
  206.8750   103.3010    12.5160    10.1590    12.1520    24.9710     2.3540   -13.5650 
  207.0000    98.9630    12.8050    10.3280    12.1160    24.9430     2.3250   -13.8420 
  207.1250    94.4130    13.1240    10.5030    12.1290    24.8660     2.3120   -13.8890 
  207.2500    91.7990    13.7080    10.8380    12.7160    24.7650     2.3130   -13.7080 
  207.3750    94.1990    14.7740    11.4970    14.0170    24.6800     2.3300   -13.3300 
  207.5000    97.1040    16.4450    12.5990    16.1030    24.6410     2.3670   -12.7380 
  207.6250    93.5440    18.6820    14.2150    18.8530    24.6350     2.4230   -11.9730 
  207.7500    86.3570    20.9040    16.0050    22.8590    24.6340     2.4820   -11.1270 
  207.8750    80.6420    22.3310    17.4060    27.2850    24.6330     2.5270   -10.2160 
  208.0000    80.6960    22.1230    17.6720    30.1930    24.6210     2.5470    -9.3330 
  208.1250    85.7910    19.6760    16.1350    28.1090    24.5970     2.5410    -8.4850 
  208.2500    92.4680    16.1240    13.5690    20.5950    24.5640     2.5120    -7.7100 
  208.3750    99.8820    12.6840    10.8860    13.1700    24.5370     2.4630    -7.0130 
  208.5000   105.7630    10.2550     8.7820     9.8110    24.5080     2.4080    -6.4220 
  208.6250   105.5030     9.3270     7.6780     9.5390    24.4940     2.3720    -5.9710 
  208.7500   103.2090     9.4980     7.3850     9.5450    24.4870     2.3600    -5.5960 
  208.8750   104.6530    10.4820     7.7770     9.4610    24.4750     2.3720    -5.2980 
  209.0000   108.8880    11.9370     8.6900    10.5370    24.4410     2.4090    -5.0250 
  209.1250   108.6460    13.2990     9.8250    13.4250    24.3900     2.4730    -4.8090 
  209.2500   104.7560    13.9130    10.6290    16.2490    24.4030     2.5440    -4.5890 
  209.3750    99.8900    13.3720    10.6510    16.9690    24.4800     2.6020    -4.3470 
  209.5000    93.5870    11.7060     9.7420    14.1610    24.5410     2.6320    -4.0370 
  209.6250    86.4790     9.4720     8.1840     9.9720    24.5590     2.6280    -3.6300 
  209.7500    81.1670     7.5470     6.6620     7.5060    24.5600     2.5860    -3.1800 
  209.8750    77.3550     6.2920     5.5120     6.4240    24.5580     2.5070    -2.7070 
  210.0000    73.9200     5.7120     4.8220     6.1610    24.5560     2.4170    -2.2740 
  210.1250    70.2160     5.6860     4.5810     6.0420    24.5580     2.3610    -1.8590 
  210.2500    69.0880     5.9080     4.6000     5.9250    24.5580     2.3480    -1.5120 
  210.3750    72.7720     6.2160     4.7680     5.7380    24.5570     2.3570    -1.2370 
