~V
VERS. 2.00: Ver 2.00
~W
STRT.M 52.0000:
STOP.M 269.0000:
STEP.M 0.1250:
NULL. -999.2500:
UWI. F11071:
~C
DEPT.M :
GR.API :
RML.OHMM :
RI. :
RXO.OHMM :
CALI.CM :
DEN.GM/CC :
SP.MV :
~A
# ...
  209.5000    53.3930   277.7800   265.2290   258.5420    25.4840     2.1670   -21.9470 
  209.6250    53.0890   281.8210   271.4440   290.2120    25.6010     2.1530   -19.8120 
  209.7500    53.0040   271.8500   264.6580   305.8620    25.6040     2.1440   -18.1080 
  209.8750    54.2740   250.1790   245.8460   249.9740    25.6150     2.1440   -17.0170 
  210.0000    55.2350   221.7140   219.2580   191.8290    25.6100     2.1520   -16.5640 
  210.1250    53.4180   192.7580   191.3160   158.4410    25.5850     2.1640   -16.4610 
  210.2500    51.3860   167.6710   166.9920   133.3090    25.5550     2.1760   -16.3840 
  210.3750    51.5580   147.5020   147.6570   116.3780    25.5130     2.1890   -16.3150 
  210.5000    54.1810   131.5420   132.7650   108.6250    25.4640     2.2020   -16.2040 
  210.6250    57.2070   118.4740   120.9240    95.4860    25.4000     2.2170   -16.0480 
  210.7500    58.8200   106.2240   109.8300   106.1250    25.2720     2.2330   -15.8770 
  210.8750    58.8610    93.8960    98.3650   115.6390    25.0910     2.2490   -15.7150 
  211.0000    60.1370    81.2780    86.0200   111.5240    24.9390     2.2650   -15.5810 
  211.1250    65.4560    68.9760    73.1490    97.9220    24.8100     2.2820   -15.4740 
  211.2500    71.1550    57.9530    61.1390    78.8650    24.7070     2.3000   -15.4250 
  211.3750    72.7620    49.0300    51.1810    63.2770    24.6660     2.3180   -15.4590 
  211.5000    71.0770    42.6660    43.9180    52.6680    24.6490     2.3310   -15.5570 
  211.6250    70.5830    39.2850    39.8260    42.6140    24.5790     2.3320   -15.7760 
  211.7500    72.0580    38.0530    38.0840    43.0160    24.5380     2.3240   -16.1490 
  211.8750    73.2110    38.3920    38.1500    50.4460    24.5840     2.3090   -16.5940 
  212.0000    71.8470    39.6190    39.3430    55.4280    24.6710     2.2910   -17.0890 
  212.1250    68.9050    40.9580    40.8790    55.3740    24.7180     2.2770   -17.6410 
  212.2500    69.1630    41.7600    41.9370    55.3910    24.7580     2.2690   -18.1990 
  212.3750    71.5190    41.7610    42.0760    53.5180    24.7850     2.2660   -18.7300 
  212.5000    72.2530    41.0250    41.2620    49.5950    24.7920     2.2690   -19.2310 
  212.6250    71.4500    39.8740    39.8350    48.4280    24.7780     2.2760   -19.6400 
  212.7500    72.5770    38.8130    38.4050    47.0820    24.7530     2.2850   -19.9570 
  212.8750    73.8260    38.1290    37.2920    44.8860    24.7340     2.2910   -20.2290 
  213.0000    71.7740    37.9570    36.6910    45.3010    24.7270     2.2940   -20.4450 
  213.1250    69.1150    38.3440    36.7360    46.4080    24.7330     2.2910   -20.5980 
  213.2500    70.2610    39.0090    37.1820    49.1060    24.7510     2.2840   -20.6990 
  213.3750    72.9140    39.6820    37.7680    52.3040    24.7710     2.2770   -20.7540 
  213.5000    73.2730    40.0990    38.2120    54.5380    24.7710     2.2700   -20.7990 
  213.6250    69.7620    40.0400    38.2270    53.7610    24.7540     2.2650   -20.8270 
  213.7500    67.2550    39.6150    37.8630    52.5140    24.7640     2.2600   -20.7810 
  213.8750    67.4070    38.9520    37.2830    51.8840    24.7790     2.2580   -20.6580 
  214.0000    68.6750    38.1090    36.6100    50.7140    24.7800     2.2610   -20.4700 
  214.1250    70.0860    36.9280    35.6570    48.2920    24.7620     2.2740   -20.2040 
  214.2500    71.2740    35.3140    34.1420    46.9520    24.7510     2.2930   -19.9180 
  214.3750    72.5480    33.3130    32.0090    49.1080    24.7370     2.3100   -19.6220 
  214.5000    74.6960    31.2030    29.5650    46.6620    24.7320     2.3170   -19.3100 
  214.6250    77.5810    29.5090    27.4000    37.4150    24.7470     2.3100   -19.0570 
  214.7500    78.3760    28.5360    25.8980    30.9830    24.7720     2.3050   -18.8980 
  214.8750    76.4560    28.3660    25.1890    36.9300    24.7970     2.3140   -18.8490 
  215.0000    75.0300    28.9320    25.1910    42.2790    24.7810     2.3410   -18.8770 
  215.1250    76.6220    29.8280    25.7060    41.2210    24.7460     2.3760   -18.9590 
  215.2500    78.4910    30.2300    26.3370    35.7990    24.7300     2.4020   -19.0720 
  215.3750    79.0510    29.9770    26.8520    31.3770    24.7290     2.4120   -19.2130 
  215.5000    78.7680    29.6000    27.1450    32.3550    24.7450     2.4100   -19.3650 
  215.6250    77.1590    29.7860    27.2990    39.4050    24.7870     2.4020   -19.4450 
  215.7500    74.1520    30.4630    27.5750    44.0710    24.8290     2.3920   -19.4540 
  215.8750    72.4100    31.5090    28.1630    40.2460    24.8290     2.3760   -19.4220 
  216.0000    73.5780    33.1020    29.2030    34.8620    24.7800     2.3480   -19.4200 
  216.1250    74.5510    35.4730    30.9580    38.6770    24.7300     2.3110   -19.4750 
  216.2500    71.3700    38.3910    33.4010    48.5710    24.7110     2.2730   -19.5390 
  216.3750    66.3450    41.4410    36.2980    54.9380    24.7190     2.2440   -19.6170 
  216.5000    64.2700    43.9350    39.0260    56.3790    24.7270     2.2270   -19.7310 
  216.6250    65.1510    44.8120    40.4240    56.9810    24.7240     2.2250   -19.8760 
  216.7500    67.0140    43.8890    40.0190    57.1940    24.7140     2.2310   -20.0060 
  216.8750    69.9730    41.4010    37.9190    52.9410    24.7010     2.2440   -20.0720 
  217.0000    71.8540    37.9870    34.7610    44.4430    24.7120     2.2620   -20.0610 
  217.1250    70.4400    34.4430    31.3510    36.8290    24.7220     2.2780   -19.9690 
  217.2500    68.7670    31.3660    28.3030    33.6200    24.7280     2.2890   -19.8410 
  217.3750    70.1610    29.0340    25.8610    32.0110    24.7300     2.2920   -19.6860 
  217.5000    72.8950    27.6470    24.1620    29.8500    24.7280     2.2940   -19.4260 
  217.6250    73.5520    27.6820    23.5290    27.4190    24.7320     2.3100   -18.9900 
  217.7500    73.1320    29.2360    24.0850    27.1110    24.7550     2.3530   -18.4100 
  217.8750    72.1160    32.3620    26.0950    28.4320    24.8110     2.4290   -17.7110 
  218.0000    69.9970    36.5030    29.5210    31.6920    24.8710     2.5240   -16.8810 
  218.1250    68.0840    39.6800    33.1460    42.1960    24.9450     2.6080   -15.8680 
  218.2500    67.8500    39.6980    34.2500    65.0370    25.0080     2.6520   -14.7270 
  218.3750    69.2960    35.7330    31.1020    78.8140    25.0380     2.6450   -13.4710 
  218.5000    71.7110    29.0040    24.8990    50.2830    25.0390     2.5980   -12.1870 
  218.6250    77.0470    22.3460    18.9080    22.0640    25.0350     2.5400   -11.0030 
  218.7500    83.2800    17.8770    14.8760    11.3310    25.0280     2.5030    -9.9570 
  218.8750    86.2540    16.0860    12.9000     9.6890    24.9420     2.4990    -9.0560 
  219.0000    84.5000    16.7050    12.7140    12.2330    24.8150     2.5260    -8.2870 
  219.1250    81.0630    19.3550    14.3660    15.6620    24.7700     2.5720    -7.6660 
  219.2500    78.8780    22.6770    17.2710    20.0900    24.8290     2.6170    -7.1610 
  219.3750    78.7900    25.2630    20.4550    25.4140    24.9380     2.6510    -6.7660 
  219.5000    80.0160    25.6880    22.0900    30.1260    25.0190     2.6700    -6.4380 
  219.6250    80.6320    22.9490    20.2030    31.2320    25.0340     2.6700    -6.0900 
  219.7500    81.9850    18.4870    16.2570    22.4590    25.0080     2.6540    -5.7150 
  219.8750    85.5010    13.8260    12.1040    12.6870    24.9650     2.6250    -5.2980 
  220.0000    89.0200    10.1040     8.8350     7.1440    24.9070     2.5850    -4.8270 
  220.1250    86.8830     7.9100     6.8270     5.3390    24.8390     2.5370    -4.3430 
  220.2500    81.9670     6.7960     5.6730     4.7380    24.7490     2.4900    -3.8960 
  220.3750    77.9480     6.4200     5.1390     4.8010    24.6610     2.4490    -3.4900 
  220.5000    73.6470     6.4720     5.0240     4.9800    24.6290     2.4210    -3.1240 
  220.6250    67.6670     6.7010     5.1640     5.0670    24.6290     2.4120    -2.8220 
