~V
VERS. 2.00: Ver 2.00
~W
STRT.M 55.0000:
STOP.M 249.0000:
STEP.M 0.1250:
NULL. -999.2500:
UWI. F11017:
~C
DEPT.M :
GR.API :
RML.OHMM :
RI. :
RXO.OHMM :
CALI.CM :
DEN.GM/CC :
SP.MV :
~A
# ...
   77.5000    58.4930    11.0960     8.6370    13.6980    23.4650     2.2760   -17.5770 
   77.6250    55.9690    10.9350     8.7620    14.8280    23.9770     2.2340   -18.1750 
   77.7500    54.8570    10.3840     8.5620    11.7390    24.5100     2.2030   -18.7050 
   77.8750    54.8370     9.7990     8.2540     8.5900    24.8300     2.1850   -19.1540 
   78.0000    57.1280     9.5290     8.0840     7.6100    24.9410     2.1780   -19.5190 
   78.1250    58.5020     9.8300     8.2630     8.1840    24.9540     2.1700   -19.8200 
   78.2500    55.9610    10.5140     8.7170     9.8330    24.9640     2.1560   -20.1060 
   78.3750    51.3030    11.3120     9.2920    12.6350    24.9730     2.1350   -20.4090 
   78.5000    49.1990    11.9080     9.7680    17.1910    24.9180     2.1100   -20.7270 
   78.6250    49.4590    11.9710     9.8820    24.0620    24.7900     2.0890   -21.0360 
   78.7500    48.0710    11.5490     9.6130    25.4170    24.5910     2.0760   -21.3280 
   78.8750    48.1410    10.8280     9.0660    16.3000    24.3340     2.0770   -21.6170 
   79.0000    52.4750    10.0800     8.4330    10.5080    24.0180     2.0920   -21.9150 
   79.1250    57.0550     9.5740     7.9220     8.9590    23.6730     2.1170   -22.2290 
   79.2500    57.6750     9.3320     7.5920     8.5280    23.3660     2.1440   -22.5240 
   79.3750    54.6660     9.2880     7.4210     8.2780    23.1850     2.1650   -22.7630 
   79.5000    50.2660     9.3370     7.3490     8.1630    23.1090     2.1750   -22.9360 
   79.6250    47.0740     9.3790     7.3060     8.2140    23.0600     2.1760   -23.0380 
   79.7500    45.3900     9.3650     7.2470     8.1590    22.9510     2.1710   -23.0770 
   79.8750    46.8480     9.2990     7.1700     8.0150    22.7480     2.1650   -23.0540 
   80.0000    51.9050     9.2190     7.1020     7.9470    22.5030     2.1570   -22.9720 
   80.1250    56.2340     9.2200     7.1140     8.1170    22.2970     2.1450   -22.8310 
   80.2500    55.6700     9.3930     7.2560     8.4710    22.2450     2.1310   -22.6560 
   80.3750    51.7310     9.7870     7.5610     9.1910    22.3250     2.1260   -22.4700 
   80.5000    50.4990    10.3600     8.0010    10.4170    22.4880     2.1460   -22.2830 
   80.6250    53.0630    10.9390     8.4790    12.2950    22.7650     2.2070   -22.1080 
   80.7500    55.5140    11.2980     8.8400    14.9980    23.1760     2.2890   -21.9520 
   80.8750    56.1210    11.2970     8.9690    18.4170    23.6190     2.3590   -21.8270 
   81.0000    54.5560    10.9370     8.8290    17.4480    23.9460     2.3820   -21.7170 
   81.1250    52.9840    10.3720     8.4670    12.2010    24.0740     2.3390   -21.5840 
   81.2500    51.6910     9.8670     8.0630     9.8680    24.1670     2.2700   -21.3970 
   81.3750    50.5840     9.5520     7.7320     9.2940    24.2920     2.2070   -21.1310 
   81.5000    49.6630     9.4480     7.5330     9.3220    24.4200     2.1660   -20.7690 
   81.6250    50.1500     9.5060     7.4850     9.4060    24.4240     2.1510   -20.2780 
   81.7500    50.7650     9.5940     7.5170     9.4300    24.3540     2.1500   -19.6740 
   81.8750    51.1250     9.6270     7.5640     9.4550    24.2910     2.1580   -18.9450 
   82.0000    52.4150     9.5390     7.5600     9.4970    24.2920     2.1680   -18.0870 
   82.1250    52.9290     9.2580     7.4260     9.3430    24.3400     2.1800   -17.0970 
   82.2500    54.3560     8.8150     7.1630     8.9310    24.4290     2.1960   -16.0380 
   82.3750    58.8720     8.2740     6.8110     8.2560    24.5990     2.2170   -14.9680 
   82.5000    66.1050     7.7350     6.4460     7.2910    24.8440     2.2420   -13.9500 
   82.6250    71.2240     7.3380     6.1730     6.2280    25.0090     2.2640   -13.0580 
   82.7500    73.6850     7.1260     6.0290     5.8390    25.0290     2.2770   -12.2710 
   82.8750    74.6500     7.0890     6.0000     5.8700    24.9060     2.2800   -11.5670 
   83.0000    72.5180     7.1600     6.0380     6.0570    24.7190     2.2750   -10.9400 
   83.1250    69.9890     7.2340     6.0710     6.2260    24.5820     2.2710   -10.4160 
   83.2500    73.5510     7.2130     6.0420     6.2160    24.5320     2.2710    -9.9810 
   83.3750    81.5350     7.0550     5.9290     5.9350    24.5690     2.2770    -9.6240 
   83.5000    88.0840     6.7760     5.7370     5.5060    24.6250     2.2880    -9.3190 
   83.6250    87.8420     6.4440     5.5010     5.1940    24.6310     2.3030    -9.0540 
   83.7500    85.5790     6.1470     5.2750     5.1080    24.6190     2.3170    -8.8360 
   83.8750    85.1900     5.9300     5.0880     4.9730    24.6140     2.3310    -8.6900 
   84.0000    84.9600     5.8060     4.9560     4.6920    24.6100     2.3420    -8.6320 
   84.1250    83.7420     5.7690     4.8860     4.4850    24.5900     2.3490    -8.6650 
   84.2500    85.6940     5.7830     4.8610     4.4320    24.5460     2.3540    -8.7710 
   84.3750    90.6410     5.8330     4.8740     4.4430    24.4720     2.3560    -8.9520 
   84.5000    93.0430     5.9110     4.9230     4.4860    24.3580     2.3570    -9.1910 
   84.6250    88.7780     6.0190     5.0060     4.5360    24.1940     2.3550    -9.4660 
   84.7500    84.9790     6.1630     5.1210     4.6500    24.0600     2.3520    -9.7630 
   84.8750    85.1010     6.3630     5.2780     4.8320    23.9770     2.3460   -10.1010 
   85.0000    89.3980     6.6390     5.4900     4.9960    23.9170     2.3360   -10.5070 
   85.1250    95.1230     7.0230     5.7810     5.2110    23.8500     2.3200   -11.0000 
   85.2500    94.5980     7.4960     6.1400     5.5930    23.7710     2.3010   -11.5410 
   85.3750    86.1730     8.0290     6.5470     6.0570    23.6540     2.2810   -12.0840 
   85.5000    76.3980     8.5540     6.9570     6.6220    23.4780     2.2630   -12.5950 
   85.6250    72.2880     8.9290     7.2710     7.2920    23.2400     2.2510   -13.0390 
   85.7500    69.8970     9.0550     7.4140     7.9280    22.9980     2.2420   -13.4180 
   85.8750    66.4470     8.9020     7.3450     8.3450    22.8350     2.2310   -13.7260 
   86.0000    63.6870     8.5770     7.1120     8.4640    22.8120     2.2170   -13.9480 
   86.1250    65.2130     8.4260     6.9120     8.3440    22.9050     2.2060   -14.0820 
   86.2500    69.6080     8.8210     7.0150     8.2090    23.0720     2.2080   -14.1780 
   86.3750    73.2740     9.9730     7.6090     8.3810    23.3440     2.2380   -14.2770 
   86.5000    73.3770    11.8080     8.7340     9.8220    23.7370     2.3000   -14.4260 
   86.6250    69.0590    13.8660    10.2140    13.9580    24.0770     2.3860   -14.6920 
   86.7500    63.0810    15.3610    11.5350    21.2260    24.1810     2.4610   -15.0770 
   86.8750    58.3940    15.7040    12.2270    30.7230    24.0300     2.4890   -15.5630 
   87.0000    57.0330    14.7120    11.9970    30.4490    23.7470     2.4560   -16.1220 
   87.1250    57.0750    12.8010    10.9290    18.0220    23.4820     2.3800   -16.6990 
   87.2500    55.9320    11.0070     9.7370    11.3530    23.3380     2.3070   -17.2430 
   87.3750    55.1550     9.8200     8.8200     9.3190    23.3630     2.2560   -17.7110 
   87.5000    55.5130     9.2850     8.2870     9.0510    23.5260     2.2290   -18.0740 
   87.6250    56.2560     9.2040     8.0850     9.3900    23.7520     2.2170   -18.3000 
   87.7500    56.4100     9.2270     8.0020     9.5160    23.8180     2.2060   -18.4080 
   87.8750    57.4160     9.2140     7.9300     9.0560    23.6370     2.1920   -18.4120 
   88.0000    59.4180     9.1350     7.8270     8.5810    23.3330     2.1770   -18.3370 
   88.1250    59.8740     9.0220     7.7070     8.3760    23.0840     2.1670   -18.2110 
   88.2500    58.9990     8.9160     7.6020     8.2210    22.9250     2.1630   -18.0720 
   88.3750    59.5830     8.8240     7.5210     8.0320    22.8220     2.1660   -17.9570 
   88.5000    63.3400     8.7380     7.4550     7.9350    22.7180     2.1710   -17.9060 
   88.6250    65.7880     8.6590     7.3890     7.9730    22.6380     2.1750   -17.9500 
