~V
VERS. 2.00: Ver 2.00
~W
STRT.M 53.0000:
STOP.M 279.0000:
STEP.M 0.1250:
NULL. -999.2500:
UWI. F11068:
~C
DEPT.M :
GR.API :
RML.OHMM :
RI. :
RXO.OHMM :
CALI.CM :
SP.MV :
DEN.GM/CC :
~A
   53.0000    45.8750     2.0090     0.1680     0.9930    24.8760   109.3000     2.3830 
   53.1250    47.8700     0.8570     0.1310     1.0240    24.7530   108.1520     2.5270 
   53.2500    52.2490     0.4670     0.1130     1.0710    24.6370   105.3330     2.5810 
   53.3750    57.8920     0.5680     0.1220     1.1830    24.5870    99.8490     2.4840 
   53.5000    63.0370     1.0870     0.1920     1.5460    24.8460    91.0510     2.2370 
   53.6250    66.8180     2.3590     0.4180     2.6200    26.3470    78.9360     1.9140 
   53.7500    67.0870     4.7420     0.8770     4.0870    29.3710    65.3620     1.6330 
   53.8750    64.2450     8.1660     1.6270     5.2090    32.5760    51.3440     1.4490 
   54.0000    62.0200    11.4340     2.5850     5.7970    34.2380    37.6100     1.3590 
   54.1250    63.8090    12.5170     3.4050     5.7090    34.5510    24.9400     1.3350 
   54.2500    67.1680    11.6030     3.8810     5.1510    34.5510    13.9630     1.3280 
   54.3750    69.5300    10.0020     4.0860     4.7400    34.5510     5.4670     1.3220 
   54.5000    71.8690     8.8320     4.1580     4.9410    34.5510     0.0320     1.3190 
   54.6250    76.0220     8.3690     4.1600     5.3900    34.5090    -2.3770     1.3490 
   54.7500    81.8220     8.2840     4.1340     5.4270    33.9450    -3.4800     1.4390 
   54.8750    88.2950     8.4920     4.1430     4.9820    32.0160    -4.0930     1.5930 
   55.0000    92.4590     9.0340     4.2900     4.7690    28.4560    -4.7220     1.7860 
   55.1250    92.6310    10.2100     4.7760     5.5580    25.6020    -5.6380     1.9710 
   55.2500    89.3530    12.3340     5.7790     7.0350    24.0380    -6.8300     2.1230 
   55.3750    83.9190    15.9950     7.6340     8.0240    23.5260    -8.0850     2.2440 
   55.5000    77.5550    22.0570    10.9150     9.7020    23.6600    -9.2920     2.3550 
   55.6250    71.1680    32.0100    16.9400    17.2750    23.9020   -10.4620     2.4640 
   55.7500    66.4700    44.2650    25.8120    36.9990    23.9060   -11.5830     2.5590 
   55.8750    64.3750    54.3920    35.9480    62.5250    23.7320   -12.6860     2.6250 
   56.0000    63.9590    56.8010    42.6890    76.4610    23.6520   -13.6310     2.6530 
   56.1250    62.6250    48.5580    39.9520    71.3430    23.8830   -14.4390     2.6370 
   56.2500    62.5270    36.2690    31.4510    49.1370    24.0840   -15.1410     2.5880 
   56.3750    65.7970    25.3010    22.3760    24.4660    23.8080   -15.9020     2.5090 
   56.5000    69.0460    17.8460    15.5170    10.7870    23.1400   -16.7480     2.4130 
   56.6250    69.8150    13.8280    11.5140     7.3940    22.6520   -17.7580     2.3190 
   56.7500    71.0480    11.6890     9.2350     6.6020    22.4770   -18.9050     2.2440 
   56.8750    73.3200    10.7720     8.0970     6.5670    22.4000   -20.2310     2.1950 
   57.0000    74.4790    10.6110     7.7030     6.6020    22.2790   -21.6790     2.1680 
   57.1250    73.6310    10.8430     7.7810     6.7200    22.1930   -23.0760     2.1570 
   57.2500    72.5780    11.0550     7.9780     6.9450    22.1630   -24.3460     2.1540 
   57.3750    71.2690    11.0350     8.1060     7.0720    22.1620   -25.4590     2.1540 
   57.5000    70.2060    10.7420     8.0820     6.9480    22.1520   -26.4510     2.1540 
   57.6250    69.8970    10.2960     7.9130     6.7040    22.1310   -27.2700     2.1520 
   57.7500    69.3620     9.8790     7.6970     6.5630    22.1040   -27.9430     2.1470 
   57.8750    69.9290     9.5390     7.4980     6.5810    22.0430   -28.4410     2.1420 
   58.0000    70.9270     9.2710     7.3540     6.6610    21.9590   -28.7380     2.1360 
   58.1250    69.2660     9.0790     7.2800     6.4820    21.9610   -28.8450     2.1310 
   58.2500    66.2890     8.9640     7.2540     6.3670    22.0740   -28.7990     2.1280 
   58.3750    63.9940     8.9300     7.2620     6.2990    22.2190   -28.6570     2.1280 
   58.5000    63.1250     8.9610     7.2950     6.3120    22.3380   -28.4140     2.1320 
   58.6250    64.7360     9.0140     7.3370     6.3840    22.3670   -28.1220     2.1400 
   58.7500    68.8890     9.0320     7.3680     6.4290    22.3850   -27.7480     2.1480 
   58.8750    71.3380     8.9880     7.3710     6.3370    22.4070   -27.2960     2.1550 
   59.0000    67.9010     8.8810     7.3350     6.1860    22.3840   -26.8690     2.1550 
   59.1250    64.5400     8.7270     7.2520     6.1630    22.2540   -26.5100     2.1480 
   59.2500    66.5450     8.5610     7.1410     6.2260    22.1250   -26.2940     2.1360 
   59.3750    69.3280     8.4040     7.0230     6.3220    22.0740   -26.1250     2.1230 
   59.5000    69.2340     8.2700     6.9190     6.4180    22.0780   -26.0500     2.1140 
   59.6250    69.9240     8.1810     6.8490     6.4850    22.0520   -25.9610     2.1130 
   59.7500    72.0230     8.1420     6.8160     6.6480    22.0210   -25.9610     2.1160 
   59.8750    72.8150     8.1520     6.8150     6.8910    22.1070   -26.0240     2.1200 
   60.0000    72.2100     8.2000     6.8370     7.0850    22.3460   -26.1770     2.1190 
   60.1250    72.1960     8.2660     6.8740     7.1400    22.6420   -26.3720     2.1110 
   60.2500    71.3350     8.3230     6.9120     7.1310    22.8560   -26.5360     2.1000 
   60.3750    69.1110     8.3530     6.9440     7.0580    22.9360   -26.6920     2.0920 
   60.5000    69.0600     8.3460     6.9610     7.0330    22.8890   -26.7920     2.0890 
   60.6250    73.0500     8.3050     6.9600     7.2850    22.7920   -26.8730     2.0930 
   60.7500    75.4440     8.2510     6.9440     7.4310    22.7030   -26.8980     2.0980 
   60.8750    73.2890     8.2000     6.9200     7.4020    22.6410   -26.8870     2.1000 
   61.0000    68.3020     8.1560     6.8910     7.5100    22.6050   -26.8400     2.1000 
   61.1250    65.1280     8.1170     6.8560     7.6270    22.6230   -26.7130     2.1020 
   61.2500    63.6580     8.0830     6.8160     7.4950    22.6580   -26.5310     2.1060 
   61.3750    62.1390     8.0580     6.7770     7.3000    22.6820   -26.2940     2.1130 
   61.5000    60.7950     8.0460     6.7450     7.1720    22.6890   -26.0390     2.1210 
   61.6250    62.5310     8.0500     6.7290     7.0230    22.7050   -25.7150     2.1290 
   61.7500    67.3480     8.0580     6.7240     6.8950    22.7130   -25.3460     2.1360 
   61.8750    71.7830     8.0620     6.7250     6.8580    22.6690   -24.8530     2.1460 
   62.0000    73.1420     8.0560     6.7220     6.8600    22.5380   -24.2560     2.1580 
   62.1250    72.2790     8.0410     6.7090     6.7120    22.3540   -23.6760     2.1700 
   62.2500    73.1970     8.0310     6.6950     6.5990    22.2070   -23.1080     2.1800 
   62.3750    76.2810     8.0430     6.6910     6.6120    22.1410   -22.5950     2.1850 
   62.5000    79.1480     8.0910     6.7080     6.7390    22.1530   -22.0940     2.1850 
   62.6250    79.0520     8.1800     6.7560     6.8680    22.2090   -21.7480     2.1800 
   62.7500    75.4940     8.2840     6.8200     7.0650    22.2990   -21.4770     2.1720 
   62.8750    72.2060     8.3750     6.8830     7.3690    22.3920   -21.3530     2.1650 
   63.0000    71.9970     8.4250     6.9260     7.5830    22.4170   -21.2570     2.1630 
   63.1250    73.5830     8.4110     6.9280     7.3050    22.3310   -21.1760     2.1670 
   63.2500    74.4120     8.3540     6.8970     7.0340    22.2890   -21.1310     2.1720 
   63.3750    73.7180     8.2790     6.8540     6.8680    22.3700   -21.1420     2.1760 
   63.5000    72.8880     8.2200     6.8180     6.8570    22.5230   -21.2380     2.1750 
   63.6250    69.8280     8.2160     6.8120     6.9900    22.6180   -21.3610     2.1690 
   63.7500    65.3290     8.2650     6.8330     7.3300    22.6290   -21.5150     2.1640 
   63.8750    63.5310     8.3560     6.8740     7.4860    22.5590   -21.6910     2.1610 
   64.0000    65.5760     8.4660     6.9240     7.3580    22.4510   -21.9440     2.1650 
   64.1250    67.5930     8.5680     6.9780     7.3330    22.3950   -22.2330     2.1770 
