~V
VERS. 2.00: Ver 2.00
~W
STRT.M 47.0000:
STOP.M 272.0000:
STEP.M 0.1250:
NULL. -999.2500:
UWI. F11040:
~C
DEPT.M :
DEN.GM/CC :
GR.API :
RML.OHMM :
RI. :
RXO.OHMM :
CALI.CM :
SP.MV :
~A
# ...
  227.0000     2.5060    56.2980    18.0430    17.5440    43.7760    23.9930    -6.0490 
  227.1250     2.4540    52.4730    11.8900    11.9750    19.0520    24.0190    -6.0330 
  227.2500     2.3850    51.0340     8.4440     8.7800     8.2190    24.0880    -6.1660 
  227.3750     2.3290    53.6540     6.8970     7.2100     5.8130    24.1640    -6.4370 
  227.5000     2.3040    59.8730     6.5210     6.7060     5.7630    24.1530    -6.8140 
  227.6250     2.3160    65.5120     6.9250     6.9620     6.6900    24.0540    -7.2360 
  227.7500     2.3480    67.0670     7.6690     7.5680     8.1000    24.0200    -7.6790 
  227.8750     2.3840    66.2100     8.5630     8.2960     9.4870    24.0520    -8.0950 
  228.0000     2.4120    67.7640     9.4970     8.9460     9.9110    24.0910    -8.4890 
  228.1250     2.4280    74.6160    10.0780     9.3350     9.5200    24.1110    -8.8080 
  228.2500     2.4330    82.7510    10.3350     9.4690     9.3970    24.1170    -9.1070 
  228.3750     2.4300    87.7170    10.2390     9.4010     9.6010    24.1060    -9.3770 
  228.5000     2.4210    88.5900     9.9560     9.2140     9.8830    24.1110    -9.6200 
  228.6250     2.4090    88.8660     9.7410     8.9850    10.0510    24.1480    -9.8670 
  228.7500     2.4010    89.0980     9.5820     8.7900     9.9040    24.1850   -10.1190 
  228.8750     2.3990    88.5810     9.4470     8.6840     9.6480    24.2050   -10.4170 
  229.0000     2.4020    88.0690     9.4750     8.7220     9.4140    24.2280   -10.7270 
  229.1250     2.4070    88.1120     9.7290     8.9920     9.6950    24.2490   -11.0650 
  229.2500     2.4090    88.2940    10.3050     9.4870    10.5520    24.2760   -11.3880 
  229.3750     2.4060    87.2320    11.2020    10.1850    11.5360    24.2850   -11.6920 
  229.5000     2.3980    84.1850    12.2370    11.0220    12.6770    24.2620   -11.9810 
  229.6250     2.3880    79.4800    13.2120    11.8820    13.7640    24.2030   -12.2400 
  229.7500     2.3790    77.4050    14.0150    12.6370    15.1200    24.1310   -12.4550 
  229.8750     2.3720    79.7260    14.6090    13.2210    16.2290    24.0650   -12.5930 
  230.0000     2.3670    81.4120    15.0460    13.6420    16.6910    24.0050   -12.6610 
  230.1250     2.3640    79.8320    15.4650    13.9870    16.5610    23.9570   -12.6340 
  230.2500     2.3630    79.5370    16.0000    14.3840    16.7350    23.9140   -12.5640 
  230.3750     2.3640    81.3260    16.6740    14.8790    17.4590    23.8870   -12.4670 
  230.5000     2.3690    81.3070    17.4030    15.4320    18.6390    23.8720   -12.3700 
  230.6250     2.3760    78.7420    17.9730    15.8890    19.8570    23.8640   -12.2810 
  230.7500     2.3830    77.0340    18.2200    16.1050    20.6830    23.8600   -12.1910 
  230.8750     2.3880    76.6710    18.0880    16.0080    20.5080    23.8600   -12.1110 
  231.0000     2.3900    75.3550    17.6650    15.6470    19.5180    23.8610   -12.0550 
  231.1250     2.3890    75.5840    17.2300    15.2210    18.3660    23.8640   -12.0420 
  231.2500     2.3850    79.9450    17.1450    15.0250    18.0520    23.8750   -12.0350 
  231.3750     2.3790    83.5390    17.6950    15.2920    19.0450    23.8800   -12.0600 
  231.5000     2.3700    80.9020    19.0840    16.2050    20.6840    23.8570   -12.1190 
  231.6250     2.3590    74.9180    21.5630    18.0280    21.8070    23.8070   -12.2370 
  231.7500     2.3460    71.6140    24.9220    20.6680    24.0680    23.7780   -12.4010 
  231.8750     2.3350    69.4780    28.9990    24.0570    27.2330    23.7640   -12.6150 
  232.0000     2.3260    66.4830    33.5430    28.0240    31.5300    23.7430   -12.8350 
  232.1250     2.3230    66.7940    38.2170    32.2930    36.3230    23.7340   -13.0420 
  232.2500     2.3240    68.3060    42.6150    36.4300    41.7260    23.7310   -13.2700 
  232.3750     2.3270    66.9060    46.4300    40.1050    46.1130    23.7310   -13.5110 
  232.5000     2.3300    62.0640    49.4370    43.0760    48.9910    23.7310   -13.7470 
  232.6250     2.3300    59.5110    51.3870    45.0740    53.8590    23.7310   -13.9310 
  232.7500     2.3250    60.1940    52.5390    46.2940    56.6250    23.7380   -14.0960 
  232.8750     2.3180    61.8960    53.1920    46.9770    53.6140    23.7570   -14.2480 
  233.0000     2.3100    63.5590    53.7610    47.4790    48.1670    23.7950   -14.4270 
  233.1250     2.3050    65.6650    54.8060    48.2970    48.2330    23.8640   -14.6350 
  233.2500     2.3010    66.5210    56.6480    49.7690    53.3350    23.9590   -14.8220 
  233.3750     2.2980    63.8800    59.5030    52.1290    56.2950    24.0450   -14.9530 
  233.5000     2.2950    59.1630    63.4850    55.5190    55.4530    24.0820   -15.0330 
  233.6250     2.2900    56.5840    68.7310    60.1200    56.2460    24.0750   -15.1160 
  233.7500     2.2850    56.2360    74.6960    65.4990    60.4240    24.0570   -15.2120 
  233.8750     2.2790    56.7880    80.6450    71.0630    68.6740    24.0330   -15.3210 
  234.0000     2.2740    56.8890    85.5260    75.9090    81.5150    23.9880   -15.4630 
  234.1250     2.2710    56.0880    87.7840    78.6320    94.3850    23.9250   -15.6570 
  234.2500     2.2710    55.4090    87.2740    78.9210   100.1220    23.8520   -15.8910 
  234.3750     2.2740    55.5840    84.4840    77.0450    94.3750    23.7900   -16.1350 
  234.5000     2.2800    55.6490    80.5350    73.8860    79.4330    23.7380   -16.3750 
  234.6250     2.2850    54.6350    76.7240    70.5670    68.7250    23.6770   -16.6100 
  234.7500     2.2870    55.0830    73.7250    67.8460    63.7410    23.6130   -16.8310 
  234.8750     2.2850    57.9110    71.6280    65.9150    61.6970    23.5360   -17.0460 
  235.0000     2.2800    61.2510    70.3160    64.7380    58.9100    23.4710   -17.2320 
  235.1250     2.2760    62.4450    69.8310    64.3710    57.4570    23.4070   -17.3790 
  235.2500     2.2730    60.1120    70.1980    64.8040    59.3930    23.3380   -17.4800 
  235.3750     2.2700    55.8480    71.6530    66.2430    62.7500    23.3800   -17.5720 
  235.5000     2.2660    53.3970    74.2860    68.8140    66.8650    23.6340   -17.6670 
  235.6250     2.2610    54.2100    77.8180    72.3870    72.5620    23.9260   -17.7240 
  235.7500     2.2580    54.0320    81.1770    76.0380    79.7370    24.0490   -17.7360 
  235.8750     2.2580    52.4900    83.3500    78.8260    90.7950    24.0670   -17.6970 
  236.0000     2.2630    54.1820    83.5950    79.9620   108.1660    24.0420   -17.5780 
  236.1250     2.2720    59.6050    81.6240    78.9510   112.4630    23.9660   -17.3970 
  236.2500     2.2800    61.7410    78.7090    76.7930    99.0620    23.9210   -17.2040 
  236.3750     2.2850    58.9330    75.9690    74.4960    81.4670    23.9260   -16.9920 
  236.5000     2.2860    55.3460    74.1320    72.8380    72.8720    23.9490   -16.7500 
  236.6250     2.2850    53.8490    73.3250    72.1040    74.9340    23.9630   -16.4900 
  236.7500     2.2860    52.8590    72.7420    71.6540    79.9660    23.9460   -16.2330 
  236.8750     2.2910    53.4790    71.7440    70.8770    82.1930    23.8830   -15.9530 
  237.0000     2.2980    55.6120    70.0940    69.4600    79.3300    23.7600   -15.6910 
  237.1250     2.3060    57.6860    68.2740    67.7100    73.4740    23.4900   -15.3950 
  237.2500     2.3120    59.0110    67.3840    66.6290    64.3460    23.1330   -15.0570 
  237.3750     2.3140    61.8470    68.3890    67.1590    52.4610    22.8370   -14.7010 
  237.5000     2.3110    66.9600    71.8340    69.9060    46.3820    22.8710   -14.3500 
  237.6250     2.3060    68.9760    77.8140    75.1000    56.4300    23.2230   -14.0110 
  237.7500     2.3010    65.2780    84.7100    81.3330    73.8350    23.6150   -13.6860 
  237.8750     2.2970    58.8770    90.7900    87.0390    98.5560    23.9070   -13.3890 
  238.0000     2.2950    54.8010    94.2910    90.5730   120.5950    24.1170   -13.0950 
  238.1250     2.2920    54.6440    93.6250    90.3970   120.7360    24.2490   -12.7800 
