~V
VERS. 2.00: Ver 2.00
~W
STRT.M 58.0000:
STOP.M 272.0000:
STEP.M 0.1250:
NULL. -999.2500:
UWI. F11073:
~C
DEPT.M :
GR.API :
RML.OHMM :
RI. :
RXO.OHMM :
CALI.CM :
DEN.GM/CC :
SP.MV :
~A
# ...
   80.5000    69.7290    10.1530     7.3840     9.1380    23.8370     2.1480   -14.4850 
   80.6250    70.2590    10.6240     7.6310     9.5770    24.0240     2.1420   -14.5800 
   80.7500    69.3950    11.4210     8.0990    11.3390    24.2840     2.1290   -14.7230 
   80.8750    68.0530    12.3680     8.7260    15.0790    24.4460     2.1250   -14.8210 
   81.0000    67.9980    13.1680     9.3470    20.2040    24.3280     2.1510   -14.8700 
   81.1250    68.6340    13.3850     9.6540    14.4430    24.1200     2.2220   -14.8430 
   81.2500    67.7310    12.9740     9.5240    10.8940    23.9430     2.3070   -14.7730 
   81.3750    65.9740    12.1430     9.0310     9.6170    23.8740     2.3500   -14.6890 
   81.5000    65.9260    11.2480     8.3950     9.4100    23.8490     2.3130   -14.6330 
   81.6250    68.8420    10.6400     7.8630     9.2780    23.8190     2.2350   -14.5610 
   81.7500    71.1130    10.3690     7.5310     9.3600    23.8210     2.1820   -14.4590 
   81.8750    70.7950    10.3670     7.4020     9.6320    23.8300     2.1590   -14.3390 
   82.0000    68.8710    10.4970     7.4210     9.8100    23.8280     2.1510   -14.2130 
   82.1250    67.0750    10.6180     7.5120     9.8160    23.8050     2.1480   -14.1440 
   82.2500    66.3640    10.6830     7.6050     9.7600    23.7740     2.1480   -14.1820 
   82.3750    67.6640    10.7140     7.6820     9.7130    23.7590     2.1500   -14.2210 
   82.5000    67.8880    10.7380     7.7390     9.7130    23.7550     2.1530   -14.1280 
   82.6250    64.5240    10.7770     7.7770     9.5970    23.7620     2.1530   -13.9600 
   82.7500    62.0970    10.8390     7.8120     9.4860    23.7770     2.1490   -13.8260 
   82.8750    63.1040    10.9110     7.8490     9.4050    23.7880     2.1390   -13.7380 
   83.0000    64.6660    10.9580     7.8810     9.4490    23.7740     2.1290   -13.6830 
   83.1250    65.3980    10.9130     7.8760     9.5320    23.7640     2.1260   -13.6210 
   83.2500    68.7890    10.7690     7.8190     9.6730    23.7650     2.1330   -13.4670 
   83.3750    71.9440    10.5570     7.7150     9.5210    23.7800     2.1470   -13.2350 
   83.5000    70.2750    10.3420     7.5930     9.1540    23.7980     2.1610   -13.0800 
   83.6250    67.5980    10.2130     7.5020     8.7890    23.8190     2.1680   -13.0420 
   83.7500    70.4270    10.1980     7.4700     8.6820    23.8530     2.1680   -13.0250 
   83.8750    76.3390    10.2840     7.5010     8.8630    23.9000     2.1610   -13.0080 
   84.0000    78.3310    10.4370     7.5800     9.0270    23.9300     2.1510   -12.9770 
   84.1250    74.8240    10.6110     7.6910     8.9850    23.9410     2.1440   -12.8940 
   84.2500    71.0990    10.7450     7.7910     9.1220    23.9350     2.1460   -12.8550 
   84.3750    68.8050    10.7600     7.8160     9.3900    23.9180     2.1550   -12.9340 
   84.5000    67.8890    10.5940     7.7060     9.4460    23.9140     2.1680   -12.9650 
   84.6250    68.4000    10.2290     7.4320     9.4090    23.9180     2.1800   -12.8400 
   84.7500    71.3840     9.8020     7.1000     9.0440    23.9200     2.1930   -12.6570 
   84.8750    76.5930     9.4540     6.8140     8.1420    23.9190     2.2070   -12.5070 
   85.0000    81.4050     9.3200     6.6690     7.4000    23.9140     2.2240   -12.4530 
   85.1250    81.6290     9.5280     6.7450     7.9980    23.8970     2.2320   -12.5910 
   85.2500    78.3180     9.9900     6.9950     9.2440    23.8690     2.2220   -12.7860 
   85.3750    74.8490    10.5730     7.3600     9.9320    23.8790     2.2010   -12.9180 
   85.5000    72.8730    11.1070     7.7530    10.1370    23.9070     2.1810   -13.0580 
   85.6250    71.0510    11.4110     8.0650    10.3390    23.9290     2.1710   -13.2740 
   85.7500    69.8020    11.4950     8.2480    10.3870    23.9340     2.1660   -13.5100 
   85.8750    69.1100    11.4400     8.3150    10.4840    23.9280     2.1630   -13.7200 
   86.0000    68.1210    11.3350     8.3100    10.8800    23.9260     2.1610   -13.8710 
   86.1250    66.7240    11.2340     8.2720    11.4450    23.9190     2.1640   -13.8330 
   86.2500    65.4270    11.1490     8.2290    11.4320    23.9020     2.1670   -13.7030 
   86.3750    64.1530    11.0940     8.1980    10.8970    23.8640     2.1650   -13.6330 
   86.5000    62.8770    11.0840     8.1880    10.5330    23.8240     2.1570   -13.6090 
   86.6250    63.4560    11.1080     8.1980    10.4600    23.7760     2.1520   -13.5610 
   86.7500    64.6880    11.1160     8.2130    10.5870    23.7340     2.1540   -13.4690 
   86.8750    64.2190    11.0660     8.2170    10.6750    23.7350     2.1580   -13.3050 
   87.0000    63.9900    10.9370     8.2020    10.7060    23.7470     2.1590   -13.0180 
   87.1250    68.1040    10.7240     8.1590    10.5530    23.7470     2.1540   -12.6980 
   87.2500    73.2370    10.4790     8.1030    10.4680    23.7510     2.1490   -12.4170 
   87.3750    74.6500    10.2860     8.0660    10.2700    23.8050     2.1500   -12.0770 
   87.5000    71.9380    10.2830     8.1080    10.1430    23.9310     2.1600   -11.6450 
   87.6250    70.2640    10.6500     8.3370    10.0690    24.0410     2.1720   -11.1120 
   87.7500    69.7220    11.2810     8.7230    10.4090    24.4130     2.1800   -10.4620 
   87.8750    68.5450    11.8940     9.1170    12.3620    25.2210     2.1870    -9.7110 
   88.0000    67.2100    12.0560     9.2500    19.0130    26.5400     2.1990    -8.9610 
   88.1250    70.2990    11.2710     8.7710    25.8490    25.1890     2.2220    -8.2220 
   88.2500    80.3120     9.7990     7.8040    18.0020    24.4150     2.2540    -7.3960 
   88.3750    93.3870     8.1480     6.6580     8.0900    24.0610     2.2800    -6.5690 
   88.5000   102.1150     6.8670     5.6820     4.3760    23.9880     2.2910    -5.8610 
   88.6250   102.8540     6.4430     5.2050     4.0000    23.8770     2.2900    -5.3440 
   88.7500    99.7680     6.8210     5.2560     4.6070    23.7830     2.2950    -5.0620 
   88.8750    95.9270     7.8520     5.8120     5.4500    23.6960     2.3090    -5.0130 
   89.0000    92.4720     9.2010     6.7300     7.2800    23.5970     2.3300    -5.0930 
   89.1250    92.3370    10.2010     7.6190    10.6570    23.5270     2.3630    -5.2300 
   89.2500    95.2020    10.3510     8.0100    12.4810    23.5140     2.3980    -5.5050 
   89.3750    98.2480     9.6750     7.7830     8.6280    23.5700     2.4090    -5.9260 
   89.5000    97.8870     8.6680     7.1970     5.7710    23.6060     2.3760    -6.4480 
   89.6250    94.0890     7.9640     6.6760     5.1900    23.5820     2.3130    -7.0710 
   89.7500    90.3100     7.7840     6.4590     5.7290    23.5250     2.2620    -7.6760 
   89.8750    85.9670     8.0910     6.5970     6.7520    23.4540     2.2290    -8.2070 
   90.0000    80.0400     8.7100     7.0220     7.4970    23.4260     2.2040    -8.7260 
   90.1250    76.1000     9.3590     7.5470     7.4550    23.4590     2.1820    -9.3330 
   90.2500    75.1370     9.8060     7.9330     7.3430    23.4760     2.1680    -9.9070 
   90.3750    75.2920     9.9760     8.0740     7.7370    23.4380     2.1620   -10.3210 
   90.5000    78.2080     9.8900     7.9670     8.0430    23.4150     2.1610   -10.5030 
   90.6250    86.6060     9.5960     7.6570     7.9210    23.5000     2.1630   -10.4710 
   90.7500    92.1060     9.1970     7.2560     7.4280    23.6960     2.1700   -10.4050 
   90.8750    88.6760     8.7180     6.8140     6.8550    23.8880     2.1770   -10.3950 
   91.0000    81.7700     8.1710     6.3540     6.7130    24.0060     2.1820   -10.3870 
   91.1250    79.6910     7.6580     5.9460     6.9590    24.0470     2.1890   -10.2820 
   91.2500    80.2430     7.4240     5.7200     7.1030    24.0460     2.2030   -10.1010 
   91.3750    81.0920     7.7680     5.8440     7.1270    24.0380     2.2220    -9.9610 
   91.5000    81.7110     8.9930     6.5000     7.6150    24.0660     2.2470    -9.9550 
   91.6250    81.3300    11.5560     8.0510    11.0210    24.1320     2.2820   -10.0790 
