~V
VERS. 2.00: Ver 2.00
~W
STRT.M 50.0000:
STOP.M 270.0000:
STEP.M 0.1250:
NULL. -999.2500:
UWI. F11070:
~C
DEPT.M :
DEN.GM/CC :
GR.API :
RML.OHMM :
RI. :
RXO.OHMM :
CALI.CM :
SP.MV :
~A
# ...
  252.5000     2.4260    77.9490     9.2530     7.4680     9.4710    24.1280    -7.6290 
  252.6250     2.4110    76.6330    10.5270     8.6940    11.1870    24.2060    -7.7390 
  252.7500     2.3950    72.2160    11.1640     9.4890    13.5160    24.2680    -7.8490 
  252.8750     2.3750    70.1800    10.9570     9.5890    13.9880    24.3180    -7.9310 
  253.0000     2.3530    75.9250    10.0880     9.0580    12.2600    24.3710    -8.0260 
  253.1250     2.3360    83.8060     9.0560     8.2390     8.9510    24.3810    -8.1630 
  253.2500     2.3270    85.0670     8.3400     7.5590     7.1740    24.4520    -8.3070 
  253.3750     2.3310    81.0920     8.1410     7.2360     6.8550    24.5730    -8.4590 
  253.5000     2.3400    77.1330     8.5150     7.3800     7.6100    24.6060    -8.6180 
  253.6250     2.3470    76.8280     9.4960     8.1020     8.2450    24.6220    -8.7800 
  253.7500     2.3520    77.6130    10.8490     9.2420     9.3860    24.6350    -8.9660 
  253.8750     2.3680    78.4830    12.3510    10.6330    11.2630    24.6460    -9.2030 
  254.0000     2.3960    76.4490    13.7420    12.0370    13.5160    24.6070    -9.4420 
  254.1250     2.4090    72.2340    14.7370    13.1630    14.9980    24.6230    -9.6070 
  254.2500     2.3960    70.2120    15.3290    13.9220    15.5730    24.6440    -9.7290 
  254.3750     2.3720    70.0500    15.5700    14.3140    16.4870    24.6440    -9.8790 
  254.5000     2.3590    69.7190    15.5320    14.3880    17.0120    24.6270   -10.0520 
  254.6250     2.3620    69.0390    15.2650    14.1880    17.1120    24.6940   -10.2250 
  254.7500     2.3650    69.0770    14.9040    13.8640    16.0460    24.7760   -10.4250 
  254.8750     2.3680    67.7180    14.5790    13.5300    15.6540    24.8090   -10.6520 
  255.0000     2.3770    65.8150    14.4560    13.3240    15.0140    24.7580   -10.9070 
  255.1250     2.3930    67.3090    14.7860    13.4790    15.2870    24.7170   -11.1720 
  255.2500     2.4120    69.2110    15.6110    14.0850    17.8550    24.7000   -11.4650 
  255.3750     2.4370    69.3870    16.9490    15.2040    23.0470    24.7050   -11.7680 
  255.5000     2.4550    68.2750    18.7710    16.8480    25.8550    24.7440   -12.0910 
  255.6250     2.4330    67.4290    21.0630    19.0340    25.6970    24.8900   -12.4540 
  255.7500     2.3850    65.3480    23.6300    21.5480    27.2040    25.0600   -12.8810 
  255.8750     2.3450    62.3940    26.3460    24.2420    29.6020    25.0380   -13.3090 
  256.0000     2.3270    61.4380    29.0440    26.9540    32.4170    24.7870   -13.6780 
  256.1250     2.2920    62.6610    31.3380    29.3430    34.2830    24.9290   -14.0200 
  256.2500     2.2210    62.5350    32.8890    31.0750    30.7380    25.3400   -14.3520 
  256.3750     2.1590    60.9300    33.4570    31.8760    24.9280    25.5120   -14.6670 
  256.5000     2.1680    60.1380    33.0080    31.6370    23.1470    25.0640   -14.9600 
  256.6250     2.2600    59.9900    31.7200    30.4260    27.7540    24.7030   -15.2070 
  256.7500     2.3690    58.8310    30.2100    28.8570    26.9630    24.5950   -15.3720 
  256.8750     2.4340    58.8530    28.8460    27.3360    25.6660    24.5480   -15.4220 
  257.0000     2.4220    60.4370    27.9010    26.1770    21.9720    24.4910   -15.3380 
  257.1250     2.3410    59.4560    27.9360    25.9080    17.8430    24.6190   -15.1140 
  257.2500     2.2400    55.8430    29.3930    26.9160    13.7920    25.0060   -14.7770 
  257.3750     2.1600    54.6580    32.8600    29.7930    10.6390    25.8590   -14.3200 
  257.5000     2.1440    57.3270    38.7980    35.1830     9.2430    26.3870   -13.7630 
  257.6250     2.2220    58.1470    46.8040    43.1670    16.7810    25.8470   -13.1480 
  257.7500     2.3610    55.7240    52.7630    50.1100    41.0920    24.8620   -12.4540 
  257.8750     2.5140    53.2970    50.9740    50.4610    67.8660    24.3930   -11.6910 
  258.0000     2.6220    53.3350    40.0270    41.6410    64.1430    24.2460   -10.9190 
  258.1250     2.6420    54.6710    26.4970    28.5850    48.4460    24.2280   -10.2170 
  258.2500     2.6000    54.5020    16.5150    18.1370    26.3470    24.2640    -9.6130 
  258.3750     2.5050    53.1760    10.5430    11.5600    11.3870    24.5800    -9.1280 
  258.5000     2.3800    53.3320     7.4370     7.9980     6.0740    25.1980    -8.7590 
  258.6250     2.2810    56.2890     6.2120     6.4450     5.0600    25.6880    -8.4270 
  258.7500     2.2300    57.1810     5.8240     5.7930     5.2000    25.8910    -8.0900 
  258.8750     2.2150    54.5130     5.8730     5.6700     5.4680    25.7610    -7.7990 
  259.0000     2.2090    52.4950     6.0880     5.8200     5.7360    25.9030    -7.6110 
  259.1250     2.2130    54.5640     6.2690     6.0450     6.0980    26.0480    -7.5560 
  259.2500     2.2350    56.1300     6.3380     6.2120     6.2210    25.8450    -7.5100 
  259.3750     2.2590    55.5730     6.3060     6.2920     5.8220    25.5510    -7.4420 
  259.5000     2.2560    55.4330     6.2140     6.2990     5.3790    25.4260    -7.3490 
  259.6250     2.2280    56.7640     6.0970     6.2500     5.3150    25.5840    -7.2100 
  259.7500     2.2160    57.6450     5.9840     6.1740     5.2800    25.8750    -7.1720 
  259.8750     2.2370    57.5290     5.8860     6.0860     5.1370    26.1360    -7.2110 
  260.0000     2.2780    57.7020     5.8170     5.9970     5.0070    26.3510    -7.2450 
  260.1250     2.3240    57.7020     5.8020     5.9280     4.9230    26.2860    -7.2460 
  260.2500     2.3640    57.7020     5.8430     5.8870     4.8450    25.8890    -7.2750 
  260.3750     2.3890    57.7020     5.9260     5.8760     4.7750    25.8680    -7.3000 
  260.5000     2.3860    57.7020     6.0240     5.8860     4.7800    26.2430    -7.3360 
  260.6250     2.3510    57.7020     6.1010     5.8960     4.7810    26.3130    -7.4480 
  260.7500     2.3060    57.7020     6.1340     5.8860     4.8110    26.0110    -7.5130 
  260.8750     2.2730    57.7020     6.1240     5.8520     4.8810    25.6040    -7.5740 
  261.0000     2.2640    57.7020     6.0920     5.8020     4.8080    25.3640    -7.5930 
  261.1250     2.2870    57.7020     6.0730     5.7610     4.7890    25.3670    -7.6130 
  261.2500     2.3170    57.7020     6.0920     5.7500     4.9920    25.6480    -7.6020 
  261.3750     2.3240    57.7020     6.1680     5.7820     5.3820    25.8430    -7.6100 
  261.5000     2.2970    57.7020     6.3070     5.8630     5.6520    25.7860    -7.6110 
  261.6250     2.2530    57.7020     6.5060     6.0050     5.6390    25.4560    -7.5100 
  261.7500     2.2220    57.7020     6.7490     6.1950     5.3450    25.2160    -7.3820 
  261.8750     2.2140    57.7020     7.0360     6.4300     5.1430    25.1620    -7.2310 
  262.0000     2.2320    57.7020     7.3580     6.7000     5.6810    25.2050    -7.0920 
  262.1250     2.2690    57.7020     7.6780     6.9800     7.3670    25.1700    -6.8040 
  262.2500     2.3000    57.7020     7.9470     7.2290     9.2610    24.9760    -6.4760 
  262.3750     2.3120    57.7020     8.1370     7.4160     9.6050    24.6690    -6.1480 
  262.5000     2.3070    57.7020     8.2500     7.5300     9.0960    24.3390    -5.7680 
  262.6250     2.2920    57.7020     8.3060     7.5690     9.0690    24.2150    -5.3790 
  262.7500     2.2870    57.7020     8.3380     7.5730     9.5150    24.2630    -4.9320 
  262.8750     2.3010    57.7020     8.3530     7.5670    10.1790    24.2890    -4.4390 
  263.0000     2.3280    57.7020     8.3590     7.5620    10.1060    24.1330    -3.9920 
  263.1250     2.3510    57.7020     8.3680     7.5600    10.5240    24.0140    -3.6940 
  263.2500     2.3580    57.7020     8.3870     7.5640    12.9670    23.9750    -3.4790 
  263.3750     2.3490    57.7020     8.4140     7.5710    17.9830    23.8990    -3.2320 
  263.5000     2.3240    57.7020     8.4390     7.5780    20.6640    23.8510    -3.0580 
  263.6250     2.2960    57.7020     8.4460     7.5810    15.2230    23.8860    -2.9890 
