~V
VERS. 2.00: Ver 2.00
~W
STRT.M 55.0000:
STOP.M 286.0000:
STEP.M 0.1250:
NULL. -999.2500:
UWI. F11067:
~C
DEPT.M :
GR.API :
RML.OHMM :
RI. :
RXO.OHMM :
CALI.CM :
DEN.GM/CC :
SP.MV :
~A
# ...
  246.2500    79.8540    13.9720    12.9170    17.3210    25.0140     2.3580     1.0670 
  246.3750    80.9190    13.5430    12.5580    15.5770    25.0150     2.3480     0.9830 
  246.5000    84.5780    13.0890    12.2220    13.9680    25.0150     2.3370     0.8770 
  246.6250    85.0850    12.7310    11.9090    13.2300    25.0170     2.3300     0.7800 
  246.7500    83.0090    12.4170    11.5130    12.4350    25.0180     2.3270     0.6830 
  246.8750    81.8630    12.0510    10.9740    12.4250    25.0170     2.3300     0.5860 
  247.0000    83.2430    11.5500    10.2760    12.0600    25.0150     2.3360     0.4890 
  247.1250    86.7900    10.8560     9.4310     9.7430    25.0130     2.3450     0.4080 
  247.2500    91.8450    10.0490     8.5680     8.2420    25.0090     2.3550     0.3500 
  247.3750    96.7400     9.2430     7.8100     8.0220    24.9980     2.3630     0.3260 
  247.5000    97.6470     8.5750     7.2710     8.2970    24.9710     2.3680     0.3580 
  247.6250    94.2060     8.2070     7.0800     8.0050    24.9580     2.3670     0.4300 
  247.7500    90.6810     8.1610     7.2180     7.3610    24.9380     2.3640     0.5440 
  247.8750    87.8530     8.4600     7.6920     8.4270    24.8740     2.3600     0.6570 
  248.0000    84.1420     9.1300     8.5400    10.6030    24.7720     2.3540     0.7570 
  248.1250    78.2400    10.2960     9.9210    12.2550    24.7300     2.3420     0.8410 
  248.2500    74.5380    11.9290    11.8100    13.6190    24.8000     2.3230     0.9110 
  248.3750    75.2100    13.9670    14.1000    16.4580    24.8750     2.3010     0.9540 
  248.5000    77.0900    16.1620    16.4240    22.9220    24.9100     2.2820     0.9370 
  248.6250    75.2300    17.9050    17.9420    30.1570    24.9010     2.2740     0.8720 
  248.7500    72.1600    18.6460    18.1040    28.9630    24.8470     2.2780     0.8020 
  248.8750    71.3660    18.1060    16.8600    21.3770    24.7830     2.2920     0.7400 
  249.0000    72.5880    16.4510    14.7440    15.8540    24.7520     2.3140     0.6770 
  249.1250    72.7820    14.2360    12.5650    13.1290    24.7250     2.3440     0.6140 
  249.2500    72.3950    12.2220    10.8470    10.7570    24.6220     2.3720     0.5610 
  249.3750    72.6870    10.7620     9.7330     7.8400    24.4260     2.3880     0.5280 
  249.5000    74.1910     9.9530     9.2010     6.8800    24.2700     2.3850     0.5000 
  249.6250    76.3480     9.7680     9.1980     7.9300    24.2500     2.3600     0.4550 
  249.7500    79.2750     9.9670     9.4480     9.2130    24.3510     2.3290     0.3830 
  249.8750    82.8700    10.4160     9.7480     9.8720    24.5140     2.3060     0.2910 
  250.0000    84.7170    10.8790     9.9100    10.3540    24.6430     2.2970     0.1940 
  250.1250    83.0710    10.9920     9.7750    10.3250    24.6740     2.3030     0.1080 
  250.2500    80.8220    10.7210     9.4340     9.3050    24.6650     2.3110     0.0140 
  250.3750    79.9300    10.2590     9.0540     8.8870    24.6440     2.3160    -0.0950 
  250.5000    81.3170     9.8570     8.8100     8.8790    24.6380     2.3140    -0.1940 
  250.6250    82.8140     9.7590     8.9250     8.8680    24.6560     2.3080    -0.2910 
  250.7500    82.0100    10.0850     9.4760     9.3020    24.6760     2.3040    -0.3880 
  250.8750    78.7150    10.9160    10.5120    11.0330    24.6930     2.3040    -0.4780 
  251.0000    74.6080    12.2270    11.9640    13.8560    24.7340     2.3060    -0.5450 
  251.1250    71.9570    13.8430    13.5630    16.5350    24.8300     2.3070    -0.6220 
  251.2500    70.4020    15.3260    14.8330    18.1100    24.9180     2.3020    -0.6930 
  251.3750    71.0640    16.3100    15.4320    17.5070    24.9520     2.2920    -0.7380 
  251.5000    73.7490    16.5950    15.2990    16.3030    24.9610     2.2820    -0.7870 
  251.6250    75.1020    16.1930    14.6630    15.5830    24.9970     2.2770    -0.8130 
  251.7500    74.9970    15.5710    13.9850    15.5840    25.0830     2.2800    -0.8390 
  251.8750    74.5870    14.9710    13.5120    15.6550    25.1700     2.2880    -0.8850 
  252.0000    74.0690    14.5050    13.3660    16.5530    25.2090     2.2970    -0.9370 
  252.1250    72.8550    14.3660    13.6150    17.3760    25.1890     2.3010    -0.9920 
  252.2500    70.9250    14.6500    14.1280    17.1340    25.1050     2.3020    -1.0800 
  252.3750    67.9440    15.2910    14.8160    17.9580    24.9890     2.2980    -1.2020 
  252.5000    63.9920    16.0960    15.6260    19.8290    24.9340     2.2890    -1.3430 
  252.6250    63.1930    16.9780    16.6050    20.2390    25.0280     2.2700    -1.4880 
  252.7500    65.3970    18.0170    17.8520    19.8860    25.2540     2.2410    -1.6420 
  252.8750    66.8190    19.3310    19.5150    21.0980    25.4920     2.2070    -1.7830 
  253.0000    65.9860    21.0380    21.7020    24.3070    25.5780     2.1740    -1.9230 
  253.1250    64.0620    23.2420    24.4650    29.4780    25.3820     2.1530    -2.0820 
  253.2500    62.6980    25.7460    27.4790    33.5830    24.9750     2.1470    -2.2040 
  253.3750    62.4160    28.3090    30.3730    38.4400    24.6840     2.1570    -2.3260 
  253.5000    62.0910    30.6250    32.7380    39.5900    24.7190     2.1770    -2.4480 
  253.6250    59.7310    32.2090    33.9900    37.9740    25.0110     2.2000    -2.5590 
  253.7500    57.4270    32.7780    33.8700    38.2220    25.0910     2.2170    -2.6700 
  253.8750    57.3080    32.0530    32.1420    39.5220    25.0490     2.2240    -2.7530 
  254.0000    59.8090    29.9800    29.0140    38.6970    24.9990     2.2210    -2.8270 
  254.1250    63.0050    26.8110    25.2440    31.1680    24.9560     2.2170    -2.8710 
  254.2500    66.4910    23.4620    21.8530    22.7700    24.8370     2.2260    -2.8790 
  254.3750    69.0230    20.5890    19.3210    19.1240    24.6000     2.2560    -2.8590 
  254.5000    69.7810    18.5980    17.7880    19.8380    24.3490     2.3050    -2.8210 
  254.6250    70.9820    17.7840    17.3870    22.6770    24.2330     2.3510    -2.7650 
  254.7500    73.4310    17.9240    17.9310    24.9570    24.3080     2.3690    -2.6860 
  254.8750    73.3700    18.9600    19.4830    24.1350    24.4270     2.3530    -2.5930 
  255.0000    68.4830    20.9140    22.1930    20.6620    24.5350     2.3220    -2.4770 
  255.1250    62.3160    24.1950    26.7380    19.5640    24.6810     2.3130    -2.3450 
  255.2500    59.0360    29.0860    33.6040    24.4690    24.8570     2.3410    -2.2090 
  255.3750    59.4530    36.2160    43.6120    38.8330    24.9230     2.3990    -2.0450 
  255.5000    62.1940    46.2430    57.2890    66.2850    24.9080     2.4670    -1.8390 
  255.6250    64.8990    59.4550    73.7470    88.0590    24.8990     2.5330    -1.6300 
  255.7500    63.9700    72.3750    87.0660   121.4070    24.8950     2.5990    -1.4200 
  255.8750    58.2250    79.3910    88.9810   168.6480    24.8960     2.6560    -1.1830 
  256.0000    50.3430    75.5400    75.2380   168.0780    24.8960     2.6880    -0.9460 
  256.1250    44.6160    60.1090    52.5990   127.8600    24.8960     2.6650    -0.7360 
  256.2500    42.8740    41.8270    33.2860    67.5530    24.9060     2.5970    -0.5350 
  256.3750    45.1690    26.6440    20.5040    26.7970    24.9350     2.5050    -0.3490 
  256.5000    51.2340    16.6900    13.2610    10.4840    24.9750     2.4210    -0.1980 
  256.6250    58.5330    11.6410     9.9060     7.1270    24.9930     2.3710    -0.0800 
  256.7500    62.8050     9.1250     8.2940     6.5150    24.9950     2.3510     0.0200 
  256.8750    62.6570     8.1000     7.6920     6.4840    24.9690     2.3500     0.0710 
  257.0000    60.3780     7.8820     7.6710     6.4340    24.8970     2.3590     0.0820 
  257.1250    59.9400     8.0240     7.9010     6.3570    24.7870     2.3690     0.0930 
  257.2500    60.4530     8.1680     8.0930     6.2760    24.6470     2.3730     0.0570 
  257.3750    60.9100     8.2010     8.1630     6.2140    24.5020     2.3670     0.0020 
