~V
VERS. 2.00: Ver 2.00
~W
STRT.M 50.0000:
STOP.M 275.0000:
STEP.M 0.1250:
NULL. -999.2500:
UWI. F11033:
~C
DEPT.M :
DEN.GM/CC :
GR.API :
RML.OHMM :
RI. :
RXO.OHMM :
CALI.CM :
SP.MV :
~A
# ...
  140.0000     2.4320    69.1860    22.1740    21.6860    23.7630    25.0460   -21.5760 
  140.1250     2.4270    68.0220    22.5280    22.0710    25.5860    24.9720   -21.5820 
  140.2500     2.4210    69.0320    22.6720    22.2440    26.2070    24.8030   -21.6220 
  140.3750     2.4200    70.5870    22.5170    22.0790    24.7740    24.5530   -21.6660 
  140.5000     2.4210    72.0390    22.1190    21.6130    23.1290    24.3380   -21.6980 
  140.6250     2.4210    72.4730    21.6680    21.0300    21.9060    24.3330   -21.7620 
  140.7500     2.4230    70.7580    21.3440    20.5500    20.7200    24.5000   -21.8380 
  140.8750     2.4280    68.4210    21.1920    20.2530    19.6640    24.7680   -21.9150 
  141.0000     2.4340    68.0880    21.1740    20.1240    19.1750    25.0390   -21.9790 
  141.1250     2.4370    69.8590    21.2210    20.0930    20.0090    25.1460   -22.0030 
  141.2500     2.4370    70.7970    21.2690    20.0770    21.1590    25.1820   -21.9940 
  141.3750     2.4330    70.6060    21.3210    20.0620    20.9860    25.2160   -21.9710 
  141.5000     2.4290    69.2490    21.3960    20.0710    20.1490    25.2870   -21.9480 
  141.6250     2.4330    65.6300    21.4600    20.1170    20.4670    25.3230   -21.8990 
  141.7500     2.4430    63.2960    21.4420    20.1610    20.7900    25.3160   -21.8380 
  141.8750     2.4480    66.0110    21.2930    20.1480    21.7470    25.2450   -21.7770 
  142.0000     2.4420    72.4800    21.0010    20.0180    23.3770    25.1300   -21.7160 
  142.1250     2.4300    77.6080    20.5950    19.7170    23.0870    24.9980   -21.6480 
  142.2500     2.4250    79.0220    20.2070    19.3390    21.0940    24.9100   -21.5730 
  142.3750     2.4270    75.9190    19.9840    19.0310    20.1220    24.8990   -21.4840 
  142.5000     2.4280    69.3770    20.0520    18.9510    18.9820    24.9600   -21.3930 
  142.6250     2.4250    64.6900    20.4570    19.2130    18.6820    25.0770   -21.2650 
  142.7500     2.4210    65.4690    20.8320    19.5430    19.3160    25.1350   -21.1030 
  142.8750     2.4170    69.1150    20.6080    19.4340    20.2780    25.1290   -20.9230 
  143.0000     2.4040    71.3420    19.2420    18.3430    20.8430    25.1100   -20.7460 
  143.1250     2.3690    70.6270    16.6030    16.0610    19.8240    25.0910   -20.5950 
  143.2500     2.3240    70.1670    13.6710    13.4210    17.4350    25.0640   -20.4590 
  143.3750     2.2860    72.7230    11.2130    11.0840    13.4020    25.0450   -20.3510 
  143.5000     2.2650    76.9180     9.6240     9.4050     9.1020    25.0580   -20.2700 
  143.6250     2.2590    77.1140     9.0300     8.5500     8.1130    25.1320   -20.2580 
  143.7500     2.2560    73.1780     9.0360     8.2620     9.0690    25.2360   -20.3030 
  143.8750     2.2540    70.3310     9.3600     8.3530    10.5210    25.3390   -20.3720 
  144.0000     2.2570    73.4760     9.7300     8.6170    10.8460    25.3980   -20.4410 
  144.1250     2.2700    80.4800     9.8830     8.8360    10.0460    25.4080   -20.5060 
  144.2500     2.2880    87.4110     9.7630     8.8790     9.3690    25.3400   -20.5540 
  144.3750     2.3060    91.9740     9.3970     8.7110     8.8400    25.2070   -20.5920 
  144.5000     2.3190    92.8460     8.8400     8.3420     8.7230    25.0650   -20.6180 
  144.6250     2.3150    89.8680     8.1020     7.7660     8.7950    24.9490   -20.6240 
  144.7500     2.2950    85.0450     7.2690     7.0650     8.5520    24.8620   -20.6180 
  144.8750     2.2740    81.1850     6.4510     6.3370     7.0200    24.8680   -20.6070 
  145.0000     2.2660    79.7680     5.7730     5.6940     5.4150    24.9600   -20.5990 
  145.1250     2.2770    80.1480     5.3600     5.2390     4.7490    25.0320   -20.5870 
  145.2500     2.2910    79.5090     5.1810     4.9590     4.5290    25.0010   -20.5930 
  145.3750     2.3000    76.8000     5.1810     4.8310     4.4530    24.8830   -20.6080 
  145.5000     2.2990    74.1080     5.2840     4.8160     4.4500    24.7670   -20.6240 
  145.6250     2.2940    74.2080     5.4250     4.8850     4.4730    24.7330   -20.6190 
  145.7500     2.2900    76.1130     5.5660     4.9960     4.5190    24.7910   -20.5870 
  145.8750     2.2850    78.2600     5.7040     5.1280     4.6870    24.8730   -20.5370 
  146.0000     2.2790    79.9540     5.8290     5.2520     4.9840    24.9320   -20.4890 
  146.1250     2.2730    81.9590     5.9150     5.3260     5.1910    24.9530   -20.4420 
  146.2500     2.2650    83.8520     5.9430     5.3390     5.2010    24.9640   -20.3830 
  146.3750     2.2600    83.2980     5.9080     5.2950     5.1570    24.9800   -20.3090 
  146.5000     2.2620    80.2920     5.8330     5.2150     5.1090    24.9790   -20.2270 
  146.6250     2.2690    79.7170     5.7610     5.1270     5.0370    24.9810   -20.1480 
  146.7500     2.2690    80.7660     5.7300     5.0540     5.0150    24.9650   -20.1020 
  146.8750     2.2610    79.9830     5.7460     5.0010     5.0170    24.9550   -20.0930 
  147.0000     2.2500    77.6450     5.7840     4.9630     5.0140    24.9450   -20.1050 
  147.1250     2.2420    79.7900     5.8030     4.9350     4.9840    24.9160   -20.1320 
  147.2500     2.2420    84.2680     5.7950     4.9110     5.0050    24.8690   -20.1510 
  147.3750     2.2450    85.3090     5.7840     4.8890     5.1050    24.8280   -20.1830 
  147.5000     2.2480    84.1720     5.8020     4.8720     5.1980    24.8150   -20.2210 
  147.6250     2.2490    84.9640     5.8710     4.8640     5.1870    24.8290   -20.2390 
  147.7500     2.2510    84.6250     5.9640     4.8640     5.1250    24.8430   -20.2390 
  147.8750     2.2570    81.3260     6.0400     4.8690     5.0680    24.8250   -20.2390 
  148.0000     2.2650    77.6720     6.0530     4.8730     5.0130    24.8150   -20.2210 
  148.1250     2.2710    78.2300     5.9560     4.8650     5.0390    24.8200   -20.1900 
  148.2500     2.2730    81.9110     5.7900     4.8430     5.0560    24.8100   -20.2090 
  148.3750     2.2740    85.5960     5.6250     4.8130     4.9710    24.7590   -20.2590 
  148.5000     2.2760    86.4960     5.5350     4.7880     4.8660    24.7300   -20.3250 
  148.6250     2.2760    84.0340     5.5790     4.7840     4.7880    24.7250   -20.4450 
  148.7500     2.2740    82.1520     5.6980     4.8020     4.8440    24.7280   -20.5900 
  148.8750     2.2760    80.7420     5.8140     4.8320     4.9930    24.7280   -20.7260 
  149.0000     2.2840    78.6380     5.8640     4.8630     5.0970    24.7280   -20.8430 
  149.1250     2.2920    79.1030     5.8310     4.8830     5.1540    24.7230   -20.9300 
  149.2500     2.2960    82.4820     5.7700     4.8930     5.1380    24.7080   -20.9810 
  149.3750     2.2970    84.3800     5.7230     4.8990     5.1130    24.6840   -20.9950 
  149.5000     2.2980    82.9100     5.7130     4.9080     5.0480    24.6620   -20.9900 
  149.6250     2.3010    82.3210     5.7270     4.9150     4.9920    24.6130   -20.9320 
  149.7500     2.3050    83.8080     5.7210     4.9080     5.0060    24.5910   -20.8400 
  149.8750     2.3080    84.8150     5.6710     4.8740     4.9880    24.5850   -20.7120 
  150.0000     2.3050    84.6780     5.5760     4.8070     4.9170    24.5960   -20.5930 
  150.1250     2.2960    84.7950     5.4470     4.7120     4.8350    24.6790   -20.5110 
  150.2500     2.2890    84.6210     5.3160     4.6060     4.7240    24.8370   -20.4410 
  150.3750     2.2830    82.8860     5.1980     4.5040     4.5540    24.9710   -20.3800 
  150.5000     2.2770    80.0350     5.0990     4.4150     4.3890    25.0220   -20.3250 
  150.6250     2.2710    78.6470     5.0110     4.3450     4.3990    25.0080   -20.3060 
  150.7500     2.2690    79.4590     4.9160     4.2900     4.4490    24.9750   -20.3280 
  150.8750     2.2770    80.4990     4.8060     4.2480     4.4590    24.9410   -20.4130 
  151.0000     2.2970    79.7260     4.6910     4.2130     4.5750    24.9380   -20.5320 
  151.1250     2.3210    77.8550     4.6040     4.1790     4.5180    24.9580   -20.6630 
