~V
VERS. 2.00: Ver 2.00
~W
STRT.M 53.0000:
STOP.M 220.0000:
STEP.M 0.1250:
NULL. -999.2500:
UWI. F11005:
~C
DEPT.M :
DEN.GM/CC :
GR.API :
RML.OHMM :
RI. :
RXO.OHMM :
CALI.CM :
SP.MV :
~A
# ...
  199.2500     2.3150    54.7370     6.8590     7.2770     6.5850    24.8640   -19.1430 
  199.3750     2.3230    55.9970     6.9040     7.3480     6.2320    25.0260   -19.4290 
  199.5000     2.3270    58.2250     6.8720     7.3180     6.2960    25.0570   -19.6490 
  199.6250     2.3270    59.0940     6.7900     7.2140     6.3930    25.0370   -19.8390 
  199.7500     2.3260    57.9560     6.7030     7.0830     6.2570    25.0390   -20.0410 
  199.8750     2.3260    54.4690     6.6390     6.9560     6.1380    25.0440   -20.3170 
  200.0000     2.3270    50.4710     6.6270     6.8550     6.1980    24.9930   -20.6940 
  200.1250     2.3250    50.6530     6.6890     6.7990     6.2190    24.9260   -21.0440 
  200.2500     2.3180    53.9470     6.7980     6.7830     6.3230    24.9270   -21.3410 
  200.3750     2.3080    55.8860     6.9210     6.7890     6.6970    24.9760   -21.5500 
  200.5000     2.3010    55.5920     7.0190     6.7900     7.0610    24.9690   -21.6480 
  200.6250     2.3040    54.8260     7.0600     6.7610     6.8680    24.8740   -21.6610 
  200.7500     2.3160    54.8470     7.0680     6.7100     6.5350    24.8390   -21.5630 
  200.8750     2.3270    56.1160     7.0770     6.6650     6.6130    24.9230   -21.3870 
  201.0000     2.3280    58.3390     7.1240     6.6550     6.6380    24.9680   -21.1710 
  201.1250     2.3150    58.6980     7.2270     6.6980     6.3780    24.9070   -20.9930 
  201.2500     2.2990    55.4910     7.3520     6.7660     6.3200    24.8920   -20.8610 
  201.3750     2.2860    50.5380     7.4590     6.8230     6.4580    24.8370   -20.7730 
  201.5000     2.2830    48.6540     7.5120     6.8340     6.6380    24.7210   -20.7070 
  201.6250     2.2860    53.3730     7.4850     6.7690     6.3890    24.7020   -20.5750 
  201.7500     2.2900    58.9330     7.4090     6.6550     6.1950    24.6990   -20.4140 
  201.8750     2.2920    60.7000     7.3070     6.5150     6.2280    24.6590   -20.1440 
  202.0000     2.2940    58.7790     7.1980     6.3690     6.2550    24.5350   -19.7600 
  202.1250     2.3020    56.9310     7.0990     6.2330     6.0770    24.4790   -19.2900 
  202.2500     2.3170    56.4930     7.0200     6.1210     6.0270    24.5030   -18.8130 
  202.3750     2.3390    57.4730     6.9790     6.0450     6.0210    24.6340   -18.3610 
  202.5000     2.3630    63.5230     7.0030     6.0270     5.9510    24.8460   -17.9710 
  202.6250     2.3870    75.6840     7.1390     6.1120     6.2230    24.9990   -17.6900 
  202.7500     2.4060    86.7660     7.3830     6.3020     6.8040    25.1610   -17.4650 
  202.8750     2.4180    92.4670     7.7310     6.5920     7.3750    25.2630   -17.3420 
  203.0000     2.4250    95.1300     8.1610     6.9710     7.7710    25.2520   -17.2070 
  203.1250     2.4280    96.8920     8.6370     7.4180     8.1230    25.1910   -17.0000 
  203.2500     2.4280    96.4520     9.0730     7.8610     8.5060    25.1630   -16.6840 
  203.3750     2.4250    95.5260     9.3700     8.2080     8.9730    25.2080   -16.2180 
  203.5000     2.4170    97.8250     9.4270     8.3480     9.2410    25.2500   -15.6260 
  203.6250     2.4030   101.2900     9.1390     8.1580     9.2010    25.2560   -14.8490 
  203.7500     2.3860   102.2410     8.6130     7.7190     8.5020    25.2700   -13.9810 
  203.8750     2.3710   100.4810     7.9780     7.1540     7.2550    25.2980   -13.0880 
  204.0000     2.3590    97.3900     7.3860     6.6040     6.2180    25.3390   -12.2440 
  204.1250     2.3530    93.0630     6.9740     6.1990     5.7340    25.3400   -11.4840 
  204.2500     2.3480    88.8650     6.7370     5.9490     5.5950    25.3060   -10.8880 
  204.3750     2.3420    86.5090     6.6270     5.8220     5.6620    25.2310   -10.4640 
  204.5000     2.3380    85.6140     6.5760     5.7690     5.7700    25.2090   -10.2060 
  204.6250     2.3460    84.3410     6.5330     5.7440     5.7400    25.1500   -10.1390 
  204.7500     2.3660    82.8950     6.4980     5.7280     5.6840    25.1720   -10.1960 
  204.8750     2.3960    82.9800     6.5050     5.7460     5.5000    25.2040   -10.2830 
  205.0000     2.4260    84.7630     6.5880     5.8260     5.4470    25.1900   -10.3370 
  205.1250     2.4440    84.1680     6.7420     5.9710     5.8520    25.1530   -10.3810 
  205.2500     2.4440    81.7840     6.8900     6.1110     6.2600    25.1850   -10.3590 
  205.3750     2.4290    80.3830     6.9680     6.1810     6.4310    25.2310   -10.2940 
  205.5000     2.4050    80.6730     6.9530     6.1440     6.9750    25.2330   -10.1470 
  205.6250     2.3820    82.2780     6.8650     6.0040     6.2260    25.2170    -9.9820 
  205.7500     2.3670    84.1840     6.7750     5.8360     5.3870    25.2160    -9.7810 
  205.8750     2.3600    86.7520     6.7080     5.6780     5.0350    25.2060    -9.5610 
  206.0000     2.3570    87.5930     6.6390     5.5270     5.2770    25.1760    -9.3830 
  206.1250     2.3520    85.4840     6.5070     5.3390     5.3600    25.1840    -9.2260 
  206.2500     2.3440    86.2710     6.3170     5.1160     5.2600    25.1670    -9.0920 
  206.3750     2.3380    91.8390     6.1520     4.9180     4.9630    25.1850    -8.9880 
  206.5000     2.3400    96.8320     6.1640     4.8490     4.6810    25.2030    -8.9780 
  206.6250     2.3550    93.7990     6.6150     5.0850     4.6840    25.2590    -9.0040 
  206.7500     2.3780    89.4240     7.5730     5.6950     5.4190    25.2420    -9.0700 
  206.8750     2.4000    88.7330     9.0090     6.7150     7.3280    25.2120    -9.1890 
  207.0000     2.4150    88.8160    10.7050     8.0670    10.7510    25.2190    -9.3110 
  207.1250     2.4180    86.4640    12.1870     9.4370    13.0500    25.1930    -9.4350 
  207.2500     2.4150    83.5560    13.0620    10.3750    13.1850    25.1170    -9.5300 
  207.3750     2.4080    82.9230    13.2070    10.6580    11.8820    25.0590    -9.5860 
  207.5000     2.3980    84.7560    12.7960    10.3980    10.6680    24.9710    -9.5200 
  207.6250     2.3900    86.4420    12.1970     9.9220    10.2040    24.8640    -9.3780 
  207.7500     2.3820    84.6410    11.7640     9.5520    10.0480    24.8200    -9.2030 
  207.8750     2.3730    80.5890    11.6090     9.3890     8.9990    24.8170    -8.9850 
  208.0000     2.3560    78.0120    11.7090     9.4390     7.4270    24.8270    -8.7630 
  208.1250     2.3310    77.3650    11.9740     9.6570     6.6160    24.9270    -8.5440 
  208.2500     2.3090    78.4790    12.2420     9.9180     6.6040    25.0080    -8.3540 
  208.3750     2.3020    80.2810    12.4070    10.1250     6.7990    25.0310    -8.2090 
  208.5000     2.3130    81.0010    12.3920    10.1990     6.7760    24.9840    -8.1360 
  208.6250     2.3290    79.4830    12.1330    10.0630     6.4080    24.7300    -8.1310 
  208.7500     2.3310    79.1150    11.6910     9.7510     6.1120    24.3580    -8.1360 
  208.8750     2.3130    80.9370    11.1240     9.3090     5.7790    24.0660    -8.0970 
  209.0000     2.2830    81.8340    10.5160     8.8070     5.4740    23.9720    -7.9660 
  209.1250     2.2600    80.9520     9.9690     8.3380     5.7180    24.2140    -7.7680 
  209.2500     2.2540    80.2720     9.5500     7.9640     5.8130    24.5240    -7.5280 
  209.3750     2.2650    80.2720     9.2930     7.7190     5.6030    24.7220    -7.2390 
  209.5000     2.2870    80.2720     9.1970     7.6150     5.1210    24.8190    -6.9470 
  209.6250     2.3130    80.2720     9.2360     7.6500     4.9000    24.8450    -6.6390 
  209.7500     2.3350    80.2720     9.3200     7.7470     4.7780    24.8330    -6.3530 
  209.8750     2.3520    80.2720     9.3980     7.8480     4.6790    24.8390    -6.1550 
  210.0000     2.3690    80.2720     9.4560     7.9270     4.7260    24.9180    -6.0520 
  210.1250     2.3900    80.2720     9.5310     8.0010     4.9680    24.9760    -6.0250 
  210.2500     2.4120    80.2720     9.6700     8.1160     5.9010    24.9710    -6.0490 
  210.3750     2.4270    80.2720     9.8870     8.2960     8.6320    24.9790    -6.1420 
