~V
VERS. 2.00: Ver 2.00
~W
STRT.M 57.0000:
STOP.M 226.0000:
STEP.M 0.1250:
NULL. -999.2500:
UWI. F11011:
~C
DEPT.M :
GR.API :
RML.OHMM :
RI. :
RXO.OHMM :
CALI.CM :
SP.MV :
DEN.GM/CC :
~A
# ...
  124.5000    97.7950     5.9330     4.8910     4.6740    24.6810   -12.8730     2.3050 
  124.6250    98.0040     6.1140     5.0700     4.8450    24.7880   -13.0080     2.2900 
  124.7500    96.7890     6.2170     5.1980     5.3000    24.8440   -13.1230     2.2700 
  124.8750    92.5820     6.2040     5.2310     5.4250    24.7820   -13.1300     2.2540 
  125.0000    88.5650     6.0770     5.1730     5.0670    24.6700   -13.0710     2.2540 
  125.1250    92.4380     5.8660     5.0610     4.8460    24.7160   -12.8370     2.2730 
  125.2500   102.9520     5.6470     4.9520     4.8170    24.7180   -12.5530     2.3020 
  125.3750   111.4670     5.4720     4.8750     4.9340    24.6730   -12.3440     2.3280 
  125.5000   111.7510     5.3690     4.8360     5.1440    24.6630   -12.1680     2.3420 
  125.6250   105.9650     5.3460     4.8140     5.0650    24.7180   -12.0490     2.3380 
  125.7500   101.0570     5.3540     4.7770     4.8880    24.7320   -11.9670     2.3240 
  125.8750    99.6630     5.3570     4.7170     4.7860    24.7220   -11.9440     2.3080 
  126.0000   100.5870     5.3330     4.6420     4.8370    24.7670   -11.9900     2.2950 
  126.1250   100.6260     5.2730     4.5630     4.7480    24.7990   -12.1130     2.2870 
  126.2500    99.8600     5.1870     4.4910     4.6300    24.7830   -12.2110     2.2840 
  126.3750   100.4790     5.0840     4.4340     4.6080    24.7570   -12.2140     2.2870 
  126.5000   102.3910     4.9830     4.3920     4.6820    24.7640   -12.1550     2.2950 
  126.6250   103.4350     4.9330     4.3730     4.6820    24.7900   -12.0560     2.3070 
  126.7500   102.4620     4.9580     4.3820     4.6630    24.7490   -11.9400     2.3200 
  126.8750   102.8890     5.0520     4.4220     4.6700    24.6820   -11.8400     2.3310 
  127.0000   104.9640     5.1770     4.4900     4.8260    24.6740   -11.7000     2.3390 
  127.1250   104.4060     5.2720     4.5750     5.0460    24.7450   -11.6340     2.3390 
  127.2500   101.1560     5.3180     4.6580     5.1200    24.7790   -11.6040     2.3330 
  127.3750    98.4100     5.3300     4.7290     4.9380    24.7850   -11.6040     2.3200 
  127.5000   100.3650     5.3390     4.7940     4.8750    24.7830   -11.5940     2.3050 
  127.6250   105.6740     5.3720     4.8650     4.9800    24.8140   -11.5610     2.2900 
  127.7500   107.7950     5.4280     4.9400     5.0410    24.8070   -11.5150     2.2790 
  127.8750   104.7480     5.4970     5.0030     5.0700    24.7920   -11.4990     2.2750 
  128.0000    99.9930     5.5650     5.0340     5.1970    24.7940   -11.5410     2.2810 
  128.1250    99.8240     5.6100     5.0200     5.3420    24.8070   -11.4670     2.2960 
  128.2500   101.8390     5.6100     4.9780     5.0440    24.8040   -11.3540     2.3150 
  128.3750   103.3600     5.5410     4.9030     4.7920    24.7850   -11.1860     2.3260 
  128.5000   102.4330     5.4000     4.7830     4.8390    24.7610   -10.9940     2.3160 
  128.6250    99.1290     5.2350     4.6410     5.0640    24.6310   -10.8610     2.2700 
  128.7500    98.0000     5.1640     4.5660     5.2650    24.4420   -10.7470     2.2070 
  128.8750   101.2150     5.3050     4.6450     4.8190    24.4690   -10.5990     2.1620 
  129.0000   104.2120     5.7340     4.9400     4.6000    24.6690   -10.4470     2.1680 
  129.1250    98.8430     6.4370     5.4790     6.4450    24.6470   -10.3980     2.2340 
  129.2500    91.1150     7.1540     6.0890    11.0930    24.4690   -10.4310     2.3150 
  129.3750    89.4360     7.6280     6.5510    12.8290    24.3240   -10.5580     2.3670 
  129.5000    93.9620     7.6960     6.6860     8.1690    24.3100   -10.7830     2.3740 
  129.6250    98.0740     7.3520     6.4540     5.8730    24.3980   -10.9480     2.3500 
  129.7500    99.0880     6.8860     6.0880     5.2750    24.4410   -11.1360     2.3300 
  129.8750    98.5060     6.5270     5.7760     5.2740    24.4440   -11.3390     2.3310 
  130.0000    95.5830     6.4360     5.6590     5.9670    24.4210   -11.5280     2.3470 
  130.1250    92.1380     6.7810     5.8690     7.0220    24.3710   -11.6750     2.3710 
  130.2500    92.4130     7.5870     6.4120     7.4840    24.3350   -11.7290     2.3980 
  130.3750    92.1820     8.9380     7.3620     7.5830    24.3330   -11.6700     2.4330 
  130.5000    85.2840    10.9660     8.7910     9.5370    24.3120   -11.4760     2.4760 
  130.6250    74.2150    13.6710    10.7460    11.5600    24.2240   -11.2680     2.5140 
  130.7500    67.3610    16.3810    12.8780    15.0460    24.1590   -11.0140     2.5310 
  130.8750    65.0330    18.4360    14.7370    16.7140    24.1320   -10.7700     2.5210 
  131.0000    64.6400    19.5060    15.9020    16.1340    24.1530   -10.4800     2.4920 
  131.1250    66.7720    19.6570    16.1780    13.9670    24.1850   -10.1590     2.4660 
  131.2500    69.7710    19.4330    16.0230    14.4820    24.2120    -9.9330     2.4570 
  131.3750    71.2930    19.1130    15.7370    15.8220    24.2130    -9.8460     2.4680 
  131.5000    70.7000    18.8070    15.4410    19.2400    24.1620    -9.9660     2.4890 
  131.6250    68.6030    18.4630    15.1130    19.3910    24.2190   -10.2350     2.5070 
  131.7500    65.3410    18.0500    14.7410    15.6810    24.2670   -10.5030     2.5210 
  131.8750    61.1840    17.6300    14.3720    13.1460    24.2750   -10.7370     2.5320 
  132.0000    58.4800    17.3290    14.0960    12.2140    24.2480   -10.9610     2.5420 
  132.1250    58.3080    17.3040    14.0460    12.5010    24.2670   -11.1340     2.5450 
  132.2500    59.7570    17.5370    14.2330    12.9610    24.3070   -11.2050     2.5410 
  132.3750    59.7470    17.9500    14.6180    13.5660    24.3110   -11.2070     2.5310 
  132.5000    58.1130    18.4200    15.1090    14.2730    24.2790   -11.1460     2.5200 
  132.6250    58.3810    18.8310    15.5940    14.0600    24.3050   -10.9940     2.5130 
  132.7500    60.2840    19.1610    16.0190    14.8960    24.3730   -10.8820     2.5080 
  132.8750    62.5040    19.4370    16.3900    15.4810    24.3840   -10.7850     2.5030 
  133.0000    65.3080    19.6760    16.7250    15.3520    24.3130   -10.7310     2.4980 
  133.1250    68.2290    19.8010    16.9680    14.9830    24.2430   -10.7750     2.4960 
  133.2500    69.7210    19.6890    17.0010    15.6970    24.2490   -10.9020     2.4980 
  133.3750    69.2510    19.2130    16.6940    16.2670    24.2990   -11.0690     2.5070 
  133.5000    69.3020    18.3340    15.9840    15.6940    24.3580   -11.2120     2.5180 
  133.6250    69.9080    17.1220    14.9210    13.5190    24.3880   -11.3590     2.5220 
  133.7500    69.8940    15.8600    13.7820    11.4990    24.4230   -11.4390     2.5140 
  133.8750    70.1170    14.7530    12.7690     9.9820    24.4680   -11.4710     2.4950 
  134.0000    70.2830    13.9430    12.0110     9.3690    24.5020   -11.4760     2.4760 
  134.1250    68.4140    13.5430    11.6110     9.4600    24.5000   -11.4110     2.4670 
  134.2500    64.1940    13.4760    11.5130    10.6050    24.4490   -11.2680     2.4660 
  134.3750    61.0240    13.6980    11.6850    12.1300    24.4100   -11.1050     2.4620 
  134.5000    61.0780    14.1590    12.0890    12.2580    24.3730   -10.9420     2.4440 
  134.6250    62.0780    14.8110    12.7000    12.2500    24.3550   -10.7920     2.4110 
  134.7500    61.1820    15.5280    13.4030    12.0710    24.3470   -10.7240     2.3810 
  134.8750    60.3470    16.2080    14.0970    12.9040    24.2820   -10.6860     2.3670 
  135.0000    61.7630    16.7540    14.6790    14.4070    24.1960   -10.6580     2.3720 
  135.1250    66.0400    17.0460    15.0240    13.6120    24.1400   -10.6880     2.3940 
  135.2500    70.9720    17.0720    15.1030    13.3490    24.1420   -10.7770     2.4190 
  135.3750    73.7880    16.8240    14.9020    13.3060    24.1790   -10.8310     2.4450 
  135.5000    73.0760    16.3260    14.4520    13.7090    24.2350   -10.8030     2.4670 
  135.6250    70.3220    15.6240    13.8080    13.9460    24.2650   -10.6750     2.4820 
