~V
VERS. 2.00: Ver 2.00
~W
STRT.M 60.0000:
STOP.M 276.0000:
STEP.M 0.1250:
NULL. -999.2500:
UWI. F11026:
~C
DEPT.M :
DEN.GM/CC :
GR.API :
RML.OHMM :
RI. :
RXO.OHMM :
CALI.CM :
SP.MV :
~A
# ...
  251.2500     2.4700    52.7900     9.7710     8.3540    14.1080    24.2360    -0.4380 
  251.3750     2.4660    53.6860     9.9040     8.5170    17.5200    24.3170    -0.5140 
  251.5000     2.4570    55.3120    10.0180     8.6510    18.2190    24.3910    -0.5510 
  251.6250     2.4500    59.2720    10.1380     8.7780    15.3490    24.4060    -0.4930 
  251.7500     2.4460    65.6650    10.3180     8.9500    14.6320    24.3760    -0.3590 
  251.8750     2.4490    70.8030    10.5970     9.2040    16.1740    24.3440    -0.3100 
  252.0000     2.4570    70.1600    10.9850     9.5390    16.0580    24.3270    -0.4190 
  252.1250     2.4690    65.5120    11.4480     9.9120    13.8080    24.3850    -0.5370 
  252.2500     2.4790    62.9160    11.8910    10.2390    10.5870    24.4020    -0.6690 
  252.3750     2.4790    62.0460    12.2400    10.4660     9.2280    24.3540    -0.7660 
  252.5000     2.4670    61.3990    12.4470    10.5700     8.8570    24.2620    -0.8410 
  252.6250     2.4460    62.9980    12.4770    10.5480     8.7650    24.3040    -0.9580 
  252.7500     2.4250    66.1770    12.3720    10.4440     8.7360    24.3750    -1.0710 
  252.8750     2.4140    67.4650    12.1560    10.2780     8.7620    24.4020    -1.0910 
  253.0000     2.4140    67.1810    11.8700    10.0690     8.8920    24.3930    -0.9460 
  253.1250     2.4240    67.5620    11.5890     9.8520     8.9960    24.3870    -0.7600 
  253.2500     2.4320    68.8240    11.4000     9.6790     9.0100    24.4140    -0.5640 
  253.3750     2.4360    69.0260    11.3600     9.6000     9.0720    24.4400    -0.3230 
  253.5000     2.4350    66.8360    11.4810     9.6510     9.3020    24.4460    -0.1290 
  253.6250     2.4330    64.2460    11.7250     9.8630     9.6160    24.3830     0.0580 
  253.7500     2.4350    65.1870    11.9910    10.1780    10.1370    24.2920     0.3130 
  253.8750     2.4410    68.5790    12.2110    10.5210    11.0950    24.2910     0.5340 
  254.0000     2.4510    69.6440    12.3410    10.8050    11.6720    24.3540     0.5370 
  254.1250     2.4590    67.7600    12.3510    10.9380    11.6420    24.3260     0.4300 
  254.2500     2.4610    67.0050    12.2770    10.9340    11.1540    24.1670     0.3820 
  254.3750     2.4560    66.4100    12.1530    10.8360    10.7600    24.1070     0.3150 
  254.5000     2.4460    62.6170    12.0170    10.7040    10.4740    24.2760     0.3260 
  254.6250     2.4350    58.3030    11.9110    10.5910    10.0300    24.4150     0.4130 
  254.7500     2.4230    58.6230    11.8390    10.5030     9.6910    24.4420     0.3820 
  254.8750     2.4050    61.1870    11.7850    10.4230     9.5930    24.3180     0.3460 
  255.0000     2.3770    62.2270    11.7190    10.3230     9.3260    24.1550     0.4580 
  255.1250     2.3500    61.5380    11.6050    10.1840     9.1460    24.0910     0.5910 
  255.2500     2.3440    62.7200    11.4550    10.0260     9.3060    24.1010     0.6760 
  255.3750     2.3690    65.2590    11.3030     9.8740     9.7600    23.8330     0.7890 
  255.5000     2.4150    65.2680    11.1930     9.7520     9.8460    23.3140     0.8470 
  255.6250     2.4550    62.5710    11.1800     9.6920     9.4570    22.9550     0.7320 
  255.7500     2.4680    62.2540    11.2660     9.7010     9.5760    22.9710     0.6230 
  255.8750     2.4530    64.9900    11.4420     9.7910    10.0530    23.3910     0.6030 
  256.0000     2.4280    67.0530    11.6880     9.9720    10.2400    23.9740     0.6490 
  256.1250     2.4160    65.2410    11.9770    10.2550    10.1940    24.2940     0.7880 
  256.2500     2.4230    63.8680    12.2670    10.5920    10.2870    24.3880     0.9100 
  256.3750     2.4450    65.0520    12.5420    10.9370    10.6660    24.3810     1.0510 
  256.5000     2.4730    67.2950    12.8130    11.2520    11.3620    24.3260     1.2750 
  256.6250     2.4990    68.1410    13.1240    11.5250    12.8390    24.2640     1.6430 
  256.7500     2.5210    67.6120    13.4940    11.7890    15.4310    24.1840     2.0830 
  256.8750     2.5390    67.3980    13.8930    12.0700    18.1650    24.1430     2.4340 
  257.0000     2.5540    68.8210    14.2350    12.3540    20.9280    24.1840     2.6200 
  257.1250     2.5620    70.8680    14.3570    12.5410    21.8080    24.2680     2.6530 
  257.2500     2.5630    71.2050    14.2080    12.5390    21.6450    24.2570     2.6930 
  257.3750     2.5570    69.2470    13.8100    12.3030    19.3730    24.1640     2.6530 
  257.5000     2.5470    66.4440    13.2690    11.8680    16.2020    24.0350     2.4030 
  257.6250     2.5420    65.4480    12.7320    11.3390    12.1470    23.9420     1.8750 
  257.7500     2.5460    66.8120    12.3020    10.8600     9.9960    23.8630     0.9850 
  257.8750     2.5580    68.9420    12.0110    10.5110     9.0070    23.8780    -0.2060 
  258.0000     2.5710    69.7740    11.8570    10.3190     8.6160    23.9670    -1.3740 
  258.1250     2.5760    69.6600    11.8380    10.2800     8.6010    24.0960    -1.8460 
  258.2500     2.5740    69.0490    11.9000    10.3080     8.8090    24.2260    -1.6120 
  258.3750     2.5670    68.5240    11.9880    10.3460     9.0290    24.2700    -1.1950 
  258.5000     2.5600    67.7880    12.0360    10.3590     9.2560    24.1600    -0.6490 
  258.6250     2.5570    67.2420    11.9760    10.3450     9.5020    23.9990     0.1840 
  258.7500     2.5570    65.9110    11.8250    10.3200     9.5640    23.9120     1.2950 
  258.8750     2.5590    64.4120    11.6310    10.2870     9.4360    23.9690     2.6580 
  259.0000     2.5610    64.1360    11.4580    10.2470     9.2430    24.1040     4.0110 
  259.1250     2.5580    64.3850    11.3710    10.2060     9.0200    24.1130     4.7280 
  259.2500     2.5520    65.3550    11.3730    10.1770     8.8190    24.0560     4.7760 
  259.3750     2.5470    67.9910    11.4380    10.1690     8.8330    23.9470     4.7340 
  259.5000     2.5430    71.1520    11.5230    10.1830     9.2050    23.8040     4.7360 
  259.6250     2.5440    72.0120    11.5750    10.2050     9.3520    23.7080     4.6440 
  259.7500     2.5460    69.5830    11.5740    10.2190     9.5590    23.6360     4.5980 
  259.8750     2.5490    66.2210    11.5300    10.2200     9.5530    23.5810     4.6160 
  260.0000     2.5510    64.4560    11.4690    10.2140     9.7270    23.5330     4.7560 
  260.1250     2.5500    64.2470    11.4290    10.2100     9.7560    23.5430     4.9850 
  260.2500     2.5470    63.9540    11.4360    10.2180     9.9430    23.5680     5.1940 
  260.3750     2.5410    63.3310    11.5020    10.2450    10.2180    23.5670     5.3440 
  260.5000     2.5350    64.7330    11.6330    10.2970    10.8510    23.4980     5.4680 
  260.6250     2.5310    66.8110    11.8320    10.3810    11.6820    23.4000     5.6410 
  260.7500     2.5310    67.6870    12.0640    10.4850    12.7950    23.3460     5.7020 
  260.8750     2.5340    69.3750    12.2930    10.6000    14.3490    23.3510     5.6840 
  261.0000     2.5380    71.5520    12.4800    10.7180    16.2410    23.3770     5.6260 
  261.1250     2.5400    70.9790    12.5830    10.8370    17.1360    23.3990     5.5570 
  261.2500     2.5380    68.0270    12.6060    10.9580    16.8250    23.3820     5.5010 
  261.3750     2.5330    66.1090    12.5620    11.0800    15.6010    23.3410     5.4400 
  261.5000     2.5260    66.3190    12.4840    11.1950    14.6760    23.3100     5.4080 
  261.6250     2.5210    68.0480    12.4380    11.2940    13.9960    23.3280     5.4020 
  261.7500     2.5190    71.2330    12.4690    11.3740    13.9320    23.4300     5.5730 
  261.8750     2.5220    73.4510    12.5770    11.4370    14.4680    23.5830     5.8880 
  262.0000     2.5280    72.0500    12.7130    11.4880    14.8760    23.7800     6.3110 
  262.1250     2.5330    67.0250    12.8020    11.5210    15.4860    23.9330     6.9720 
  262.2500     2.5340    64.4580    12.8210    11.5340    15.6260    23.9340     7.9430 
  262.3750     2.5290    66.3210    12.8000    11.5260    15.9280    23.8510     9.0720 
