~V
VERS. 2.00: Ver 2.00
~W
STRT.M 57.0000:
STOP.M 226.0000:
STEP.M 0.1250:
NULL. -999.2500:
UWI. F11011:
~C
DEPT.M :
GR.API :
RML.OHMM :
RI. :
RXO.OHMM :
CALI.CM :
SP.MV :
DEN.GM/CC :
~A
# ...
  113.2500    68.4190     8.2640     6.5090     7.3390    23.7910   -15.0420     2.1490 
  113.3750    67.8910     8.8760     6.9970     7.5510    23.8060   -14.4800     2.1770 
  113.5000    69.5500    10.0140     7.9260     8.4470    23.8450   -13.8290     2.2450 
  113.6250    72.0400    12.0680     9.6120    11.7130    24.0060   -13.1070     2.3520 
  113.7500    72.8530    14.9760    12.1300    17.7830    24.2180   -12.4120     2.4720 
  113.8750    71.0180    18.3260    15.3950    24.0430    24.3440   -11.6910     2.5780 
  114.0000    67.7200    21.1470    18.7320    27.2310    24.3370   -10.9020     2.6500 
  114.1250    66.3470    21.7940    20.2400    28.9380    24.2740   -10.2860     2.6600 
  114.2500    67.7400    20.0240    19.0130    28.6210    24.2350    -9.8340     2.6210 
  114.3750    70.5890    16.5030    15.7760    22.2580    24.1640    -9.4770     2.5470 
  114.5000    73.8160    12.4890    12.0780    12.2930    23.9510    -9.2480     2.4660 
  114.6250    78.5070     9.2460     9.1370     7.3510    23.7680    -8.9900     2.4070 
  114.7500    84.9860     7.0650     7.0820     5.6290    23.8310    -8.6610     2.3710 
  114.8750    90.2550     5.8110     5.7700     5.1850    24.0550    -8.3810     2.3430 
  115.0000    92.5420     5.2060     5.0160     5.1280    24.3370    -8.2260     2.3050 
  115.1250    93.2000     5.0230     4.6940     5.2070    24.6710    -8.0940     2.2530 
  115.2500    93.4120     5.0130     4.6020     5.0670    25.0150    -7.9590     2.2070 
  115.3750    91.4640     5.1010     4.6510     4.8710    25.2230    -7.9280     2.1850 
  115.5000    86.2410     5.2710     4.7910     4.7780    25.2230    -7.9950     2.1920 
  115.6250    82.2180     5.5490     5.0210     4.9710    25.0220    -8.3160     2.2190 
  115.7500    82.6450     5.9300     5.3350     5.2150    24.8300    -8.8590     2.2410 
  115.8750    83.9580     6.4030     5.7300     5.6290    24.5720    -9.5640     2.2490 
  116.0000    82.3050     6.9190     6.1770     6.2210    24.2790   -10.3420     2.2430 
  116.1250    78.1600     7.3790     6.6050     6.5930    24.0840   -11.1720     2.2310 
  116.2500    74.1790     7.6990     6.9440     6.8840    23.9960   -12.0420     2.2200 
  116.3750    70.7920     7.8570     7.1540     7.1050    23.9750   -12.8480     2.2110 
  116.5000    68.6310     7.8980     7.2300     7.1930    23.9910   -13.6050     2.2030 
  116.6250    69.5390     7.9050     7.2050     7.1360    23.9980   -14.1900     2.1970 
  116.7500    70.4130     7.9420     7.1590     7.2620    23.9960   -14.6560     2.1910 
  116.8750    71.1730     8.0110     7.1330     7.4250    23.9900   -15.0480     2.1860 
  117.0000    73.9790     8.0920     7.1480     7.4150    23.9740   -15.3450     2.1820 
  117.1250    76.0000     8.1770     7.1950     7.2970    23.9750   -15.5440     2.1780 
  117.2500    74.2530     8.2800     7.2420     7.1180    23.9810   -15.7240     2.1770 
  117.3750    72.4410     8.4050     7.2780     7.0600    23.9890   -15.9040     2.1770 
  117.5000    75.1920     8.5240     7.3140     7.1630    23.9630   -16.0900     2.1800 
  117.6250    77.6230     8.5990     7.3770     7.2740    23.8520   -16.3630     2.1860 
  117.7500    74.1360     8.6480     7.4800     7.3150    23.7030   -16.6930     2.1960 
  117.8750    67.9340     8.7290     7.6270     7.7450    23.7290   -17.0570     2.2110 
  118.0000    64.9230     8.8990     7.8140     8.8200    23.9570   -17.4410     2.2250 
  118.1250    65.3720     9.1760     8.0120    10.1080    24.2580   -17.8040     2.2340 
  118.2500    65.7610     9.4480     8.1690     9.3550    24.2790   -18.0180     2.2340 
  118.3750    66.8180     9.5900     8.2320     8.5720    24.1780   -18.1230     2.2260 
  118.5000    69.2050     9.5380     8.1740     8.1740    24.1010   -18.0810     2.2120 
  118.6250    69.9880     9.3530     8.0350     8.0320    24.0850   -17.8000     2.1940 
  118.7500    67.8270     9.2770     7.9730     7.8850    24.0740   -17.3390     2.1840 
  118.8750    65.9660     9.5530     8.1500     7.7590    24.0490   -16.6650     2.1940 
  119.0000    66.0230    10.3900     8.7190     8.0430    24.0450   -15.8850     2.2340 
  119.1250    64.4640    11.9860     9.8780     9.4640    24.0990   -14.9910     2.3060 
  119.2500    60.5900    14.0600    11.5210    12.9050    24.1820   -14.0830     2.3880 
  119.3750    58.3110    16.1420    13.3930    19.0790    24.2650   -13.1800     2.4580 
  119.5000    58.2970    17.5510    14.9480    25.3480    24.3100   -12.3390     2.5010 
  119.6250    57.5630    17.4370    15.3010    25.2140    24.3120   -11.7280     2.5070 
  119.7500    56.7460    16.0080    14.4450    20.1210    24.2080   -11.3010     2.4880 
  119.8750    58.4330    13.8730    12.8870    15.3130    24.0510   -11.0470     2.4490 
  120.0000    63.2660    11.8540    11.3250    12.4810    23.9340   -10.9350     2.3960 
  120.1250    68.0680    10.7600    10.3890    10.4430    23.8780   -10.9270     2.3510 
  120.2500    70.9120    10.6540    10.1770     8.8640    23.8720   -10.9120     2.3390 
  120.3750    72.2080    11.3080    10.5880     9.1480    23.9280   -10.8670     2.3710 
  120.5000    71.5100    12.2210    11.2900    12.9010    24.1060   -10.7310     2.4390 
  120.6250    70.8240    12.5960    11.5700    23.8520    24.3150   -10.4570     2.5010 
  120.7500    72.3560    12.0170    10.9480    28.3390    24.3840   -10.1080     2.5180 
  120.8750    76.6800    10.5410     9.5280    17.7060    24.4160    -9.7580     2.4820 
  121.0000    79.8070     8.6390     7.8450     7.6820    24.4870    -9.3600     2.4140 
  121.1250    79.7050     6.9690     6.4660     5.6620    24.5510    -8.9570     2.3540 
  121.2500    82.6290     5.8350     5.5300     5.3050    24.5940    -8.5980     2.3250 
  121.3750    90.5190     5.2190     4.9960     5.2220    24.6430    -8.3030     2.3250 
  121.5000    99.0480     4.9730     4.7550     4.7910    24.6870    -8.1860     2.3370 
  121.6250   101.4960     4.9680     4.6960     4.5730    24.7720    -8.2490     2.3410 
  121.7500    99.9470     5.0870     4.7060     4.6960    24.7630    -8.4660     2.3310 
  121.8750    98.1570     5.2950     4.7650     4.7660    24.6070    -8.7880     2.3130 
  122.0000    96.8770     5.5590     4.8830     4.4650    24.3870    -9.3130     2.2970 
  122.1250    94.2650     5.8450     5.0790     4.6150    24.1750   -10.0700     2.2870 
  122.2500    89.5380     6.1400     5.3350     5.2920    24.0290   -10.9750     2.2800 
  122.3750    84.6280     6.4710     5.6430     5.9410    23.9610   -11.9780     2.2730 
  122.5000    81.2270     6.8780     6.0000     6.2070    23.9460   -12.9060     2.2600 
  122.6250    80.6930     7.3920     6.4080     6.2180    23.9180   -13.6620     2.2410 
  122.7500    80.7010     7.9710     6.8520     6.5690    23.8650   -14.2510     2.2180 
  122.8750    79.2020     8.5490     7.3020     7.2930    23.8490   -14.6410     2.1930 
  123.0000    76.4880     9.0200     7.6940     8.1280    23.9100   -14.7980     2.1710 
  123.1250    75.3000     9.1990     7.8880     8.4330    24.0080   -14.6680     2.1640 
  123.2500    76.4400     9.0410     7.8160     8.5120    24.0550   -14.3790     2.1760 
  123.3750    77.2130     8.5670     7.4680     8.1580    24.0490   -13.9870     2.2050 
  123.5000    76.9330     7.8890     6.9160     7.4050    24.0090   -13.5450     2.2420 
  123.6250    77.8550     7.1730     6.2880     6.7470    24.0150   -13.1500     2.2740 
  123.7500    81.2570     6.5570     5.7160     6.4350    24.1090   -12.7910     2.2920 
  123.8750    85.3200     6.0920     5.2510     5.8060    24.2280   -12.5500     2.2960 
  124.0000    87.6520     5.7820     4.9120     5.1250    24.3790   -12.3850     2.2930 
  124.1250    89.2880     5.6430     4.7270     5.0880    24.5660   -12.4170     2.2950 
  124.2500    92.0790     5.6390     4.6740     4.9810    24.6110   -12.5630     2.3020 
  124.3750    95.5380     5.7490     4.7390     4.7700    24.6170   -12.7050     2.3080 
