~V
VERS. 2.00: Ver 2.00
~W
STRT.M 50.0000:
STOP.M 283.0000:
STEP.M 0.1250:
NULL. -999.2500:
UWI. F11058:
~C
DEPT.M :
DEN.GM/CC :
GR.API :
RML.OHMM :
RI. :
RXO.OHMM :
CALI.CM :
SP.MV :
~A
# ...
  218.7500     2.3350    67.7160    47.2450    43.7800    44.1160    24.7670   -15.9810 
  218.8750     2.2910    67.3370    48.1280    44.1910    43.2350    24.7800   -15.8250 
  219.0000     2.2490    66.3720    50.6270    46.3810    46.2960    24.7980   -15.7120 
  219.1250     2.2230    64.3450    54.1140    50.1600    57.0980    24.8270   -15.5920 
  219.2500     2.2130    61.3000    57.1770    54.2880    65.5530    24.8360   -15.4950 
  219.3750     2.2120    59.7690    58.5940    57.3540    71.0050    24.8250   -15.4400 
  219.5000     2.2160    61.0160    57.6680    58.0200    76.3910    24.7950   -15.4070 
  219.6250     2.2210    63.2610    54.5840    55.6540    73.3530    24.7700   -15.4340 
  219.7500     2.2290    65.0740    51.2200    52.1680    63.4410    24.7440   -15.5200 
  219.8750     2.2380    66.1310    49.1210    49.3860    52.9070    24.7160   -15.6010 
  220.0000     2.2430    66.5280    49.4030    48.7080    46.4740    24.6810   -15.6510 
  220.1250     2.2380    65.1330    53.1400    51.5190    54.2810    24.6290   -15.7270 
  220.2500     2.2230    63.0700    59.8410    57.6150    82.3290    24.5930   -15.8430 
  220.3750     2.2030    61.9710    69.0590    66.6790   150.7950    24.5800   -15.9680 
  220.5000     2.1860    62.1020    79.5090    77.7650   220.2500    24.5720   -16.0720 
  220.6250     2.1770    61.6750    91.0750    89.5350   173.3390    24.5250   -16.2060 
  220.7500     2.1760    61.0820   105.9160   101.1570   140.4770    24.4300   -16.3500 
  220.8750     2.1770    60.2230   124.1710   112.8990   164.3150    24.3480   -16.4890 
  221.0000     2.1780    59.1910   142.3920   125.0050   229.0160    24.3620   -16.6580 
  221.1250     2.1720    58.8670   155.8920   136.3730   318.8350    24.4030   -16.7680 
  221.2500     2.1630    59.1750   165.0090   145.1850   306.1530    24.4010   -16.7950 
  221.3750     2.1570    59.3530   171.1300   150.5380   219.2710    24.3380   -16.8870 
  221.5000     2.1690    58.1990   174.9830   153.2550   176.8000    24.1930   -17.1160 
  221.6250     2.2080    56.8010   178.1200   155.5250   166.4120    23.9940   -17.3260 
  221.7500     2.2590    56.1610   181.7650   158.9880   194.1560    23.9390   -17.4450 
  221.8750     2.3000    56.0110   185.6310   163.5010   242.8990    24.0440   -17.5550 
  222.0000     2.3120    57.3920   188.8440   168.0980   255.3260    24.2090   -17.7510 
  222.1250     2.2900    59.5840   190.5720   171.9200   209.0640    24.2900   -18.0210 
  222.2500     2.2540    60.7300   191.0240   175.1640   180.6780    24.3770   -18.2390 
  222.3750     2.2210    60.4050   189.9950   177.8700   195.0720    24.4480   -18.3840 
  222.5000     2.2010    60.2350   186.3270   179.0970   229.3640    24.5050   -18.5260 
  222.6250     2.1940    60.5430   177.0150   175.4890   268.8530    24.5440   -18.7410 
  222.7500     2.1940    60.1450   161.6030   164.9750   290.0560    24.5540   -18.9960 
  222.8750     2.1990    60.5330   141.3530   147.4810   241.8070    24.5350   -19.2460 
  223.0000     2.2070    63.0850   119.4930   126.0480   149.9240    24.5170   -19.4410 
  223.1250     2.2150    66.8900   100.3800   105.8210   105.4570    24.5110   -19.5370 
  223.2500     2.2190    68.9560    85.8720    89.8950    83.2420    24.5110   -19.6000 
  223.3750     2.2140    69.1980    76.1790    78.9030    72.6210    24.5110   -19.6810 
  223.5000     2.2000    68.6090    70.6960    72.3160    69.3850    24.5110   -19.7340 
  223.6250     2.1790    67.4490    69.2830    69.8500    72.7260    24.5040   -19.7080 
  223.7500     2.1670    66.4830    71.1550    70.5810    75.6700    24.4880   -19.6430 
  223.8750     2.1870    66.0150    76.6240    74.9970    76.7610    24.4700   -19.5950 
  224.0000     2.2580    65.9290    86.1180    83.9470    78.2400    24.4540   -19.5820 
  224.1250     2.3870    65.6540    99.9880    98.4870    96.4610    24.4020   -19.6410 
  224.2500     2.5280    64.0050   115.3860   115.9710   168.0810    24.3430   -19.7070 
  224.3750     2.6280    61.1330   128.3020   131.9840   365.9150    24.3020   -19.7040 
  224.5000     2.6490    57.7880   134.4220   140.6370   487.7250    24.2430   -19.6920 
  224.6250     2.5760    56.9370   130.7580   136.8900   276.2190    24.1690   -19.7950 
  224.7500     2.4600    59.9050   121.9690   126.2280   153.4310    24.1130   -19.9940 
  224.8750     2.3480    64.7440   112.9310   114.7950   113.4400    24.1530   -20.1740 
  225.0000     2.2660    69.5140   107.2430   106.8610    98.0570    24.2330   -20.2230 
  225.1250     2.2260    72.8060   106.6040   104.5440    97.9110    24.2940   -20.1740 
  225.2500     2.2100    75.6630   108.9860   105.9320   109.3980    24.3370   -20.2010 
  225.3750     2.2090    77.1920   112.4960   108.9780   127.6220    24.3920   -20.2520 
  225.5000     2.2190    75.8680   115.5360   111.7590   135.1800    24.4310   -20.2160 
  225.6250     2.2370    73.2370   117.2110   113.1710   127.3330    24.4490   -20.1390 
  225.7500     2.2530    72.6560   118.1430   113.8650   123.0260    24.4490   -20.0790 
  225.8750     2.2610    72.7210   119.1160   114.6680   124.7430    24.4440   -19.9880 
  226.0000     2.2580    70.3400   120.6450   116.1800   128.5900    24.4560   -19.9240 
  226.1250     2.2440    66.7230   122.5420   118.4760   133.3520    24.5020   -19.9780 
  226.2500     2.2270    65.4700   123.7140   120.4190   142.4070    24.5500   -20.0640 
  226.3750     2.2110    65.6180   123.0460   120.6240   149.6310    24.5890   -20.1310 
  226.5000     2.1990    65.3090   119.8670   118.1550   145.7580    24.5910   -20.2100 
  226.6250     2.1930    67.2570   114.0180   112.7170   135.8630    24.5840   -20.2840 
  226.7500     2.1920    70.7790   106.8850   105.7350   123.1070    24.5890   -20.2900 
  226.8750     2.1970    71.4940    99.5780    98.3440   107.4200    24.6110   -20.2550 
  227.0000     2.2040    67.8220    93.0660    91.5930    95.4980    24.6310   -20.2350 
  227.1250     2.2120    65.6180    88.3240    86.5510    96.1130    24.6360   -20.2410 
  227.2500     2.2200    66.6720    85.3960    83.3170    90.8970    24.6250   -20.2410 
  227.3750     2.2270    68.5690    84.2110    81.8670    84.5070    24.5900   -20.2590 
  227.5000     2.2340    69.2250    84.4420    81.9720    86.1260    24.5470   -20.2780 
  227.6250     2.2390    69.1350    85.5540    83.2550    97.0350    24.5220   -20.2640 
  227.7500     2.2440    68.7390    86.5600    84.7200    99.0100    24.5300   -20.3320 
  227.8750     2.2460    67.5350    86.7140    85.5040    94.6820    24.5410   -20.5250 
  228.0000     2.2490    66.7920    85.5520    84.8950    96.8710    24.5110   -20.6930 
  228.1250     2.2490    68.0630    82.9510    82.4930    95.2640    24.4580   -20.6770 
  228.2500     2.2450    69.8220    79.7720    79.1930    88.4470    24.4140   -20.6650 
  228.3750     2.2350    69.7300    76.7920    75.8980    78.2320    24.4230   -20.7580 
  228.5000     2.2230    67.0180    74.6320    73.3790    71.4040    24.4620   -20.9000 
  228.6250     2.2180    65.8100    73.7410    72.2340    73.8300    24.5240   -20.9640 
  228.7500     2.2240    67.6790    73.7620    72.1440    77.2390    24.5690   -20.9340 
  228.8750     2.2350    69.4490    74.2800    72.7020    76.8720    24.5660   -20.8850 
  229.0000     2.2450    68.7930    74.8250    73.4060    76.5460    24.5000   -20.8880 
  229.1250     2.2470    67.7520    74.9600    73.7200    75.4670    24.4390   -20.9760 
  229.2500     2.2410    68.1920    74.6530    73.5210    71.4340    24.4350   -21.0710 
  229.3750     2.2310    68.7770    74.0400    72.9700    65.9850    24.4540   -21.0920 
  229.5000     2.2180    67.0540    73.2710    72.3170    67.9670    24.4380   -21.0220 
  229.6250     2.2000    66.3920    72.3250    71.6020    71.7520    24.4280   -20.9660 
  229.7500     2.1820    68.7480    71.0840    70.6230    71.4530    24.4170   -20.9980 
  229.8750     2.1720    69.9620    69.4740    69.2140    70.3760    24.3440   -21.0070 
