~V
VERS. 2.00: Ver 2.00
~W
STRT.M 51.0000:
STOP.M 282.0000:
STEP.M 0.1250:
NULL. -999.2500:
UWI. F11065:
~C
DEPT.M :
GR.API :
RML.OHMM :
RI. :
RXO.OHMM :
CALI.CM :
DEN.GM/CC :
SP.MV :
~A
# ...
  107.2500    65.7930     8.5390     7.8080    10.7350    24.4050     2.1730   -10.7400 
  107.3750    70.2660     9.0050     8.0430    10.8940    24.3210     2.1850   -10.5740 
  107.5000    75.4930     9.4730     8.3260    10.8290    24.2970     2.1940   -10.3400 
  107.6250    75.9980     9.8290     8.5980    10.8760    24.2910     2.2000   -10.1700 
  107.7500    72.0780    10.0320     8.8280    10.6230    24.2700     2.2010   -10.0440 
  107.8750    69.0570    10.0690     8.9870    10.6160    24.2070     2.1980   -10.0620 
  108.0000    67.8360    10.0090     9.0730    10.5370    24.1310     2.1910   -10.1640 
  108.1250    69.1520     9.9160     9.0850    10.6340    24.0650     2.1820   -10.3390 
  108.2500    73.4210     9.8640     9.0490    10.7070    24.0210     2.1730   -10.5740 
  108.3750    74.6040     9.9350     9.0050    10.7760    23.9970     2.1650   -10.7850 
  108.5000    69.2820    10.1160     8.9910    10.7100    23.9840     2.1600   -11.0360 
  108.6250    63.5270    10.3620     9.0200    10.8170    23.9420     2.1570   -11.2270 
  108.7500    63.8460    10.6000     9.0790    10.7650    23.8560     2.1560   -11.3690 
  108.8750    67.6590    10.7370     9.1250    10.4170    23.7800     2.1580   -11.4210 
  109.0000    68.3810    10.7510     9.1270     9.8700    23.7520     2.1650   -11.4000 
  109.1250    67.8390    10.6680     9.0950     9.3760    23.7490     2.1760   -11.3550 
  109.2500    68.4510    10.5350     9.0690     9.2760    23.7630     2.1890   -11.2890 
  109.3750    69.5900    10.3820     9.0800     9.8430    23.7810     2.2010   -11.2230 
  109.5000    69.8210    10.2150     9.0950    10.1350    23.7650     2.2080   -11.1810 
  109.6250    67.9460    10.0470     9.0900    10.0950    23.7360     2.2110   -11.1990 
  109.7500    63.4420     9.9280     9.0740     9.8850    23.7450     2.2090   -11.2950 
  109.8750    60.3450     9.9470     9.1020     9.9480    23.8120     2.2020   -11.4580 
  110.0000    62.3480    10.0800     9.1940    10.4010    23.9140     2.1910   -11.6800 
  110.1250    67.0690    10.2320     9.3090    10.7270    23.9960     2.1770   -11.9480 
  110.2500    69.5210    10.2650     9.3660    10.5640    24.0300     2.1640   -12.2260 
  110.3750    68.9600    10.0390     9.2700    10.5260    24.0190     2.1520   -12.5340 
  110.5000    67.9900     9.5900     9.0200    10.7400    23.9750     2.1460   -12.7710 
  110.6250    69.0320     8.9800     8.6320    10.7860    23.9500     2.1510   -12.9260 
  110.7500    72.6400     8.3020     8.1390    10.4510    23.9880     2.1710   -12.9840 
  110.8750    76.9670     7.6880     7.6120    10.0890    24.0370     2.2050   -12.9010 
  111.0000    79.3160     7.2600     7.1630     9.7440    24.0560     2.2370   -12.8080 
  111.1250    78.7690     7.1040     6.8740     9.4600    24.0510     2.2530   -12.6470 
  111.2500    77.2690     7.2580     6.7960     9.0400    24.0520     2.2480   -12.4970 
  111.3750    74.1400     7.7330     6.9850     9.0300    24.0660     2.2250   -12.3920 
  111.5000    72.0780     8.3680     7.3750    10.3520    24.0790     2.1990   -12.3490 
  111.6250    72.8830     9.0210     7.8960    11.7290    24.0810     2.1790   -12.4170 
  111.7500    73.8090     9.5570     8.4330    11.5070    24.0800     2.1670   -12.5340 
  111.8750    70.2100     9.8710     8.8370    10.9240    24.0850     2.1620   -12.8020 
  112.0000    65.1380    10.0340     9.0740    10.4700    24.0970     2.1590   -13.1170 
  112.1250    64.7590    10.1410     9.1690    10.6840    24.1360     2.1590   -13.4360 
  112.2500    68.0240    10.2570     9.1740    11.0450    24.2320     2.1620   -13.7610 
  112.3750    69.5820    10.3430     9.1150    11.3280    24.3590     2.1660   -13.9890 
  112.5000    71.0290    10.3000     9.0300    11.4550    24.4680     2.1720   -14.1520 
  112.6250    73.5510    10.0800     8.9560    11.4160    24.4830     2.1790   -14.2510 
  112.7500    74.4830     9.7380     8.9360    11.0530    24.4030     2.1860   -14.2970 
  112.8750    71.3870     9.4480     8.9890    10.7310    24.3680     2.1930   -14.2990 
  113.0000    69.2360     9.3480     9.0650    10.7170    24.3130     2.1970   -14.3220 
  113.1250    70.9810     9.4540     9.1160    11.0480    24.2470     2.1970   -14.3770 
  113.2500    72.6610     9.6740     9.1220    11.1780    24.2010     2.1950   -14.4510 
  113.3750    70.3320     9.8600     9.0920    11.0690    24.0990     2.1930   -14.5380 
  113.5000    66.9450     9.9480     9.0700    11.0130    24.0130     2.1940   -14.6420 
  113.6250    66.8770     9.9650     9.0730    10.8320    23.9220     2.1990   -14.7660 
  113.7500    70.2760     9.9680     9.0990    10.6130    23.8790     2.2070   -14.9320 
  113.8750    72.2060     9.9760     9.1180    10.3410    23.8900     2.2110   -15.1250 
  114.0000    72.1650     9.9480     9.0800    10.1330    23.9700     2.2110   -15.2620 
  114.1250    72.2340     9.8330     8.9580    10.2180    24.0120     2.2100   -15.4180 
  114.2500    72.9490     9.6130     8.7600    10.4820    23.9780     2.2100   -15.5180 
  114.3750    73.8250     9.3220     8.5330    10.3270    23.9720     2.2170   -15.6780 
  114.5000    74.9780     9.0470     8.3420     9.9410    24.0400     2.2250   -15.9310 
  114.6250    75.8310     8.8350     8.2210     9.6810    24.1310     2.2280   -16.2530 
  114.7500    74.2850     8.7020     8.1730     9.8460    24.1590     2.2190   -16.6770 
  114.8750    71.2400     8.6490     8.1860    10.1340    24.0660     2.1990   -17.0710 
  115.0000    69.3680     8.6540     8.2240    10.4320    23.9480     2.1740   -17.4600 
  115.1250    68.1640     8.7180     8.2650    10.6470    23.9000     2.1550   -17.7740 
  115.2500    66.1830     8.8530     8.2950    10.8770    23.9030     2.1450   -18.0450 
  115.3750    64.7360     9.0710     8.3200    11.0260    23.9270     2.1470   -18.3040 
  115.5000    64.2730     9.3240     8.3600    10.9080    23.9660     2.1540   -18.4300 
  115.6250    63.6640     9.5500     8.4230    10.8540    24.0260     2.1590   -18.4040 
  115.7500    62.5680     9.6840     8.4970    11.0860    24.0970     2.1600   -18.2980 
  115.8750    63.1180     9.6560     8.5430    11.1850    24.2140     2.1570   -18.1930 
  116.0000    65.0420     9.5130     8.5320    10.8090    24.3360     2.1530   -18.1010 
  116.1250    66.0120     9.3320     8.4800    10.4400    24.4750     2.1500   -18.0130 
  116.2500    64.6730     9.1970     8.4290    10.1980    24.5970     2.1480   -17.9160 
  116.3750    62.3540     9.1490     8.4130    10.0780    24.6650     2.1460   -17.7830 
  116.5000    62.9720     9.1190     8.3920    10.0130    24.6820     2.1490   -17.6570 
  116.6250    66.5720     9.0260     8.3030     9.9310    24.6720     2.1620   -17.5720 
  116.7500    70.6860     8.8300     8.1010     9.7940    24.6410     2.1840   -17.4720 
  116.8750    73.7900     8.5590     7.8060     9.7700    24.6260     2.2100   -17.3450 
  117.0000    77.2390     8.3020     7.5310     9.7680    24.6200     2.2300   -17.2870 
  117.1250    81.5720     8.1050     7.3570     9.7210    24.6100     2.2380   -17.2880 
  117.2500    84.7000     7.9730     7.3090     9.7200    24.5790     2.2350   -17.4040 
  117.3750    84.1160     7.8970     7.3650     9.9850    24.5380     2.2290   -17.5520 
  117.5000    81.9340     7.8700     7.4470    10.1280    24.5530     2.2260   -17.7520 
  117.6250    79.9780     7.9010     7.5180     9.9220    24.5890     2.2280   -18.0310 
  117.7500    78.4980     7.9870     7.5770     9.6150    24.5990     2.2300   -18.3600 
  117.8750    76.5850     8.0900     7.6490     9.6260    24.5730     2.2270   -18.8160 
  118.0000    74.6320     8.1680     7.7430     9.9120    24.5570     2.2170   -19.2410 
  118.1250    73.4840     8.2210     7.8430    10.3960    24.5490     2.2060   -19.6660 
  118.2500    73.7990     8.2830     7.9190    10.6730    24.5370     2.1990   -19.9870 
  118.3750    76.7080     8.3850     7.9420    10.2530    24.5000     2.2020   -20.2410 
