~V
VERS. 2.00: Ver 2.00
~W
STRT.M 57.0000:
STOP.M 226.0000:
STEP.M 0.1250:
NULL. -999.2500:
UWI. F11011:
~C
DEPT.M :
GR.API :
RML.OHMM :
RI. :
RXO.OHMM :
CALI.CM :
SP.MV :
DEN.GM/CC :
~A
# ...
   90.7500    78.6310    11.0070     9.1480     7.8910    23.2990   -21.7160     2.1960 
   90.8750    77.8960    10.9350     8.9900     7.9000    23.2990   -22.0420     2.1990 
   91.0000    75.9530    10.9790     8.9880     7.9310    23.2990   -22.2660     2.1990 
   91.1250    73.3020    11.1190     9.0740     7.9220    23.2990   -22.3120     2.1940 
   91.2500    70.6910    11.3120     9.1730     7.8630    23.2950   -22.1970     2.1890 
   91.3750    69.5610    11.4760     9.2420     7.8160    23.2810   -21.9830     2.1860 
   91.5000    70.4400    11.4850     9.2320     7.7790    23.2560   -21.7520     2.1860 
   91.6250    72.6720    11.1850     9.0510     7.7370    23.2650   -21.4390     2.1930 
   91.7500    75.5620    10.6390     8.6980     7.8020    23.2860   -21.1160     2.2030 
   91.8750    78.2420     9.9740     8.2260     7.9190    23.2970   -20.8870     2.2150 
   92.0000    80.6240     9.3540     7.7410     7.6500    23.2990   -20.8160     2.2240 
   92.1250    81.5510     8.9810     7.3890     6.8610    23.3050   -21.0070     2.2260 
   92.2500    78.2920     8.9070     7.2290     6.3830    23.3370   -21.4260     2.2190 
   92.3750    71.7080     9.1190     7.2650     6.8620    23.4020   -21.9330     2.2080 
   92.5000    67.5860     9.5350     7.4440     7.4150    23.4530   -22.4440     2.1980 
   92.6250    70.3400     9.9940     7.6730     7.5410    23.4760   -22.9730     2.1940 
   92.7500    73.8380    10.3080     7.8480     7.4790    23.4900   -23.4630     2.1960 
   92.8750    74.5480    10.3780     7.9260     7.4380    23.4940   -23.9320     2.1990 
   93.0000    75.2070    10.2170     7.9270     7.5300    23.4620   -24.3360     2.2000 
   93.1250    76.6810     9.9540     7.9170     7.6140    23.4430   -24.5500     2.1970 
   93.2500    74.8510     9.7730     7.9490     7.5880    23.4370   -24.6490     2.1900 
   93.3750    69.9660     9.7580     8.0250     7.4620    23.4440   -24.6940     2.1800 
   93.5000    66.9540     9.9020     8.1230     7.3660    23.4560   -24.6060     2.1700 
   93.6250    68.9200    10.1260     8.1980     7.3620    23.4630   -24.3870     2.1600 
   93.7500    70.9570    10.3150     8.2190     7.3840    23.4330   -24.1150     2.1550 
   93.8750    70.9710    10.4300     8.1840     7.4580    23.3640   -23.7200     2.1550 
   94.0000    69.7770    10.4700     8.1090     7.5390    23.3140   -23.2350     2.1600 
   94.1250    69.2670    10.4230     7.9850     7.5140    23.2970   -22.7430     2.1690 
   94.2500    70.3410    10.2730     7.7840     7.4850    23.2870   -22.1940     2.1800 
   94.3750    73.2710     9.9910     7.4670     7.5000    23.2740   -21.6200     2.1920 
   94.5000    76.0820     9.5640     7.0360     7.3330    23.3010   -21.1790     2.2050 
   94.6250    78.4250     9.0020     6.5710     6.6260    23.4340   -20.8800     2.2130 
   94.7500    81.7160     8.4170     6.2070     5.8010    23.6630   -20.6970     2.2140 
   94.8750    84.7260     7.9480     6.0460     5.6010    23.8520   -20.6580     2.2080 
   95.0000    84.9960     7.7400     6.1400     6.3090    23.9110   -20.6510     2.2010 
   95.1250    82.0220     7.9010     6.4910     6.8310    23.8480   -20.5210     2.2060 
   95.2500    79.0370     8.2430     6.9070     6.9870    23.7680   -20.1930     2.2270 
   95.3750    77.7750     8.5220     7.1800     6.9190    23.7530   -19.6330     2.2550 
   95.5000    79.5250     8.5170     7.1400     6.7640    23.8090   -18.8120     2.2760 
   95.6250    83.6460     8.1120     6.7380     6.3810    23.9550   -17.7380     2.2750 
   95.7500    86.7870     7.5110     6.2010     5.7090    24.1390   -16.5050     2.2590 
   95.8750    88.6200     6.9140     5.7060     5.0760    24.2960   -15.1640     2.2430 
   96.0000    89.7070     6.4690     5.3630     4.8600    24.3910   -13.7890     2.2450 
   96.1250    91.0670     6.2630     5.2210     4.9580    24.3490   -12.4560     2.2710 
   96.2500    93.2740     6.2070     5.2070     5.1080    24.2780   -11.3400     2.3050 
   96.3750    96.4160     6.2020     5.2570     5.4630    24.1980   -10.5410     2.3290 
   96.5000    98.6540     6.1590     5.2950     5.8690    24.1390    -9.9790     2.3340 
   96.6250   101.1330     6.0430     5.2660     5.1270    24.1580    -9.6890     2.3220 
   96.7500   103.3830     5.9260     5.1940     4.6740    24.1890    -9.6030     2.3060 
   96.8750   102.0850     5.8730     5.1220     4.6510    24.1260    -9.6170     2.2940 
   97.0000   100.2850     5.8960     5.0840     4.8340    23.9830    -9.6760     2.2890 
   97.1250   103.1190     5.9440     5.0940     4.8740    23.8110    -9.8180     2.2840 
   97.2500   107.4550     5.9530     5.1220     4.6880    23.6490    -9.9260     2.2760 
   97.3750   108.6200     5.9220     5.1460     4.7170    23.5580    -9.9610     2.2640 
   97.5000   107.9080     5.9160     5.1810     5.0160    23.5720   -10.0190     2.2540 
   97.6250   106.0170     6.0650     5.3050     5.1120    23.6950   -10.0320     2.2590 
   97.7500   100.3140     6.4100     5.5610     5.2230    23.8430    -9.9400     2.2870 
   97.8750    94.8050     6.9080     5.9410     5.5850    23.9600    -9.7980     2.3350 
   98.0000    94.3510     7.4280     6.3650     6.4170    24.0410    -9.6500     2.3870 
   98.1250    96.7000     7.7460     6.6570     8.0880    24.0050    -9.5240     2.4130 
   98.2500    97.5530     7.7620     6.7020     8.1390    23.9480    -9.4950     2.4010 
   98.3750    97.8730     7.5100     6.5040     6.4230    23.9100    -9.5390     2.3580 
   98.5000    99.4210     7.1470     6.1690     5.3070    23.8570    -9.6430     2.3040 
   98.6250    98.6780     6.8890     5.8520     5.1360    23.7120    -9.8340     2.2630 
   98.7500    95.0400     6.8070     5.6410     5.4550    23.5530   -10.0220     2.2440 
   98.8750    92.8590     6.8390     5.5420     5.7570    23.4340   -10.1850     2.2440 
   99.0000    95.4950     6.8590     5.5110     5.6830    23.3660   -10.3350     2.2590 
   99.1250   101.4210     6.7480     5.4840     5.5210    23.4240   -10.4820     2.2750 
   99.2500   105.4850     6.5760     5.4440     5.3360    23.6270   -10.7270     2.2760 
   99.3750   105.8100     6.5040     5.4400     5.2680    23.9370   -11.2100     2.2560 
   99.5000   101.9080     6.7060     5.5470     5.3380    24.2450   -11.8450     2.2220 
   99.6250    93.9400     7.3420     5.8760     5.5970    24.4020   -12.6090     2.2050 
   99.7500    86.1400     8.3060     6.4340     6.2170    24.3980   -13.5490     2.2250 
   99.8750    81.5090     9.4570     7.1990     7.8260    24.3650   -14.6020     2.2760 
  100.0000    81.0100    10.6000     8.0690    10.8670    24.3360   -15.7270     2.3280 
  100.1250    81.3160    11.4770     8.8160    11.7460    24.2110   -16.9380     2.3410 
  100.2500    81.0910    11.9850     9.2570    10.0580    24.0080   -18.0740     2.3090 
  100.3750    80.3700    12.1190     9.3460     8.5400    23.7620   -18.9670     2.2480 
  100.5000    76.9740    11.9750     9.1750     8.1260    23.5890   -19.6890     2.1850 
  100.6250    73.3460    11.6900     8.9010     8.1700    23.5660   -20.2360     2.1410 
  100.7500    73.4600    11.3990     8.6620     8.4340    23.6610   -20.6350     2.1140 
  100.8750    76.2840    11.1340     8.4850     8.8070    23.6990   -20.9840     2.1030 
  101.0000    76.9430    10.8880     8.3450     9.2180    23.6450   -21.3100     2.1030 
  101.1250    76.8310    10.6650     8.2110     9.3630    23.5780   -21.5860     2.1150 
  101.2500    79.0340    10.4780     8.0720     8.9430    23.5250   -21.8280     2.1320 
  101.3750    80.1600    10.3350     7.9390     8.4760    23.4680   -22.0160     2.1500 
  101.5000    78.6850    10.2240     7.8210     8.3260    23.5090   -22.1410     2.1620 
  101.6250    76.6400    10.1110     7.7280     8.3260    23.5420   -22.2250     2.1650 
  101.7500    75.0730     9.9750     7.6510     8.4180    23.5630   -22.2600     2.1620 
  101.8750    74.4620     9.8190     7.5850     8.3910    23.5630   -22.2400     2.1560 
