~V
VERS. 2.00: Ver 2.00
~W
STRT.M 57.0000:
STOP.M 272.0000:
STEP.M 0.1250:
NULL. -999.2500:
UWI. F11045:
~C
DEPT.M :
DEN.GM/CC :
GR.API :
RML.OHMM :
RI. :
RXO.OHMM :
CALI.CM :
SP.MV :
~A
# ...
   79.5000     2.3190    81.7680     9.4850     7.1240    10.5350    23.5830     2.5180 
   79.6250     2.2940    74.7230    10.2450     7.7260    10.6010    23.6850     2.0730 
   79.7500     2.2640    71.1510    10.6930     8.1750    10.1150    23.8280     1.7040 
   79.8750     2.2610    74.4920    10.7960     8.3630     9.8290    24.0220     1.3910 
   80.0000     2.2950    82.4430    10.5700     8.2200     9.9030    24.1930     1.1720 
   80.1250     2.3470    88.4350    10.0680     7.7580    11.0790    24.3820     1.0720 
   80.2500     2.3870    89.8460     9.5620     7.2430    11.7090    24.5060     1.0240 
   80.3750     2.4000    89.4160     9.3760     6.9320    10.0840    24.5580     1.0620 
   80.5000     2.3950    91.2010     9.8380     7.0380     8.5530    24.5630     1.1620 
   80.6250     2.4020    92.1250    11.2320     7.7660    10.0130    24.5330     1.2100 
   80.7500     2.4310    84.9530    13.1270     8.9280    13.0960    24.4250     1.0780 
   80.8750     2.4620    71.2650    14.7830    10.1350    13.9290    24.1990     0.7720 
   81.0000     2.4510    60.2340    15.3500    10.8300    14.5970    23.8370     0.2920 
   81.1250     2.3750    58.1730    14.5050    10.6670    14.6510    23.5350    -0.4130 
   81.2500     2.2930    60.3210    13.3930    10.2100    13.8720    23.3160    -1.1990 
   81.3750     2.2510    62.3130    12.9150     9.9660    12.9850    23.2270    -1.9700 
   81.5000     2.2620    62.6540    13.3920    10.1840    14.3620    23.3030    -2.7020 
   81.6250     2.3210    62.5840    14.4850    10.7930    21.3610    23.4830    -3.3820 
   81.7500     2.3760    62.8430    15.1700    11.2340    26.7230    23.5410    -3.9610 
   81.8750     2.3740    63.5100    14.7740    11.0410    19.5650    23.4270    -4.4390 
   82.0000     2.3050    63.8980    13.3790    10.1790    12.1620    23.2210    -4.8230 
   82.1250     2.2280    63.0680    11.8040     9.0750     9.7920    23.0510    -5.0050 
   82.2500     2.1900    61.8080    10.7780     8.2000     9.1980    22.9420    -5.0350 
   82.3750     2.1840    61.1950    10.4160     7.6990     9.2330    22.9200    -5.0600 
   82.5000     2.1940    61.6380    10.5190     7.5490     9.4770    22.9770    -5.1190 
   82.6250     2.2050    62.2840    10.7750     7.6330     9.5890    22.9770    -5.1460 
   82.7500     2.2090    61.6170    10.9670     7.7570     9.6290    22.9000    -5.1480 
   82.8750     2.2080    60.5720    11.0900     7.8470     9.7610    22.7890    -5.1460 
   83.0000     2.2050    60.2420    11.2000     7.8910    10.0180    22.7210    -5.1650 
   83.1250     2.2050    60.2040    11.3170     7.9040    10.3260    22.7050    -5.2470 
   83.2500     2.2060    59.3530    11.3980     7.9080    10.0560    22.7130    -5.3840 
   83.3750     2.2040    58.0580    11.3980     7.8980     9.8210    22.7370    -5.5250 
   83.5000     2.1980    58.2970    11.3030     7.8590     9.8590    22.7870    -5.6690 
   83.6250     2.1880    60.7190    11.1290     7.7750     9.9100    22.8270    -5.8070 
   83.7500     2.1780    63.6350    10.9490     7.6730     9.9960    22.8910    -5.8900 
   83.8750     2.1720    65.6300    10.8220     7.5850    10.0710    23.0030    -5.9050 
   84.0000     2.1690    66.4860    10.8120     7.5500    10.0100    23.1210    -5.8550 
   84.1250     2.1730    66.1700    10.9900     7.6050    10.0310    23.1570    -5.7630 
   84.2500     2.1790    64.8090    11.2970     7.7350    10.3350    23.1220    -5.6560 
   84.3750     2.1870    62.0460    11.6260     7.9050    10.8830    23.0400    -5.4980 
   84.5000     2.1930    59.6760    11.8530     8.0560    11.2840    22.9410    -5.2910 
   84.6250     2.1940    60.0030    11.8610     8.1080    11.2220    22.8200    -5.0510 
   84.7500     2.1900    60.8160    11.6800     8.0330    11.1380    22.7490    -4.7920 
   84.8750     2.1860    62.1470    11.3500     7.8250    11.0840    22.7410    -4.5380 
   85.0000     2.1860    64.8790    10.9120     7.5090    10.9330    22.7730    -4.2930 
   85.1250     2.1930    68.5710    10.4020     7.1410    10.6350    22.7680    -4.0410 
   85.2500     2.2070    71.0810     9.9020     6.8110    10.1120    22.7530    -3.7790 
   85.3750     2.2230    72.6700     9.5200     6.5890     9.5620    22.7750    -3.5220 
   85.5000     2.2320    76.3340     9.3710     6.5260     9.2050    22.8070    -3.2780 
   85.6250     2.2230    79.4940     9.5540     6.6620     9.8000    22.8340    -3.0630 
   85.7500     2.2020    78.3710     9.9640     6.9350    10.9790    22.8860    -2.8820 
   85.8750     2.1810    74.4930    10.4810     7.2850    11.8080    22.9760    -2.7250 
   86.0000     2.1720    71.0970    10.9780     7.6510    13.3140    23.0310    -2.5730 
   86.1250     2.1760    69.3190    11.3360     7.9750    16.0290    22.9830    -2.4300 
   86.2500     2.1860    67.6440    11.5310     8.2270    17.0960    22.8470    -2.2910 
   86.3750     2.1950    66.0540    11.5550     8.3650    15.6520    22.6920    -2.1190 
   86.5000     2.2020    65.7430    11.3760     8.3290    13.6250    22.5850    -1.8860 
   86.6250     2.2070    66.0700    10.8990     8.0300    13.5830    22.4970    -1.5620 
   86.7500     2.2160    68.2480    10.2010     7.5380    13.2070    22.4890    -1.1650 
   86.8750     2.2330    72.9360     9.4010     6.9530    11.7110    22.6030    -0.6900 
   87.0000     2.2590    78.9950     8.6520     6.4020     9.6580    22.8820    -0.1500 
   87.1250     2.2850    86.2950     8.1200     6.0090     8.5990    23.2440     0.4290 
   87.2500     2.2910    91.2560     7.8240     5.7850     8.3750    23.5470     1.0500 
   87.3750     2.2740    90.4150     7.7380     5.7070     7.9330    23.6820     1.6680 
   87.5000     2.2510    85.4910     7.7940     5.7300     7.6740    23.6730     2.2210 
   87.6250     2.2440    82.4620     7.9450     5.8190     7.7320    23.6210     2.6750 
   87.7500     2.2450    82.8950     8.1480     5.9430     8.2240    23.5400     3.0640 
   87.8750     2.2470    82.9640     8.3960     6.0960     9.1810    23.3990     3.3810 
   88.0000     2.2460    82.8340     8.6700     6.2650     9.9210    23.1950     3.6210 
   88.1250     2.2480    84.4710     8.8710     6.3870    10.8470    23.0910     3.7640 
   88.2500     2.2550    86.2220     8.8890     6.3940    11.5470    23.1650     3.8090 
   88.3750     2.2640    88.2180     8.6650     6.2520    11.3080    23.3850     3.7900 
   88.5000     2.2700    90.4770     8.2570     5.9890     8.5060    23.6480     3.7640 
   88.6250     2.2730    91.7100     7.8210     5.6910     7.9190    23.7550     3.7510 
   88.7500     2.2760    90.9320     7.5180     5.4570     7.5440    23.7450     3.7080 
   88.8750     2.2770    88.5090     7.4240     5.3330     7.4950    23.6900     3.6230 
   89.0000     2.2730    85.9600     7.5030     5.3070     7.4200    23.6210     3.4680 
   89.1250     2.2670    84.1600     7.6210     5.3190     7.6820    23.5790     3.2020 
   89.2500     2.2610    82.7660     7.6900     5.3310     8.3820    23.5100     2.8070 
   89.3750     2.2620    82.1540     7.7730     5.3870     8.3400    23.4620     2.3170 
   89.5000     2.2750    83.8440     8.0120     5.5670     7.9740    23.4560     1.7680 
   89.6250     2.3040    88.4800     8.5940     5.9710     8.1940    23.4270     1.1490 
   89.7500     2.3430    90.5340     9.4760     6.5640    10.2070    23.3350     0.4850 
   89.8750     2.3810    86.9930    10.4540     7.2300    16.1870    23.2240    -0.2350 
   90.0000     2.3860    80.2250    11.1720     7.7490    18.8100    23.1770    -1.0250 
   90.1250     2.3240    74.3930    11.2320     7.8330    13.3120    23.2090    -1.8400 
   90.2500     2.2390    69.6750    10.7480     7.5340    10.6610    23.2290    -2.5950 
   90.3750     2.1730    66.3500     9.9900     7.0260    10.0000    23.1960    -3.2990 
   90.5000     2.1430    65.1680     9.2620     6.5180     9.6590    23.1650    -3.9700 
   90.6250     2.1440    65.5170     8.8100     6.1770     9.5950    23.1590    -4.5260 
