~V
VERS. 2.00: Ver 2.00
~W
STRT.M 59.0000:
STOP.M 225.0000:
STEP.M 0.1250:
NULL. -999.2500:
UWI. F11010:
~C
DEPT.M :
GR.API :
RML.OHMM :
RI. :
RXO.OHMM :
CALI.CM :
SP.MV :
DEN.GM/CC :
~A
# ...
  126.5000    99.8760     5.8890     4.6440     5.1640    25.2310    -7.1200     2.3340 
  126.6250   104.2610     5.8440     4.6310     5.1440    25.2350    -7.2300     2.3290 
  126.7500   105.8700     5.8550     4.6600     5.2820    25.2610    -7.3590     2.3190 
  126.8750   102.9720     5.9450     4.7470     5.6250    25.2790    -7.5020     2.3010 
  127.0000    96.8600     6.1250     4.9000     6.0150    25.3100    -7.6360     2.2780 
  127.1250    89.1870     6.3910     5.1270     6.3900    25.3420    -7.7360     2.2620 
  127.2500    84.0420     6.6760     5.3810     6.5940    25.3770    -7.7960     2.2620 
  127.3750    83.3770     6.9010     5.6010     6.4790    25.3990    -7.8130     2.2800 
  127.5000    84.9080     6.9810     5.7100     6.8210    25.3110    -7.7670     2.3080 
  127.6250    87.8710     6.8130     5.6080     7.2040    25.1650    -7.6620     2.3300 
  127.7500    94.4020     6.4460     5.3190     7.0490    25.0370    -7.5160     2.3400 
  127.8750   103.8140     5.9650     4.9120     5.9440    24.9920    -7.3150     2.3420 
  128.0000   109.9500     5.4910     4.4980     5.0980    25.0180    -7.0880     2.3460 
  128.1250   109.0630     5.1720     4.2010     4.7860    25.0830    -6.8580     2.3590 
  128.2500   106.6480     5.0710     4.0770     4.6620    25.1670    -6.6180     2.3760 
  128.3750   103.4170     5.2300     4.1650     4.7040    25.1630    -6.3730     2.3850 
  128.5000    98.0570     5.6670     4.4870     5.1970    25.1050    -6.1470     2.3800 
  128.6250    93.9680     6.4100     5.0750     6.0830    25.0660    -5.9470     2.3550 
  128.7500    92.0020     7.3410     5.8420     6.9220    25.1150    -5.7780     2.3220 
  128.8750    90.7960     8.3190     6.6930     7.6720    25.2170    -5.6790     2.2920 
  129.0000    89.4780     9.1500     7.4690     8.8360    25.2950    -5.6250     2.2710 
  129.1250    89.3920     9.5450     7.9020     9.2000    25.3180    -5.6020     2.2670 
  129.2500    88.8560     9.4600     7.8980     9.1270    25.3390    -5.6380     2.2730 
  129.3750    86.2600     8.9820     7.5090     8.8390    25.3330    -5.7180     2.2870 
  129.5000    84.1080     8.3280     6.9330     8.6330    25.2920    -5.8210     2.3080 
  129.6250    86.8280     7.8140     6.4430     7.9420    25.2090    -5.9480     2.3290 
  129.7500    92.6230     7.6560     6.2090     7.1900    25.1220    -6.0980     2.3420 
  129.8750    95.3980     7.9800     6.3270     7.6680    25.0080    -6.2340     2.3370 
  130.0000    91.0860     8.8580     6.8700     9.5180    24.8960    -6.3300     2.3090 
  130.1250    83.3290    10.4280     7.9940    11.8680    24.8230    -6.4090     2.2570 
  130.2500    76.6700    12.5910     9.6700    11.9180    24.7730    -6.4640     2.2020 
  130.3750    72.7290    15.2890    11.9040    12.5300    24.7870    -6.5000     2.1690 
  130.5000    70.9610    18.3570    14.6060    16.9440    24.8970    -6.5200     2.1790 
  130.6250    68.8610    21.3910    17.4980    27.8820    24.9670    -6.4970     2.2470 
  130.7500    67.0620    23.7700    20.0180    30.3900    24.9130    -6.4410     2.3390 
  130.8750    68.0810    24.9040    21.5480    26.1490    24.8800    -6.3860     2.4200 
  131.0000    71.3870    24.4650    21.5800    22.8010    24.9550    -6.3500     2.4610 
  131.1250    71.8960    22.4930    20.0180    21.5540    24.9970    -6.3070     2.4460 
  131.2500    70.9900    19.9950    17.9110    20.3670    24.9760    -6.2650     2.3980 
  131.3750    73.0630    17.7480    15.9960    17.4040    24.9280    -6.2420     2.3420 
  131.5000    76.5920    16.3150    14.7300    13.6400    24.8270    -6.2450     2.3020 
  131.6250    76.8140    16.1750    14.4910    12.0500    24.8080    -6.2860     2.3020 
  131.7500    75.3010    17.1460    15.1850    14.7030    24.9060    -6.3240     2.3420 
  131.8750    73.1270    18.9940    16.7330    19.1610    24.9280    -6.3560     2.4070 
  132.0000    71.8320    21.2370    18.8830    24.7830    24.8250    -6.3960     2.4700 
  132.1250    73.9510    22.9630    20.9210    25.0430    24.7960    -6.4660     2.5010 
  132.2500    76.1110    23.4010    21.8250    23.2570    24.8560    -6.5590     2.4950 
  132.3750    72.5340    22.2370    20.9930    20.2900    24.9310    -6.6520     2.4640 
  132.5000    64.9700    19.7720    18.6830    18.5720    25.0300    -6.7220     2.4260 
  132.6250    62.5790    16.8370    15.8570    16.3250    25.2010    -6.7820     2.3960 
  132.7500    64.9160    14.4190    13.5210    12.6200    25.4700    -6.8530     2.3800 
  132.8750    66.6880    13.0130    12.0620     9.5280    25.6340    -6.9130     2.3800 
  133.0000    66.6860    12.7970    11.5820     8.5050    25.7150    -6.9640     2.3960 
  133.1250    65.5820    13.8670    12.2080    10.7680    25.6690    -6.9800     2.4270 
  133.2500    61.7340    15.7300    13.6660    14.3950    25.5610    -6.9440     2.4660 
  133.3750    56.5880    17.9570    15.7000    18.0760    25.4610    -6.8690     2.5030 
  133.5000    55.1900    20.0600    17.8570    19.7340    25.3820    -6.7940     2.5310 
  133.6250    57.9050    21.5480    19.5030    19.6540    25.3250    -6.7160     2.5410 
  133.7500    60.4520    22.4350    20.4830    20.7090    25.2340    -6.6210     2.5400 
  133.8750    61.1660    22.9010    20.9550    21.5900    25.1540    -6.5360     2.5360 
  134.0000    60.7400    23.1640    21.1680    20.8730    25.1180    -6.4610     2.5360 
  134.1250    60.4200    23.3340    21.2590    20.0960    25.0930    -6.4170     2.5400 
  134.2500    61.6740    23.4230    21.2700    19.0150    25.0590    -6.4090     2.5400 
  134.3750    65.1240    23.4180    21.1980    17.7140    25.0470    -6.4350     2.5320 
  134.5000    69.2560    23.3680    21.0800    16.2000    25.2230    -6.4610     2.5170 
  134.6250    73.1610    23.4320    21.0400    15.7140    25.3540    -6.4380     2.5030 
  134.7500    75.7920    23.7670    21.2290    15.4060    25.4020    -6.3860     2.4950 
  134.8750    75.6200    24.4660    21.7580    13.7280    25.3600    -6.3330     2.4950 
  135.0000    72.2010    25.5050    22.6490    13.6700    25.2810    -6.3110     2.4970 
  135.1250    70.6380    26.6540    23.7700    17.1550    25.2210    -6.3200     2.4990 
  135.2500    72.9930    27.4560    24.7020    17.3090    25.1740    -6.3330     2.4970 
  135.3750    77.1140    27.4800    24.9800    14.1670    25.1560    -6.3420     2.4900 
  135.5000    80.2830    26.4740    24.2570    12.0010    25.1720    -6.3560     2.4780 
  135.6250    80.0650    24.4320    22.4670    12.4590    25.1690    -6.3990     2.4630 
  135.7500    78.9110    22.0150    20.2880    14.2320    25.1030    -6.4310     2.4510 
  135.8750    78.8960    19.7450    18.2330    14.0600    24.9990    -6.4100     2.4420 
  136.0000    80.1220    17.9840    16.6200    12.2700    24.9140    -6.3240     2.4360 
  136.1250    80.3100    16.9620    15.6480    11.3040    24.8750    -6.1620     2.4350 
  136.2500    78.7210    16.4740    15.1710    12.5510    24.9150    -5.9740     2.4380 
  136.3750    77.7280    16.3740    15.0830    14.5220    24.9220    -5.7870     2.4450 
  136.5000    76.7710    16.7200    15.2750    14.2200    24.8270    -5.5920     2.4510 
  136.6250    73.7590    17.6250    15.6710    14.0000    24.7550    -5.3900     2.4520 
  136.7500    72.4710    18.6580    16.1510    14.7210    24.7320    -5.2000     2.4470 
  136.8750    74.7900    19.4060    16.6370    15.4080    24.7550    -5.0210     2.4410 
  137.0000    78.0310    19.7520    17.0430    15.9060    24.8870    -4.8540     2.4390 
  137.1250    79.9720    19.8430    17.2510    16.6610    25.1600    -4.7300     2.4440 
  137.2500    82.4880    19.8060    17.2750    17.4290    25.3920    -4.6350     2.4520 
  137.3750    83.4400    19.6680    17.1730    17.3260    25.4900    -4.5460     2.4560 
  137.5000    80.0190    19.4800    17.0100    16.7980    25.5160    -4.4620     2.4570 
  137.6250    74.9970    19.2180    16.7830    15.8680    25.4920    -4.4100     2.4570 
