~V
VERS. 2.00: Ver 2.00
~W
STRT.M 55.0000:
STOP.M 229.0000:
STEP.M 0.1250:
NULL. -999.2500:
UWI. F11013:
~C
DEPT.M :
DEN.GM/CC :
GR.API :
RML.OHMM :
RI. :
RXO.OHMM :
CALI.CM :
SP.MV :
~A
# ...
  100.0000     2.3410   102.1690     6.2990     5.2530     5.8240    23.4890   -15.0820 
  100.1250     2.3650   101.8950     6.6650     5.4600     5.9640    23.4070   -15.5440 
  100.2500     2.3960   100.9350     7.5970     6.0430     6.3020    23.4580   -16.0680 
  100.3750     2.4240   100.3340     9.3050     7.1970     8.2070    23.6540   -16.6810 
  100.5000     2.4280    94.7880    11.5130     8.8480    13.3240    23.7440   -17.3850 
  100.6250     2.3860    83.2660    13.7390    10.7790    22.1580    23.6210   -18.0990 
  100.7500     2.3040    72.0670    15.2720    12.4860    28.0020    23.3420   -18.8500 
  100.8750     2.2170    67.5080    15.3420    13.1690    26.2340    23.1680   -19.5640 
  101.0000     2.1560    67.7550    14.3390    12.8380    21.6480    23.0900   -20.2750 
  101.1250     2.1280    68.7270    12.9100    11.9190    16.7360    23.0130   -20.9350 
  101.2500     2.1310    67.3480    11.6280    10.9160    11.7780    22.8260   -21.5710 
  101.3750     2.1570    67.6690    10.7750    10.1460     9.3690    22.5190   -22.0810 
  101.5000     2.1860    72.6760    10.1890     9.5860     8.1460    22.2330   -22.4710 
  101.6250     2.2020    77.3440     9.7180     9.1480     7.5250    22.0560   -22.8200 
  101.7500     2.1970    75.5670     9.2750     8.7610     7.1710    21.9720   -23.0960 
  101.8750     2.1820    70.2370     8.8470     8.3930     7.0400    21.9490   -23.3330 
  102.0000     2.1720    67.7170     8.4590     8.0420     6.9520    21.9520   -23.4770 
  102.1250     2.1670    68.6030     8.1370     7.7240     6.7200    21.9430   -23.5760 
  102.2500     2.1640    70.3510     7.8930     7.4560     6.3990    21.9060   -23.5900 
  102.3750     2.1640    67.7500     7.7380     7.2590     6.2190    21.8830   -23.6190 
  102.5000     2.1640    61.4370     7.6460     7.1160     6.2280    21.8700   -23.6350 
  102.6250     2.1640    56.8460     7.5990     7.0070     6.3320    21.8490   -23.6200 
  102.7500     2.1630    57.8850     7.5780     6.9110     6.4380    21.8290   -23.5770 
  102.8750     2.1640    61.2800     7.5550     6.8210     6.3980    21.8210   -23.4790 
  103.0000     2.1670    63.6820     7.5100     6.7420     6.4390    21.8520   -23.3990 
  103.1250     2.1690    65.0950     7.4450     6.6850     6.5240    21.9370   -23.3150 
  103.2500     2.1710    67.1540     7.3830     6.6600     6.6610    22.0400   -23.2590 
  103.3750     2.1750    71.3870     7.3560     6.6690     6.7630    22.1380   -23.1960 
  103.5000     2.1780    76.7520     7.3630     6.6940     6.8900    22.2060   -23.1510 
  103.6250     2.1780    80.0620     7.3880     6.7190     6.9890    22.2110   -23.1160 
  103.7500     2.1730    78.4490     7.4160     6.7320     7.0070    22.1170   -23.1170 
  103.8750     2.1660    72.0580     7.4360     6.7320     7.0420    22.0230   -23.1280 
  104.0000     2.1620    66.5540     7.4560     6.7270     7.0040    21.9130   -23.1480 
  104.1250     2.1620    64.6190     7.4810     6.7200     6.8100    21.7780   -23.1670 
  104.2500     2.1660    65.9530     7.5050     6.7050     6.5450    21.6720   -23.2080 
  104.3750     2.1730    66.9270     7.5060     6.6750     6.3980    21.6560   -23.2350 
  104.5000     2.1780    66.2910     7.4770     6.6280     6.3160    21.7620   -23.2570 
  104.6250     2.1820    63.2370     7.4280     6.5660     6.3390    21.9020   -23.2820 
  104.7500     2.1810    60.3430     7.3720     6.4940     6.5050    22.0480   -23.2620 
  104.8750     2.1720    62.4960     7.3210     6.4200     6.7950    22.3610   -23.2680 
  105.0000     2.1600    65.7360     7.2740     6.3580     6.9520    22.8810   -23.2530 
  105.1250     2.1500    65.1270     7.2300     6.3130     6.9460    23.4460   -23.2370 
  105.2500     2.1480    62.9530     7.1870     6.2870     6.9990    23.7390   -23.1820 
  105.3750     2.1540    64.8800     7.1510     6.2800     7.1580    23.5510   -23.1070 
  105.5000     2.1630    68.1640     7.1260     6.2850     7.2720    23.1310   -22.9710 
  105.6250     2.1730    68.5400     7.1180     6.3010     7.2670    22.8450   -22.8030 
  105.7500     2.1850    66.3250     7.1260     6.3290     7.2270    22.6820   -22.6010 
  105.8750     2.1930    63.6620     7.1520     6.3680     7.1790    22.7170   -22.3600 
  106.0000     2.1920    62.4200     7.1880     6.4070     7.1610    22.8490   -22.0970 
  106.1250     2.1840    61.8440     7.2180     6.4390     7.2100    22.9280   -21.7980 
  106.2500     2.1740    61.4820     7.2230     6.4520     7.3000    22.9500   -21.4650 
  106.3750     2.1680    62.3860     7.1810     6.4300     7.4440    22.9640   -21.0820 
  106.5000     2.1660    65.4190     7.1000     6.3830     7.4480    22.9590   -20.7290 
  106.6250     2.1650    66.8220     6.9960     6.3230     7.2820    22.9160   -20.3310 
  106.7500     2.1640    64.3650     6.8920     6.2680     7.1270    22.8940   -19.9450 
  106.8750     2.1660    60.9930     6.8270     6.2350     7.2110    22.9210   -19.4880 
  107.0000     2.1690    59.8280     6.8190     6.2310     7.3130    22.9380   -19.0040 
  107.1250     2.1740    60.2300     6.8800     6.2640     7.3470    22.9420   -18.4790 
  107.2500     2.1820    62.4120     7.0090     6.3440     7.2930    22.9420   -17.8990 
  107.3750     2.1900    65.2320     7.1730     6.4610     7.1920    22.9340   -17.2810 
  107.5000     2.2010    67.4020     7.2780     6.5510     7.0910    22.8640   -16.5930 
  107.6250     2.2180    68.5220     7.2350     6.5360     6.9370    22.6640   -15.9000 
  107.7500     2.2410    68.8190     6.9890     6.3570     6.7890    22.3720   -15.1580 
  107.8750     2.2690    70.9360     6.5400     5.9880     6.3740    22.1910   -14.4650 
  108.0000     2.2950    77.6540     6.0240     5.5260     5.6240    22.3160   -13.7970 
  108.1250     2.3130    88.2300     5.5460     5.0600     4.8340    22.8060   -13.2150 
  108.2500     2.3240    98.2060     5.1750     4.6650     4.5850    23.4770   -12.7890 
  108.3750     2.3290   101.6440     4.9680     4.4120     4.7310    23.7840   -12.5540 
  108.5000     2.3310   101.0480     4.9140     4.3040     4.8510    23.8430   -12.5050 
  108.6250     2.3240    99.8260     5.0200     4.3460     4.8380    23.8260   -12.6110 
  108.7500     2.2990    97.4180     5.2900     4.5360     4.8730    23.8180   -12.8980 
  108.8750     2.2550    89.8340     5.7400     4.8870     5.3000    23.7640   -13.3110 
  109.0000     2.2130    78.9350     6.2960     5.3440     6.2170    23.5910   -13.8310 
  109.1250     2.1880    70.7370     6.8640     5.8450     7.0400    23.2740   -14.3790 
  109.2500     2.1830    67.4560     7.3310     6.2980     7.4110    22.8890   -14.9050 
  109.3750     2.1890    65.5690     7.5760     6.5850     7.4110    22.5320   -15.3600 
  109.5000     2.1960    63.0170     7.6250     6.6900     7.3860    22.4670   -15.7200 
  109.6250     2.2010    63.3180     7.5360     6.6440     7.3510    22.6790   -15.9470 
  109.7500     2.2070    66.5410     7.3810     6.5090     7.3480    22.8630   -16.0890 
  109.8750     2.2150    69.2580     7.2200     6.3600     7.3340    22.9240   -16.1140 
  110.0000     2.2220    68.0270     7.0980     6.2480     7.2660    22.9170   -16.0360 
  110.1250     2.2260    65.0240     7.0780     6.2120     7.1680    22.9220   -15.8850 
  110.2500     2.2350    63.3040     7.2980     6.3200     7.2350    22.9000   -15.6600 
  110.3750     2.2600    63.3630     8.0670     6.7530     7.6380    22.7930   -15.4010 
  110.5000     2.3040    64.4660     9.4550     7.6010     8.4520    22.6400   -15.0740 
  110.6250     2.3700    65.7300    11.3340     8.8800     9.3990    22.6050   -14.7610 
  110.7500     2.4560    65.2510    13.2290    10.3770    11.4740    22.7810   -14.3960 
  110.8750     2.5390    62.1810    14.0680    11.3470    17.8880    23.0200   -14.0770 
  111.0000     2.5650    61.6690    13.2550    11.1050    27.7040    23.2140   -13.7790 
  111.1250     2.5190    66.8380    11.0010     9.6310    24.3300    23.4300   -13.5460 
