~V
VERS. 2.00: Ver 2.00
~W
STRT.M 60.0000:
STOP.M 274.0000:
STEP.M 0.1250:
NULL. -999.2500:
UWI. F11079:
~C
DEPT.M :
GR.API :
RML.OHMM :
RI. :
RXO.OHMM :
CALI.CM :
DEN.GM/CC :
SP.MV :
~A
# ...
   82.5000    73.1250     8.7280     6.4510     7.3240    24.2760     2.2050    -8.8940 
   82.6250    70.1320     9.0560     6.7510     7.9400    24.2350     2.1540    -9.4020 
   82.7500    69.0300     9.3190     7.0040     8.1150    24.0300     2.1050    -9.9480 
   82.8750    68.0840     9.4880     7.1680     7.7030    23.6870     2.0740   -10.5040 
   83.0000    68.6990     9.5550     7.2380     7.3890    23.4020     2.0700   -11.0450 
   83.1250    68.7820     9.5200     7.2290     7.5520    23.4890     2.0900   -11.5510 
   83.2500    65.8810     9.4320     7.1940     7.8030    23.8840     2.1140   -11.9950 
   83.3750    63.6600     9.3260     7.1550     8.1240    24.4780     2.1310   -12.3670 
   83.5000    65.1340     9.2210     7.1180     8.3740    24.9660     2.1330   -12.6650 
   83.6250    67.2770     9.1240     7.0670     8.2290    25.1490     2.1130   -12.9030 
   83.7500    66.9050     9.0360     6.9970     7.9990    25.1760     2.0830   -13.1270 
   83.8750    64.3920     8.9590     6.9210     8.1610    25.2340     2.0580   -13.3000 
   84.0000    62.0910     8.9020     6.8650     8.5370    25.1990     2.0540   -13.4000 
   84.1250    60.5290     8.8960     6.8600     8.7670    24.9600     2.0740   -13.4350 
   84.2500    59.6550     8.9380     6.9000     8.7680    24.7830     2.0960   -13.4370 
   84.3750    59.2180     9.0190     6.9630     8.6940    24.8650     2.1060   -13.4210 
   84.5000    60.2170     9.1130     7.0220     8.7080    25.1810     2.1010   -13.4080 
   84.6250    64.2190     9.1850     7.0560     8.7750    25.3930     2.0840   -13.3890 
   84.7500    67.5020     9.2080     7.0690     8.8610    25.3160     2.0670   -13.3240 
   84.8750    68.2240     9.1780     7.0750     8.9180    24.9890     2.0620   -13.2270 
   85.0000    69.0420     9.1150     7.0860     8.9610    24.6070     2.0800   -13.1230 
   85.1250    70.1870     9.0540     7.1030     9.1510    24.4260     2.1140   -13.0200 
   85.2500    69.0090     9.0130     7.1200     9.1160    24.3620     2.1420   -12.9260 
   85.3750    64.8610     8.9890     7.1250     9.1490    24.3330     2.1560   -12.8600 
   85.5000    61.3950     8.9700     7.1190     9.2800    24.3110     2.1600   -12.8080 
   85.6250    61.0000     8.9540     7.1130     9.3910    24.3350     2.1630   -12.7450 
   85.7500    61.2980     8.9550     7.1220     9.3570    24.3580     2.1640   -12.6510 
   85.8750    61.4340     8.9890     7.1520     9.2070    24.4010     2.1650   -12.5610 
   86.0000    62.2830     9.0530     7.1950     9.0730    24.4630     2.1690   -12.5180 
   86.1250    65.0290     9.1330     7.2330     9.0090    24.4260     2.1750   -12.5140 
   86.2500    67.8520     9.2100     7.2550     9.0800    24.2960     2.1780   -12.5030 
   86.3750    68.7130     9.2810     7.2620     9.0860    24.1710     2.1780   -12.4660 
   86.5000    67.4310     9.3480     7.2590     9.0170    24.1340     2.1730   -12.3920 
   86.6250    66.1160     9.4060     7.2540     8.9990    24.0890     2.1660   -12.3130 
   86.7500    65.4860     9.4460     7.2560     9.0360    23.9790     2.1560   -12.2890 
   86.8750    64.2410     9.4640     7.2660     9.1560    23.8640     2.1460   -12.2970 
   87.0000    63.0410     9.4680     7.2840     9.2810    23.7960     2.1380   -12.3090 
   87.1250    62.8600     9.4820     7.3150     9.2990    23.7490     2.1350   -12.3290 
   87.2500    62.4530     9.5220     7.3610     9.3100    23.7090     2.1330   -12.3550 
   87.3750    62.3750     9.5840     7.4180     9.4410    23.6630     2.1320   -12.3820 
   87.5000    64.3620     9.6590     7.4760     9.5000    23.6480     2.1310   -12.4210 
   87.6250    67.9970     9.7410     7.5160     9.6410    23.6160     2.1300   -12.4690 
   87.7500    69.3150     9.8250     7.5330     9.6740    23.6030     2.1300   -12.5130 
   87.8750    68.3950     9.9030     7.5350     9.6530    23.6520     2.1330   -12.5580 
   88.0000    68.2070     9.9620     7.5450     9.6650    23.7030     2.1380   -12.5510 
   88.1250    69.0060     9.9920     7.5830     9.7680    23.6650     2.1390   -12.4540 
   88.2500    68.6190    10.0010     7.6380     9.9220    23.5170     2.1380   -12.3080 
   88.3750    66.9340     9.9940     7.6810    10.0830    23.3730     2.1410   -12.1390 
   88.5000    65.9980     9.9890     7.6910    10.1190    23.2880     2.1510   -11.9670 
   88.6250    67.6190    10.0110     7.6690    10.0180    23.2220     2.1660   -11.8020 
   88.7500    69.1620    10.0670     7.6460     9.8650    23.2120     2.1790   -11.6210 
   88.8750    68.7470    10.1440     7.6440     9.7000    23.2480     2.1850   -11.4260 
   89.0000    68.6740    10.2140     7.6640     9.7900    23.3130     2.1860   -11.2560 
   89.1250    71.5870    10.2360     7.6810     9.9580    23.4380     2.1850   -11.1480 
   89.2500    73.2550    10.2070     7.6710     9.9410    23.6240     2.1820   -11.0980 
   89.3750    71.0870    10.1510     7.6290     9.7520    23.7650     2.1720   -11.0800 
   89.5000    68.3450    10.1010     7.5680     9.5800    23.8310     2.1600   -11.0690 
   89.6250    70.6160    10.0760     7.5070     9.5070    23.9020     2.1550   -11.0330 
   89.7500    74.4040    10.0630     7.4510     9.4820    24.0230     2.1570   -10.9940 
   89.8750    75.2160    10.0440     7.4040     9.3560    24.1080     2.1580   -10.9590 
   90.0000    72.7830    10.0120     7.3680     9.0850    24.1330     2.1570   -10.9180 
   90.1250    71.5190     9.9680     7.3500     8.9530    24.1330     2.1560   -10.8640 
   90.2500    72.2960     9.9190     7.3490     8.9690    24.1520     2.1570   -10.7730 
   90.3750    72.2590     9.8610     7.3620     8.9840    24.1640     2.1550   -10.6320 
   90.5000    69.5970     9.7820     7.3810     8.9610    24.1480     2.1490   -10.4510 
   90.6250    66.2590     9.6820     7.3950     8.8080    24.0760     2.1400   -10.2330 
   90.7500    65.3610     9.6020     7.4080     8.5370    23.8780     2.1340    -9.9610 
   90.8750    67.1690     9.5930     7.4320     8.4230    23.5610     2.1340    -9.6010 
   91.0000    70.2000     9.6870     7.4820     8.5060    23.3070     2.1410    -9.1290 
   91.1250    71.0870     9.8410     7.5470     8.6940    23.1760     2.1510    -8.5050 
   91.2500    69.0100     9.8920     7.5580     8.7940    23.1500     2.1550    -7.7440 
   91.3750    65.8720     9.6830     7.4160     8.7880    23.1610     2.1550    -6.8730 
   91.5000    66.2950     9.1310     7.0480     8.5620    23.1890     2.1540    -5.9080 
   91.6250    74.9560     8.2800     6.4490     7.8080    23.2340     2.1520    -4.8650 
   91.7500    86.0840     7.3890     5.7790     6.4660    23.2710     2.1510    -3.7790 
   91.8750    93.1520     6.6440     5.1730     5.2590    23.2790     2.1480    -2.7300 
   92.0000    95.1770     6.1600     4.7280     4.8290    23.3730     2.1410    -1.8210 
   92.1250    94.9290     6.0130     4.5220     5.1700    23.5900     2.1290    -1.1300 
   92.2500    94.5590     6.1170     4.5110     5.5460    23.6590     2.1180    -0.6690 
   92.3750    94.6330     6.3930     4.6530     5.6130    23.5000     2.1170    -0.4220 
   92.5000    95.9510     6.7300     4.8780     5.5810    23.1060     2.1280    -0.3710 
   92.6250    96.2110     7.0000     5.1020     5.5900    22.7450     2.1450    -0.5180 
   92.7500    94.1080     7.1680     5.2780     5.7130    22.5290     2.1620    -0.8270 
   92.8750    90.0050     7.2720     5.4200     5.8290    22.5700     2.1730    -1.2360 
   93.0000    85.1050     7.3740     5.5630     5.8740    22.9320     2.1780    -1.6910 
   93.1250    82.3380     7.5040     5.7140     5.9350    23.5690     2.1830    -2.1510 
   93.2500    81.7030     7.5990     5.8290     6.3190    24.0390     2.1930    -2.5930 
   93.3750    82.5660     7.5750     5.8510     7.1090    24.3710     2.2020    -2.9700 
   93.5000    86.6560     7.3900     5.7500     7.3850    24.4740     2.2130    -3.2500 
   93.6250    95.1670     7.0890     5.5550     6.6540    24.3690     2.2370    -3.4540 
