~V
VERS. 2.00: Ver 2.00
~W
STRT.M 53.0000:
STOP.M 257.0000:
STEP.M 0.1250:
NULL. -999.2500:
UWI. F11022:
~C
DEPT.M :
GR.API :
RML.OHMM :
RI. :
RXO.OHMM :
CALI.CM :
SP.MV :
DEN.GM/CC :
~A
# ...
  120.5000    79.3990     9.0660     7.8970     9.2720    24.4430   -23.2590     2.1350 
  120.6250    78.8700     8.9800     7.8070     9.7790    24.4170   -23.2470     2.1420 
  120.7500    76.8350     8.7710     7.6170     9.8450    24.3670   -23.0940     2.1550 
  120.8750    76.3610     8.4080     7.3180     9.3790    24.3120   -22.9310     2.1730 
  121.0000    79.6730     7.8920     6.9170     8.3980    24.2830   -22.8850     2.1950 
  121.1250    83.7330     7.2820     6.4410     7.5960    24.2780   -22.7090     2.2220 
  121.2500    85.0330     6.7420     6.0020     6.9920    24.2780   -22.4630     2.2520 
  121.3750    85.7610     6.4450     5.7230     6.6260    24.2730   -22.3640     2.2800 
  121.5000    87.9420     6.5640     5.7340     6.3140    24.2500   -22.2730     2.2960 
  121.6250    86.6380     7.3730     6.2390     6.7090    24.2110   -22.1090     2.3000 
  121.7500    77.6030     8.8580     7.2740     9.0870    24.2050   -22.0920     2.2940 
  121.8750    66.5060    10.8900     8.8450    14.3720    24.2460   -22.1120     2.2780 
  122.0000    61.5360    13.0260    10.7360    19.3020    24.3060   -22.0030     2.2460 
  122.1250    63.1180    14.2760    12.2200    19.7070    24.3920   -22.0100     2.2070 
  122.2500    64.2400    14.0890    12.6080    18.6120    24.4500   -22.1270     2.1860 
  122.3750    64.0170    12.6320    11.8210    16.7270    24.4190   -22.1160     2.1950 
  122.5000    63.3760    10.6500    10.3770    13.4150    24.3700   -22.0320     2.2270 
  122.6250    63.8870     8.9400     8.9350     9.5750    24.3370   -22.0220     2.2530 
  122.7500    67.4560     7.7470     7.8100     7.9220    24.3100   -21.9910     2.2550 
  122.8750    73.3310     7.0280     7.0440     7.7970    24.2920   -21.9050     2.2430 
  123.0000    77.6670     6.6580     6.5930     7.7190    24.2990   -21.8650     2.2390 
  123.1250    76.9900     6.5380     6.4150     7.0690    24.3320   -21.8450     2.2560 
  123.2500    74.8370     6.5550     6.4000     6.4590    24.3480   -21.7330     2.2790 
  123.3750    73.0020     6.7120     6.5130     6.2600    24.3530   -21.6530     2.2920 
  123.5000    70.4980     7.0220     6.7390     6.6850    24.3600   -21.7350     2.2880 
  123.6250    68.7600     7.4490     7.0570     7.0280    24.4110   -21.7040     2.2720 
  123.7500    68.1670     7.8660     7.3880     7.6630    24.5520   -21.5600     2.2480 
  123.8750    66.8250     8.2010     7.6860     8.2950    24.7810   -21.5540     2.2090 
  124.0000    64.1420     8.4570     7.9500     8.6120    25.0300   -21.5690     2.1640 
  124.1250    62.2860     8.6930     8.2090     8.3580    25.0530   -21.4190     2.1470 
  124.2500    62.8200     8.9360     8.4630     8.4440    24.9440   -21.3570     2.1720 
  124.3750    63.0370     9.1540     8.6830     9.7120    24.7980   -21.3510     2.2320 
  124.5000    61.8150     9.3300     8.8570    12.1200    24.6860   -21.1600     2.3040 
  124.6250    62.0000     9.6000     9.0860    12.5810    24.6500   -21.0750     2.3600 
  124.7500    62.8820    10.2240     9.5530    11.1520    24.6410   -21.0690     2.3960 
  124.8750    61.2760    11.4610    10.4510    11.0270    24.6410   -20.9450     2.4310 
  125.0000    56.6490    13.4560    11.9300    13.7170    24.6330   -20.8810     2.4800 
  125.1250    52.4920    16.1680    14.0920    20.4340    24.5990   -20.9130     2.5320 
  125.2500    49.3660    18.9510    16.5360    24.3520    24.5430   -20.8300     2.5610 
  125.3750    45.4290    21.0930    18.7000    23.0270    24.5120   -20.7600     2.5650 
  125.5000    41.8920    22.0810    20.0500    21.0040    24.5220   -20.8340     2.5520 
  125.6250    42.7800    21.9580    20.3890    20.5540    24.5530   -20.7900     2.5310 
  125.7500    45.3570    21.6240    20.3380    19.5860    24.5300   -20.6760     2.5060 
  125.8750    45.3850    21.5910    20.3200    19.1610    24.4550   -20.6900     2.4760 
  126.0000    43.5880    21.9920    20.5220    19.4200    24.3540   -20.7130     2.4450 
  126.1250    44.0450    22.6960    20.9330    19.5760    24.3120   -20.6450     2.4310 
  126.2500    46.2280    23.3760    21.3890    19.8720    24.3660   -20.6130     2.4460 
  126.3750    46.8340    23.8350    21.7770    20.1440    24.4710   -20.6410     2.4860 
  126.5000    45.6050    24.0480    22.0740    19.5180    24.4560   -20.6360     2.5260 
  126.6250    45.0010    24.1970    22.3940    19.4110    24.3990   -20.6000     2.5410 
  126.7500    43.5550    24.5020    22.8610    19.1650    24.3410   -20.6300     2.5400 
  126.8750    40.8920    24.9850    23.4770    18.8830    24.2810   -20.6570     2.5330 
  127.0000    38.6280    25.4950    24.1150    19.7950    24.2070   -20.5640     2.5310 
  127.1250    40.0480    25.6930    24.4850    22.2700    24.1410   -20.5570     2.5360 
  127.2500    44.7280    25.3850    24.4040    23.2610    24.0960   -20.6500     2.5330 
  127.3750    49.8220    24.5800    23.8460    20.9470    24.0670   -20.5930     2.5140 
  127.5000    51.9680    23.4980    22.9770    17.8160    24.0550   -20.4620     2.4860 
  127.6250    50.7920    22.4880    22.0750    16.0840    24.0540   -20.5130     2.4680 
  127.7500    49.7280    21.7980    21.3900    16.2190    24.0530   -20.5150     2.4640 
  127.8750    49.0970    21.5120    21.0320    16.8260    24.0530   -20.4020     2.4730 
  128.0000    47.3590    21.5690    20.9990    16.3450    24.0530   -20.4210     2.4900 
  128.1250    46.0260    21.8060    21.1970    15.9760    24.0530   -20.4150     2.5130 
  128.2500    46.3640    21.9800    21.4060    16.5710    24.0580   -20.2780     2.5350 
  128.3750    46.4050    21.9490    21.4750    17.3920    24.0740   -20.2610     2.5550 
  128.5000    43.9700    21.6530    21.3140    17.5720    24.0990   -20.3430     2.5710 
  128.6250    39.9770    21.0910    20.8880    16.6960    24.0930   -20.2570     2.5840 
  128.7500    38.1290    20.4150    20.3320    15.2690    24.0760   -20.1520     2.5890 
  128.8750    39.4300    19.7420    19.7460    14.2450    24.0850   -20.1660     2.5800 
  129.0000    42.3520    19.1670    19.2070    14.1880    24.1330   -20.1620     2.5560 
  129.1250    44.0280    18.7760    18.7790    14.8240    24.1950   -20.0860     2.5330 
  129.2500    44.0860    18.5570    18.4780    15.3860    24.2570   -20.0770     2.5200 
  129.3750    44.0400    18.5010    18.3360    15.3250    24.3350   -20.0870     2.5170 
  129.5000    44.6480    18.6070    18.3840    15.0420    24.4200   -19.9930     2.5210 
  129.6250    45.2700    18.9100    18.6740    15.6040    24.4820   -19.9540     2.5320 
  129.7500    45.7400    19.3470    19.1310    16.4250    24.5060   -20.0390     2.5430 
  129.8750    46.6970    19.8260    19.6580    16.7440    24.5170   -20.0340     2.5440 
  130.0000    48.0530    20.2320    20.1420    16.9150    24.5590   -19.8910     2.5280 
  130.1250    48.2870    20.4560    20.4680    17.7420    24.6630   -19.9140     2.4890 
  130.2500    47.2040    20.5300    20.6450    18.4570    24.8140   -19.9740     2.4340 
  130.3750    45.3950    20.5360    20.7270    18.8350    24.9930   -19.8780     2.3720 
  130.5000    45.7790    20.5790    20.8030    19.8610    25.0890   -19.8620     2.3210 
  130.6250    48.8860    20.7470    20.9660    20.9700    24.9540   -19.9460     2.3080 
  130.7500    50.8700    21.0160    21.2270    21.3720    24.7230   -19.8840     2.3360 
  130.8750    49.9810    21.3360    21.5490    20.4050    24.5540   -19.8720     2.3880 
  131.0000    47.5360    21.6280    21.8540    19.8170    24.4930   -19.9860     2.4400 
  131.1250    47.2890    21.7580    21.9980    20.9670    24.4920   -19.9420     2.4710 
  131.2500    49.1230    21.6650    21.9200    23.2900    24.5370   -19.9070     2.4750 
  131.3750    50.9560    21.3640    21.6330    23.0110    24.6680   -19.9820     2.4440 
  131.5000    49.9820    20.9510    21.2360    20.7640    24.8540   -19.9510     2.3910 
  131.6250    46.6590    20.5920    20.8880    19.8190    24.9540   -19.8670     2.3540 
