~V
VERS. 2.00: Ver 2.00
~W
STRT.M 58.0000:
STOP.M 271.0000:
STEP.M 0.1250:
NULL. -999.2500:
UWI. F11072:
~C
DEPT.M :
DEN.GM/CC :
GR.API :
RML.OHMM :
RI. :
RXO.OHMM :
CALI.CM :
SP.MV :
~A
# ...
  181.7500     2.1570    55.2910   175.1700   165.9620   137.6200    23.9940   -21.9610 
  181.8750     2.1550    56.9560   190.4340   181.1900   149.9870    23.9440   -21.8750 
  182.0000     2.1600    59.6930   199.9350   191.2960   149.9760    23.9070   -21.7660 
  182.1250     2.1700    60.1470   200.6580   193.3790   151.0630    23.9740   -21.6440 
  182.2500     2.1800    58.1110   193.8750   188.3930   154.3810    24.1020   -21.5320 
  182.3750     2.1900    54.8540   180.5310   177.0190   158.1220    24.2690   -21.4350 
  182.5000     2.2030    51.0780   162.0510   160.3740   153.8950    24.4740   -21.3480 
  182.6250     2.2200    48.4330   141.0530   140.4610   140.5220    24.6270   -21.2770 
  182.7500     2.2390    49.4720   122.1280   121.5810   123.2630    24.7550   -21.2380 
  182.8750     2.2560    52.4900   108.5110   107.0720    99.1000    24.8780   -21.2290 
  183.0000     2.2670    54.3840   101.8780    98.9990    75.8320    24.9450   -21.2460 
  183.1250     2.2700    55.3450   103.4600    98.9590    68.0690    24.9560   -21.2680 
  183.2500     2.2680    55.8150   110.9380   104.8820    73.6260    24.9790   -21.2770 
  183.3750     2.2650    54.4800   122.6270   115.1870    87.9250    24.9890   -21.2700 
  183.5000     2.2620    52.4660   136.4270   127.8380   102.8870    24.9570   -21.2540 
  183.6250     2.2570    53.0390   149.6830   140.2550   109.0880    24.8870   -21.2360 
  183.7500     2.2500    55.5650   160.2360   150.2320   108.5820    24.7620   -21.2070 
  183.8750     2.2430    56.4570   166.8270   156.5050   105.0880    24.5890   -21.1660 
  184.0000     2.2370    55.1590   168.9250   158.5400   100.9730    24.4060   -21.1140 
  184.1250     2.2380    54.4040   165.9200   155.7510    94.6140    24.1390   -21.0640 
  184.2500     2.2430    54.3900   159.4110   149.5730    87.0690    23.7810   -21.0230 
  184.3750     2.2500    55.2850   151.0980   141.4410    79.2220    23.5010   -20.9900 
  184.5000     2.2540    56.8440   143.2950   133.3850    71.6130    23.3710   -20.9640 
  184.6250     2.2530    58.8110   138.6380   127.8880    66.1490    23.3400   -20.9370 
  184.7500     2.2470    60.1410   137.4130   125.5660    59.9570    23.3900   -20.9100 
  184.8750     2.2410    59.5450   138.9470   126.0980    55.5430    23.4920   -20.8900 
  185.0000     2.2360    56.5350   141.8360   128.4170    58.6980    23.6420   -20.8800 
  185.1250     2.2340    53.1110   144.2000   131.0020    71.7680    23.9050   -20.8630 
  185.2500     2.2370    52.2180   144.8080   132.5360    83.8690    24.1090   -20.8310 
  185.3750     2.2430    54.7840   143.3250   132.5140    85.0200    24.1820   -20.7770 
  185.5000     2.2540    58.5310   140.0400   130.9890    75.9440    24.1600   -20.6890 
  185.6250     2.2660    60.2140   135.4030   128.2090    66.1200    24.0220   -20.5770 
  185.7500     2.2760    59.5570   130.1250   124.7750    59.0770    23.8040   -20.4540 
  185.8750     2.2830    58.9400   124.3230   120.7920    56.0190    23.5950   -20.3180 
  186.0000     2.2860    60.7240   117.7530   116.0020    55.3640    23.3990   -20.1670 
  186.1250     2.2860    63.3300   109.5870   109.4940    54.2780    23.2460   -20.0200 
  186.2500     2.2880    63.1430    99.4750   100.8310    53.4740    23.1840   -19.8870 
  186.3750     2.2940    59.5340    87.4250    89.8900    55.2720    23.2590   -19.7670 
  186.5000     2.3060    56.6990    74.8100    77.4880    59.0680    23.5190   -19.6680 
  186.6250     2.3220    58.2820    63.6290    65.8490    62.0790    23.9030   -19.5910 
  186.7500     2.3340    62.4630    55.8720    56.9980    56.8170    24.2230   -19.5280 
  186.8750     2.3370    67.6200    52.3160    51.7860    45.7660    24.4230   -19.4850 
  187.0000     2.3290    70.5770    50.7990    50.0780    38.7080    24.5170   -19.4640 
  187.1250     2.3140    69.0190    51.4220    51.3800    41.8880    24.5430   -19.4560 
  187.2500     2.3000    65.5680    52.9980    53.9390    53.9180    24.6080   -19.4570 
  187.3750     2.2930    64.1550    55.5500    56.5410    67.0680    24.7170   -19.4770 
  187.5000     2.2950    63.7230    57.2130    58.2790    66.5110    24.8350   -19.5230 
  187.6250     2.3020    61.5610    58.5640    58.8440    56.3110    24.9260   -19.6100 
  187.7500     2.3040    62.1030    59.3860    59.3010    50.3380    24.9570   -19.7250 
  187.8750     2.2960    67.8880    60.8220    60.8590    48.0860    24.9510   -19.8540 
  188.0000     2.2790    74.1500    64.6510    64.4480    50.0680    24.9590   -19.9990 
  188.1250     2.2590    74.0880    71.4840    70.7990    56.4270    24.9570   -20.1640 
  188.2500     2.2460    69.2150    81.0410    79.3590    66.9710    24.9540   -20.3400 
  188.3750     2.2420    64.8250    92.9140    89.9030    78.5050    24.9630   -20.5280 
  188.5000     2.2450    64.6000   106.7810   102.3250    90.4980    24.9560   -20.7230 
  188.6250     2.2470    64.1830   122.9480   116.8980    97.8140    24.9420   -20.9130 
  188.7500     2.2450    58.5910   140.6200   132.9680   108.7150    24.9760   -21.0950 
  188.8750     2.2390    51.1320   158.5420   149.4490   131.8740    25.0120   -21.2670 
  189.0000     2.2330    49.0030   174.7160   164.4790   156.3650    25.0620   -21.4280 
  189.1250     2.2300    50.6490   186.1340   175.1650   170.5730    25.1540   -21.5680 
  189.2500     2.2280    49.2660   192.3680   180.9640   171.9280    25.2280   -21.6930 
  189.3750     2.2250    47.9350   194.0460   182.3780   163.6030    25.3040   -21.8010 
  189.5000     2.2190    48.9810   192.6470   180.8030   147.6990    25.3930   -21.8890 
  189.6250     2.2130    48.7840   189.3080   177.4570   148.6010    25.4230   -21.9550 
  189.7500     2.2110    48.2740   185.0470   173.3740   160.5040    25.4200   -22.0040 
  189.8750     2.2160    50.1630   180.7390   169.2320   171.1840    25.4300   -22.0430 
  190.0000     2.2260    51.6160   178.1430   166.4410   162.9550    25.4330   -22.0760 
  190.1250     2.2330    48.5820   180.6290   167.9860   139.1930    25.4520   -22.1040 
  190.2500     2.2340    45.8850   189.5680   175.3600   122.8470    25.4870   -22.1240 
  190.3750     2.2280    46.7000   205.2850   189.1690   119.5640    25.4720   -22.1400 
  190.5000     2.2180    48.4300   226.0700   208.1440   132.9910    25.3890   -22.1500 
  190.6250     2.2080    48.5260   247.4320   228.5220   131.8750    25.2400   -22.1580 
  190.7500     2.1990    49.4170   263.3300   244.7850   111.6250    25.0200   -22.1620 
  190.8750     2.1920    50.4140   269.3450   252.8780    93.9490    24.8120   -22.1590 
  191.0000     2.1870    49.5530   263.6840   250.8470    99.0700    24.6330   -22.1450 
  191.1250     2.1870    48.3700   246.7310   238.2270   104.2310    24.4270   -22.1210 
  191.2500     2.1920    49.1040   224.1410   219.5570   107.4060    24.2730   -22.0880 
  191.3750     2.2040    52.0260   199.1120   197.5680   108.1430    24.1760   -22.0360 
  191.5000     2.2210    55.3170   174.1310   174.5570   104.0380    24.1110   -21.9680 
  191.6250     2.2410    57.2390   151.9270   153.0900    96.1920    24.0990   -21.8840 
  191.7500     2.2610    58.8100   133.7070   134.8200    90.6070    24.0920   -21.7860 
  191.8750     2.2750    59.4690   120.0270   120.6240    87.0550    24.0660   -21.6740 
  192.0000     2.2830    57.3620   110.8300   110.7010    81.5860    24.0430   -21.5490 
  192.1250     2.2820    52.4660   106.2250   105.3170    77.9110    23.9990   -21.4160 
  192.2500     2.2780    50.1610   104.7790   103.1030    76.8280    23.9520   -21.2800 
  192.3750     2.2720    53.3060   105.7990   103.3700    75.6060    23.9330   -21.1460 
  192.5000     2.2680    58.0350   108.6640   105.5030    74.5860    23.8990   -21.0150 
  192.6250     2.2670    58.5180   113.0200   109.1470    72.5660    23.8450   -20.8800 
  192.7500     2.2680    56.4180   118.2250   113.6340    70.1250    23.8350   -20.7390 
  192.8750     2.2700    54.5730   123.9780   118.6350    68.1220    23.8250   -20.5910 
