~V
VERS. 2.00: Ver 2.00
~W
STRT.M 52.0000:
STOP.M 235.0000:
STEP.M 0.1250:
NULL. -999.2500:
UWI. F11014:
~C
DEPT.M :
DEN.GM/CC :
GR.API :
RML.OHMM :
RI. :
RXO.OHMM :
CALI.CM :
SP.MV :
~A
# ...
  209.5000     2.4030    83.7190     8.8190     7.7750     9.6810    24.6270   -22.1850 
  209.6250     2.4070    86.0010     8.8710     7.8070     9.9600    24.6220   -22.2540 
  209.7500     2.4080    89.7880     8.9170     7.7880     9.8140    24.6210   -22.3280 
  209.8750     2.4040    96.2830     8.9750     7.7480     9.6510    24.6250   -22.3610 
  210.0000     2.3970   103.5460     9.0430     7.7080     9.6580    24.6330   -22.3600 
  210.1250     2.3920   108.1580     9.1080     7.6680     9.7490    24.6280   -22.3300 
  210.2500     2.3900   108.8070     9.1690     7.6290     9.8790    24.6220   -22.2590 
  210.3750     2.3890   107.7890     9.2740     7.6180     9.8850    24.6270   -22.1550 
  210.5000     2.3860   107.5830     9.4940     7.6900     9.6930    24.6210   -22.0200 
  210.6250     2.3830   108.6870     9.8890     7.8980     9.6030    24.6000   -21.8540 
  210.7500     2.3780   109.1660    10.4870     8.2750    10.0740    24.5900   -21.6620 
  210.8750     2.3710   106.3910    11.2950     8.8470    11.8680    24.5830   -21.4260 
  211.0000     2.3630   100.5740    12.2930     9.6120    14.5600    24.5680   -21.1410 
  211.1250     2.3570    94.0030    13.5290    10.5940    16.2050    24.5610   -20.8710 
  211.2500     2.3530    89.0590    15.1650    11.8830    16.7170    24.5760   -20.6000 
  211.3750     2.3500    87.3810    17.4950    13.6830    18.6910    24.5730   -20.2480 
  211.5000     2.3480    87.1010    20.6070    16.0990    22.3900    24.5160   -19.8800 
  211.6250     2.3470    84.2720    24.2730    19.0510    27.7190    24.4310   -19.5260 
  211.7500     2.3490    78.4510    27.9610    22.2190    34.4800    24.3860   -19.1210 
  211.8750     2.3540    73.2550    30.7400    24.8960    38.1970    24.4070   -18.6320 
  212.0000     2.3630    71.1920    32.0440    26.4930    36.8890    24.4240   -18.1060 
  212.1250     2.3810    71.4570    31.9800    26.9080    33.2880    24.4010   -17.5720 
  212.2500     2.4050    71.3360    31.0090    26.4160    31.0410    24.3960   -17.0270 
  212.3750     2.4270    68.8720    29.5640    25.3560    31.4840    24.4220   -16.4820 
  212.5000     2.4370    65.8530    27.8560    23.9690    32.3150    24.4510   -15.9490 
  212.6250     2.4350    65.2360    25.9300    22.3520    30.1400    24.4640   -15.4390 
  212.7500     2.4310    66.3710    23.8590    20.5810    25.8180    24.4620   -14.9630 
  212.8750     2.4300    67.1710    21.8700    18.8370    22.0840    24.4560   -14.5310 
  213.0000     2.4280    68.9490    20.1690    17.2990    19.9630    24.4480   -14.1310 
  213.1250     2.4210    72.7380    18.7970    16.0310    18.9190    24.4400   -13.7570 
  213.2500     2.4070    75.5740    17.6520    14.9870    18.0990    24.4310   -13.3840 
  213.3750     2.3870    75.6660    16.5920    14.0770    18.7190    24.4100   -13.0200 
  213.5000     2.3600    76.3830    15.5860    13.2550    18.5560    24.3900   -12.6840 
  213.6250     2.3310    78.8980    14.7940    12.6000    16.6490    24.4030   -12.3420 
  213.7500     2.3120    79.3750    14.4610    12.2740    14.8010    24.4390   -11.9620 
  213.8750     2.3070    76.2790    14.7540    12.4160    14.1680    24.4630   -11.5610 
  214.0000     2.3100    74.6920    15.4240    12.8880    15.2210    24.4650   -11.1940 
  214.1250     2.3150    76.9470    15.8990    13.2860    18.4260    24.4610   -10.8330 
  214.2500     2.3210    78.8040    15.5720    13.1200    23.5260    24.4550   -10.4420 
  214.3750     2.3290    76.2420    14.0700    12.0260    22.8580    24.4410   -10.0700 
  214.5000     2.3340    71.8310    11.8320    10.2820    15.8520    24.4120    -9.7240 
  214.6250     2.3350    69.0910     9.6320     8.4720     9.6700    24.3720    -9.3660 
  214.7500     2.3330    67.7680     7.9530     6.9910     6.8330    24.3410    -9.0040 
  214.8750     2.3360    66.6780     6.9890     6.0360     6.0850    24.3460    -8.7210 
  215.0000     2.3430    65.9220     6.5960     5.5500     6.0010    24.3770    -8.5020 
  215.1250     2.3510    65.3000     6.5390     5.3830     5.9240    24.4100    -8.2700 
  215.2500     2.3560    64.2880     6.6390     5.4040     5.7260    24.4230    -8.0680 
  215.3750     2.3610    64.1320     6.7690     5.5010     5.5120    24.4090    -7.9430 
  215.5000     2.3680    66.3770     6.8700     5.5980     5.4770    24.4010    -7.8400 
  215.6250     2.3750    69.2340     6.9310     5.6640     5.6710    24.4220    -7.7110 
  215.7500     2.3770    69.4530     6.9530     5.6900     5.8550    24.4490    -7.5810 
  215.8750     2.3740    67.1370     6.9360     5.6730     5.8660    24.4520    -7.4710 
  216.0000     2.3670    64.6770     6.8970     5.6230     5.6960    24.4380    -7.3760 
  216.1250     2.3550    63.4150     6.8670     5.5600     5.5360    24.4210    -7.2920 
  216.2500     2.3420    63.6320     6.8850     5.5120     5.6070    24.4040    -7.1960 
  216.3750     2.3350    65.2240     6.9910     5.5170     5.8080    24.3690    -7.0830 
  216.5000     2.3410    66.9200     7.2030     5.6010     6.0530    24.3410    -6.9700 
  216.6250     2.3610    67.0270     7.5140     5.7700     6.5110    24.3390    -6.8720 
  216.7500     2.3940    66.4120     7.9050     6.0160     7.1160    24.3690    -6.8260 
  216.8750     2.4340    66.8420     8.3380     6.3120     7.5220    24.4010    -6.8120 
  217.0000     2.4660    67.9210     8.7590     6.6170     7.6490    24.4200    -6.7600 
  217.1250     2.4850    68.4860     9.1220     6.8890     7.7150    24.4340    -6.6880 
  217.2500     2.4920    68.4820     9.4000     7.1020     7.8650    24.4390    -6.6630 
  217.3750     2.4880    68.6120     9.5850     7.2380     8.0240    24.4340    -6.6640 
  217.5000     2.4790    68.1910     9.6960     7.3090     7.9950    24.4250    -6.6290 
  217.6250     2.4710    66.4450     9.7590     7.3360     7.7970    24.4110    -6.5960 
  217.7500     2.4660    64.6250     9.7900     7.3390     7.5500    24.3840    -6.5900 
  217.8750     2.4610    64.5940     9.8080     7.3350     7.3630    24.3370    -6.5820 
  218.0000     2.4560    64.8690     9.8250     7.3350     7.2940    24.3010    -6.5840 
  218.1250     2.4540    64.1140     9.8490     7.3470     7.3680    24.2860    -6.5900 
  218.2500     2.4560    64.9160     9.8740     7.3690     7.5300    24.2770    -6.5740 
  218.3750     2.4580    67.9360     9.8980     7.4000     7.6960    24.2640    -6.5550 
  218.5000     2.4540    69.0850     9.9260     7.4400     7.8210    24.2520    -6.5500 
  218.6250     2.4470    66.8990     9.9670     7.4860     7.9210    24.2500    -6.5330 
  218.7500     2.4430    65.3200    10.0250     7.5350     7.9860    24.2390    -6.4930 
  218.8750     2.4490    67.0390    10.0900     7.5800     7.9600    24.1880    -6.4640 
  219.0000     2.4630    69.4550    10.1510     7.6190     7.9180    24.1410    -6.4610 
  219.1250     2.4770    70.8110    10.1970     7.6480     7.9660    24.1340    -6.4780 
  219.2500     2.4880    71.2230    10.2270     7.6690     8.0040    24.1520    -6.5150 
  219.3750     2.4950    70.8580    10.2440     7.6820     7.9370    24.1910    -6.5440 
  219.5000     2.4990    70.4390    10.2510     7.6890     7.8420    24.2220    -6.5580 
  219.6250     2.4990    70.1780    10.2490     7.6930     7.7600    24.2420    -6.5930 
  219.7500     2.4960    69.9360    10.2440     7.6990     7.6930    24.2520    -6.6480 
  219.8750     2.4880    69.6870    10.2520     7.7210     7.6610    24.2400    -6.6970 
  220.0000     2.4780    69.3610    10.2930     7.7670     7.6660    24.2260    -6.7120 
  220.1250     2.4680    68.2780    10.3730     7.8370     7.7140    24.2320    -6.7220 
  220.2500     2.4570    66.3530    10.4790     7.9230     7.8970    24.2440    -6.7410 
  220.3750     2.4450    65.0420    10.5720     8.0010     8.2060    24.2480    -6.7180 
  220.5000     2.4370    65.4560    10.6160     8.0420     8.4730    24.2700    -6.6880 
  220.6250     2.4360    67.3730    10.5940     8.0290     8.5710    24.3080    -6.6980 
