~V
VERS. 2.00: Ver 2.00
~W
STRT.M 51.0000:
STOP.M 282.0000:
STEP.M 0.1250:
NULL. -999.2500:
UWI. F11065:
~C
DEPT.M :
GR.API :
RML.OHMM :
RI. :
RXO.OHMM :
CALI.CM :
DEN.GM/CC :
SP.MV :
~A
# ...
  264.7500    60.4180     7.6570     6.6520     7.7060    24.5190     2.4620    -0.8710 
  264.8750    61.1050     7.7050     6.6960     7.6460    24.4890     2.4680    -0.8620 
  265.0000    61.5570     7.7100     6.6970     7.4750    24.4750     2.4780    -0.8370 
  265.1250    62.0220     7.6810     6.6680     7.3000    24.4590     2.4860    -0.7800 
  265.2500    61.7480     7.6290     6.6180     7.1330    24.4280     2.4900    -0.7100 
  265.3750    60.8060     7.5860     6.5620     7.0010    24.4130     2.4860    -0.5980 
  265.5000    60.0830     7.6020     6.5590     7.1630    24.4080     2.4800    -0.5530 
  265.6250    59.1890     7.7280     6.6640     7.5240    24.4080     2.4750    -0.5690 
  265.7500    57.0260     7.9940     6.9080     7.8890    24.4080     2.4720    -0.5930 
  265.8750    55.0510     8.3970     7.2970     8.0800    24.4040     2.4720    -0.5930 
  266.0000    54.4420     8.8410     7.7340     8.1980    24.3890     2.4720    -0.6090 
  266.1250    54.3080     9.2240     8.1130     8.3300    24.3630     2.4710    -0.6610 
  266.2500    52.4960     9.4580     8.3350     8.3150    24.3450     2.4690    -0.7350 
  266.3750    51.6060     9.4830     8.3400     8.0480    24.3400     2.4640    -0.8060 
  266.5000    54.0950     9.3690     8.2130     7.7490    24.3400     2.4580    -0.8030 
  266.6250    58.3590     9.1900     8.0280     7.6210    24.3400     2.4510    -0.7440 
  266.7500    61.6610     9.0120     7.8570     7.7340    24.3400     2.4460    -0.6730 
  266.8750    62.3470     8.8820     7.7420     7.8780    24.3420     2.4420    -0.5960 
  267.0000    60.7420     8.7950     7.6680     7.7390    24.3530     2.4400    -0.4950 
  267.1250    57.5450     8.7380     7.6210     7.6300    24.3790     2.4400    -0.3420 
  267.2500    54.0870     8.6940     7.5850     7.8180    24.3980     2.4410    -0.1990 
  267.3750    52.6810     8.6490     7.5460     8.2890    24.4070     2.4430    -0.0890 
  267.5000    53.2000     8.6050     7.4990     8.1500    24.4080     2.4450    -0.0260 
  267.6250    54.6980     8.5820     7.4660     7.6350    24.4080     2.4460     0.0420 
  267.7500    56.2820     8.6070     7.4830     7.4500    24.4080     2.4510     0.1030 
  267.8750    56.8100     8.7040     7.5780     7.5210    24.4080     2.4630     0.1420 
  268.0000    56.5440     8.8370     7.7180     7.5400    24.4080     2.4800     0.1710 
  268.1250    55.8960     8.9540     7.8430     7.5430    24.4080     2.4940     0.1820 
  268.2500    56.1130     9.0060     7.8950     7.6200    24.4080     2.5010     0.2080 
  268.3750    56.7610     8.9730     7.8480     7.7010    24.4080     2.5000     0.2220 
  268.5000    55.0040     8.9080     7.7690     7.8910    24.4080     2.4990     0.2360 
  268.6250    52.3490     8.8640     7.7190     8.2510    24.4080     2.5020     0.1850 
  268.7500    52.5490     8.8880     7.7340     8.8330    24.4080     2.5080     0.0850 
  268.8750    55.2890     9.0310     7.8580     9.3860    24.4080     2.5070    -0.0880 
  269.0000    55.5400     9.3130     8.1020     9.9680    24.4070     2.4960    -0.3160 
  269.1250    53.0090     9.7740     8.5070    11.0270    24.3940     2.4830    -0.6040 
  269.2500    51.9290    10.4440     9.1140    13.3530    24.3250     2.4760    -0.9390 
  269.3750    53.7520    11.3280     9.9510    15.6980    24.1350     2.4870    -1.2880 
  269.5000    56.3950    12.2710    10.8680    17.4160    23.9410     2.5070    -1.6260 
  269.6250    57.5170    13.0920    11.6760    17.3130    23.9280     2.5270    -1.8660 
  269.7500    56.3510    13.6150    12.1820    16.7840    24.0880     2.5350    -1.9990 
  269.8750    54.0920    13.7040    12.2280    15.3470    24.2360     2.5300    -2.0400 
  270.0000    53.1440    13.5230    11.9940    13.9510    24.3190     2.5200    -2.0670 
  270.1250    55.2760    13.2730    11.6990    14.3560    24.3740     2.5130    -2.0650 
  270.2500    59.9040    13.1600    11.5570    15.0470    24.4020     2.5110    -2.0480 
  270.3750    63.9280    13.3710    11.7540    15.6670    24.4080     2.5130    -2.0100 
  270.5000    65.2030    13.8550    12.2320    15.3710    24.4080     2.5150    -2.0240 
  270.6250    64.3520    14.4940    12.8690    15.6600    24.4040     2.5180    -2.1070 
  270.7500    62.6560    15.1310    13.4930    16.0930    24.3890     2.5220    -2.2450 
  270.8750    60.3420    15.6010    13.9240    15.7030    24.3470     2.5330    -2.3950 
  271.0000    58.0640    15.8880    14.1650    15.2090    24.2950     2.5530    -2.5140 
  271.1250    57.7370    16.0370    14.2760    14.8780    24.2450     2.5780    -2.6000 
  271.2500    59.6370    16.1280    14.3360    15.6500    24.2270     2.5990    -2.6210 
  271.3750    59.5430    16.2550    14.4350    16.6340    24.2570     2.6050    -2.6080 
  271.5000    57.3000    16.4750    14.6290    18.4330    24.2710     2.5940    -2.5630 
  271.6250    56.1630    16.7960    14.9340    21.3230    24.2770     2.5700    -2.4770 
  271.7500    57.5830    17.1810    15.3110    26.1540    24.2880     2.5410    -2.3930 
  271.8750    59.1080    17.5410    15.6610    28.4480    24.3240     2.5180    -2.3560 
  272.0000    59.5080    17.7900    15.9050    26.6240    24.3640     2.5090    -2.3470 
  272.1250    59.5080    17.8730    15.9870    24.1830    24.3810     2.5160    -2.4120 
  272.2500    59.5080    17.7740    15.8840    20.1200    24.3550     2.5330    -2.5350 
  272.3750    59.5080    17.5200    15.6240    17.2860    24.3100     2.5510    -2.6690 
  272.5000    59.5080    17.2250    15.3280    16.2180    24.2710     2.5590    -2.7200 
  272.6250    59.5080    16.9730    15.0860    16.0130    24.2390     2.5550    -2.7290 
  272.7500    59.5080    16.8130    14.9410    15.8510    24.2150     2.5460    -2.7320 
  272.8750    59.5080    16.7650    14.9080    14.9080    24.1940     2.5420    -2.7420 
  273.0000    59.5080    16.7930    14.9390    13.5210    24.1760     2.5490    -2.6920 
  273.1250    59.5080    16.8780    15.0150    12.9610    24.1610     2.5660    -2.5640 
  273.2500    59.5080    17.0120    15.1370    12.6740    24.1570     2.5860    -2.3810 
  273.3750    59.5080    17.1880    15.3080    13.0950    24.1720     2.5970    -2.1480 
  273.5000    59.5080    17.3790    15.4880    14.7930    24.1990     2.5950    -1.9870 
  273.6250    59.5080    17.5700    15.6600    17.5130    24.2110     2.5840    -1.9400 
  273.7500    59.5080    17.7700    15.8300    20.1850    24.2120     2.5740    -1.9130 
  273.8750    59.5080    18.0300    16.0480    22.2160    24.2100     2.5700    -1.8740 
  274.0000    59.5080    18.3990    16.3700    22.7390    24.1900     2.5700    -1.9340 
  274.1250    59.5080    18.9010    16.8360    21.8400    24.1380     2.5700    -2.0400 
  274.2500    59.5080    19.5030    17.4170    22.0440    24.0850     2.5680    -2.1590 
  274.3750    59.5080    20.0980    17.9950    25.1070    24.0580     2.5650    -2.3690 
  274.5000    59.5080    20.5840    18.4460    28.4330    24.0670     2.5660    -2.5630 
  274.6250    59.5080    20.9280    18.7420    26.9720    24.0750     2.5700    -2.6880 
  274.7500    59.5080    21.1570    18.9310    22.5360    24.0710     2.5740    -2.7630 
  274.8750    59.5080    21.2910    19.0590    20.2820    24.0580     2.5750    -2.8340 
  275.0000    59.5080    21.3360    19.1200    20.2290    24.0400     2.5760    -2.8500 
  275.1250    59.5080    21.2630    19.0580    21.0240    24.0350     2.5810    -2.8330 
  275.2500    59.5080    21.0680    18.8610    21.2500    24.0360     2.5900    -2.8430 
  275.3750    59.5080    20.8170    18.5920    22.0330    24.0400     2.6030    -2.8530 
  275.5000    59.5080    20.6380    18.4000    23.3110    24.0340     2.6100    -2.8740 
  275.6250    59.5080    20.6080    18.3730    24.8450    24.0490     2.6100    -2.9370 
  275.7500    59.5080    20.7360    18.5140    25.3820    24.0820     2.6010    -3.0530 
  275.8750    59.5080    20.9700    18.7540    23.7250    24.1080     2.5920    -3.1410 
