~V
VERS. 2.00: Ver 2.00
~W
STRT.M 59.0000:
STOP.M 217.0000:
STEP.M 0.1250:
NULL. -999.2500:
UWI. F11019:
~C
DEPT.M :
DEN.GM/CC :
GR.API :
RML.OHMM :
RI. :
RXO.OHMM :
CALI.CM :
SP.MV :
~A
# ...
  205.2500     2.3820    82.3310     7.7620     7.3220     7.6530    24.5300   -12.3500 
  205.3750     2.3480    82.0830     6.8720     6.5520     6.4110    25.5960   -11.1330 
  205.5000     2.3180    81.2400     6.2000     5.9080     5.7030    27.1790    -9.8070 
  205.6250     2.2890    79.8820     5.8170     5.4880     5.2670    29.0630    -8.4770 
  205.7500     2.2540    77.8400     5.6340     5.2550     4.9380    30.5010    -7.2810 
  205.8750     2.2110    76.0830     5.5780     5.1710     4.6250    30.6460    -6.2580 
  206.0000     2.1670    75.7780     5.5870     5.1930     4.4350    28.9170    -5.4920 
  206.1250     2.1420    75.7780     5.6180     5.2840     4.5070    26.5370    -5.1200 
  206.2500     2.1460    75.7780     5.6490     5.3960     4.6900    24.5950    -5.0040 
  206.3750     2.1790    75.7780     5.6710     5.4990     4.8760    23.3730    -5.0850 
  206.5000     2.2360    75.7780     5.6730     5.5670     5.0480    22.8600    -5.3890 
  206.6250     2.2980    75.7780     5.6410     5.5760     5.2200    22.9540    -5.8990 
  206.7500     2.3460    75.7780     5.5820     5.5430     5.3280    23.0600    -6.4840 
  206.8750     2.3700    75.7780     5.5180     5.4920     5.3570    23.1130    -7.1670 
  207.0000     2.3730    75.7780     5.4760     5.4540     5.3510    23.1600    -7.9220 
  207.1250     2.3670    75.7780     5.4820     5.4580     5.4380    23.2160    -8.6480 
  207.2500     2.3630    75.7780     5.5260     5.5020     5.6470    23.2320    -9.3260 
  207.3750     2.3620    75.7780     5.5900     5.5710     5.9090    23.1500    -9.9210 
  207.5000     2.3630    75.7780     5.6590     5.6460     6.1190    23.0120   -10.3820 
  207.6250     2.3600    75.7780     5.7390     5.7210     6.0700    22.8730   -10.6920 
  207.7500     2.3520    75.7780     5.8520     5.8080     5.9490    22.8150   -10.9340 
  207.8750     2.3410    75.7780     6.0280     5.9330     5.9600    22.9770   -11.0400 
  208.0000     2.3310    75.7780     6.2870     6.1230     6.2700    23.2890   -10.9620 
  208.1250     2.3260    75.7780     6.6380     6.3980     6.8970    23.5400   -10.7710 
  208.2500     2.3270    75.7780     7.0300     6.7170     7.4510    23.6730   -10.5440 
  208.3750     2.3320    75.7780     7.4020     7.0300     7.8340    23.7090   -10.2940 
  208.5000     2.3380    75.7780     7.6890     7.2770     8.2010    23.7460   -10.0340 
  208.6250     2.3420    75.7780     7.8060     7.3860     8.8520    23.7820    -9.7640 
  208.7500     2.3450    75.7780     7.7610     7.3640     9.8510    23.9120    -9.4910 
  208.8750     2.3470    75.7780     7.5860     7.2360    10.9340    24.1620    -9.2640 
  209.0000     2.3460    75.7780     7.3470     7.0550    11.3110    24.4080    -9.1070 
  209.1250     2.3420    75.7780     7.1320     6.8860    10.2860    24.5390    -9.0460 
  209.2500     2.3320    75.7780     6.9900     6.7640     8.4820    24.6250    -9.0270 
  209.3750     2.3170    75.7780     6.9220     6.6910     8.2800    24.5450    -9.0690 
  209.5000     2.2950    75.7780     6.9040     6.6490    13.5430    24.2420    -9.2040 
  209.6250     2.2700    75.7780     6.9050     6.6160    32.2410    24.0720    -9.3750 
  209.7500     2.2510    75.7780     6.9040     6.5820    66.5330    23.9160    -9.5740 
  209.8750     2.2410    75.7780     6.8980     6.5540   113.3550    23.7010    -9.7950 
  210.0000     2.2410    75.7780     6.8900     6.5380   159.0110    23.4570   -10.0100 
  210.1250     2.2450    75.7780     6.8760     6.5390   182.6030    23.3980   -10.2210 
  210.2500     2.2410    75.7780     6.8620     6.5500   176.2010    23.6340   -10.4190 
  210.3750     2.2250    75.7780     6.8600     6.5690   152.6490    24.1720   -10.5900 
  210.5000     2.1960    75.7780     6.8840     6.5900   123.1710    24.8390   -10.6880 
  210.6250     2.1640    75.7780     6.9350     6.6070   107.8370    25.3430   -10.7900 
  210.7500     2.1420    75.7780     6.9850     6.6160   113.7230    25.5610   -10.8590 
  210.8750     2.1370    75.7780     7.0070     6.6130   135.1450    25.3790   -10.9230 
  211.0000     2.1530    75.7780     6.9870     6.5990   155.6160    24.9350   -10.9810 
  211.1250     2.1840    75.7780     6.9300     6.5790   153.3810    24.3190   -10.9730 
  211.2500     2.2140    75.7780     6.8680     6.5590   130.4080    23.9600   -10.9570 
  211.3750     2.2350    75.7780     6.8230     6.5440    98.8290    24.1370   -10.9170 
  211.5000     2.2410    75.7780     6.8010     6.5360    76.4610    24.4550   -10.8770 
  211.6250     2.2330    75.7780     6.8000     6.5350    67.6280    24.6060   -10.8260 
  211.7500     2.2210    75.7780     6.8040     6.5350    64.8750    24.7810   -10.7800 
  211.8750     2.2060    75.7780     6.8050     6.5350    63.4130    25.0360   -10.7200 
  212.0000     2.1920    75.7780     6.8050     6.5350    64.1660    25.2940   -10.6700 
  212.1250     2.1790    75.7780     6.8050     6.5350    70.6200    25.3810   -10.6700 
  212.2500     2.1670    75.7780     6.8050     6.5350    80.4080    25.2750   -10.6790 
  212.3750     2.1580    75.7780     6.8050     6.5350    89.7810    25.0340   -10.6980 
  212.5000     2.1490    75.7780     6.8050     6.5350    91.5240    24.7630   -10.7010 
  212.6250     2.1390    75.7780     6.8050     6.5350    80.5270    24.4560   -10.7150 
  212.7500     2.1240    75.7780     6.8050     6.5350    61.5290    24.0730   -10.7130 
  212.8750     2.1040    75.7780     6.8050     6.5350    42.9350    23.4610   -10.6890 
  213.0000     2.0800    75.7780     6.8050     6.5350    28.0390    22.2880   -10.6580 
  213.1250     2.0560    75.7780     6.8050     6.5350    16.7960    20.2760   -10.5970 
  213.2500     2.0340    75.7780     6.8050     6.5350     9.4750    17.8330   -10.5000 
  213.3750     2.0160    75.7780     6.8050     6.5350     6.4150    15.5570   -10.4290 
  213.5000     2.0130    75.7780     6.8050     6.5350     5.5760    14.2620   -10.4370 
  213.6250     1.9990    75.7780     6.8050     6.5350     5.4950    13.9210   -10.4450 
  213.7500     1.9970    75.7780     6.8050     6.5350     5.5960    13.7440  -999.2500 
  213.8750     2.0000    75.7780     6.8050     6.5350     5.7800    13.3310  -999.2500 
  214.0000     2.0030    75.7780     6.8050     6.5350     5.9530    12.7410  -999.2500 
  214.1250     2.0060    75.7780     6.8050     6.5350     5.9570    12.1540  -999.2500 
  214.2500     2.0070    75.7780     6.8050     6.5350     5.7360    11.1810  -999.2500 
  214.3750     2.0050    75.7780     6.8050     6.5350     5.6860    11.0070  -999.2500 
  214.5000     2.0020    75.7780     6.8050     6.5350     5.6770    10.9750  -999.2500 
  214.6250     1.9990    75.7780     6.8050     6.5350     5.6780    10.9720  -999.2500 
  214.7500     1.9980    75.7780     6.8050     6.5350     5.6770    10.9720  -999.2500 
  214.8750     1.9990    75.7780     6.8050     6.5350     5.6760    10.9720  -999.2500 
  215.0000     2.0010    75.7780     6.8050     6.5350     5.6740    10.9720  -999.2500 
  215.1250     2.0030    75.7780     6.8050     6.5350     5.6720    10.9720  -999.2500 
  215.2500     2.0040    75.7780     6.8050     6.5350     5.6710    10.9720  -999.2500 
  215.3750     2.0040    75.7780     6.8050     6.5350     5.6720    10.9720  -999.2500 
  215.5000     2.0040    75.7780     6.8050     6.5350     5.6760    10.9720  -999.2500 
  215.6250     2.0040    75.7780     6.8050     6.5350     5.6750    10.9720  -999.2500 
  215.7500     2.0030    75.7780     6.8050     6.5350     5.6620    10.9720  -999.2500 
  215.8750     2.0030    75.7780     6.8050     6.5350     5.6190    10.9710  -999.2500 
  216.0000     2.0020    75.7780     6.8050     6.5350     5.5480    10.9690  -999.2500 
  216.1250     2.0010    75.7780     6.8050     6.5350     5.4610    10.9660  -999.2500 
  216.2500     2.0000    75.7780     6.8050     6.5350     5.3870    10.9650  -999.2500 
  216.3750     2.0000    75.7780     6.8050     6.5350     5.3590    10.9660  -999.2500 
