~V
VERS. 2.00: Ver 2.00
~W
STRT.M 50.0000:
STOP.M 220.0000:
STEP.M 0.1250:
NULL. -999.2500:
UWI. F11004:
~C
DEPT.M :
SP.MV :
GR.API :
RML.OHMM :
RI. :
RXO.OHMM :
CALI.CM :
DEN.GM/CC :
~A
# ...
  196.2500   -21.0760    50.3240     7.4930     6.6010     8.6280    24.1820     2.3350 
  196.3750   -20.7370    50.9410     7.2860     6.3830     8.1350    24.2080     2.3400 
  196.5000   -20.4210    51.8710     7.0550     6.1550     7.7550    24.2740     2.3400 
  196.6250   -20.0710    51.5500     6.8370     5.9380     7.4840    24.3710     2.3360 
  196.7500   -19.6760    48.8450     6.6700     5.7580     7.3490    24.4780     2.3290 
  196.8750   -19.3570    46.9060     6.5970     5.6430     7.2150    24.5660     2.3230 
  197.0000   -19.1280    49.0670     6.6770     5.6400     7.0760    24.6380     2.3200 
  197.1250   -18.9290    51.3750     6.8740     5.7380     7.2890    24.6750     2.3180 
  197.2500   -18.8040    50.7840     7.1280     5.9080     8.0660    24.6190     2.3140 
  197.3750   -18.6840    47.8810     7.3490     6.0930     8.8610    24.4880     2.3160 
  197.5000   -18.6150    47.7440     7.4280     6.2040     8.6720    24.4120     2.3250 
  197.6250   -18.5980    50.6940     7.3800     6.2170     8.0230    24.4490     2.3300 
  197.7500   -18.6230    54.5580     7.2780     6.1650     7.7630    24.5050     2.3260 
  197.8750   -18.6160    56.5710     7.2220     6.1160     7.9380    24.4840     2.3150 
  198.0000   -18.5980    57.0440     7.3100     6.1510     8.1630    24.4130     2.3100 
  198.1250   -18.5360    57.8080     7.5090     6.2760     8.4420    24.3580     2.3080 
  198.2500   -18.4020    57.0670     7.7290     6.4380     8.6470    24.3150     2.3020 
  198.3750   -18.2310    54.6020     7.8360     6.5360     8.4980    24.2390     2.2910 
  198.5000   -17.9160    54.2290     7.6930     6.4550     8.1350    24.0680     2.2810 
  198.6250   -17.4580    58.4740     7.3610     6.2270     7.9210    23.8290     2.2820 
  198.7500   -16.8720    66.4240     6.9570     5.9380     7.7570    23.5840     2.2970 
  198.8750   -16.2210    75.1600     6.6300     5.6950     7.5170    23.4090     2.3280 
  199.0000   -15.5190    82.7000     6.5470     5.6160     7.6360    23.3600     2.3760 
  199.1250   -14.8380    87.9380     6.7030     5.7020     8.2590    23.4110     2.4270 
  199.2500   -14.1850    90.6230     7.0170     5.9120     9.0790    23.5070     2.4680 
  199.3750   -13.5780    91.3160     7.3460     6.1590     9.6600    23.5760     2.4900 
  199.5000   -13.0480    91.3060     7.4840     6.3100     9.5650    23.5960     2.4920 
  199.6250   -12.6550    91.7700     7.3500     6.2870     8.8580    23.5990     2.4820 
  199.7500   -12.3770    91.9420     6.9660     6.0810     7.8910    23.5950     2.4650 
  199.8750   -12.1790    92.2250     6.4480     5.7510     7.1580    23.5930     2.4480 
  200.0000   -12.0410    91.7200     5.9450     5.3890     6.8300    23.6090     2.4280 
  200.1250   -11.9130    91.4130     5.5380     5.0690     6.5910    23.6280     2.3980 
  200.2500   -11.8070    92.0810     5.2470     4.8200     6.3540    23.6430     2.3630 
  200.3750   -11.7140    93.9900     5.0670     4.6570     6.1640    23.6880     2.3410 
  200.5000   -11.6530    95.5210     4.9860     4.5930     6.0840    23.7790     2.3400 
  200.6250   -11.5550    94.4660     4.9580     4.5940     5.9900    23.8680     2.3470 
  200.7500   -11.4380    92.1900     4.9510     4.6290     5.7620    23.9270     2.3490 
  200.8750   -11.3220    88.8220     4.9350     4.6620     5.4800    23.9720     2.3420 
  201.0000   -11.2270    85.3980     4.8850     4.6640     5.3370    24.0250     2.3280 
  201.1250   -11.1290    83.0710     4.8060     4.6410     5.2730    24.0730     2.3170 
  201.2500   -11.0450    80.5710     4.7210     4.6050     5.1790    24.0890     2.3120 
  201.3750   -10.9790    78.6240     4.6600     4.5750     5.1520    24.0420     2.3130 
  201.5000   -10.9330    78.3110     4.6670     4.5710     5.3400    23.9520     2.3160 
  201.6250   -10.9020    80.3430     4.7560     4.6030     5.5590    23.9090     2.3200 
  201.7500   -10.8850    82.1720     4.9200     4.6750     5.6930    23.9300     2.3320 
  201.8750   -10.8620    81.9970     5.1210     4.7770     5.7560    23.9550     2.3530 
  202.0000   -10.8160    82.0360     5.2880     4.8760     5.7580    23.9350     2.3740 
  202.1250   -10.7430    85.2800     5.3690     4.9320     5.8100    23.9450     2.3850 
  202.2500   -10.6690    90.2710     5.3560     4.9310     5.9350    24.0280     2.3850 
  202.3750   -10.5870    91.4000     5.3040     4.8970     6.1020    24.1570     2.3810 
  202.5000   -10.4550    88.5360     5.3560     4.9130     6.4650    24.2850     2.3810 
  202.6250   -10.3510    87.5510     5.6460     5.0770     7.1080    24.3960     2.3840 
  202.7500   -10.2420    89.3560     6.2780     5.4800     8.0280    24.4780     2.3910 
  202.8750   -10.1640    90.3780     7.3110     6.1970     9.4040    24.5020     2.4020 
  203.0000   -10.0980    89.5710     8.7660     7.3110    11.7110    24.4570     2.4230 
  203.1250   -10.1030    90.6480    10.4040     8.6840    14.3520    24.4040     2.4450 
  203.2500   -10.1350    91.5220    11.9740    10.1210    16.1080    24.3720     2.4570 
  203.3750   -10.1750    89.6040    13.2220    11.3710    16.6500    24.3520     2.4590 
  203.5000   -10.2190    86.7720    13.9380    12.1770    16.7310    24.3390     2.4630 
  203.6250   -10.2510    86.7440    14.2770    12.6120    16.7430    24.3350     2.4700 
  203.7500   -10.3290    89.1490    14.4160    12.8140    16.4820    24.3100     2.4750 
  203.8750   -10.3760    90.9220    14.5090    12.9230    16.2470    24.2550     2.4750 
  204.0000   -10.4050    92.8060    14.6360    13.0120    16.7840    24.2140     2.4730 
  204.1250   -10.4150    94.9780    14.8020    13.1040    17.4520    24.2120     2.4750 
  204.2500   -10.3980    96.2310    14.9960    13.2020    17.0930    24.2100     2.4800 
  204.3750   -10.4110    94.7850    15.2050    13.3220    15.6960    24.1830     2.4830 
  204.5000   -10.4390    91.6670    15.4190    13.4900    14.7620    24.1830     2.4830 
  204.6250   -10.4570    91.5330    15.6200    13.6980    14.8660    24.2180     2.4840 
  204.7500   -10.4700    94.1810    15.7910    13.9260    15.3480    24.2270     2.4870 
  204.8750   -10.4900    95.7290    15.9170    14.1400    15.6760    24.1940     2.4920 
  205.0000   -10.5170    92.8400    15.9800    14.3060    15.7630    24.1690     2.4970 
  205.1250   -10.5380    90.9390    15.9950    14.4240    15.6710    24.1780     2.4990 
  205.2500   -10.5410    92.9550    15.9740    14.5020    15.4280    24.1900     2.4950 
  205.3750   -10.4950    95.4060    15.9320    14.5570    15.2050    24.1930     2.4860 
  205.5000   -10.4790    93.0400    15.8910    14.6100    15.4820    24.2060     2.4740 
  205.6250   -10.4910    88.9500    15.8750    14.6710    16.0510    24.2290     2.4630 
  205.7500   -10.4660    87.0200    15.8950    14.7470    16.3640    24.2410     2.4570 
  205.8750   -10.4450    87.1360    15.9520    14.8380    16.1870    24.2490     2.4610 
  206.0000   -10.4400    86.0250    16.0290    14.9470    16.0880    24.2870     2.4750 
  206.1250   -10.4290    83.1490    16.1010    15.0670    16.6640    24.3340     2.4930 
  206.2500   -10.4360    81.5020    16.1540    15.1910    17.6420    24.2480     2.5030 
  206.3750   -10.4620    84.0590    16.1840    15.3000    18.1990    23.9900     2.5020 
  206.5000   -10.4620    88.9620    16.1920    15.3700    18.0700    23.8690     2.4960 
  206.6250   -10.3910    90.4150    16.1920    15.4060    17.8010    24.0480     2.4950 
  206.7500   -10.3160    89.0600    16.1940    15.4270    17.2330    24.3440     2.4980 
  206.8750   -10.2720    88.5970    16.2040    15.4560    16.3700    24.5150     2.5030 
  207.0000   -10.2320    89.8070    16.2150    15.5050    15.8910    24.5320     2.5050 
  207.1250   -10.1890    88.8990    16.2120    15.5490    16.0310    24.5300     2.5040 
  207.2500   -10.1460    85.8930    16.1850    15.5630    16.4240    24.5080     2.4970 
  207.3750   -10.1240    84.2410    16.1420    15.5370    16.6420    24.4620     2.4840 
