~V
VERS. 2.00: Ver 2.00
~W
STRT.M 40.0000:
STOP.M 275.0000:
STEP.M 0.1250:
NULL. -999.2500:
UWI. F11027:
~C
DEPT.M :
DEN.GM/CC :
GR.API :
RML.OHMM :
RI. :
RXO.OHMM :
CALI.CM :
SP.MV :
~A
# ...
   96.2500     2.2400    89.3100    10.5760     8.7980     7.4660    24.4790   -11.8010 
   96.3750     2.2290    83.8440    11.1630     9.4750     8.2040    24.4510   -12.4920 
   96.5000     2.2150    78.1380    11.3770     9.6200     9.3510    24.2740   -13.1840 
   96.6250     2.1960    72.2800    11.0680     9.2440    13.3710    23.8570   -13.8530 
   96.7500     2.1670    69.5300    10.6630     8.7660    20.1680    23.4240   -14.4870 
   96.8750     2.1310    68.3550    10.5100     8.5380    22.7450    23.1890   -15.0370 
   97.0000     2.1010    65.5920    10.9130     8.8510    17.2790    23.3380   -15.3750 
   97.1250     2.1060    61.3220    12.1630    10.0000    17.6160    23.9390   -15.5820 
   97.2500     2.1550    58.3350    14.0290    11.8010    24.8860    24.5990   -15.6550 
   97.3750     2.2340    57.5100    16.1130    13.8930    36.6020    24.9230   -15.6740 
   97.5000     2.3090    59.1150    17.8340    15.6470    41.4910    24.8530   -15.7040 
   97.6250     2.3380    63.4550    18.4590    16.2480    29.1450    24.6640   -15.7560 
   97.7500     2.3190    67.2300    17.9560    15.7060    15.7910    24.4050   -15.8540 
   97.8750     2.2720    66.8700    16.5360    14.2880     9.3730    24.1060   -15.9790 
   98.0000     2.2240    62.5140    14.6130    12.4010     8.1860    23.8180   -16.2290 
   98.1250     2.1970    59.1480    12.7180    10.5710     8.9470    23.6820   -16.4830 
   98.2500     2.1880    59.0010    11.2570     9.2000     9.7610    23.7480   -16.7360 
   98.3750     2.1880    60.7490    10.3910     8.4320     9.9820    23.9770   -16.8880 
   98.5000     2.1890    62.2290    10.0710     8.2150     9.8070    24.2760   -16.9010 
   98.6250     2.1900    63.5030    10.0670     8.3280     9.5330    24.4130   -16.7480 
   98.7500     2.1950    64.6490     9.9860     8.3260     9.2680    24.4320   -16.4760 
   98.8750     2.2070    64.6170     9.6660     7.9980     8.9220    24.3750   -16.2000 
   99.0000     2.2270    63.7000     9.1680     7.4460     8.3350    24.2870   -15.8390 
   99.1250     2.2480    65.1070     8.7780     7.0230     7.9180    24.2520   -15.4910 
   99.2500     2.2630    69.1380     8.7240     6.9580     7.7060    24.3490   -15.2590 
   99.3750     2.2660    72.3550     9.0650     7.3020     8.2190    24.4070   -15.1960 
   99.5000     2.2540    71.8900     9.7180     7.9570     9.4560    24.4170   -15.3320 
   99.6250     2.2330    68.8020    10.5550     8.7410    10.3220    24.4200   -15.5530 
   99.7500     2.2210    67.6160    11.4860     9.5510    10.6390    24.4410   -15.7680 
   99.8750     2.2410    67.8650    12.5930    10.4930    10.7220    24.4920   -15.9650 
  100.0000     2.3080    66.6260    13.9930    11.7370    11.0760    24.5730   -16.2050 
  100.1250     2.4110    63.5270    15.6270    13.3570    14.3820    24.6730   -16.4030 
  100.2500     2.5010    60.8100    16.9560    14.8270    22.1880    24.7360   -16.3730 
  100.3750     2.5350    58.8830    17.3930    15.3520    30.0720    24.7770   -16.2730 
  100.5000     2.4980    56.8300    16.7000    14.5240    29.5590    24.7880   -16.1130 
  100.6250     2.4110    56.7730    15.2090    12.8930    20.1030    24.7340   -16.0170 
  100.7500     2.3330    59.2410    13.8210    11.5070    12.6590    24.6080   -15.9910 
  100.8750     2.2960    61.5140    13.0420    10.7720    10.2290    24.4740   -16.0020 
  101.0000     2.3020    62.2480    13.0550    10.8060    10.1050    24.4250   -16.0520 
  101.1250     2.3280    62.8610    13.8470    11.6240    12.5460    24.6070   -16.1820 
  101.2500     2.3390    64.5710    14.9200    12.7550    15.9390    24.8280   -16.5830 
  101.3750     2.3220    67.7860    15.8140    13.6980    15.0370    24.8760   -17.0120 
  101.5000     2.2800    70.7600    16.1240    14.0280    11.7460    24.7900   -17.3520 
  101.6250     2.2340    70.1360    15.5250    13.4450     9.7920    24.7080   -17.6010 
  101.7500     2.2030    66.0070    14.2580    12.2000     9.2430    24.6890   -17.7430 
  101.8750     2.1930    63.9790    12.6140    10.6000     9.0520    24.6490   -17.8070 
  102.0000     2.1960    67.1410    10.9270     8.9910     8.9320    24.5350   -17.8410 
  102.1250     2.2020    70.4700     9.5410     7.7020     8.3460    24.4500   -17.8050 
  102.2500     2.2030    69.1860     8.5610     6.8190     7.6950    24.4240   -17.6760 
  102.3750     2.1990    65.1250     7.9900     6.3290     7.4170    24.4390   -17.5600 
  102.5000     2.1930    62.9950     7.7570     6.1470     7.5100    24.4650   -17.4800 
  102.6250     2.1880    65.2570     7.8110     6.2080     7.8130    24.4860   -17.4620 
  102.7500     2.1870    68.7400     8.0620     6.4300     8.1160    24.5100   -17.5990 
  102.8750     2.1900    71.0080     8.5310     6.8330     8.4860    24.5340   -17.8010 
  103.0000     2.1950    70.1930     9.2850     7.4850     8.8720    24.5720   -18.0540 
  103.1250     2.1970    67.3560    10.4720     8.5480     9.2520    24.6650   -18.4680 
  103.2500     2.1950    65.4380    12.0110     9.9930     9.7240    24.7980   -18.8540 
  103.3750     2.1890    65.0170    13.6790    11.6440    10.2790    24.8970   -19.1760 
  103.5000     2.1840    64.5520    15.0660    13.0770    10.6000    24.9380   -19.5070 
  103.6250     2.1830    62.8550    15.5980    13.5940    10.7970    24.8990   -19.7710 
  103.7500     2.1870    62.1960    15.3040    13.1950    10.8630    24.8400   -19.9650 
  103.8750     2.1930    63.5800    14.5110    12.2930    10.4770    24.8030   -20.2180 
  104.0000     2.1990    64.9110    13.7060    11.4500     9.8310    24.7920   -20.4710 
  104.1250     2.2040    64.1040    13.3410    11.1300     9.2810    24.7920   -20.5990 
  104.2500     2.2070    63.2160    13.4070    11.2590     8.9650    24.7920   -20.7920 
  104.3750     2.2070    62.6620    13.7410    11.6320     8.7660    24.7920   -21.0620 
  104.5000     2.2020    60.9640    14.1490    12.0300     8.6500    24.7920   -21.3200 
  104.6250     2.1920    58.2540    14.5080    12.3390     8.5690    24.8110   -21.5700 
  104.7500     2.1820    58.0010    14.8050    12.6020     8.4670    24.8600   -21.8140 
  104.8750     2.1740    61.0360    15.0200    12.8260     8.3550    24.8870   -21.9250 
  105.0000     2.1710    62.5690    15.0520    12.9210     8.3020    24.7870   -21.9730 
  105.1250     2.1710    60.7520    14.6730    12.6140     8.3040    24.5430   -22.0430 
  105.2500     2.1740    57.8340    13.8740    11.8450     8.2390    24.3810   -22.0150 
  105.3750     2.1790    55.3960    12.7710    10.7570     8.2330    24.3390   -21.8960 
  105.5000     2.1830    54.9510    11.5890     9.6180     8.2970    24.3770   -21.7710 
  105.6250     2.1860    56.3860    10.5920     8.6920     8.2720    24.3800   -21.6090 
  105.7500     2.1880    58.6810     9.8690     8.0430     8.2400    24.3960   -21.3930 
  105.8750     2.1890    61.3210     9.4160     7.6530     8.3190    24.4100   -21.2490 
  106.0000     2.1910    65.2760     9.1740     7.4590     8.4600    24.4150   -21.1120 
  106.1250     2.1930    67.7010     9.0760     7.3880     8.4500    24.4150   -20.9320 
  106.2500     2.1940    64.8320     9.0300     7.3550     8.4690    24.4290   -20.8130 
  106.3750     2.1950    59.4300     8.9960     7.3290     8.5490    24.4620   -20.6800 
  106.5000     2.1930    56.8630     8.9590     7.2930     8.5070    24.5160   -20.4890 
  106.6250     2.1880    57.5280     8.9190     7.2530     8.4850    24.6350   -20.3090 
  106.7500     2.1750    58.0390     8.8860     7.2210     8.5020    24.8340   -20.0380 
  106.8750     2.1540    58.9070     8.8710     7.2040     8.3910    25.0260   -19.6930 
  107.0000     2.1310    59.7680     8.8950     7.2150     7.9860    25.1640   -19.3730 
  107.1250     2.1180    59.2300     8.9980     7.3010     8.0420    25.3050   -18.9730 
  107.2500     2.1240    58.5150     9.1870     7.4760     7.9680    25.3400   -18.5030 
  107.3750     2.1460    60.8010     9.4560     7.7280     7.6270    25.1500   -18.0790 
