~V
VERS. 2.00: Ver 2.00
~W
STRT.M 60.0000:
STOP.M 276.0000:
STEP.M 0.1250:
NULL. -999.2500:
UWI. F11026:
~C
DEPT.M :
DEN.GM/CC :
GR.API :
RML.OHMM :
RI. :
RXO.OHMM :
CALI.CM :
SP.MV :
~A
   60.0000     2.2510    58.2570     0.1960     0.2080     2.5440    24.5120    91.3450 
   60.1250     2.4390    58.8470     0.0520     0.1910     2.0580    24.5110    83.4900 
   60.2500     2.6090    60.2920    -0.0210     0.1800     1.6790    24.5000    72.8950 
   60.3750     2.6880    61.7210    -0.0330     0.1750     1.3650    24.4520    68.1890 
   60.5000     2.6380    62.5920     0.0110     0.1960     1.6020    24.4320    58.0640 
   60.6250     2.4810    65.4120     0.1740     0.3270     2.7550    24.6780    44.9620 
   60.7500     2.3170    70.0290     0.5780     0.6580     4.9130    25.0840    31.5910 
   60.8750     2.2110    73.0680     1.3910     1.3020     6.3800    25.0760    18.3090 
   61.0000     2.1750    74.6330     2.6060     2.3220     7.4080    24.6810     5.6460 
   61.1250     2.1880    78.1920     3.8620     3.5800     8.6730    24.4360    -5.2490 
   61.2500     2.2050    81.1810     4.7210     4.6700     9.1810    24.3910   -13.4930 
   61.3750     2.2110    79.4220     5.1120     5.4010     8.6880    24.3990   -18.8060 
   61.5000     2.2090    76.4050     5.2190     5.7920     8.3280    24.3990   -22.1450 
   61.6250     2.2120    79.0840     5.2070     5.8900     8.3700    24.4400   -24.2120 
   61.7500     2.2310    84.5820     5.1270     5.8020     8.1690    24.5320   -25.5070 
   61.8750     2.2670    90.0780     4.9740     5.5980     7.2660    24.6950   -26.2780 
   62.0000     2.3170    97.7990     4.7830     5.3520     5.9300    24.8340   -26.6940 
   62.1250     2.3640   107.1600     4.6380     5.1390     5.4570    24.9230   -26.8480 
   62.2500     2.3940   111.6800     4.5890     5.0020     5.4120    24.9550   -26.9280 
   62.3750     2.4010   111.5620     4.6480     4.9630     5.4480    24.9450   -27.0170 
   62.5000     2.3900   110.1150     4.7940     5.0260     5.4530    24.8840   -27.1480 
   62.6250     2.3710   106.7340     4.9840     5.1750     5.5760    24.7700   -27.3710 
   62.7500     2.3570   101.5060     5.1490     5.3410     5.9910    24.6300   -27.6160 
   62.8750     2.3510    97.7250     5.2350     5.4670     6.4990    24.5780   -27.8620 
   63.0000     2.3500    98.8080     5.2060     5.5110     6.5060    24.6720   -28.1570 
   63.1250     2.3470   104.5560     5.0820     5.4540     6.2560    24.8580   -28.4470 
   63.2500     2.3350   107.5670     4.9810     5.3560     5.7870    25.0230   -28.7010 
   63.3750     2.3150   104.8760     5.0100     5.2870     5.6460    25.1430   -28.9590 
   63.5000     2.2870    99.9970     5.2230     5.3120     5.6170    25.2330   -29.3170 
   63.6250     2.2610    96.7090     5.5710     5.4730     5.6780    25.3860   -29.8250 
   63.7500     2.2440    95.2810     5.8710     5.7050     6.0130    25.4680   -30.4410 
   63.8750     2.2380    93.6080     6.0110     5.9320     6.3330    25.1840   -31.0570 
   64.0000     2.2430    92.3230     5.9920     6.0830     6.8330    24.7170   -31.5780 
   64.1250     2.2560    93.7930     5.8970     6.0990     6.7330    24.5930   -32.0230 
   64.2500     2.2690    96.9430     5.8040     6.0060     6.3600    24.7020   -32.4050 
   64.3750     2.2800   100.6190     5.7210     5.8430     6.1790    24.7630   -32.6840 
   64.5000     2.2860   103.7220     5.6500     5.6590     6.7330    24.7110   -32.8570 
   64.6250     2.2870   105.5560     5.6280     5.5220     6.9390    24.6740   -33.0130 
   64.7500     2.2860   105.7330     5.6870     5.4810     6.1430    24.7090   -33.2360 
   64.8750     2.2890   104.5770     5.8380     5.5660     5.4420    24.7350   -33.5620 
   65.0000     2.3010   102.5180     6.0600     5.7690     5.5400    24.6910   -33.9380 
   65.1250     2.3190    98.2010     6.2860     6.0330     5.9610    24.5160   -34.2640 
   65.2500     2.3340    93.4930     6.4380     6.2480     6.5460    24.2060   -34.5810 
   65.3750     2.3370    91.6240     6.4750     6.3440     6.7070    23.9390   -34.9020 
   65.5000     2.3270    93.8030     6.4150     6.3240     6.4020    23.9090   -35.2170 
   65.6250     2.3070    97.5520     6.3260     6.2630     5.9870    24.1220   -35.4190 
   65.7500     2.2810    98.8650     6.2670     6.2370     5.6550    24.2870   -35.4340 
   65.8750     2.2540    96.6340     6.2160     6.2380     5.9160    24.2010   -35.2170 
   66.0000     2.2280    90.3600     6.0840     6.1800     6.8750    23.9940   -34.8080 
   66.1250     2.2100    83.2050     5.7510     5.9180     7.2210    23.9890   -34.3040 
   66.2500     2.2030    82.5910     5.2770     5.4810     6.6580    24.1830   -33.8130 
   66.3750     2.2100    89.4870     4.8270     5.0300     5.6020    24.3500   -33.3810 
   66.5000     2.2380    99.1410     4.6090     4.8000     5.0550    24.3880   -32.9760 
   66.6250     2.3010   103.2360     4.9110     5.1410     5.1220    24.3750   -32.6160 
   66.7500     2.3990   101.1920     5.8820     6.2760     6.2550    24.4170   -32.3720 
   66.8750     2.5150    93.4390     7.7960     8.5010    10.4910    24.4890   -32.4000 
   67.0000     2.6200    82.2760    10.7560    11.9420    24.0810    24.4950   -32.7650 
   67.1250     2.6660    74.7210    13.9820    15.9410    37.2000    24.4290   -33.4520 
   67.2500     2.6400    70.8820    15.8000    18.3940    37.4270    24.3900   -34.2810 
   67.3750     2.5530    69.0170    15.3690    17.9060    28.7920    24.3570   -35.1790 
   67.5000     2.4360    68.9620    13.2710    15.1960    19.5000    24.2870   -36.0670 
   67.6250     2.3280    70.8070    11.0460    12.1710    12.5650    24.1390   -36.9680 
   67.7500     2.2470    71.5010     9.6140     9.8940     9.9770    24.0600   -37.9090 
   67.8750     2.1960    70.3330     8.9080     8.4160     9.3470    24.0640   -38.7910 
   68.0000     2.1650    68.8740     8.6230     7.5580     9.2980    24.1310   -39.5670 
   68.1250     2.1480    66.5330     8.5360     7.1820     9.2260    24.1470   -40.2580 
   68.2500     2.1380    63.4660     8.4930     7.0400     8.8510    24.0840   -40.8660 
   68.3750     2.1360    62.4490     8.4480     7.0090     8.4360    23.9850   -41.3450 
   68.5000     2.1380    64.1890     8.3950     7.0130     8.1520    23.8930   -41.7690 
   68.6250     2.1430    66.8360     8.3460     7.0200     8.0980    23.8310   -42.1330 
   68.7500     2.1480    68.8680     8.3110     7.0160     8.0560    23.7790   -42.4020 
   68.8750     2.1500    70.5230     8.2860     6.9970     8.0820    23.7940   -42.5420 
   69.0000     2.1500    71.2700     8.2680     6.9640     8.1070    23.8640   -42.5340 
   69.1250     2.1470    70.5980     8.2500     6.9210     8.1330    23.9070   -42.3050 
   69.2500     2.1390    70.3660     8.2310     6.8700     8.0360    23.8790   -41.8650 
   69.3750     2.1290    71.9140     8.2150     6.8100     7.9200    23.8130   -41.3010 
   69.5000     2.1180    74.3570     8.2060     6.7420     7.9140    23.7870   -40.6620 
   69.6250     2.1130    76.1470     8.2250     6.6830     7.9900    23.8320   -39.9760 
   69.7500     2.1170    76.8740     8.2870     6.6540     8.1570    23.8790   -39.3040 
   69.8750     2.1280    76.0550     8.4050     6.6720     8.2700    23.8570   -38.7050 
   70.0000     2.1390    75.3290     8.5790     6.7380     8.3060    23.7330   -38.1700 
   70.1250     2.1430    74.7910     8.7970     6.8530     8.2310    23.5330   -37.6950 
   70.2500     2.1390    72.8580     9.0150     6.9910     8.0400    23.3520   -37.3390 
   70.3750     2.1290    70.9710     9.1950     7.1270     7.8580    23.2080   -37.0720 
   70.5000     2.1230    69.5240     9.3050     7.2270     7.9290    23.1300   -36.8190 
   70.6250     2.1280    68.1060     9.3200     7.2510     8.2230    23.2270   -36.5550 
   70.7500     2.1450    67.4290     9.2760     7.2070     8.4770    23.5230   -36.2780 
   70.8750     2.1710    69.6830     9.2180     7.1250     8.5380    23.8430   -35.9760 
   71.0000     2.1980    71.6550     9.1980     7.0560     8.5610    24.0680   -35.7240 
   71.1250     2.2180    69.7060     9.2690     7.0720     8.0900    24.1300   -35.5920 
