~V
VERS. 2.00: Ver 2.00
~W
STRT.M 53.0000:
STOP.M 279.0000:
STEP.M 0.1250:
NULL. -999.2500:
UWI. F11057:
~C
DEPT.M :
GR.API :
RML.OHMM :
RI. :
RXO.OHMM :
CALI.CM :
DEN.GM/CC :
SP.MV :
~A
# ...
  255.5000    60.9580     9.1830     8.0510     8.5390    24.9530     2.3720    -5.8230 
  255.6250    59.8970     9.5620     8.3780     8.6840    24.9510     2.4000    -6.1540 
  255.7500    59.9260     9.9980     8.7700     9.2100    24.9510     2.4330    -6.4420 
  255.8750    59.7550    10.4750     9.2210    10.4030    24.9530     2.4530    -6.6670 
  256.0000    58.2980    10.9560     9.7090    11.8280    24.9570     2.4630    -6.8660 
  256.1250    57.7460    11.3820    10.1790    12.5820    24.9590     2.4730    -6.9990 
  256.2500    59.0780    11.7150    10.5810    12.9320    24.9590     2.4850    -7.0340 
  256.3750    59.7690    11.9410    10.8830    13.3440    24.9590     2.4940    -7.0330 
  256.5000    59.0540    12.0750    11.0800    13.9550    24.9590     2.4990    -6.9820 
  256.6250    59.2900    12.1410    11.1780    14.6690    24.9590     2.5010    -6.8690 
  256.7500    59.9940    12.1780    11.2280    15.1150    24.9590     2.4990    -6.7290 
  256.8750    58.8380    12.1990    11.2600    14.9510    24.9570     2.4940    -6.5800 
  257.0000    56.9730    12.2140    11.2940    14.7720    24.9530     2.4880    -6.4150 
  257.1250    58.4590    12.2400    11.3420    14.5780    24.9510     2.4840    -6.2390 
  257.2500    62.0810    12.3070    11.4160    14.2850    24.9500     2.4840    -6.0610 
  257.3750    65.2460    12.4500    11.5400    14.0170    24.9500     2.4840    -5.8730 
  257.5000    66.4400    12.6980    11.7420    14.1240    24.9500     2.4850    -5.6950 
  257.6250    65.8310    13.0930    12.0740    14.4320    24.9500     2.4860    -5.5390 
  257.7500    64.4300    13.6330    12.5480    14.5390    24.9500     2.4910    -5.3990 
  257.8750    61.5870    14.3290    13.1830    14.8930    24.9510     2.5020    -5.2440 
  258.0000    58.3970    15.1570    13.9720    16.0930    24.9520     2.5200    -5.1030 
  258.1250    56.9150    16.0160    14.8520    17.8020    24.9530     2.5320    -4.9960 
  258.2500    57.6690    16.7370    15.6670    18.1860    24.9520     2.5300    -4.9350 
  258.3750    58.9060    17.1990    16.2790    18.6040    24.9510     2.5160    -4.8970 
  258.5000    59.3840    17.3700    16.6140    18.9480    24.9440     2.5030    -4.8520 
  258.6250    58.0150    17.3140    16.6840    18.2610    24.9090     2.5000    -4.8200 
  258.7500    57.3630    17.2200    16.6680    17.6620    24.8250     2.5040    -4.8370 
  258.8750    60.0590    17.2130    16.6900    18.0860    24.7060     2.5110    -4.9130 
  259.0000    63.7000    17.3830    16.8440    21.2570    24.5990     2.5190    -4.9870 
  259.1250    63.6730    17.7900    17.2100    28.1430    24.5500     2.5350    -5.0480 
  259.2500    62.2800    18.3280    17.7180    35.8670    24.5370     2.5590    -5.1060 
  259.3750    62.0370    18.8680    18.2710    36.5080    24.5360     2.5830    -5.1680 
  259.5000    62.2260    19.2880    18.7590    32.4100    24.5360     2.5950    -5.2430 
  259.6250    60.8380    19.5480    19.1110    33.0880    24.5350     2.5910    -5.3050 
  259.7500    60.6840    19.7950    19.4240    34.4430    24.5340     2.5840    -5.3250 
  259.8750    60.7570    20.1430    19.8080    31.7530    24.5330     2.5790    -5.3040 
  260.0000    58.4000    20.5690    20.2860    27.8200    24.5360     2.5720    -5.2730 
  260.1250    56.4760    20.8110    20.6680    26.7900    24.5390     2.5590    -5.2340 
  260.2500    57.7840    20.6320    20.7050    27.3460    24.5380     2.5410    -5.1820 
  260.3750    60.9880    19.9930    20.3010    25.9570    24.5350     2.5260    -5.1160 
  260.5000    62.3360    19.0780    19.5720    23.0200    24.5340     2.5200    -5.0540 
  260.6250    59.9940    18.2080    18.7820    19.1050    24.5320     2.5270    -4.9760 
  260.7500    57.7110    17.5960    18.1750    15.6390    24.5300     2.5360    -4.8950 
  260.8750    58.0330    17.3310    17.8660    15.3590    24.5300     2.5400    -4.8190 
  261.0000    59.9510    17.4510    17.9200    17.7940    24.5290     2.5360    -4.7550 
  261.1250    60.9000    17.9960    18.4120    19.1230    24.5320     2.5330    -4.7010 
  261.2500    61.1570    18.7690    19.1890    19.5640    24.5370     2.5370    -4.6510 
  261.3750    62.7070    19.5290    20.0430    20.3000    24.5380     2.5460    -4.5960 
  261.5000    64.7030    19.9990    20.6940    22.4440    24.5370     2.5510    -4.5170 
  261.6250    63.9430    19.9180    20.8240    24.1780    24.5360     2.5500    -4.4710 
  261.7500    61.9910    19.4210    20.5000    23.4080    24.5360     2.5500    -4.4530 
  261.8750    61.4030    18.7000    19.8750    21.2570    24.5360     2.5520    -4.4250 
  262.0000    62.7250    17.9580    19.1450    19.9260    24.5360     2.5530    -4.3950 
  262.1250    63.9360    17.4280    18.5430    19.8160    24.5360     2.5500    -4.3700 
  262.2500    64.3090    17.2120    18.2140    20.1170    24.5360     2.5440    -4.3330 
  262.3750    65.2830    17.3240    18.2100    20.2510    24.5360     2.5400    -4.2970 
  262.5000    66.6350    17.6810    18.4850    20.8240    24.5360     2.5410    -4.2790 
  262.6250    66.4760    18.1160    18.9030    21.7620    24.5370     2.5500    -4.2450 
  262.7500    64.1970    18.4390    19.2550    22.4820    24.5500     2.5630    -4.2050 
  262.8750    62.2750    18.5780    19.4370    22.0270    24.5790     2.5740    -4.1750 
  263.0000    64.3950    18.5730    19.4640    20.9920    24.6010     2.5790    -4.1440 
  263.1250    68.1110    18.5480    19.4560    19.9280    24.6080     2.5830    -4.1260 
  263.2500    66.7770    18.6000    19.5310    19.7700    24.6080     2.5890    -4.1440 
  263.3750    62.1290    18.7280    19.7030    21.1810    24.6080     2.5980    -4.1950 
  263.5000    59.7810    18.8510    19.8920    24.5720    24.6080     2.6060    -4.2660 
  263.6250    60.6430    18.8280    19.9340    26.8840    24.6080     2.6070    -4.3490 
  263.7500    59.9900    18.6260    19.7590    27.6100    24.6080     2.6000    -4.4310 
  263.8750    59.7040    18.2980    19.4000    25.6920    24.6080     2.5850    -4.5230 
  264.0000    61.9670    17.9550    18.9730    23.2170    24.6100     2.5680    -4.6140 
  264.1250    62.9910    17.7280    18.6260    21.7510    24.6150     2.5500    -4.7100 
  264.2500    61.5320    17.6520    18.4290    20.6380    24.6170     2.5360    -4.7790 
  264.3750    60.8510    17.7090    18.3880    20.6450    24.6200     2.5260    -4.8200 
  264.5000    61.8000    17.8350    18.4520    21.2590    24.6300     2.5170    -4.8460 
  264.6250    62.1330    17.9060    18.5020    21.6510    24.6400     2.5130    -4.8600 
  264.7500    61.6870    17.8180    18.4150    21.4260    24.6390     2.5160    -4.8550 
  264.8750    62.7580    17.5490    18.1470    21.0920    24.6300     2.5250    -4.8370 
  265.0000    65.0460    17.1720    17.7500    20.3510    24.6230     2.5330    -4.8030 
  265.1250    65.6180    16.8440    17.3640    20.5990    24.6190     2.5390    -4.7290 
  265.2500    64.7700    16.6730    17.1080    21.1820    24.6170     2.5450    -4.6630 
  265.3750    64.0720    16.6730    17.0150    21.6190    24.6170     2.5530    -4.6020 
  265.5000    64.6330    16.7860    17.0510    22.5980    24.6160     2.5630    -4.5410 
  265.6250    65.9650    16.9200    17.1430    22.6140    24.6130     2.5700    -4.4740 
  265.7500    65.8190    16.9970    17.1970    22.5990    24.6100     2.5710    -4.4220 
  265.8750    64.5200    16.9900    17.1640    22.6860    24.6070     2.5640    -4.3880 
  266.0000    63.1860    16.8980    17.0280    22.4340    24.6060     2.5550    -4.3700 
  266.1250    62.1910    16.7280    16.7940    22.5520    24.6050     2.5510    -4.3720 
  266.2500    61.0340    16.5280    16.5200    21.8350    24.6060     2.5500    -4.3820 
  266.3750    60.7270    16.3260    16.2430    20.1590    24.6090     2.5510    -4.3930 
  266.5000    60.5430    16.1300    15.9740    19.2780    24.6120     2.5520    -4.4190 
  266.6250    59.6210    15.9260    15.7030    18.9840    24.6150     2.5520    -4.4680 
