~V
VERS. 2.00: Ver 2.00
~W
STRT.M 52.0000:
STOP.M 287.0000:
STEP.M 0.1250:
NULL. -999.2500:
UWI. F11078:
~C
DEPT.M :
GR.API :
RML.OHMM :
RI. :
RXO.OHMM :
CALI.CM :
DEN.GM/CC :
SP.MV :
~A
# ...
  187.0000    95.7080     8.5500     7.4630     8.4430    23.5190     2.3470   -15.2870 
  187.1250    94.3300     8.4680     7.4370     7.6730    23.7850     2.3380   -15.3410 
  187.2500    93.2550     8.0970     7.1000     7.0510    24.0230     2.3280   -15.3720 
  187.3750    93.8830     7.6180     6.6200     6.7580    24.0900     2.3220   -15.3510 
  187.5000    94.7000     7.3250     6.2550     6.8680    24.0400     2.3190   -15.3060 
  187.6250    94.7030     7.4110     6.1710     7.4180    24.0140     2.3160   -15.2820 
  187.7500    93.2120     7.9800     6.4560     8.7650    24.0680     2.3100   -15.3060 
  187.8750    90.9970     9.0600     7.1550    11.6950    24.1360     2.3020   -15.3760 
  188.0000    87.0570    10.6800     8.3790    15.1600    24.2100     2.2930   -15.5050 
  188.1250    82.7410    12.6770    10.0690    17.6380    24.3020     2.2840   -15.6710 
  188.2500    79.8950    14.9510    12.1800    18.5240    24.3930     2.2750   -15.9080 
  188.3750    78.6400    17.3720    14.5860    22.0820    24.4510     2.2670   -16.2160 
  188.5000    78.5030    19.6260    17.0280    27.7530    24.4680     2.2600   -16.5650 
  188.6250    77.4160    21.2270    19.0430    28.3390    24.4580     2.2580   -16.8820 
  188.7500    75.6360    21.6270    20.0410    24.7040    24.4150     2.2670   -17.0920 
  188.8750    75.4600    20.4760    19.4860    18.5600    24.3190     2.2890   -17.1310 
  189.0000    78.9210    17.7820    17.1580    14.2750    24.2260     2.3210   -16.9120 
  189.1250    83.5730    14.5650    14.1260    10.0190    24.1330     2.3500   -16.4560 
  189.2500    86.5740    11.6140    11.2500     7.0130    24.1070     2.3660   -15.8040 
  189.3750    88.5810     9.4340     9.0480     5.9190    24.1370     2.3720   -15.0210 
  189.5000    89.3150     8.2930     7.7800     6.2190    24.1630     2.3810   -14.1870 
  189.6250    88.1940     7.8990     7.2080     7.0240    24.0530     2.4030   -13.4150 
  189.7500    85.6280     8.0540     7.1980     8.0640    23.8950     2.4370   -12.7920 
  189.8750    84.3010     8.5520     7.6060     8.7870    23.7840     2.4670   -12.3870 
  190.0000    86.2210     9.1780     8.2590     8.6300    23.6810     2.4780   -12.2830 
  190.1250    88.5380     9.7040     8.8720     8.6240    23.5160     2.4710   -12.4840 
  190.2500    89.8350    10.0060     9.2610     8.8650    23.2260     2.4590   -12.9510 
  190.3750    90.6620    10.0390     9.3450     9.0650    22.9430     2.4520   -13.6070 
  190.5000    90.9330     9.7990     9.1240     9.0820    22.9610     2.4510   -14.3410 
  190.6250    91.4540     9.4220     8.7580     9.0070    23.3080     2.4410   -15.0740 
  190.7500    91.9250     9.0220     8.3680     8.6250    23.6880     2.4120   -15.7740 
  190.8750    92.0780     8.7310     8.0620     8.1020    23.8460     2.3640   -16.4340 
  191.0000    91.9960     8.7270     7.9640     8.2130    23.7850     2.3140   -17.0410 
  191.1250    93.3590     9.0360     8.0960     9.2630    23.6510     2.2840   -17.6040 
  191.2500    97.6400     9.6250     8.4500    10.8820    23.5580     2.2830   -18.1160 
  191.3750   101.8020    10.3780     8.9700    11.6360    23.5260     2.3070   -18.5570 
  191.5000   100.7810    11.1180     9.5490    11.6980    23.5970     2.3440   -18.9330 
  191.6250    96.6330    11.7110    10.0580    11.7050    23.6790     2.3790   -19.2980 
  191.7500    93.1810    12.1230    10.4360    11.5960    23.7490     2.4060   -19.6850 
  191.8750    91.0990    12.3950    10.6890    11.4150    23.7920     2.4260   -20.0760 
  192.0000    87.9090    12.5990    10.8740    11.4190    23.7950     2.4420   -20.4210 
  192.1250    84.2170    12.8030    11.0800    11.4520    23.7750     2.4560   -20.6700 
  192.2500    84.7450    13.0240    11.3420    11.5830    23.7600     2.4660   -20.7700 
  192.3750    89.0150    13.2570    11.6560    11.8500    23.7490     2.4710   -20.7230 
  192.5000    90.1210    13.4750    11.9730    12.5050    23.7110     2.4670   -20.5940 
  192.6250    88.1080    13.6450    12.2270    13.4080    23.6360     2.4560   -20.4310 
  192.7500    86.8920    13.7300    12.3730    13.8940    23.5470     2.4420   -20.2300 
  192.8750    88.2680    13.7050    12.3980    13.6330    23.4350     2.4300   -19.9890 
  193.0000    90.1460    13.5710    12.3210    13.1210    23.3220     2.4250   -19.7190 
  193.1250    91.0660    13.3970    12.2160    12.7420    23.2570     2.4280   -19.4780 
  193.2500    91.4210    13.2300    12.1380    12.4860    23.2380     2.4340   -19.2980 
  193.3750    90.3990    13.0770    12.1030    12.1880    23.2360     2.4380   -19.1920 
  193.5000    88.1290    12.8750    12.0440    12.0260    23.2360     2.4310   -19.2090 
  193.6250    86.4580    12.5660    11.8570    12.1300    23.2360     2.4180   -19.3100 
  193.7500    86.5390    12.1460    11.4940    11.8250    23.2360     2.4050   -19.4350 
  193.8750    87.0570    11.6930    11.0070    10.8870    23.2290     2.4020   -19.5780 
  194.0000    87.9750    11.3800    10.5490    10.2470    23.2100     2.4090   -19.7680 
  194.1250    90.7660    11.3250    10.2860    11.6340    23.1870     2.4170   -19.9920 
  194.2500    94.5030    11.5840    10.3290    13.1340    23.1790     2.4140   -20.2950 
  194.3750    94.9780    12.1340    10.7220    14.0180    23.1840     2.3950   -20.6920 
  194.5000    90.1470    12.8850    11.4700    14.8570    23.2010     2.3650   -21.1390 
  194.6250    86.9270    13.6300    12.3870    15.6710    23.1910     2.3400   -21.6100 
  194.7500    88.5210    14.2000    13.2800    16.4780    23.0810     2.3280   -22.1190 
  194.8750    92.3640    14.4710    13.9340    15.8160    22.8370     2.3330   -22.6590 
  195.0000    93.8550    14.3710    14.1470    15.1070    22.4950     2.3570   -23.2150 
  195.1250    94.6570    14.0710    14.0290    15.1290    22.0790     2.3890   -23.7770 
  195.2500    96.8860    13.7450    13.7410    14.4600    21.6850     2.4230   -24.3010 
  195.3750    97.5960    13.5560    13.4720    13.4320    21.4770     2.4480   -24.7760 
  195.5000    94.6020    13.6530    13.4400    14.0430    21.4590     2.4560   -25.1920 
  195.6250    91.1810    13.9890    13.6880    15.5820    21.4980     2.4500   -25.5260 
  195.7500    89.3600    14.4580    14.1460    17.0770    21.5760     2.4360   -25.7630 
  195.8750    88.2480    14.9100    14.6390    17.6300    21.7080     2.4210   -25.9340 
  196.0000    88.1830    15.2510    14.9400    17.7180    21.8820     2.4120   -26.1070 
  196.1250    90.1280    15.6380    15.0910    17.5430    22.0010     2.4090   -26.2860 
  196.2500    92.2880    16.4610    15.3860    17.4740    22.0430     2.4090   -26.4510 
  196.3750    90.6920    18.6110    16.3210    19.3330    22.0280     2.4090   -26.5630 
  196.5000    85.2350    23.4510    18.8660    28.9880    22.0140     2.4000   -26.6160 
  196.6250    79.7010    30.7180    23.5940    53.5620    22.0070     2.3790   -26.6720 
  196.7500    76.7000    39.7340    30.9390    89.0690    22.0050     2.3510   -26.7840 
  196.8750    76.5280    49.3740    40.4520   110.3700    22.0060     2.3230   -26.9490 
  197.0000    77.1050    57.6830    49.7950    82.4060    22.0070     2.3090   -27.0870 
  197.1250    76.7860    63.3270    56.1950    54.7400    22.0080     2.3080   -27.1790 
  197.2500    75.5310    66.6480    59.4050    46.6710    22.0050     2.3110   -27.2660 
  197.3750    74.3640    69.7330    61.6510    56.7240    22.0030     2.3070   -27.3910 
  197.5000    73.3280    75.8110    66.5000    82.8140    22.0040     2.2890   -27.5620 
  197.6250    70.9610    85.9560    75.3880   105.6000    22.0250     2.2650   -27.7400 
  197.7500    69.0460    99.6400    88.0830   107.9850    22.1050     2.2450   -27.9400 
  197.8750    70.1660   114.6810   102.6530   104.7020    22.2580     2.2380   -28.1690 
  198.0000    74.0740   127.0230   115.1640   107.2030    22.4580     2.2420   -28.4270 
  198.1250    76.1320   133.9560   122.7900   110.4530    22.5850     2.2490   -28.6760 
