~V
VERS. 2.00: Ver 2.00
~W
STRT.M 52.0000:
STOP.M 279.0000:
STEP.M 0.1250:
NULL. -999.2500:
UWI. F11031:
~C
DEPT.M :
DEN.GM/CC :
GR.API :
RML.OHMM :
RI. :
RXO.OHMM :
CALI.CM :
SP.MV :
~A
# ...
  232.0000     2.3170    65.1630    38.6960    31.4650    28.9020    22.8680   -19.5860 
  232.1250     2.3160    64.9820    38.4290    31.0040    28.9780    23.0280   -19.6300 
  232.2500     2.3150    64.3880    38.9270    31.1320    29.5090    23.1390   -19.6440 
  232.3750     2.3130    63.6680    39.7870    31.6680    30.1910    23.0670   -19.6710 
  232.5000     2.3090    62.3880    40.5230    32.3040    30.5020    22.9880   -19.7080 
  232.6250     2.3040    61.9730    40.6210    32.6400    31.7990    22.9610   -19.7060 
  232.7500     2.2970    64.1930    40.0880    32.5280    32.9940    22.9230   -19.7200 
  232.8750     2.2910    68.4260    39.1980    32.0460    30.4630    22.8470   -19.7380 
  233.0000     2.2870    71.7940    38.4180    31.4800    25.1250    22.6910   -19.7010 
  233.1250     2.2840    72.0510    38.2910    31.2810    22.6290    22.4060   -19.6600 
  233.2500     2.2810    70.5000    38.8870    31.6360    22.5820    22.2020   -19.6490 
  233.3750     2.2780    68.2380    40.1370    32.5680    23.2690    22.1610   -19.6340 
  233.5000     2.2770    65.4220    41.8510    33.9630    23.4420    22.1060   -19.6030 
  233.6250     2.2780    61.6910    43.7250    35.5520    24.6680    22.1210   -19.6000 
  233.7500     2.2800    60.5920    45.3540    36.9420    25.8870    22.1720   -19.6240 
  233.8750     2.2800    63.2020    46.4730    37.9060    26.8040    22.2080   -19.6490 
  234.0000     2.2750    67.1320    46.9320    38.3580    27.6540    22.2680   -19.6940 
  234.1250     2.2650    68.1110    46.6250    38.2410    27.3040    22.3430   -19.7890 
  234.2500     2.2540    66.1390    45.9230    37.8060    26.4400    22.3690   -19.8500 
  234.3750     2.2450    62.9490    45.3000    37.3410    26.2170    22.4220   -19.8690 
  234.5000     2.2400    62.0910    45.3150    37.2170    27.2240    22.6790   -19.8950 
  234.6250     2.2370    64.6540    46.7170    37.9960    29.6120    22.9070   -19.9040 
  234.7500     2.2360    65.8650    49.6610    39.9140    33.4600    23.0910   -19.8460 
  234.8750     2.2380    62.7560    54.2390    43.1620    38.4030    23.1270   -19.7790 
  235.0000     2.2450    58.4910    60.3160    47.7400    44.2870    23.1100   -19.7240 
  235.1250     2.2570    57.5750    67.4050    53.3830    52.5550    23.0930   -19.6000 
  235.2500     2.2690    58.9820    74.1230    58.9940    60.4460    23.0520   -19.4550 
  235.3750     2.2760    60.6970    79.0100    63.4340    64.6170    23.0190   -19.3420 
  235.5000     2.2750    61.2290    80.8170    65.6960    65.9750    23.0270   -19.2350 
  235.6250     2.2660    57.9950    78.6790    64.9320    64.1290    23.0400   -19.0930 
  235.7500     2.2560    53.7630    74.3530    62.2150    60.2730    23.0710   -18.9480 
  235.8750     2.2520    53.9350    69.7120    58.8190    56.6190    23.1180   -18.8210 
  236.0000     2.2540    59.2020    66.5230    56.1130    54.0750    23.1080   -18.6920 
  236.1250     2.2640    63.5010    66.5280    55.6090    48.8630    23.0450   -18.5480 
  236.2500     2.2760    63.9630    69.7140    57.6580    45.8930    22.9380   -18.3800 
  236.3750     2.2880    61.7280    75.6160    62.1990    51.0020    22.8960   -18.2030 
  236.5000     2.2960    58.5140    82.7820    68.3520    68.8020    22.9360   -18.0080 
  236.6250     2.2980    56.6590    87.9040    73.8150    81.3740    23.0850   -17.7710 
  236.7500     2.2940    58.1700    87.8380    75.8110    82.4190    23.1300   -17.4890 
  236.8750     2.2860    60.6580    81.1110    72.4760    73.5600    23.1690   -17.1420 
  237.0000     2.2760    60.2500    69.1450    64.0050    60.2620    23.1880   -16.7380 
  237.1250     2.2660    59.0790    55.8370    52.9410    51.8330    23.1870   -16.2840 
  237.2500     2.2580    62.2640    44.8230    42.9610    44.2100    23.2060   -15.8190 
  237.3750     2.2530    67.7300    37.3460    35.6520    32.7910    23.2050   -15.3210 
  237.5000     2.2550    70.4800    33.4580    31.3840    23.6480    23.2110   -14.8030 
  237.6250     2.2760    68.9220    32.8800    30.1570    22.3050    23.1950   -14.3000 
  237.7500     2.3160    65.9980    33.9510    30.6950    26.2390    23.1410   -13.8070 
  237.8750     2.3690    64.9200    35.3320    31.9550    35.0340    23.0510   -13.3100 
  238.0000     2.4160    66.2330    35.5770    32.6320    42.0890    23.0060   -12.8490 
  238.1250     2.4290    67.2910    33.3450    31.2450    34.2600    22.9340   -12.4600 
  238.2500     2.4060    66.2010    29.4690    28.2000    23.4400    22.9080   -12.1160 
  238.3750     2.3610    66.1450    25.2470    24.5940    18.4770    23.2110   -11.7870 
  238.5000     2.3150    68.0000    21.7460    21.4500    16.6860    23.8380   -11.4690 
  238.6250     2.2860    68.4510    19.5950    19.3960    15.4140    24.1470   -11.1930 
  238.7500     2.2750    67.6360    18.5120    18.2410    14.0530    24.4720   -10.9650 
  238.8750     2.2750    67.8180    18.2460    17.7820    13.9600    24.5510   -10.7840 
  239.0000     2.2800    68.2720    18.5480    17.8050    14.8440    24.4790   -10.6200 
  239.1250     2.2850    69.1080    19.2820    18.2050    15.4420    24.3500   -10.5010 
  239.2500     2.2860    70.4080    20.2620    18.8530    16.5590    24.3770   -10.4550 
  239.3750     2.2820    70.2390    21.4260    19.7140    18.1660    24.4950   -10.4650 
  239.5000     2.2740    66.0590    22.7480    20.7610    19.5970    24.6180   -10.4860 
  239.6250     2.2640    61.3730    24.2310    21.9770    21.2830    24.7060   -10.4840 
  239.7500     2.2550    59.5170    25.7670    23.2500    22.9390    24.7560   -10.4460 
  239.8750     2.2510    58.8100    27.1780    24.4370    24.1310    24.7720   -10.4030 
  240.0000     2.2520    57.1800    28.2360    25.3720    24.1040    24.8020   -10.3630 
  240.1250     2.2590    56.0430    28.6650    25.8620    24.0120    24.6050   -10.3010 
  240.2500     2.2680    56.8330    28.5380    25.9120    24.4920    24.3030   -10.1920 
  240.3750     2.2760    57.5850    27.9540    25.5260    24.6700    24.0690   -10.0610 
  240.5000     2.2820    57.1870    27.0370    24.7600    24.6790    23.9910    -9.9480 
  240.6250     2.2820    56.8880    25.9040    23.7300    24.3250    23.9830    -9.8680 
  240.7500     2.2810    57.5980    24.7230    22.6610    22.8560    23.9990    -9.8190 
  240.8750     2.2780    59.2990    23.6050    21.6740    20.5780    24.0010    -9.7750 
  241.0000     2.2750    60.7470    22.6570    20.8340    18.7980    24.0130    -9.7090 
  241.1250     2.2750    61.1400    22.0230    20.2220    18.4980    23.9840    -9.6240 
  241.2500     2.2760    60.9920    21.6620    19.8350    19.6520    23.9780    -9.5350 
  241.3750     2.2770    60.1680    21.5130    19.6660    19.8350    23.9620    -9.4380 
  241.5000     2.2770    58.1360    21.5020    19.6670    18.3000    23.8980    -9.3550 
  241.6250     2.2750    55.7710    21.5520    19.7390    17.1160    23.8290    -9.3150 
  241.7500     2.2740    55.6060    21.5710    19.7500    17.8420    23.6380    -9.3180 
  241.8750     2.2760    57.8550    21.5260    19.6390    18.6260    23.4340    -9.3300 
  242.0000     2.2820    60.1180    21.4270    19.4100    17.6900    23.3750    -9.3360 
  242.1250     2.2900    60.1070    21.2590    19.0900    16.2100    23.3970    -9.3480 
  242.2500     2.2960    59.7540    20.9980    18.7280    15.7360    23.5550    -9.3610 
  242.3750     2.2990    60.3610    20.6360    18.3680    16.7990    23.8450    -9.4050 
  242.5000     2.3020    60.1330    20.2050    18.0580    18.1170    23.9580    -9.4640 
  242.6250     2.3050    59.3350    19.8140    17.8600    18.1900    24.0370    -9.5070 
  242.7500     2.3070    60.0190    19.6440    17.8170    16.9070    24.0530    -9.5340 
  242.8750     2.3060    60.9630    19.8780    18.0210    16.1300    24.0560    -9.5520 
  243.0000     2.3020    59.6330    20.6140    18.5680    17.8460    24.0520    -9.5860 
  243.1250     2.2960    57.5430    21.8740    19.5640    19.4450    24.0270    -9.6420 
