~V
VERS. 2.00: Ver 2.00
~W
STRT.M 52.0000:
STOP.M 286.0000:
STEP.M 0.1250:
NULL. -999.2500:
UWI. F11061:
~C
DEPT.M :
GR.API :
RML.OHMM :
RI. :
RXO.OHMM :
CALI.CM :
DEN.GM/CC :
SP.MV :
~A
# ...
  108.2500    54.2880     9.3070     8.4050    16.9990    22.5850     2.1770   -21.1290 
  108.3750    55.9610     9.0450     8.1850    12.0580    22.3800     2.1880   -21.2120 
  108.5000    56.8510     8.8450     7.9780     9.1730    22.1890     2.2050   -21.2640 
  108.6250    57.6020     8.7710     7.8490     8.2750    22.1000     2.2200   -21.2910 
  108.7500    58.4880     8.8230     7.8180     8.1040    22.1160     2.2300   -21.2850 
  108.8750    59.4060     8.9680     7.8720     8.0340    22.1800     2.2340   -21.2420 
  109.0000    59.5760     9.1500     7.9800     7.9040    22.2440     2.2320   -21.1740 
  109.1250    58.8880     9.3170     8.1020     7.7210    22.2940     2.2290   -21.0980 
  109.2500    59.1430     9.4440     8.2110     7.5320    22.3510     2.2260   -21.0270 
  109.3750    60.5770     9.5140     8.2900     7.4210    22.4270     2.2230   -20.9730 
  109.5000    61.2910     9.5070     8.3220     7.4440    22.5440     2.2200   -20.9100 
  109.6250    60.5480     9.4260     8.3030     7.5780    22.6910     2.2170   -20.8300 
  109.7500    59.1670     9.2850     8.2390     7.7690    22.8450     2.2150   -20.7530 
  109.8750    58.1520     9.1050     8.1420     7.9990    22.9760     2.2120   -20.6820 
  110.0000    58.9980     8.9200     8.0280     8.2010    23.0550     2.2090   -20.6140 
  110.1250    60.8600     8.7610     7.9190     8.3170    23.0910     2.2080   -20.5500 
  110.2500    61.0060     8.6510     7.8320     8.3590    23.1030     2.2080   -20.4720 
  110.3750    59.8000     8.5990     7.7790     8.3470    23.1050     2.2080   -20.3720 
  110.5000    60.6680     8.6020     7.7660     8.3010    23.1050     2.2080   -20.2690 
  110.6250    63.8390     8.6250     7.7680     8.3360    23.1030     2.2070   -20.1670 
  110.7500    66.7230     8.6120     7.7460     8.3940    23.0970     2.2060   -20.0400 
  110.8750    66.7060     8.5010     7.6500     8.3970    23.0880     2.2080   -19.8830 
  111.0000    63.7350     8.2180     7.4180     8.2880    23.0690     2.2140   -19.6920 
  111.1250    60.7580     7.7800     7.0540     8.0770    23.0540     2.2260   -19.4670 
  111.2500    61.2910     7.2600     6.6110     7.7840    23.0770     2.2450   -19.2360 
  111.3750    66.5080     6.7820     6.1810     7.3910    23.1600     2.2670   -19.0300 
  111.5000    72.8060     6.5150     5.8980     7.0350    23.2720     2.2850   -18.8570 
  111.6250    75.3230     6.5300     5.8290     6.7640    23.3730     2.2940   -18.7360 
  111.7500    71.7180     6.8150     5.9820     6.7990    23.4060     2.2910   -18.7050 
  111.8750    63.5520     7.2750     6.3080     7.2750    23.3600     2.2800   -18.7770 
  112.0000    57.5310     7.7350     6.6950     8.2460    23.3100     2.2660   -18.9440 
  112.1250    56.5150     8.0360     7.0080     9.0890    23.3070     2.2550   -19.1870 
  112.2500    58.4190     8.1130     7.1660     9.5330    23.3180     2.2490   -19.4970 
  112.3750    61.0750     8.0120     7.1690     9.1300    23.3100     2.2460   -19.8480 
  112.5000    63.9350     7.8700     7.0940     8.5800    23.2430     2.2470   -20.2180 
  112.6250    64.5800     7.8200     7.0490     8.1710    23.1000     2.2480   -20.5700 
  112.7500    61.8300     7.9080     7.0940     8.0490    22.9110     2.2490   -20.8730 
  112.8750    58.5410     8.0970     7.2260     8.2920    22.7900     2.2480   -21.1120 
  113.0000    57.2810     8.3040     7.4000     8.4980    22.7840     2.2440   -21.2720 
  113.1250    55.2770     8.4510     7.5520     8.5210    22.8360     2.2370   -21.3590 
  113.2500    52.5430     8.5130     7.6470     8.4370    22.8970     2.2270   -21.3620 
  113.3750    53.0340     8.5070     7.6840     8.3390    22.9350     2.2160   -21.2710 
  113.5000    56.4910     8.4770     7.6890     8.3200    22.9270     2.2080   -21.0830 
  113.6250    58.5110     8.4650     7.6980     8.3460    22.8850     2.2040   -20.8150 
  113.7500    58.7960     8.4740     7.7210     8.3260    22.8320     2.2040   -20.4810 
  113.8750    58.6560     8.4660     7.7320     8.2370    22.7820     2.2090   -20.0840 
  114.0000    58.0570     8.3510     7.6620     8.1930    22.7150     2.2200   -19.6530 
  114.1250    57.4530     8.0680     7.4520     8.1690    22.6300     2.2350   -19.2300 
  114.2500    58.0550     7.5980     7.0740     8.1100    22.5520     2.2520   -18.8350 
  114.3750    61.3920     6.9870     6.5560     7.9410    22.4990     2.2720   -18.4800 
  114.5000    66.7060     6.3620     5.9910     7.4120    22.4620     2.2900   -18.1950 
  114.6250    70.2710     5.8760     5.5140     6.7110    22.4590     2.3030   -18.0050 
  114.7500    69.8970     5.6410     5.2260     6.1600    22.4820     2.3070   -17.9130 
  114.8750    67.7520     5.7040     5.1830     5.9930    22.4950     2.3000   -17.9150 
  115.0000    67.3590     6.0590     5.4000     6.1810    22.4240     2.2810   -18.0210 
  115.1250    66.7560     6.5540     5.7760     6.6260    22.2780     2.2580   -18.2020 
  115.2500    63.6420     7.0250     6.1850     7.2440    22.1350     2.2370   -18.4430 
  115.3750    61.3670     7.3340     6.5060     7.7660    22.0730     2.2240   -18.7260 
  115.5000    62.6870     7.3920     6.6420     7.9300    22.1020     2.2240   -19.0180 
  115.6250    64.6390     7.2960     6.6310     7.7710    22.1730     2.2350   -19.3010 
  115.7500    64.8220     7.2030     6.5760     7.3370    22.2600     2.2480   -19.5750 
  115.8750    63.5180     7.2540     6.5900     6.8820    22.3220     2.2590   -19.8380 
  116.0000    62.6300     7.5430     6.7620     7.0370    22.3470     2.2590   -20.0680 
  116.1250    63.0480     7.9930     7.0640     7.4650    22.3480     2.2500   -20.2470 
  116.2500    64.5570     8.4710     7.4140     7.7510    22.3260     2.2380   -20.3610 
  116.3750    66.7140     8.8380     7.7070     7.8900    22.2620     2.2250   -20.4200 
  116.5000    67.1780     8.9600     7.8290     8.0510    22.1710     2.2200   -20.4600 
  116.6250    66.1190     8.8600     7.7780     8.1390    22.1010     2.2200   -20.5010 
  116.7500    64.7480     8.6410     7.6190     8.1490    22.0670     2.2230   -20.5290 
  116.8750    65.0890     8.4470     7.4570     8.0830    22.0480     2.2300   -20.5400 
  117.0000    67.9440     8.4590     7.4340     7.9470    22.0130     2.2350   -20.5690 
  117.1250    69.9820     8.7580     7.6260     7.8310    21.9420     2.2350   -20.6420 
  117.2500    68.2020     9.3420     8.0510     7.7700    21.8380     2.2280   -20.7590 
  117.3750    63.0600    10.1120     8.6540     7.7890    21.7410     2.2120   -20.9130 
  117.5000    59.1100    10.8470     9.2880     7.8940    21.6960     2.1930   -21.0920 
  117.6250    58.5410    11.3050     9.7570     7.8400    21.6560     2.1750   -21.2530 
  117.7500    59.9270    11.3280     9.9090     7.7080    21.6170     2.1630   -21.3920 
  117.8750    61.0950    10.9020     9.6960     7.6400    21.5950     2.1590   -21.5210 
  118.0000    60.3070    10.1640     9.1840     7.6420    21.6250     2.1650   -21.6140 
  118.1250    58.6410     9.3930     8.5840     7.5870    21.6850     2.1740   -21.6590 
  118.2500    58.4890     8.7800     8.0600     7.4530    21.7460     2.1820   -21.6650 
  118.3750    60.5740     8.4010     7.6920     7.2410    21.7860     2.1890   -21.6500 
  118.5000    62.5000     8.2600     7.5090     7.1540    21.8190     2.1920   -21.6080 
  118.6250    62.2050     8.2600     7.4540     7.3980    21.8610     2.1940   -21.5410 
  118.7500    60.9030     8.3240     7.4680     7.6090    21.9090     2.1960   -21.4560 
  118.8750    60.1880     8.3960     7.5070     7.7230    21.9360     2.1980   -21.3460 
  119.0000    60.2660     8.4300     7.5330     7.7750    21.8990     2.2030   -21.1910 
  119.1250    61.7650     8.4090     7.5290     7.8080    21.8010     2.2080   -20.9850 
  119.2500    64.0900     8.3270     7.4880     7.8660    21.6820     2.2110   -20.7320 
  119.3750    64.7260     8.1910     7.4160     7.9530    21.6150     2.2110   -20.4300 
