~V
VERS. 2.00: Ver 2.00
~W
STRT.M 57.0000:
STOP.M 280.0000:
STEP.M 0.1250:
NULL. -999.2500:
UWI. F11041:
~C
DEPT.M :
SP.MV :
GR.API :
RML.OHMM :
RI. :
RXO.OHMM :
CALI.CM :
DEN.GM/CC :
~A
# ...
  124.5000    -2.0790    82.6570     6.8550     5.9290     6.9940    24.0110     2.4070 
  124.6250    -2.4440    78.0280     9.0770     7.0300     7.9070    24.1980     2.4210 
  124.7500    -2.8120    70.6380    12.8080     8.6860    10.6390    24.3200     2.4560 
  124.8750    -3.2030    65.6930    16.3640    10.5230    15.1740    24.2120     2.4930 
  125.0000    -3.6370    65.9080    17.7280    11.8030    15.9650    23.8700     2.5020 
  125.1250    -4.0980    67.7120    16.7380    11.7090    11.8770    23.6290     2.4530 
  125.2500    -4.5290    67.0410    14.5420    10.7050     9.0880    23.6980     2.3730 
  125.3750    -4.8950    65.5370    12.2660     9.4110     8.1310    23.8670     2.3000 
  125.5000    -5.1830    65.1750    10.5640     8.2530     7.7790    23.9350     2.2550 
  125.6250    -5.4000    65.6540     9.6840     7.4570     7.5570    23.9610     2.2390 
  125.7500    -5.5950    65.4720     9.3370     6.9730     7.4210    23.9780     2.2310 
  125.8750    -5.7540    64.5220     9.3240     6.7390     7.3730    23.9510     2.2260 
  126.0000    -5.8800    63.5880     9.4700     6.6800     7.4740    23.8910     2.2200 
  126.1250    -5.9720    64.3520     9.6390     6.7280     7.6070    23.8550     2.2200 
  126.2500    -6.0330    67.1140     9.7460     6.8010     7.7250    23.8230     2.2240 
  126.3750    -6.0810    69.5940     9.7750     6.8710     7.7970    23.7900     2.2330 
  126.5000    -6.1250    68.3960     9.7680     6.9430     7.8730    23.7550     2.2420 
  126.6250    -6.1670    65.3720     9.8300     7.0570     7.9490    23.7100     2.2480 
  126.7500    -6.1930    65.3810    10.0110     7.2320     7.9480    23.6810     2.2510 
  126.8750    -6.2150    67.4870    10.2750     7.4620     7.8700    23.6850     2.2530 
  127.0000    -6.2310    68.2370    10.5070     7.7140     7.8300    23.7240     2.2540 
  127.1250    -6.2300    65.7680    10.5540     7.9190     7.8750    23.7780     2.2460 
  127.2500    -6.2310    63.1550    10.4070     8.0320     7.9000    23.7750     2.2290 
  127.3750    -6.2380    63.0220    10.1310     8.0410     7.8750    23.7470     2.2110 
  127.5000    -6.2380    64.7020     9.8350     7.9670     7.8490    23.6850     2.2000 
  127.6250    -6.2260    63.8180     9.6250     7.8500     7.7220    23.6080     2.1960 
  127.7500    -6.1930    59.9620     9.5050     7.7420     7.6110    23.5590     2.1940 
  127.8750    -6.1370    59.2550     9.4350     7.6650     7.5410    23.5350     2.1940 
  128.0000    -6.0630    64.1340     9.3690     7.6190     7.4760    23.5020     2.1980 
  128.1250    -5.9780    68.8290     9.2870     7.5840     7.4200    23.4550     2.2090 
  128.2500    -5.8930    69.2090     9.2330     7.5550     7.3660    23.4370     2.2320 
  128.3750    -5.8120    67.0310     9.3010     7.5680     7.3140    23.4850     2.2740 
  128.5000    -5.7410    64.4420     9.5870     7.6870     7.2140    23.5510     2.3330 
  128.6250    -5.6910    62.4700    10.1340     7.9880     7.2990    23.6450     2.3950 
  128.7500    -5.6620    62.0820    10.7750     8.4170     7.5240    23.7410     2.4570 
  128.8750    -5.6430    63.8630    11.3020     8.8640     8.0250    23.7810     2.5140 
  129.0000    -5.6260    66.5870    11.4980     9.1550     8.7050    23.7420     2.5380 
  129.1250    -5.6200    68.6910    11.1910     9.0710     9.0140    23.7520     2.4780 
  129.2500    -5.6270    69.6230    10.5760     8.6770     8.4060    23.8450     2.3690 
  129.3750    -5.6330    68.7740     9.8860     8.1420     7.8580    23.8300     2.2720 
  129.5000    -5.6460    67.0610     9.3400     7.6630     7.6030    23.6970     2.2180 
  129.6250    -5.6420    66.8370     9.1160     7.4140     7.5110    23.5810     2.2040 
  129.7500    -5.6250    68.9020     9.1640     7.3820     7.5290    23.5420     2.2080 
  129.8750    -5.6040    70.7050     9.3740     7.4970     7.7100    23.5360     2.2180 
  130.0000    -5.5740    68.8690     9.5900     7.6510     7.9460    23.5250     2.2280 
  130.1250    -5.5330    65.3660     9.6490     7.7270     7.8610    23.4990     2.2330 
  130.2500    -5.4860    64.6310     9.5410     7.6990     7.6330    23.4740     2.2350 
  130.3750    -5.4390    65.9970     9.3290     7.5870     7.6050    23.4850     2.2350 
  130.5000    -5.3740    65.4300     9.1020     7.4410     7.8320    23.5160     2.2330 
  130.6250    -5.2780    64.3020     8.9550     7.3350     7.8570    23.5190     2.2290 
  130.7500    -5.1700    66.0760     8.9430     7.3190     7.7410    23.5140     2.2270 
  130.8750    -5.0630    69.8580     9.0950     7.4070     7.6830    23.5190     2.2250 
  131.0000    -4.9610    72.2900     9.4030     7.5820     7.8350    23.5180     2.2210 
  131.1250    -4.8680    72.3170     9.8030     7.8050     8.1620    23.4950     2.2180 
  131.2500    -4.7720    72.4530    10.1360     8.0160     8.5480    23.4930     2.2210 
  131.3750    -4.6630    73.7770    10.2780     8.1660     8.3970    23.5120     2.2310 
  131.5000    -4.5530    75.4080    10.1830     8.2150     7.8820    23.5190     2.2430 
  131.6250    -4.4590    73.8530     9.8940     8.1250     7.5520    23.4990     2.2540 
  131.7500    -4.3590    69.9880     9.5530     7.9290     7.6180    23.4780     2.2640 
  131.8750    -4.2770    68.1260     9.2260     7.6660     7.9280    23.4270     2.2730 
  132.0000    -4.2250    70.1950     8.9370     7.3920     8.2150    23.3800     2.2820 
  132.1250    -4.1750    73.4490     8.7040     7.1710     8.3460    23.3730     2.2900 
  132.2500    -4.1130    75.3690     8.5580     7.0370     8.1500    23.4070     2.2970 
  132.3750    -4.0600    75.3120     8.5450     7.0130     7.8770    23.4740     2.3010 
  132.5000    -4.0190    72.7980     8.6840     7.1070     7.6510    23.5350     2.2980 
  132.6250    -3.9950    70.3810     8.9310     7.3000     7.7430    23.6000     2.2830 
  132.7500    -4.0110    70.9700     9.1590     7.5090     7.8870    23.5930     2.2650 
  132.8750    -4.0310    73.5910     9.2920     7.6720     8.1390    23.5500     2.2500 
  133.0000    -4.0390    74.4520     9.2990     7.7490     8.2560    23.5200     2.2390 
  133.1250    -4.0390    71.0430     9.2030     7.7420     7.9430    23.4850     2.2300 
  133.2500    -4.0430    66.2820     9.0990     7.7160     7.3750    23.4230     2.2260 
  133.3750    -4.0190    62.5200     9.0480     7.7140     7.3750    23.3700     2.2270 
  133.5000    -3.9610    62.3770     9.0680     7.7510     7.9830    23.3830     2.2300 
  133.6250    -3.8700    65.6480     9.1290     7.8070     8.5190    23.3750     2.2340 
  133.7500    -3.7420    67.7820     9.1670     7.8380     8.7070    23.3370     2.2390 
  133.8750    -3.5820    68.5720     9.1360     7.8150     8.7900    23.3040     2.2430 
  134.0000    -3.3830    70.1870     9.0320     7.7220     8.6640    23.3150     2.2460 
  134.1250    -3.1510    72.9810     8.9000     7.5710     8.0510    23.3060     2.2470 
  134.2500    -2.9130    75.2980     8.8110     7.4100     7.5480    23.2590     2.2470 
  134.3750    -2.6940    75.8550     8.7730     7.2700     7.3370    23.2090     2.2490 
  134.5000    -2.5230    74.3850     8.7410     7.1570     7.0030    23.2250     2.2530 
  134.6250    -2.3830    70.5470     8.6740     7.0810     6.8240    23.2580     2.2570 
  134.7500    -2.2340    66.4070     8.6710     7.0960     6.9690    23.3140     2.2660 
  134.8750    -2.0670    65.3880     8.9490     7.3270     7.3310    23.4200     2.2820 
  135.0000    -1.8780    67.1460     9.8010     7.9510     7.9080    23.5780     2.3140 
  135.1250    -1.6540    67.7840    11.6760     9.3060     8.7670    23.7480     2.3720 
  135.2500    -1.3810    64.8090    14.5250    11.4600    10.6710    23.9780     2.4540 
  135.3750    -1.0760    60.6670    18.0570    14.3550    14.2690    24.2420     2.5420 
  135.5000    -0.7380    59.4790    21.4760    17.5190    17.2520    24.4300     2.6100 
  135.6250    -0.4150    60.8080    23.2720    19.7100    18.7680    24.4550     2.6350 
