~V
VERS. 2.00: Ver 2.00
~W
STRT.M 50.0000:
STOP.M 281.0000:
STEP.M 0.1250:
NULL. -999.2500:
UWI. F11064:
~C
DEPT.M :
SP.MV :
GR.API :
RML.OHMM :
RI. :
RXO.OHMM :
CALI.CM :
DEN.GM/CC :
~A
   50.0000    16.1820  -999.2500  -999.2500  -999.2500  -999.2500  -999.2500  -999.2500 
   50.1250    15.7490  -999.2500  -999.2500  -999.2500  -999.2500  -999.2500  -999.2500 
   50.2500    15.1850  -999.2500  -999.2500  -999.2500  -999.2500  -999.2500  -999.2500 
   50.3750    14.5160  -999.2500  -999.2500  -999.2500  -999.2500  -999.2500  -999.2500 
   50.5000    13.7730  -999.2500  -999.2500  -999.2500  -999.2500  -999.2500  -999.2500 
   50.6250    13.0280  -999.2500  -999.2500  -999.2500  -999.2500  -999.2500  -999.2500 
   50.7500    12.3530  -999.2500  -999.2500  -999.2500  -999.2500  -999.2500  -999.2500 
   50.8750    11.8420  -999.2500  -999.2500  -999.2500  -999.2500  -999.2500  -999.2500 
   51.0000    11.5850  -999.2500  -999.2500  -999.2500  -999.2500  -999.2500  -999.2500 
   51.1250    11.6890  -999.2500  -999.2500  -999.2500  -999.2500  -999.2500  -999.2500 
   51.2500    12.1380  -999.2500  -999.2500  -999.2500  -999.2500  -999.2500  -999.2500 
   51.3750    12.9450  -999.2500  -999.2500  -999.2500  -999.2500  -999.2500  -999.2500 
   51.5000    14.1080  -999.2500  -999.2500  -999.2500  -999.2500  -999.2500  -999.2500 
   51.6250    15.6430  -999.2500  -999.2500  -999.2500  -999.2500  -999.2500  -999.2500 
   51.7500    17.4350  -999.2500  -999.2500  -999.2500  -999.2500  -999.2500  -999.2500 
   51.8750    19.4470  -999.2500  -999.2500  -999.2500  -999.2500  -999.2500  -999.2500 
   52.0000    21.6850    34.1990     2.8970   943.8940     0.7980    24.5260  -999.2500 
   52.1250    24.1420    34.1990     2.8970   943.8940     0.7980    24.5260  -999.2500 
   52.2500    26.6880    34.1990     2.8970   943.8940     0.7980    24.5260  -999.2500 
   52.3750    29.1830    34.1990     2.8970   943.8940     0.7980    24.5260  -999.2500 
   52.5000    31.4890    34.1990     2.8970   943.8940     0.7980    24.5260  -999.2500 
   52.6250    33.3710    34.1990     2.8970   943.8940     0.7980    24.5260  -999.2500 
   52.7500    34.7680    35.0140     2.0160   473.3240     0.7540    24.6200  -999.2500 
   52.8750    35.6930    37.6260     0.9880     1.3800     0.6490    24.8700  -999.2500 
   53.0000    36.1980    39.8340     0.8020     0.8400     0.5620    25.1640  -999.2500 
   53.1250    36.3260    39.0780     0.7390     0.7650     0.5980    25.3880  -999.2500 
   53.2500    36.1740    35.8930     0.7340     0.7340     0.5750    25.5340  -999.2500 
   53.3750    35.7980    32.8230     0.7450     0.6920     0.5250    25.6090  -999.2500 
   53.5000    35.3090    32.5120     0.7500     0.6610     0.5130    25.6410     2.2010 
   53.6250    34.9170    34.4800     0.7560     0.6700     0.5170    25.6620     2.2010 
   53.7500    34.7150    35.8450     0.7360     0.6910     0.5190    25.6830     2.2010 
   53.8750    34.6320    35.8450     0.6540     0.7010     0.5250    25.7000     2.1940 
   54.0000    34.5670    34.6710     0.6110     0.6950     0.5340    25.7000     2.1920 
   54.1250    34.4450    33.4510     0.5670     0.6840     0.5460    25.6920     2.1720 
   54.2500    34.3180    32.5550     0.5620     0.6730     0.5680    25.6690     2.1540 
   54.3750    34.1760    33.1550     0.5680     0.6580     0.6250    25.6540     2.1480 
   54.5000    33.9950    36.2630     0.5860     0.6510     0.6930    25.6490     2.1520 
   54.6250    33.7440    39.1950     0.6090     0.6400     0.7110    25.6510     2.1600 
   54.7500    33.4500    38.8890     0.6370     0.6350     0.6940    25.6540     2.1700 
   54.8750    33.1520    36.2330     0.6840     0.6470     0.5320    25.6530     2.1840 
   55.0000    32.8990    34.2280     0.7140     0.6740     0.4250    25.6300     2.1980 
   55.1250    32.7840    35.0280     0.7390     0.8290     0.4050    25.6380     2.2050 
   55.2500    32.7840    36.5530     0.7540     0.8980     0.4010    25.6630     2.2020 
   55.3750    32.8810    37.3080     0.7690     0.9590     0.4080    25.6700     2.1930 
   55.5000    33.0420    37.2030     0.7830     0.9740     0.4180    25.6600     2.1860 
   55.6250    33.2700    36.8220     0.7930     0.9840     0.4340    25.6510     2.1900 
   55.7500    33.5740    37.1310     0.8120     0.9790     0.4780    25.6420     2.1980 
   55.8750    33.9560    37.1880     0.8180     0.9700     0.5130    25.6300     2.2000 
   56.0000    34.3510    36.3460     0.8050     0.9510     0.5480    25.6330     2.1950 
   56.1250    34.6460    35.4340     0.7780     0.9280     0.6410    25.6550     2.1880 
   56.2500    34.8130    36.3570     0.7400     0.9010     0.7620    25.6560     2.1840 
   56.3750    34.8470    38.3350     0.7590     0.8570     0.8350    25.6510     2.1850 
   56.5000    34.7130    39.9360     0.7520     0.7580     0.8560    25.6500     2.1920 
   56.6250    34.2280    40.0050     0.6620     0.7360     0.7960    25.6530     2.2060 
   56.7500    33.3960    39.2560     0.5960     0.7150     0.7290    25.6650     2.2230 
   56.8750    32.2610    37.7120     0.5720     0.6970     0.6610    25.6920     2.2340 
   57.0000    30.9070    36.0620     0.5510     0.6740     0.5900    25.7100     2.2300 
   57.1250    29.4260    35.7350     0.5280     0.6200     0.5350    25.7070     2.2140 
   57.2500    27.9720    35.7210     0.4970     0.5090     0.4550    25.6940     2.2020 
   57.3750    26.6740    35.7280     0.4400     0.3740     0.3530    25.6770     2.1970 
   57.5000    25.6300    36.1520     0.4070     0.3230     0.2980    25.6590     2.1990 
   57.6250    25.0220    38.3200     0.3920     0.2940     0.2850    25.6520     2.2020 
   57.7500    24.8100    41.3030     0.4470     0.2840     0.2810    25.6520     2.2020 
   57.8750    24.9240    43.6170     0.4790     0.2800     0.2820    25.6620     2.1980 
   58.0000    25.2840    44.0190     0.4920     0.2890     0.2920    25.6830     2.1910 
   58.1250    25.8530    43.0150     0.4900     0.3180     0.3310    25.7120     2.1870 
   58.2500    26.5670    43.4390     0.4750     0.3290     0.3650    25.7160     2.1940 
   58.3750    27.4420    46.8300     0.4370     0.3540     0.4030    25.6920     2.2200 
   58.5000    28.4850    50.0940     0.4180     0.3680     0.4900    25.6770     2.2620 
   58.6250    29.6960    49.6900     0.4500     0.3700     0.4640    25.6900     2.3070 
   58.7500    31.0040    47.6100     0.4610     0.3480     0.3780    25.7080     2.3420 
   58.8750    32.3990    45.9880     0.4540     0.3030     0.3230    25.6800     2.3650 
   59.0000    33.8950    45.0580     0.4180     0.2830     0.3010    25.6070     2.3760 
   59.1250    35.4870    44.2390     0.3790     0.2830     0.2960    25.5520     2.3700 
   59.2500    37.0490    44.4170     0.3390     0.3020     0.2940    25.5590     2.3570 
   59.3750    38.4320    44.9190     0.3100     0.3560     0.2940    25.5740     2.3470 
   59.5000    39.5680    43.4910     0.2920     0.4250     0.2970    25.5730     2.3440 
   59.6250    40.3760    40.1700     0.2860     0.4410     0.3330    25.5540     2.3360 
   59.7500    40.8930    38.3240     0.2880     0.4420     0.3580    25.4950     2.3220 
   59.8750    41.1180    38.7670     0.2950     0.4330     0.3620    25.3760     2.3130 
   60.0000    41.0470    38.1250     0.3280     0.3930     0.2880    25.2440     2.3190 
   60.1250    40.6130    36.3980     0.3660     0.3520     0.2720    25.2350     2.3360 
   60.2500    39.8610    39.6150     0.3790     0.3160     0.2700    25.0930     2.3530 
   60.3750    38.8580    46.1220     0.3850     0.2960     0.2980    24.5380     2.3580 
   60.5000    37.7050    48.1080     0.3870     0.2860     0.3100    23.7820     2.3460 
   60.6250    36.4630    42.7790     0.3830     0.2840     0.2900    23.2940     2.3230 
   60.7500    35.1790    38.5770     0.3560     0.2840     0.2800    23.1540     2.3040 
   60.8750    33.8540    39.5160     0.3230     0.3040     0.2660    23.1410     2.2910 
   61.0000    32.4640    43.3100     0.2930     0.2910     0.2490    23.1370     2.2820 
   61.1250    30.9700    46.2480     0.2700     0.2810     0.2370    23.1520     2.2790 
