~V
VERS. 2.00: Ver 2.00
~W
STRT.M 60.0000:
STOP.M 279.0000:
STEP.M 0.1250:
NULL. -999.2500:
UWI. F11060:
~C
DEPT.M :
GR.API :
RML.OHMM :
RI. :
RXO.OHMM :
CALI.CM :
DEN.GM/CC :
SP.MV :
~A
# ...
   82.5000    92.3770     6.7050     4.9140     5.4310    24.1410     2.2920     1.6140 
   82.6250    92.2810     6.8600     4.9550     5.4600    24.4400     2.2870     1.6960 
   82.7500    92.2250     6.9880     5.0420     5.6250    24.4640     2.2820     1.6040 
   82.8750    92.3630     7.0620     5.1290     5.6610    24.4180     2.2790     1.3420 
   83.0000    90.7970     7.1300     5.2210     5.5560    24.3930     2.2770     0.9590 
   83.1250    87.8730     7.2660     5.3610     5.5050    24.3660     2.2670     0.5310 
   83.2500    84.8710     7.4690     5.5600     5.7260    24.2880     2.2520     0.0600 
   83.3750    80.9680     7.6820     5.7890     6.3640    24.1800     2.2380    -0.5110 
   83.5000    77.5810     7.8110     5.9860     7.0120    24.1530     2.2270    -1.1680 
   83.6250    79.3000     7.7880     6.0650     7.2380    24.2060     2.2140    -1.7290 
   83.7500    83.0920     7.6900     6.0310     7.0790    24.2280     2.2030    -2.1890 
   83.8750    84.9610     7.6270     5.9340     6.7910    24.2780     2.1940    -2.6670 
   84.0000    83.8750     7.6860     5.8460     6.5600    24.3050     2.1880    -3.1970 
   84.1250    82.1700     7.9030     5.8360     6.6260    24.3010     2.1850    -3.6800 
   84.2500    79.7080     8.1920     5.9050     6.9450    24.2980     2.1810    -4.0830 
   84.3750    75.9690     8.4620     6.0190     7.2550    24.3110     2.1750    -4.4500 
   84.5000    72.0400     8.6380     6.1280     7.4320    24.2970     2.1670    -4.7440 
   84.6250    71.8070     8.6440     6.1730     7.4090    24.2290     2.1650    -4.9730 
   84.7500    75.8350     8.4850     6.1470     7.3770    24.1390     2.1700    -5.1780 
   84.8750    80.7190     8.1880     6.0670     7.3000    23.9760     2.1790    -5.3470 
   85.0000    83.4250     7.8300     5.9620     7.1030    23.7950     2.1880    -5.5030 
   85.1250    82.4140     7.5280     5.8660     6.9960    23.7020     2.1910    -5.6820 
   85.2500    78.6170     7.3610     5.8090     7.0400    23.6580     2.1880    -5.8520 
   85.3750    74.7580     7.3620     5.8140     7.1710    23.6640     2.1810    -6.0410 
   85.5000    73.4760     7.5490     5.8990     7.2570    23.7360     2.1750    -6.3660 
   85.6250    75.6360     7.9540     6.0810     7.5950    23.8890     2.1720    -6.8610 
   85.7500    75.7140     8.5090     6.3240     8.0530    24.0400     2.1680    -7.3960 
   85.8750    71.6960     9.1450     6.5860     8.3370    24.1470     2.1600    -7.9170 
   86.0000    65.6190     9.7460     6.8240     8.8750    24.1890     2.1450    -8.4560 
   86.1250    61.6910    10.1480     6.9880     9.1090    24.1840     2.1330    -9.0430 
   86.2500    62.3890    10.3130     7.0630     9.1720    24.1310     2.1330    -9.5650 
   86.3750    64.9620    10.2730     7.0500     9.1950    23.9970     2.1410    -9.9280 
   86.5000    65.7500    10.1010     6.9660     9.2970    23.8330     2.1460   -10.1430 
   86.6250    66.9330     9.8700     6.8330     8.9060    23.7340     2.1440   -10.2780 
   86.7500    70.9630     9.6640     6.6940     8.4800    23.6600     2.1400   -10.3250 
   86.8750    76.4250     9.5350     6.5780     8.2890    23.4590     2.1370   -10.2840 
   87.0000    78.4370     9.5090     6.5080     8.2310    23.0470     2.1340   -10.1830 
   87.1250    75.5290     9.5910     6.5050     8.0580    22.5290     2.1290   -10.0790 
   87.2500    70.8260     9.7150     6.5510     8.1520    22.3840     2.1230   -10.0220 
   87.3750    66.4400     9.8140     6.6170     8.3350    22.6300     2.1160    -9.9880 
   87.5000    64.8170     9.8440     6.6660     8.5790    23.1070     2.1090    -9.9410 
   87.6250    65.2650     9.7880     6.6720     8.8520    23.4090     2.1040    -9.9250 
   87.7500    64.7000     9.6930     6.6460     8.8990    23.4420     2.1030    -9.9610 
   87.8750    64.7730     9.6050     6.6140     9.0340    23.3680     2.1090    -9.9730 
   88.0000    66.1270     9.5760     6.6070     9.3400    23.4320     2.1200    -9.8890 
   88.1250    66.5430     9.6770     6.6630     9.5020    23.6290     2.1300    -9.7320 
   88.2500    64.3470     9.9140     6.7940     9.4940    23.8190     2.1350    -9.5730 
   88.3750    60.8740    10.2550     6.9910     9.3370    23.9190     2.1380    -9.3760 
   88.5000    59.0080    10.5720     7.1880     9.2000    23.9670     2.1420    -9.0860 
   88.6250    60.0160    10.5880     7.2140     9.0550    23.9230     2.1510    -8.6970 
   88.7500    61.7740    10.1700     6.9650     9.3220    23.8260     2.1670    -8.2870 
   88.8750    64.5590     9.3720     6.4550     9.7260    23.7810     2.1880    -7.8450 
   89.0000    70.2180     8.4320     5.8250     9.2860    23.8110     2.2080    -7.3790 
   89.1250    78.9830     7.7060     5.2950     7.2830    23.8390     2.2250    -6.9110 
   89.2500    81.3300     7.3700     4.9910     5.9980    23.7950     2.2320    -6.5410 
   89.3750    75.1540     7.4450     4.9450     6.4190    23.6550     2.2220    -6.3770 
   89.5000    67.8450     7.8340     5.1260     7.3230    23.5290     2.1980    -6.3620 
   89.6250    65.1870     8.3670     5.4850     7.7790    23.4970     2.1770    -6.3140 
   89.7500    64.3720     8.8320     5.8880     7.9350    23.4940     2.1680    -6.2720 
   89.8750    64.5130     9.1350     6.2420     8.0700    23.4440     2.1650    -6.3120 
   90.0000    67.0760     9.2990     6.5030     8.1520    23.4070     2.1620    -6.3470 
   90.1250    67.8050     9.4330     6.6890     8.2190    23.3840     2.1600    -6.2440 
   90.2500    65.7610     9.6030     6.8470     8.2580    23.3440     2.1630    -5.9940 
   90.3750    63.8940     9.7420     6.9590     8.3420    23.2900     2.1710    -5.5750 
   90.5000    64.3220     9.7170     6.9560     8.3740    23.2810     2.1810    -5.0130 
   90.6250    66.8010     9.3590     6.7230     8.2030    23.3080     2.1870    -4.3330 
   90.7500    70.5990     8.7160     6.2770     7.6570    23.2310     2.1930    -3.5890 
   90.8750    76.4020     7.8950     5.6850     6.7440    23.0000     2.2070    -2.8260 
   91.0000    84.4210     7.0600     5.0610     5.5480    22.5990     2.2380    -2.1220 
   91.1250    92.7100     6.4070     4.5440     4.9390    22.3310     2.2720    -1.5440 
   91.2500    97.3310     6.0060     4.1900     4.6740    22.1860     2.2940    -1.0550 
   91.3750    97.0720     5.8660     4.0150     4.6610    22.1080     2.3010    -0.7080 
   91.5000    93.1460     5.9470     4.0030     5.0060    22.0570     2.2990    -0.6230 
   91.6250    88.1800     6.1990     4.1350     5.6090    22.0040     2.2860    -0.9150 
   91.7500    84.0030     6.5290     4.3540     5.8630    22.0170     2.2660    -1.3510 
   91.8750    81.4720     6.9130     4.6420     5.8230    22.1370     2.2440    -1.9240 
   92.0000    80.5250     7.3630     4.9970     5.8920    22.4250     2.2230    -2.7010 
   92.1250    79.6370     7.8970     5.4240     6.9550    22.9150     2.2050    -3.6060 
   92.2500    78.6630     8.4650     5.8800     8.6230    23.2490     2.1920    -4.4970 
   92.3750    75.9540     8.9950     6.3190     9.2360    23.3370     2.1780    -5.3040 
   92.5000    71.9100     9.4090     6.6820     8.8830    23.3230     2.1550    -5.9930 
   92.6250    69.7850     9.6300     6.9010     8.6070    23.3670     2.1260    -6.5770 
   92.7500    70.4460     9.7310     7.0060     8.5570    23.5530     2.1060    -7.0900 
   92.8750    71.4270     9.8030     7.0480     8.4820    23.8210     2.0980    -7.4620 
   93.0000    70.7490     9.9130     7.0710     8.5010    24.1630     2.0960    -7.7050 
   93.1250    68.2710    10.0460     7.0850     8.5990    24.4980     2.0940    -7.8490 
   93.2500    65.7780    10.1000     7.0580     8.7010    24.5620     2.0940    -7.9260 
   93.3750    65.2770     9.9800     6.9500     8.7390    24.2590     2.1000    -7.9340 
   93.5000    68.3900     9.6630     6.7450     8.3320    23.9130     2.1100    -7.8420 
   93.6250    74.9090     9.2770     6.4970     7.8130    23.7730     2.1240    -7.6990 
