~V
VERS. 2.00: Ver 2.00
~W
STRT.M 50.0000:
STOP.M 283.0000:
STEP.M 0.1250:
NULL. -999.2500:
UWI. F11058:
~C
DEPT.M :
DEN.GM/CC :
GR.API :
RML.OHMM :
RI. :
RXO.OHMM :
CALI.CM :
SP.MV :
~A
# ...
   83.7500     2.3400   105.3010     5.4690     5.1400     6.1640    25.1400    -2.0980 
   83.8750     2.3390   100.1380     5.2020     4.7960     5.9330    25.1310    -2.0480 
   84.0000     2.3450    99.7050     5.2350     4.6160     5.8020    25.1280    -1.9610 
   84.1250     2.3670   100.3980     5.9430     4.8570     5.9300    25.1280    -1.9150 
   84.2500     2.4090    96.9180     7.4960     5.6870     6.5020    25.1120    -1.9640 
   84.3750     2.4740    89.7060    10.0150     7.3570     9.0170    25.0620    -2.0950 
   84.5000     2.5530    81.3450    13.3110    10.0730    16.1730    24.9840    -2.2780 
   84.6250     2.6270    75.1920    16.4240    13.6350    35.3480    24.9210    -2.4740 
   84.7500     2.6730    72.6060    17.9690    16.3810    47.4010    24.8640    -2.6290 
   84.8750     2.6750    74.1230    17.2180    16.6300    44.5000    24.8290    -2.8900 
   85.0000     2.6280    78.9420    14.5990    14.4170    28.8850    24.8200    -3.2980 
   85.1250     2.5410    85.8880    11.5200    11.4550    13.9890    24.8680    -3.6680 
   85.2500     2.4430    92.4890     9.2770     9.1570     8.6540    24.9330    -4.1250 
   85.3750     2.3580    94.1270     8.1760     7.7560     7.7550    24.9570    -4.7690 
   85.5000     2.2960    91.1000     8.0560     7.1550     9.2060    24.8630    -5.5440 
   85.6250     2.2620    86.9980     8.6490     7.2770    13.8690    24.5940    -6.5320 
   85.7500     2.2420    82.3990     9.4650     7.8110    20.1490    24.1970    -7.7320 
   85.8750     2.2280    77.4270    10.1970     8.5140    19.3690    23.8110    -8.9630 
   86.0000     2.2150    73.3500    10.6410     9.1280    13.2340    23.5280   -10.1880 
   86.1250     2.1990    72.3060    10.7040     9.4450    10.7060    23.3560   -11.4260 
   86.2500     2.1790    73.6910    10.5610     9.5280    10.1130    23.2550   -12.5260 
   86.3750     2.1550    75.5450    10.3580     9.4770     9.9760    23.2020   -13.4980 
   86.5000     2.1350    74.3090    10.1930     9.3860     9.6930    23.1700   -14.3390 
   86.6250     2.1240    70.0030    10.1130     9.3080     9.5930    23.1570   -14.9510 
   86.7500     2.1280    67.7970    10.1010     9.2540     9.7470    23.1320   -15.4040 
   86.8750     2.1430    69.8660    10.1470     9.2350     9.9730    23.1110   -15.7110 
   87.0000     2.1650    72.6250    10.2400     9.2580    10.0930    23.1120   -15.8400 
   87.1250     2.1840    71.3420    10.3650     9.3240    10.1150    23.1240   -15.9210 
   87.2500     2.1960    68.0380    10.4780     9.3990    10.1450    23.1300   -16.0540 
   87.3750     2.1990    66.6210    10.5420     9.4490    10.2480    23.1230   -16.1870 
   87.5000     2.1940    68.6550    10.5260     9.4430    10.3430    23.1040   -16.3220 
   87.6250     2.1840    71.1070    10.4080     9.3530    10.3170    23.0830   -16.4960 
   87.7500     2.1720    71.5600    10.2310     9.2080    10.0140    23.0740   -16.7100 
   87.8750     2.1610    70.8920    10.0360     9.0420     9.9750    23.0710   -16.9920 
   88.0000     2.1520    69.5700     9.8670     8.8880    10.0480    23.0690   -17.3170 
   88.1250     2.1490    70.2420     9.7570     8.7800    10.0720    23.0820   -17.6360 
   88.2500     2.1510    73.9150     9.6940     8.7110     9.9740    23.1180   -17.9000 
   88.3750     2.1570    77.2830     9.6510     8.6680     9.9840    23.1760   -18.0040 
   88.5000     2.1630    76.7310     9.6030     8.6290    10.1860    23.2270   -18.0740 
   88.6250     2.1680    73.8410     9.5310     8.5750    10.2960    23.2470   -18.2500 
   88.7500     2.1720    72.1670     9.4500     8.5110    10.2590    23.2430   -18.4100 
   88.8750     2.1780    70.8830     9.3790     8.4500    10.0750    23.2170   -18.5930 
   89.0000     2.1890    69.0150     9.3400     8.4070     9.8460    23.1720   -18.9290 
   89.1250     2.1980    66.8000     9.3440     8.3940     9.6960    23.1180   -19.3280 
   89.2500     2.2000    65.1150     9.3730     8.3970     9.7690    23.1110   -19.8410 
   89.3750     2.1890    63.5500     9.4050     8.3970    10.1510    23.2060   -20.5190 
   89.5000     2.1650    63.3180     9.4150     8.3750    10.5640    23.4380   -21.2540 
   89.6250     2.1410    64.1030     9.3770     8.3110    10.6910    23.8210   -21.9730 
   89.7500     2.1300    63.4210     9.2880     8.2120    10.8460    24.1920   -22.6520 
   89.8750     2.1350    61.1710     9.1460     8.0830    10.9160    24.4240   -23.2670 
   90.0000     2.1490    59.1580     8.9650     7.9220    10.9260    24.4840   -23.7930 
   90.1250     2.1510    60.7350     8.8350     7.7580    10.9300    24.4800   -24.2520 
   90.2500     2.1340    63.9720     8.9170     7.7030    10.9730    24.4990   -24.6630 
   90.3750     2.1120    64.6530     9.3890     7.9200    10.9560    24.4000   -24.9860 
   90.5000     2.1160    61.9500    10.3620     8.5540    10.8090    24.1290   -25.1660 
   90.6250     2.1750    59.0090    11.8100     9.7380    12.0090    23.9850   -25.1800 
   90.7500     2.2610    58.8920    13.2660    11.2220    17.0370    24.0710   -25.0840 
   90.8750     2.3300    59.4050    14.2010    12.5450    31.7280    24.1430   -24.8690 
   91.0000     2.3460    58.4350    14.1980    13.0780    41.1320    23.9690   -24.5870 
   91.1250     2.2960    58.9410    13.1340    12.3970    26.4770    23.7000   -24.2680 
   91.2500     2.2260    62.3190    11.6940    11.1650    15.2360    23.4650   -23.8820 
   91.3750     2.1710    66.0850    10.4340     9.9540    12.5910    23.3900   -23.5320 
   91.5000     2.1470    66.0020     9.6750     9.0980    12.2710    23.4520   -23.2930 
   91.6250     2.1550    62.6920     9.4860     8.7430    12.4990    23.6250   -23.0880 
   91.7500     2.1750    61.4020     9.5480     8.6910    12.5260    23.8470   -22.9750 
   91.8750     2.1960    62.4980     9.6290     8.7420    12.9640    24.0380   -22.9540 
   92.0000     2.2060    62.4220     9.5940     8.7360    13.6090    24.0910   -22.8650 
   92.1250     2.2010    58.9600     9.4340     8.6220    12.8620    23.9970   -22.8100 
   92.2500     2.1880    56.0150     9.2710     8.4850    11.6760    23.8240   -22.8010 
   92.3750     2.1740    56.0600     9.1920     8.3930    11.5880    23.6520   -22.7510 
   92.5000     2.1650    59.1230     9.2290     8.3880    12.0060    23.5520   -22.6880 
   92.6250     2.1600    62.5380     9.3690     8.4830    12.1080    23.6080   -22.6520 
   92.7500     2.1530    64.6930     9.5360     8.6260    11.7580    23.7960   -22.5790 
   92.8750     2.1420    64.8430     9.6850     8.7670    11.7040    24.0510   -22.5050 
   93.0000     2.1320    63.6430     9.7900     8.8710    12.0530    24.3080   -22.4260 
   93.1250     2.1280    62.6530     9.8440     8.9230    12.4290    24.4640   -22.1880 
   93.2500     2.1320    63.1940     9.8610     8.9350    12.1980    24.4510   -21.8000 
   93.3750     2.1410    65.7950     9.8420     8.9120    11.5920    24.3600   -21.2750 
   93.5000     2.1530    69.8460     9.7950     8.8550    11.4640    24.3020   -20.6860 
   93.6250     2.1660    72.3170     9.7310     8.7650    11.6500    24.2810   -20.0750 
   93.7500     2.1810    71.2490     9.6740     8.6630    11.5470    24.2520   -19.4600 
   93.8750     2.1960    68.7620     9.6380     8.5700    11.4100    24.2080   -18.8630 
   94.0000     2.2120    69.9160     9.6260     8.5000    11.4200    24.1100   -18.3730 
   94.1250     2.2260    74.6760     9.6230     8.4590    11.2620    23.9550   -18.1840 
   94.2500     2.2350    77.5210     9.6040     8.4260    10.8360    23.8300   -18.2760 
   94.3750     2.2380    77.4570     9.5480     8.3790    10.4800    23.8090   -18.6010 
   94.5000     2.2330    75.4610     9.4460     8.3000    10.3270    23.8210   -19.0630 
   94.6250     2.2220    72.3410     9.3070     8.1810    10.2220    23.7990   -19.6720 
   94.7500     2.2090    68.4200     9.1700     8.0500    10.1250    23.7300   -20.3750 
   94.8750     2.1990    64.9650     9.0740     7.9430    10.0840    23.6310   -21.1290 
