~V
VERS. 2.00: Ver 2.00
~W
STRT.M 51.0000:
STOP.M 252.0000:
STEP.M 0.1250:
NULL. -999.2500:
UWI. F11020:
~C
DEPT.M :
DEN.GM/CC :
GR.API :
RML.OHMM :
RI. :
RXO.OHMM :
CALI.CM :
SP.MV :
~A
# ...
  208.5000     2.3350    78.5270     8.6690     7.7800     8.2930    23.9330   -21.9370 
  208.6250     2.3300    77.3870     8.9820     8.0780     9.1920    24.0240   -21.9400 
  208.7500     2.3340    75.4690     9.4510     8.5250     9.5730    24.2330   -21.9340 
  208.8750     2.3400    74.4670    10.1900     9.2290     9.8250    24.4690   -21.9500 
  209.0000     2.3410    73.8850    11.2870    10.2740    10.5020    24.6880   -21.9660 
  209.1250     2.3360    72.6250    12.7350    11.6530    12.3950    24.7780   -21.9900 
  209.2500     2.3350    72.1000    14.3170    13.1590    14.9200    24.6720   -21.9830 
  209.3750     2.3380    71.7420    15.5220    14.3070    17.2590    24.5680   -21.9700 
  209.5000     2.3380    70.4660    15.8630    14.6310    17.6410    24.6270   -21.9470 
  209.6250     2.3360    69.5170    15.1790    13.9800    15.7920    24.8000   -21.9160 
  209.7500     2.3440    70.8400    13.8200    12.6860    12.5050    24.9580   -21.9310 
  209.8750     2.3620    73.3160    12.4930    11.4220    10.0960    25.0170   -21.9380 
  210.0000     2.3770    75.6530    11.5540    10.5280     8.8510    24.9780   -21.9640 
  210.1250     2.3770    77.3940    11.1430    10.1360     8.4700    24.9070   -22.0040 
  210.2500     2.3660    78.0950    11.2680    10.2560     9.1330    24.8950   -22.1000 
  210.3750     2.3600    77.1270    11.7000    10.6670    10.1610    24.9370   -22.2150 
  210.5000     2.3570    75.4410    12.2050    11.1480    10.8180    25.0060   -22.3660 
  210.6250     2.3510    74.4110    12.5290    11.4560    10.8380    25.0740   -22.5470 
  210.7500     2.3380    74.3810    12.4600    11.3900    10.6090    25.1200   -22.7370 
  210.8750     2.3250    74.3090    12.0260    10.9780    10.1720    25.1520   -22.9480 
  211.0000     2.3200    73.8360    11.3890    10.3700     9.3670    25.1610   -23.1780 
  211.1250     2.3290    73.4910    10.8650     9.8710     8.8560    25.1580   -23.4320 
  211.2500     2.3460    74.1750    10.9010     9.9060     9.0500    25.1550   -23.7140 
  211.3750     2.3590    73.6630    11.8990    10.8560     9.5240    25.1480   -24.0170 
  211.5000     2.3640    70.3320    14.4590    13.2950    12.3940    25.1360   -24.3410 
  211.6250     2.3600    65.2130    19.8750    18.1700    22.2430    25.1220   -24.6730 
  211.7500     2.3530    61.1460    31.1350    26.7930    43.8130    25.0820   -25.0290 
  211.8750     2.3590    59.1720    48.0750    38.8480    60.3250    24.9350   -25.4010 
  212.0000     2.3790    58.0810    63.0110    52.2990    66.8060    24.7310   -25.7730 
  212.1250     2.3900    56.3870    73.8350    63.0840    70.9680    24.5910   -26.1270 
  212.2500     2.3700    53.8730    77.4310    67.9710    70.6270    24.4020   -26.4210 
  212.3750     2.3290    52.8320    77.2040    69.0200    70.9470    24.1610   -26.6960 
  212.5000     2.2840    54.9470    76.4450    68.8260    69.9170    24.0550   -26.9190 
  212.6250     2.2540    58.2340    76.6290    68.8710    66.0060    24.2230   -27.1230 
  212.7500     2.2450    59.7400    77.8150    69.4980    63.8520    24.5990   -27.2660 
  212.8750     2.2420    60.3430    79.3730    70.4440    65.5240    24.9910   -27.3820 
  213.0000     2.2380    60.8630    80.8250    71.4540    72.9420    25.3090   -27.4670 
  213.1250     2.2300    61.0450    81.7860    72.2990    74.6520    25.4720   -27.5400 
  213.2500     2.2220    61.1430    82.1150    72.8750    68.3150    25.5090   -27.6050 
  213.3750     2.2150    60.9730    82.0090    73.2550    65.5450    25.5070   -27.6690 
  213.5000     2.2100    60.8690    81.4850    73.3890    69.4540    25.4870   -27.7410 
  213.6250     2.2090    60.5560    80.5120    73.1700    73.7130    25.4440   -27.8100 
  213.7500     2.2150    60.3130    79.2500    72.6380    70.6090    25.3920   -27.8870 
  213.8750     2.2240    59.4700    78.1690    72.1410    70.3030    25.3310   -27.9730 
  214.0000     2.2320    57.9200    77.8240    72.1250    68.8060    25.2880   -28.0630 
  214.1250     2.2340    56.5100    78.9580    73.2730    65.4920    25.2870   -28.1420 
  214.2500     2.2300    55.6770    82.1780    76.2460    68.7250    25.2950   -28.2270 
  214.3750     2.2220    55.6080    86.7800    80.5380    82.1300    25.3000   -28.2990 
  214.5000     2.2110    56.6610    91.6120    85.1650    90.2960    25.2970   -28.3520 
  214.6250     2.1960    59.0850    95.3810    88.9610    98.2110    25.2550   -28.3750 
  214.7500     2.1910    62.5510    97.2920    91.1470   104.3950    25.0580   -28.3920 
  214.8750     2.2040    65.6610    98.1270    92.2940    97.8510    24.7210   -28.3680 
  215.0000     2.2190    65.6530    99.1540    93.5020    82.6840    24.4790   -28.3440 
  215.1250     2.2170    61.6520   101.6320    96.0100    80.5450    24.5380   -28.3110 
  215.2500     2.2000    57.1050   106.3220   100.6180   102.2770    24.7630   -28.2870 
  215.3750     2.1860    55.9660   112.6800   106.7980   136.7370    24.9560   -28.2350 
  215.5000     2.1840    57.1620   119.8130   113.6690   158.4760    25.0540   -28.1780 
  215.6250     2.1860    57.7300   126.5640   120.1910   138.5900    25.0810   -28.1310 
  215.7500     2.1870    56.9070   132.1600   125.7940   121.0620    25.0810   -28.0820 
  215.8750     2.1870    55.4790   136.5740   130.5840   118.5070    25.0680   -28.0840 
  216.0000     2.1950    54.8570   138.9010   133.8580   119.9870    24.9760   -28.1030 
  216.1250     2.2160    55.8400   136.8250   133.5630   120.1630    24.6740   -28.1570 
  216.2500     2.2360    58.7370   127.8140   127.0900   121.7020    24.1740   -28.2030 
  216.3750     2.2420    62.3450   113.7220   115.3020   121.6430    23.8040   -28.2670 
  216.5000     2.2450    65.7250    98.1020   100.8980   107.2250    23.8110   -28.3410 
  216.6250     2.2510    67.7560    84.5000    87.3350    78.1790    24.0970   -28.4190 
  216.7500     2.2570    67.3880    74.9220    77.1300    61.5600    24.4410   -28.4770 
  216.8750     2.2560    65.7350    68.8290    70.2990    55.5770    24.5560   -28.5080 
  217.0000     2.2550    64.4100    65.6410    66.4310    49.7520    24.3070   -28.5110 
  217.1250     2.2590    63.9540    64.8580    65.0780    43.8870    23.9010   -28.4770 
  217.2500     2.2660    64.0700    66.2650    65.9800    41.6990    23.6460   -28.4070 
  217.3750     2.2680    63.7580    69.6010    68.7380    44.1000    23.5600   -28.3270 
  217.5000     2.2640    62.4360    75.2570    73.6120    51.3830    23.5770   -28.2210 
  217.6250     2.2530    60.4050    83.9630    81.2030    64.8230    23.7320   -28.0910 
  217.7500     2.2390    58.3510    96.7040    92.3460    85.6480    23.9310   -27.9120 
  217.8750     2.2260    56.6420   113.1960   106.6900   114.1470    24.0330   -27.6950 
  218.0000     2.2180    55.6070   132.7200   123.3900   144.3390    24.0780   -27.4430 
  218.1250     2.2120    55.0470   153.2330   140.4480   167.8550    24.1530   -27.1500 
  218.2500     2.2090    55.0400   171.1400   154.8050   184.9810    24.2890   -26.8510 
  218.3750     2.2100    55.5070   183.0490   164.0910   195.6040    24.4100   -26.5270 
  218.5000     2.2150    55.7000   186.2490   166.5500   191.9510    24.5210   -26.1890 
  218.6250     2.2170    55.0740   178.7450   160.7860   178.0120    24.6830   -25.8170 
  218.7500     2.2140    53.7510   160.5870   146.3960   171.8650    24.9060   -25.4730 
  218.8750     2.2080    53.3790   137.8870   127.3790   166.7670    25.0300   -25.1130 
  219.0000     2.2130    54.1890   116.1110   107.9100   140.7280    25.0010   -24.7600 
  219.1250     2.2230    54.8830    98.8800    91.5990    89.4190    24.8970   -24.4060 
  219.2500     2.2160    54.2560    87.3480    80.2970    63.2300    24.8940   -24.0610 
  219.3750     2.1760    52.8750    79.6160    72.7470    63.4410    25.0210   -23.7080 
  219.5000     2.1310    52.7060    74.2000    67.6110    82.8630    25.1610   -23.3490 
  219.6250     2.1160    54.6170    70.0500    63.8640    95.3710    25.1720   -22.9870 
