~V
VERS. 2.00: Ver 2.00
~W
STRT.M 62.0000:
STOP.M 272.0000:
STEP.M 0.1250:
NULL. -999.2500:
UWI. F11076:
~C
DEPT.M :
GR.API :
RML.OHMM :
RI. :
RXO.OHMM :
CALI.CM :
DEN.GM/CC :
SP.MV :
~A
# ...
  140.7500    69.1110    13.7090    11.8140    12.1360    24.1740     2.1760   -20.7820 
  140.8750    67.8590    13.6200    11.7650    12.0880    24.1640     2.1840   -20.7550 
  141.0000    67.0870    13.5170    11.7020    11.9910    24.1470     2.1980   -20.6920 
  141.1250    66.4780    13.4310    11.6370    11.9400    24.1520     2.2150   -20.6150 
  141.2500    66.3180    13.3830    11.5880    12.0300    24.2140     2.2240   -20.5170 
  141.3750    65.2620    13.3900    11.5710    12.1760    24.4520     2.2170   -20.4040 
  141.5000    63.8820    13.4590    11.6030    12.2430    25.0240     2.1940   -20.2920 
  141.6250    65.5350    13.6020    11.7160    12.0980    25.7200     2.1690   -20.1570 
  141.7500    69.1220    13.7930    11.9010    11.4620    26.0610     2.1610   -19.9710 
  141.8750    72.0410    13.9990    12.1300    10.8670    25.8890     2.1740   -19.7480 
  142.0000    74.0810    14.1750    12.3490    11.9780    25.5120     2.2030   -19.5270 
  142.1250    75.2300    14.2610    12.4890    13.3840    25.3300     2.2340   -19.3220 
  142.2500    74.6480    14.2570    12.5320    14.1820    25.2850     2.2550   -19.1480 
  142.3750    74.0880    14.1840    12.4940    13.3520    25.2850     2.2620   -19.0290 
  142.5000    76.0870    14.0780    12.4170    11.9130    25.3080     2.2570   -18.9660 
  142.6250    77.3360    13.9720    12.3440    12.3220    25.3680     2.2390   -18.9510 
  142.7500    72.7330    13.8800    12.2930    12.7960    25.4270     2.2140   -18.9780 
  142.8750    66.4360    13.8040    12.2620    12.9730    25.4340     2.1890   -19.0430 
  143.0000    65.3370    13.7540    12.2460    13.1320    25.4070     2.1750   -19.0830 
  143.1250    68.8340    13.7590    12.2500    12.9910    25.3400     2.1810   -19.0260 
  143.2500    70.4380    13.8320    12.2920    13.0140    25.2230     2.2030   -18.9290 
  143.3750    69.3740    13.9640    12.3810    12.7680    25.0880     2.2340   -18.8090 
  143.5000    68.3680    14.1190    12.5050    12.6130    24.9980     2.2610   -18.6950 
  143.6250    67.9610    14.2220    12.6160    12.6960    24.9780     2.2710   -18.5870 
  143.7500    68.2350    14.2220    12.6540    12.9410    24.9920     2.2650   -18.5410 
  143.8750    68.3800    14.1040    12.5870    12.7260    24.9970     2.2480   -18.5180 
  144.0000    67.1670    13.8930    12.4190    12.2400    24.9760     2.2260   -18.5350 
  144.1250    64.9510    13.6360    12.1830    11.8970    24.9560     2.2090   -18.6350 
  144.2500    63.8540    13.3920    11.9370    11.7210    24.9430     2.1980   -18.7380 
  144.3750    64.9400    13.1870    11.7140    11.6550    24.9440     2.1940   -18.8230 
  144.5000    67.9150    13.0390    11.5400    11.6400    24.9510     2.1930   -18.8430 
  144.6250    71.9740    12.9700    11.4470    11.4960    24.9570     2.1940   -18.8640 
  144.7500    72.2610    12.9790    11.4330    11.4960    24.9770     2.1950   -18.8580 
  144.8750    67.7030    13.0650    11.4960    11.9340    25.0230     2.1970   -18.8610 
  145.0000    63.5340    13.2060    11.6230    12.1640    25.0770     2.2010   -18.8610 
  145.1250    65.0600    13.3360    11.7770    12.5220    25.1160     2.2080   -18.8540 
  145.2500    67.5010    13.3600    11.8780    12.5130    25.1430     2.2130   -18.8030 
  145.3750    67.4440    13.1930    11.8240    12.3840    25.1690     2.2160   -18.6780 
  145.5000    66.2830    12.8020    11.5320    12.2860    25.2180     2.2200   -18.4540 
  145.6250    67.0820    12.2290    10.9910    12.1450    25.2920     2.2290   -18.1320 
  145.7500    71.0310    11.6560    10.3820    11.0400    25.3180     2.2460   -17.7550 
  145.8750    76.1490    11.2320     9.8650     9.4500    25.2840     2.2630   -17.4140 
  146.0000    78.8350    11.0570     9.5630     8.9460    25.2480     2.2690   -17.1850 
  146.1250    75.0610    11.1730     9.5610     9.8410    25.3170     2.2540   -17.0830 
  146.2500    69.3150    11.4420     9.7550    10.8820    25.4640     2.2290   -17.0890 
  146.3750    65.9940    11.7410    10.0380    11.2860    25.5820     2.2060   -17.1690 
  146.5000    65.3310    11.9690    10.3010    11.1840    25.5980     2.1950   -17.3700 
  146.6250    65.3490    12.0590    10.4570    10.6680    25.5630     2.2000   -17.6160 
  146.7500    65.9650    12.0430    10.5070    10.2820    25.5350     2.2120   -17.9000 
  146.8750    68.9780    11.9440    10.4700    10.4760    25.4850     2.2200   -18.0860 
  147.0000    73.0010    11.7740    10.3570    11.2260    25.3580     2.2190   -18.1220 
  147.1250    74.8230    11.5250    10.1400    11.4500    25.1490     2.2080   -17.9970 
  147.2500    76.2080    11.2420     9.8490    10.3570    24.9400     2.1960   -17.8290 
  147.3750    78.7030    10.9880     9.5500     9.2210    24.7960     2.1880   -17.7070 
  147.5000    80.2930    10.8230     9.3150     8.6940    24.7310     2.1860   -17.6220 
  147.6250    77.8690    10.7800     9.1940     8.7990    24.7380     2.1900   -17.6450 
  147.7500    74.4940    10.7950     9.1470     9.2000    24.7550     2.1950   -17.7120 
  147.8750    72.1680    10.8070     9.1260     9.5870    24.7710     2.2010   -17.8150 
  148.0000    70.9690    10.7840     9.0900     9.6370    24.7980     2.2070   -17.9490 
  148.1250    71.9010    10.7500     9.0370     9.1340    24.8450     2.2120   -18.1590 
  148.2500    73.4160    10.7690     9.0190     8.6040    24.8800     2.2120   -18.3900 
  148.3750    74.6470    10.8830     9.0800     8.7110    24.8810     2.2080   -18.6260 
  148.5000    76.3870    11.0960     9.2360     9.2890    24.8520     2.2020   -18.8430 
  148.6250    77.6590    11.3680     9.4710     9.6320    24.8360     2.1980   -19.0030 
  148.7500    77.2000    11.6240     9.7170     9.9560    24.8240     2.1990   -19.0930 
  148.8750    74.7890    11.8150     9.9200    10.0670    24.8140     2.2050   -19.1910 
  149.0000    72.2110    11.9190    10.0430    10.1720    24.8210     2.2100   -19.2740 
  149.1250    71.2190    11.9400    10.0770    10.2410    24.8280     2.2120   -19.2770 
  149.2500    71.0320    11.9230    10.0720    10.1110    24.8330     2.2100   -19.2070 
  149.3750    72.2340    11.8970    10.0590     9.8350    24.8360     2.2050   -19.0620 
  149.5000    73.4640    11.8800    10.0630     9.8110    24.8350     2.2000   -18.8680 
  149.6250    73.9000    11.8780    10.1030     9.9320    24.8060     2.1990   -18.6190 
  149.7500    75.9920    11.8880    10.1730    10.0300    24.7240     2.1990   -18.4180 
  149.8750    80.1290    11.9110    10.2700     9.9910    24.5660     2.2000   -18.2340 
  150.0000    82.6840    11.9600    10.3890     9.8070    24.3440     2.1960   -18.1030 
  150.1250    78.5220    12.0730    10.5390     9.8330    24.0960     2.1890   -18.0460 
  150.2500    71.6470    12.2710    10.7360     9.8530    23.9700     2.1800   -18.0880 
  150.3750    67.3600    12.5500    10.9990     9.8860    23.9640     2.1720   -18.1890 
  150.5000    66.7260    12.8410    11.3140     9.9420    24.0440     2.1630   -18.3440 
  150.6250    66.3680    12.9450    11.5490    10.1610    24.1980     2.1520   -18.4480 
  150.7500    65.3670    12.6840    11.5030    10.3220    24.4770     2.1460   -18.4330 
  150.8750    65.8360    11.9550    11.0190    10.3300    24.8330     2.1540   -18.2090 
  151.0000    69.7700    10.8150    10.0860     9.8660    25.0530     2.1800   -17.7520 
  151.1250    77.4700     9.5220     8.8890     8.5680    25.1660     2.2180   -17.0940 
  151.2500    85.3110     8.4840     7.8210     7.1330    25.3740     2.2500   -16.3220 
  151.3750    91.8300     7.9810     7.1540     6.6210    25.5660     2.2700   -15.4940 
  151.5000    94.5700     8.1490     7.0410     6.7240    25.5710     2.2890   -14.6690 
  151.6250    89.9970     9.0130     7.6120     7.2510    25.4990     2.3300   -13.9650 
  151.7500    82.6610    10.1740     8.6540     9.7810    25.4150     2.3950   -13.4430 
  151.8750    78.8430    11.2340     9.8700    15.6560    25.2990     2.4640   -13.1790 
