~V
VERS. 2.00: Ver 2.00
~W
STRT.M 62.0000:
STOP.M 236.0000:
STEP.M 0.1250:
NULL. -999.2500:
UWI. F11006:
~C
DEPT.M :
GR.API :
RML.OHMM :
RI. :
RXO.OHMM :
CALI.CM :
SP.MV :
DEN.GM/CC :
~A
# ...
  197.0000    73.9740    35.9190    34.5180    44.7750    24.4040   -12.5300     2.2250 
  197.1250    72.4680    35.7660    34.3510    42.2080    24.4310   -12.6660     2.2250 
  197.2500    70.4800    35.7150    34.3140    41.3810    24.4480   -12.9430     2.2310 
  197.3750    70.1430    35.6280    34.2500    39.5810    24.4490   -13.3360     2.2400 
  197.5000    71.9040    35.4720    34.0980    41.2000    24.4390   -13.6540     2.2470 
  197.6250    73.7880    35.2650    33.8520    44.1180    24.4260   -13.8480     2.2460 
  197.7500    74.4920    35.0220    33.5150    38.5930    24.4370   -13.9680     2.2430 
  197.8750    73.3100    34.7660    33.0820    36.9140    24.4540   -14.1590     2.2540 
  198.0000    72.9090    34.6100    32.6500    36.2500    24.4050   -14.4330     2.2830 
  198.1250    74.5630    34.8310    32.4390    36.4170    24.3260   -14.7700     2.3220 
  198.2500    75.3820    35.9150    32.8540    36.7230    24.2710   -15.0840     2.3520 
  198.3750    74.8530    38.9300    34.8510    35.4320    24.3030   -15.3190     2.3550 
  198.5000    74.0500    44.5130    39.1860    36.2980    24.3500   -15.5960     2.3340 
  198.6250    74.3240    53.3740    46.7430    45.3120    24.3680   -15.9600     2.3030 
  198.7500    74.3470    65.6800    57.8890    68.6130    24.3540   -16.3970     2.2760 
  198.8750    72.9150    79.9990    71.5460   119.5800    24.3470   -16.8090     2.2620 
  199.0000    71.7960    91.7450    83.5420   160.5420    24.4220   -17.1980     2.2550 
  199.1250    71.4750    96.5440    89.8250   173.1140    24.5510   -17.5590     2.2500 
  199.2500    72.6150    92.5750    88.2250   166.5720    24.6900   -17.8910     2.2440 
  199.3750    75.5610    81.6790    79.3580   128.5250    24.7690   -18.1820     2.2390 
  199.5000    79.0740    69.9240    68.4700    81.5970    24.7560   -18.4480     2.2410 
  199.6250    82.1700    60.4040    58.7690    53.7560    24.5690   -18.6800     2.2500 
  199.7500    85.9610    54.0610    51.7390    50.6370    24.3620   -18.8450     2.2590 
  199.8750    90.4010    50.9150    47.8410    51.2460    24.2860   -18.9220     2.2600 
  200.0000    92.3340    49.7600    46.0320    47.3680    24.3380   -18.8840     2.2500 
  200.1250    92.2900    50.0550    45.7900    48.7330    24.3630   -18.7730     2.2380 
  200.2500    93.2950    51.4050    46.7050    50.6140    24.3670   -18.6470     2.2380 
  200.3750    95.2970    53.6510    48.6070    54.2270    24.2640   -18.5430     2.2560 
  200.5000    92.8710    56.5320    51.2090    54.2310    24.1150   -18.4100     2.2750 
  200.6250    87.5230    60.0230    54.4910    54.5320    23.9470   -18.1900     2.2790 
  200.7500    84.6960    64.1370    58.4580    62.5500    23.7850   -17.9030     2.2650 
  200.8750    84.4900    68.8650    63.1360    73.2450    23.7970   -17.6090     2.2570 
  201.0000    83.4830    73.4470    67.9200    85.3740    23.9510   -17.3780     2.2840 
  201.1250    82.3370    76.1750    71.4200   103.8680    24.0560   -17.2050     2.3520 
  201.2500    84.1400    74.4520    71.2580   103.6430    24.0340   -17.0250     2.4450 
  201.3750    88.2570    65.3010    64.1570    87.1730    24.0010   -16.7750     2.5280 
  201.5000    89.5350    51.2360    51.6930    71.4780    24.0150   -16.4840     2.5800 
  201.6250    86.9690    36.0690    37.1790    64.9080    24.0320   -16.1970     2.5950 
  201.7500    83.2770    23.3900    24.3390    40.1890    23.9410   -15.9230     2.5740 
  201.8750    81.1000    15.4120    15.8410    18.7430    23.9960   -15.6270     2.5220 
  202.0000    78.9380    10.7010    10.7250     8.5280    24.1480   -15.2570     2.4590 
  202.1250    75.9970     7.9770     7.8890     5.9220    24.3250   -14.7660     2.4010 
  202.2500    72.7280     6.3930     6.4180     5.4250    24.4850   -14.2310     2.3610 
  202.3750    70.2550     5.7210     5.8140     5.3800    24.5620   -13.7390     2.3450 
  202.5000    68.6790     5.5770     5.6060     5.4210    24.6940   -13.3240     2.3350 
  202.6250    67.4380     5.6420     5.5990     5.3690    24.9990   -12.9620     2.3180 
  202.7500    66.3280     5.6980     5.6610     5.4130    25.5180   -12.6160     2.2870 
  202.8750    65.6080     5.7090     5.7080     5.3960    25.9260   -12.3450     2.2510 
  203.0000    65.6220     5.6770     5.7090     5.3510    25.8470   -12.1960     2.2300 
  203.1250    66.6300     5.6140     5.6610     5.3400    25.1570   -12.2010     2.2350 
  203.2500    68.9310     5.5430     5.5740     5.3960    24.5940   -12.2890     2.2610 
  203.3750    73.9690     5.4990     5.4780     5.3040    24.6410   -12.4370     2.2880 
  203.5000    80.5620     5.5110     5.4120     5.1460    24.7010   -12.6480     2.3040 
  203.6250    87.2130     5.6050     5.4100     5.0770    24.3640   -12.9220     2.3100 
  203.7500    92.7400     5.7900     5.4900     5.3390    24.0410   -13.2440     2.3200 
  203.8750    99.2080     6.0640     5.6640     5.9210    24.2200   -13.4910     2.3420 
  204.0000   107.2970     6.3670     5.8910     6.4240    24.4850   -13.5870     2.3700 
  204.1250   111.9240     6.6410     6.1200     6.3070    24.5530   -13.5580     2.3920 
  204.2500   110.3750     6.8260     6.2910     6.1380    24.4430   -13.4690     2.4040 
  204.3750   108.6470     6.8490     6.3220     6.4500    24.3070   -13.2630     2.4080 
  204.5000   112.1540     6.7210     6.2070     6.7200    24.2140   -12.8820     2.4130 
  204.6250   116.0450     6.4700     5.9640     6.4750    24.1720   -12.3370     2.4190 
  204.7500   114.4830     6.1510     5.6410     5.8810    24.1890   -11.7130     2.4230 
  204.8750   109.0430     5.8430     5.3050     5.1810    24.1080   -11.1210     2.4180 
  205.0000   107.4380     5.6070     5.0210     4.8250    24.1100   -10.6260     2.4070 
  205.1250   110.4590     5.4650     4.8190     4.8220    24.1370   -10.1650     2.3960 
  205.2500   112.5670     5.4080     4.7040     5.0040    24.0540    -9.7000     2.3910 
  205.3750   108.8770     5.4110     4.6680     5.1280    24.0320    -9.3460     2.3960 
  205.5000   104.6510     5.4390     4.6760     5.1420    24.0030    -9.1230     2.4050 
  205.6250   102.9770     5.4910     4.7210     5.2770    23.9790    -9.0210     2.4120 
  205.7500   102.6110     5.5790     4.8090     5.5450    23.9570    -8.9820     2.4170 
  205.8750   102.4000     5.7150     4.9560     5.7060    24.0050    -8.9490     2.4270 
  206.0000   104.7760     5.8700     5.1350     5.9580    24.0340    -8.9150     2.4470 
  206.1250   108.3030     5.9940     5.3010     6.3090    24.0340    -8.9060     2.4780 
  206.2500   109.5760     6.0360     5.3970     6.5670    24.0250    -8.8740     2.5080 
  206.3750   107.7100     5.9460     5.3550     5.9480    24.0240    -8.7340     2.5200 
  206.5000   106.5440     5.7630     5.2000     5.2580    24.0820    -8.5440     2.5100 
  206.6250   109.4050     5.5400     4.9740     4.9190    24.1170    -8.3480     2.4820 
  206.7500   113.9910     5.3330     4.7400     4.8370    24.0500    -8.1810     2.4480 
  206.8750   115.1570     5.1950     4.5530     4.8410    23.9930    -8.0180     2.4170 
  207.0000   110.1590     5.1200     4.4240     4.7930    23.9880    -7.8320     2.3960 
  207.1250   103.3110     5.0880     4.3390     4.6540    24.0150    -7.6460     2.3820 
  207.2500    99.0330     5.0760     4.2770     4.5880    24.0230    -7.5660     2.3760 
  207.3750    98.4310     5.0790     4.2320     4.7030    24.0010    -7.6330     2.3740 
  207.5000    99.5860     5.1250     4.2200     4.8330    23.9410    -7.7520     2.3760 
  207.6250    99.7960     5.2640     4.2760     4.9580    23.8330    -7.8660     2.3790 
  207.7500    99.0410     5.5500     4.4450     5.1280    23.7020    -7.9510     2.3860 
  207.8750    98.3500     6.0500     4.7920     5.5190    23.6310    -8.0260     2.3980 
  208.0000    98.1710     6.7230     5.3030     6.4100    23.6550    -8.0720     2.4140 
  208.1250    96.2420     7.5070     5.9480     7.9830    23.7770    -8.0900     2.4320 
