~V
VERS. 2.00: Ver 2.00
~W
STRT.M 55.0000:
STOP.M 286.0000:
STEP.M 0.1250:
NULL. -999.2500:
UWI. F11067:
~C
DEPT.M :
GR.API :
RML.OHMM :
RI. :
RXO.OHMM :
CALI.CM :
DEN.GM/CC :
SP.MV :
~A
# ...
  201.2500    58.6130   121.3200   116.8660    71.3760    25.6890     2.2410    -4.3570 
  201.3750    56.9970   120.0590   116.1790    66.6500    25.7170     2.2380    -4.4130 
  201.5000    57.6100   118.8640   115.6910    58.7190    25.7340     2.2340    -4.4730 
  201.6250    59.3660   117.9630   115.5520    57.6320    25.7260     2.2330    -4.5790 
  201.7500    60.2460   117.5180   115.9430    63.2110    25.6860     2.2370    -4.6760 
  201.8750    60.3210   117.8600   117.2840    73.8240    25.6160     2.2420    -4.7940 
  202.0000    60.9760   119.4680   120.1800    85.6970    25.5520     2.2450    -4.9340 
  202.1250    63.4580   123.1040   125.3010   101.6210    25.5290     2.2390    -5.0910 
  202.2500    64.9790   128.4290   131.7220   119.9890    25.5280     2.2300    -5.2520 
  202.3750    62.4190   134.6540   138.0830   129.1220    25.5370     2.2230    -5.4060 
  202.5000    57.9700   140.4600   142.8680   124.3650    25.5490     2.2230    -5.5510 
  202.6250    57.0100   144.1710   144.7750   113.6620    25.5590     2.2320    -5.6730 
  202.7500    59.6370   145.8970   145.1110   104.7950    25.5460     2.2440    -5.8000 
  202.8750    62.0930   147.0080   146.2650    96.4630    25.5170     2.2510    -5.8860 
  203.0000    61.7850   149.8400   150.9260    96.1180    25.4880     2.2510    -5.9300 
  203.1250    58.4640   157.6250   161.7570   102.1310    25.4760     2.2450    -5.9670 
  203.2500    55.0900   170.7200   177.5520   118.8430    25.4770     2.2380    -5.9960 
  203.3750    55.0420   188.1230   195.9840   133.3230    25.4900     2.2320    -6.0100 
  203.5000    57.6080   207.1060   213.3480   140.6540    25.5130     2.2280    -6.0070 
  203.6250    58.0460   223.0260   224.7800   128.7090    25.5250     2.2260    -5.9980 
  203.7500    55.3260   233.0050   229.5550   127.7760    25.5270     2.2260    -5.9760 
  203.8750    52.6850   236.3430   228.7770   133.2190    25.5310     2.2260    -5.9540 
  204.0000    53.0880   234.3690   224.6920   148.3170    25.5670     2.2260    -5.9370 
  204.1250    54.2920   229.4790   219.9710   152.0780    25.6520     2.2230    -5.8990 
  204.2500    53.9670   224.8040   216.9140   145.8840    25.7310     2.2190    -5.8740 
  204.3750    54.1390   221.9720   216.6310   147.7550    25.7320     2.2160    -5.8500 
  204.5000    56.1960   221.8360   219.4360   156.5770    25.6900     2.2180    -5.8120 
  204.6250    56.3850   224.2300   224.9940   177.8280    25.6590     2.2220    -5.7830 
  204.7500    52.9710   229.0450   231.1990   175.9940    25.6700     2.2200    -5.7590 
  204.8750    50.2260   236.7910   236.1110   165.9740    25.7170     2.2050    -5.7550 
  205.0000    51.0840   244.7960   237.8670   172.8100    25.7840     2.1780    -5.7420 
  205.1250    53.7020   246.1450   234.2970   181.8590    25.7930     2.1510    -5.7290 
  205.2500    55.7440   239.2270   226.0350   176.6520    25.7650     2.1370    -5.7300 
  205.3750    57.6290   226.6490   214.2170   157.7690    25.7340     2.1430    -5.7380 
  205.5000    58.6530   211.6720   200.4640   131.0080    25.6560     2.1670    -5.7820 
  205.6250    58.3200   195.7290   186.1590   113.9760    25.5870     2.2000    -5.8200 
  205.7500    59.3560   180.0950   172.0210   118.9120    25.4980     2.2330    -5.8430 
  205.8750    62.4810   165.2520   158.4460   136.4970    25.3660     2.2590    -5.8530 
  206.0000    64.2000   151.7150   146.3030   183.2140    25.2290     2.2760    -5.8590 
  206.1250    62.0060   141.0070   137.7890   211.6990    25.2580     2.2790    -5.8180 
  206.2500    59.3870   134.3270   134.3090   146.1360    25.4040     2.2750    -5.7280 
  206.3750    58.2370   133.1810   137.4250    90.4150    25.5280     2.2690    -5.6370 
  206.5000    57.1920   138.8640   148.2600    79.4510    25.5820     2.2640    -5.5330 
  206.6250    53.8640   153.3550   167.9780    96.7920    25.6030     2.2620    -5.4050 
  206.7500    50.7750   174.5740   192.7850   136.1300    25.6470     2.2560    -5.3010 
  206.8750    50.2130   199.6110   217.8650   190.4140    25.7280     2.2400    -5.1960 
  207.0000    52.7230   223.6140   237.1630   198.7980    25.8470     2.2080    -5.1150 
  207.1250    54.9740   239.8120   245.0020   171.9310    25.9530     2.1620    -5.0790 
  207.2500    53.8860   246.9140   244.7460   145.1810    25.9510     2.1130    -5.0710 
  207.3750    51.1800   246.7090   240.7390   127.7530    25.7770     2.0730    -5.0560 
  207.5000    50.1810   242.7170   236.2960   109.4270    25.6270     2.0440    -5.0360 
  207.6250    51.7240   237.9390   232.6560   103.4470    25.6350     2.0260    -5.0300 
  207.7500    53.7780   233.5390   229.3030   132.9170    25.7140     2.0160    -4.9740 
  207.8750    55.2130   229.2560   225.6140   168.3150    25.6940     2.0180    -4.9310 
  208.0000    55.3440   224.6180   221.3860   207.3670    25.6070     2.0400    -4.9020 
  208.1250    53.5430   219.0610   216.4870   240.2510    25.6200     2.0830    -4.8710 
  208.2500    51.3820   212.0720   210.0260   246.0190    25.7220     2.1300    -4.8260 
  208.3750    50.1610   202.5510   200.0650   232.2370    25.7810     2.1680    -4.8080 
  208.5000    49.8630   189.2820   184.9900   241.0240    25.8100     2.1920    -4.8140 
  208.6250    50.8400   171.5790   165.1970   266.4000    25.8780     2.2040    -4.7920 
  208.7500    53.0350   152.3240   145.4840   228.8900    25.9780     2.2100    -4.8110 
  208.8750    54.8650   134.8650   129.9120   164.8930    26.0780     2.2120    -4.8300 
  209.0000    55.8710   122.2690   121.0150    80.9040    26.1440     2.2090    -4.7900 
  209.1250    55.9520   117.2620   120.1680    75.0840    26.1090     2.2030    -4.7270 
  209.2500    55.5090   118.1200   123.9730   104.1210    25.9650     2.2020    -4.6590 
  209.3750    53.9670   122.5720   129.0050   230.1200    25.7660     2.2090    -4.5570 
  209.5000    51.7000   127.5350   131.8460   459.7660    25.6150     2.2190    -4.4180 
  209.6250    52.0470   129.7370   130.3160   243.4330    25.6570     2.2200    -4.2880 
  209.7500    55.5260   129.0690   126.8800   131.4670    25.8350     2.2090    -4.1630 
  209.8750    59.3700   127.5240   125.0080    95.9770    25.9920     2.1920    -4.0180 
  210.0000    59.7470   128.1160   127.6800   126.9980    26.0600     2.1800    -3.8810 
  210.1250    56.5560   134.1230   136.6800   173.9380    26.0980     2.1790    -3.7860 
  210.2500    54.6070   144.8130   148.9800   206.5580    26.1220     2.1850    -3.7000 
  210.3750    54.9260   157.6930   160.5500   192.1700    26.0910     2.1910    -3.6210 
  210.5000    55.8740   168.4930   166.5500   196.1270    26.0050     2.1920    -3.5550 
  210.6250    56.0600   170.9590   161.7470   230.3060    25.8580     2.1910    -3.5060 
  210.7500    55.6370   163.8550   148.3090   217.2220    25.7890     2.1920    -3.4610 
  210.8750    55.4970   148.7010   129.9550   173.0400    25.7510     2.2000    -3.4160 
  211.0000    57.1420   129.3340   110.8220   138.1370    25.7430     2.2120    -3.3840 
  211.1250    60.5180   110.3970    94.5880   104.5350    25.7550     2.2260    -3.3210 
  211.2500    61.9780    94.7130    82.2480    80.9520    25.7840     2.2390    -3.2630 
  211.3750    62.2090    83.0670    73.7250    73.7050    25.8080     2.2500    -3.1970 
  211.5000    64.4700    75.2010    68.3260    73.3450    25.8180     2.2570    -3.1220 
  211.6250    68.5290    70.7380    65.5070    70.2150    25.8200     2.2600    -3.0430 
  211.7500    68.6370    68.2990    64.1970    64.9870    25.8220     2.2600    -2.9410 
  211.8750    65.9580    67.2540    63.9170    63.3250    25.8230     2.2560    -2.8180 
  212.0000    64.3390    67.0100    64.0310    64.0480    25.8210     2.2490    -2.6680 
  212.1250    63.2400    66.6800    63.2580    64.4430    25.8210     2.2440    -2.5180 
  212.2500    62.1050    65.2200    60.5440    67.1210    25.8200     2.2460    -2.3170 
  212.3750    63.7010    61.9710    55.6570    70.2840    25.8060     2.2570    -2.0890 
