~V
VERS. 2.00: Ver 2.00
~W
STRT.M 53.0000:
STOP.M 287.0000:
STEP.M 0.1250:
NULL. -999.2500:
UWI. F11059:
~C
DEPT.M :
GR.API :
RML.OHMM :
RI. :
RXO.OHMM :
CALI.CM :
DEN.GM/CC :
SP.MV :
~A
# ...
  176.7500    78.8380    40.1010    39.0850    30.5550    24.7910     2.3150   -13.2360 
  176.8750    78.9260    40.3510    39.6850    29.0560    24.7680     2.2980   -13.2380 
  177.0000    77.0380    41.0510    40.7290    29.9330    24.7130     2.2850   -13.2450 
  177.1250    74.5940    42.0140    42.0100    31.1890    24.6590     2.2820   -13.2660 
  177.2500    72.2170    43.0660    43.2960    30.6730    24.6570     2.2880   -13.2930 
  177.3750    70.7880    44.0950    44.4300    31.6550    24.7260     2.2990   -13.3210 
  177.5000    70.4800    45.1280    45.4830    36.3820    24.8090     2.3050   -13.3550 
  177.6250    71.5170    46.2770    46.6170    39.2260    24.8810     2.3030   -13.3810 
  177.7500    72.3630    47.6790    48.0290    39.3710    24.9340     2.2940   -13.4170 
  177.8750    72.0930    49.4960    49.8490    41.4990    24.9740     2.2850   -13.4580 
  178.0000    71.4250    51.6310    51.8190    47.3650    25.0290     2.2790   -13.5140 
  178.1250    71.2640    53.8840    53.6120    53.0520    25.0930     2.2800   -13.5690 
  178.2500    71.3080    55.9230    54.8940    58.5860    25.1450     2.2860   -13.6200 
  178.3750    71.1000    57.2250    55.2860    63.1770    25.1620     2.2950   -13.6680 
  178.5000    71.4120    57.7030    55.0390    59.1420    25.1530     2.3040   -13.7120 
  178.6250    72.9740    57.6030    54.7090    52.0960    25.1430     2.3100   -13.7770 
  178.7500    73.8190    57.5490    55.0540    47.8600    25.1470     2.3100   -13.8520 
  178.8750    71.3630    58.5250    56.9470    43.0850    25.1590     2.3000   -13.9300 
  179.0000    69.4450    60.8780    60.2560    43.7910    25.1410     2.2840   -14.0220 
  179.1250    69.5940    64.4660    64.4490    57.5720    25.1000     2.2660   -14.1290 
  179.2500    68.8820    68.6310    68.5720    78.0630    25.0910     2.2540   -14.2500 
  179.3750    65.7100    72.2140    71.3060    89.9970    25.0960     2.2520   -14.3890 
  179.5000    63.7660    74.4040    72.2590    98.0810    25.1010     2.2560   -14.5370 
  179.6250    65.5280    74.9100    71.5360   107.3630    25.1010     2.2650   -14.6710 
  179.7500    68.2290    73.9420    69.6840   108.7370    25.1080     2.2770   -14.7850 
  179.8750    69.5060    72.1040    67.6780    99.3040    25.1130     2.2920   -14.8920 
  180.0000    70.3770    70.5240    66.6650    42.9380    25.1060     2.3070   -14.9600 
  180.1250    71.0510    70.1200    67.4850    39.9520    25.0660     2.3160   -14.9840 
  180.2500    70.4560    71.6400    70.6380    37.5330    25.0010     2.3140   -14.9780 
  180.3750    68.8490    75.7020    76.3480    44.3650    24.9740     2.2990   -14.9260 
  180.5000    68.5970    81.1630    82.9140    50.5430    25.0110     2.2810   -14.8400 
  180.6250    69.3870    86.2570    88.0140    45.1590    25.0470     2.2690   -14.7180 
  180.7500    70.1090    88.7370    89.1910    35.9560    25.0500     2.2680   -14.5760 
  180.8750    69.9820    86.2720    84.7030    32.3270    25.0030     2.2770   -14.4190 
  181.0000    69.6980    80.0220    76.9900    42.9620    24.9100     2.2890   -14.2720 
  181.1250    70.6870    71.8700    68.4550    61.7880    24.8590     2.3000   -14.1390 
  181.2500    73.0260    63.8460    60.9560    68.5940    24.8560     2.3050   -14.0070 
  181.3750    74.9980    57.6160    55.7050    69.2420    24.8630     2.3040   -13.9010 
  181.5000    75.5530    53.4350    52.5580    67.2780    24.8630     2.2990   -13.8200 
  181.6250    75.3840    51.4840    51.7340    63.5350    24.8520     2.2910   -13.7760 
  181.7500    73.9160    52.0780    53.7380    64.8690    24.8260     2.2810   -13.7510 
  181.8750    70.5780    56.3670    60.0700    71.9400    24.7850     2.2720   -13.7450 
  182.0000    68.0680    64.5620    71.0290    84.8680    24.7530     2.2640   -13.7640 
  182.1250    66.1980    77.1490    86.9310   102.8240    24.7480     2.2590   -13.7980 
  182.2500    63.4010    94.0280   106.8700   123.5910    24.7530     2.2550   -13.8460 
  182.3750    60.7790   113.9020   127.5130   131.0860    24.7690     2.2510   -13.8970 
  182.5000    60.7010   132.7040   143.7930   133.8350    24.8110     2.2430   -13.9380 
  182.6250    60.6250   146.5660   152.3850   141.0710    24.8680     2.2340   -13.9570 
  182.7500    57.9490   152.7170   152.4210   146.3140    24.9180     2.2230   -13.9510 
  182.8750    56.6990   149.3830   144.2360   138.2420    24.9400     2.2170   -13.9110 
  183.0000    59.2020   139.9530   131.7180   120.2850    24.9510     2.2190   -13.8470 
  183.1250    62.8590   127.4030   117.9190   106.6330    24.9520     2.2290   -13.7760 
  183.2500    64.3890   115.0060   106.0800    97.2170    24.9460     2.2460   -13.7050 
  183.3750    65.3370   106.6620   100.0200    79.7140    24.9470     2.2580   -13.6310 
  183.5000    66.4490   104.1080   100.7310    66.5950    24.9590     2.2590   -13.5520 
  183.6250    65.3650   108.3740   108.8120    74.7030    24.9950     2.2440   -13.4880 
  183.7500    61.0430   119.6780   123.9130   112.4750    25.0590     2.2180   -13.4390 
  183.8750    57.4660   137.9230   144.6260   186.3330    25.0650     2.1940   -13.4190 
  184.0000    56.6710   159.2830   165.9720   226.1840    25.0330     2.1820   -13.4030 
  184.1250    57.6420   180.3790   184.4750   188.2230    25.0080     2.1840   -13.3660 
  184.2500    58.5050   198.8670   199.6200   152.1560    25.0190     2.1940   -13.3000 
  184.3750    57.9380   214.6360   213.8860   164.2160    25.0630     2.2020   -13.2310 
  184.5000    56.1790   229.0120   227.7470   189.4750    25.1000     2.2040   -13.1670 
  184.6250    53.4960   238.8290   234.7130   204.2120    25.1240     2.1970   -13.0880 
  184.7500    51.1830   235.9120   223.7570   200.0390    25.1340     2.1880   -13.0040 
  184.8750    51.5720   209.0990   187.9040   157.4350    25.1330     2.1880   -12.9230 
  185.0000    54.5530   166.9230   144.0190   114.0830    25.1160     2.2050   -12.8570 
  185.1250    59.3640   123.3520   106.0580    81.2330    25.0710     2.2450   -12.8120 
  185.2500    63.6480    89.9560    79.8300    68.3080    24.9870     2.2980   -12.7970 
  185.3750    67.1720    71.7410    65.9810    67.1960    24.9380     2.3440   -12.7870 
  185.5000    70.2670    62.5810    59.1760    72.4670    24.9370     2.3640   -12.7810 
  185.6250    71.5880    58.2490    56.2140    69.7570    24.9570     2.3530   -12.7900 
  185.7500    70.0540    55.3050    54.4290    60.8190    24.9860     2.3230   -12.8140 
  185.8750    67.9020    52.3760    51.8060    48.9520    25.0200     2.2960   -12.8380 
  186.0000    67.7330    50.1510    48.0700    45.7710    24.9940     2.2850   -12.8520 
  186.1250    68.6420    48.7920    44.1310    37.2420    24.9240     2.2850   -12.8660 
  186.2500    69.1990    47.7000    41.3180    27.0840    24.8770     2.2870   -12.8710 
  186.3750    70.3400    46.3810    41.1000    22.9080    24.9290     2.2780   -12.8700 
  186.5000    72.1000    45.7260    43.5110    28.2080    24.9810     2.2600   -12.8550 
  186.6250    73.1050    47.0200    48.4540    37.6920    25.0000     2.2400   -12.8400 
  186.7500    72.3610    51.0380    55.4220    51.7650    25.0170     2.2250   -12.8390 
  186.8750    70.9400    57.8300    63.1400    62.5030    25.0550     2.2190   -12.8410 
  187.0000    69.6660    65.6480    69.6180    63.5720    25.0880     2.2210   -12.8430 
  187.1250    68.8390    72.2190    73.7030    64.0950    25.0910     2.2280   -12.8370 
  187.2500    68.3900    75.6600    75.1760    69.7700    25.0620     2.2380   -12.8270 
  187.3750    68.3330    75.7480    73.9940    72.6350    25.0280     2.2480   -12.8310 
  187.5000    68.5290    73.8210    70.8630    68.2550    25.0050     2.2580   -12.8450 
  187.6250    68.3070    69.8820    66.2320    64.8740    25.0110     2.2680   -12.8670 
  187.7500    68.1600    64.1660    60.9730    66.6530    25.0360     2.2800   -12.8830 
  187.8750    68.3680    58.8350    56.6390    66.8050    25.0190     2.2880   -12.9000 
