~V
VERS. 2.00: Ver 2.00
~W
STRT.M 54.0000:
STOP.M 281.0000:
STEP.M 0.1250:
NULL. -999.2500:
UWI. F11055:
~C
DEPT.M :
SP.MV :
GR.API :
RML.OHMM :
RI. :
RXO.OHMM :
CALI.CM :
DEN.GM/CC :
~A
# ...
  211.5000    -1.4580    65.2720    60.4000    42.8010    62.3280    24.6140     2.3840 
  211.6250    -1.4020    65.3530    71.2940    50.6460    90.2700    24.6120     2.3630 
  211.7500    -1.3790    66.8150    84.0680    60.4370    93.0200    24.6120     2.3520 
  211.8750    -1.3790    67.8120    95.8650    70.3790    80.3420    24.6120     2.3490 
  212.0000    -1.3840    67.1270   103.1790    77.9820    74.5370    24.6120     2.3300 
  212.1250    -1.3840    67.0210   102.6170    80.2900    81.7780    24.6130     2.2910 
  212.2500    -1.4150    67.0260    95.9320    77.6280    86.2910    24.6150     2.2600 
  212.3750    -1.4540    65.3820    84.8440    70.7340    80.6770    24.6140     2.2540 
  212.5000    -1.5060    64.1050    71.3240    60.8930    74.3500    24.6130     2.2650 
  212.6250    -1.5100    66.1870    58.1150    50.2450    58.0010    24.6120     2.2740 
  212.7500    -1.5240    70.5610    47.3690    41.1000    41.5700    24.6120     2.2750 
  212.8750    -1.5010    75.3000    39.9720    34.4820    31.9550    24.6120     2.2740 
  213.0000    -1.4870    77.1640    36.0660    30.6000    28.2630    24.6120     2.2720 
  213.1250    -1.4700    74.1180    35.9200    29.6650    26.7220    24.6120     2.2660 
  213.2500    -1.4560    70.0030    38.5970    31.0320    26.7370    24.6120     2.2560 
  213.3750    -1.4470    67.9240    43.6100    34.5020    30.9610    24.6120     2.2430 
  213.5000    -1.4310    66.8790    50.1970    39.6630    41.6430    24.6120     2.2330 
  213.6250    -1.4340    64.9630    57.1390    45.6800    55.1410    24.6120     2.2290 
  213.7500    -1.4560    65.2260    63.2240    51.3120    54.4570    24.6120     2.2260 
  213.8750    -1.4950    68.2130    68.2890    56.1260    49.4350    24.6120     2.2250 
  214.0000    -1.5470    70.4040    73.0720    60.4390    52.9250    24.6090     2.2230 
  214.1250    -1.5920    69.6070    78.8800    65.1060    69.5010    24.6010     2.2220 
  214.2500    -1.6350    68.3050    86.0340    70.5340    84.3870    24.5940     2.2220 
  214.3750    -1.6730    65.7910    93.8830    76.3860    91.9990    24.5980     2.2180 
  214.5000    -1.7170    61.6960   101.0480    81.7680    93.0780    24.6000     2.2100 
  214.6250    -1.7490    60.5960   105.8760    85.5070    97.1520    24.5930     2.2030 
  214.7500    -1.8050    63.0410   108.6420    87.7240    99.9460    24.5920     2.1990 
  214.8750    -1.8660    64.7460   110.1630    88.9870   101.6040    24.5920     2.1990 
  215.0000    -1.9120    62.3670   111.3570    90.0370   100.7320    24.5940     2.2000 
  215.1250    -1.9640    58.6930   113.2780    91.7990   103.2470    24.6040     2.2050 
  215.2500    -2.0280    57.4640   116.4710    94.7580   104.8020    24.6040     2.2050 
  215.3750    -2.1100    58.8850   120.7350    98.8300   114.8600    24.5960     2.1960 
  215.5000    -2.1610    61.6780   124.8910   103.1410   128.5500    24.5930     2.1810 
  215.6250    -2.2280    62.5990   126.5370   105.9040   137.0900    24.5790     2.1710 
  215.7500    -2.2740    62.2400   124.6660   106.1990   132.3840    24.5480     2.1740 
  215.8750    -2.3060    63.6470   119.6550   104.0340   116.2150    24.5530     2.1870 
  216.0000    -2.3260    66.4220   113.1250   100.3190   100.4740    24.5840     2.2000 
  216.1250    -2.3290    67.0900   106.9130    96.2130    88.8210    24.5980     2.2070 
  216.2500    -2.3040    65.9250   101.2870    92.1300    89.0350    24.5930     2.2100 
  216.3750    -2.2790    65.2380    95.4580    87.6120    91.1010    24.5840     2.2080 
  216.5000    -2.2820    66.4340    88.7820    82.2710    91.1180    24.5470     2.2020 
  216.6250    -2.2730    68.3710    81.4730    76.3240    89.1390    24.4830     2.2000 
  216.7500    -2.2670    68.7480    74.8090    70.7880    79.4020    24.4820     2.2080 
  216.8750    -2.2610    67.3610    69.9780    66.6380    66.5850    24.4970     2.2190 
  217.0000    -2.3000    66.8500    67.7230    64.6180    61.4120    24.4840     2.2290 
  217.1250    -2.3490    68.4210    68.4680    65.2870    66.1420    24.4880     2.2350 
  217.2500    -2.4310    69.2410    71.1510    67.8130    75.5300    24.5010     2.2390 
  217.3750    -2.5090    67.8370    74.9850    71.4750    80.6540    24.4810     2.2430 
  217.5000    -2.5800    64.9590    79.1540    75.4840    81.5440    24.4660     2.2450 
  217.6250    -2.6720    63.1060    82.8810    79.1040    84.2850    24.4710     2.2410 
  217.7500    -2.7720    64.5280    85.8810    82.1010    89.1480    24.4820     2.2330 
  217.8750    -2.8820    67.3410    88.0440    84.4180    94.5930    24.4840     2.2240 
  218.0000    -2.9580    66.6220    89.2410    85.9220    99.8550    24.5020     2.2180 
  218.1250    -3.0280    61.4150    89.2370    86.2910   103.3000    24.4970     2.2190 
  218.2500    -3.0710    58.9410    88.4640    85.8600   102.6160    24.4840     2.2250 
  218.3750    -3.1180    62.0700    87.4700    85.1210    96.8110    24.4960     2.2360 
  218.5000    -3.1410    66.8590    86.8810    84.6430    89.0920    24.4990     2.2450 
  218.6250    -3.1830    68.4110    87.1580    84.7870    88.1700    24.4800     2.2470 
  218.7500    -3.2040    69.1070    87.8120    85.1120    92.1850    24.4910     2.2450 
  218.8750    -3.2070    71.2900    88.0380    84.9510    96.5180    24.5080     2.2430 
  219.0000    -3.2190    74.1140    87.0650    83.7150    97.8690    24.5010     2.2410 
  219.1250    -3.2450    73.9700    84.6150    81.2430    91.4330    24.5190     2.2390 
  219.2500    -3.2890    71.8330    81.9850    78.6280    83.0940    24.5150     2.2380 
  219.3750    -3.3330    70.5690    80.6770    77.0840    76.2990    24.4840     2.2370 
  219.5000    -3.3900    71.7810    81.8960    77.6520    75.1410    24.4660     2.2370 
  219.6250    -3.4290    72.4400    86.5130    81.2220    80.8820    24.4700     2.2350 
  219.7500    -3.4840    70.5270    93.3050    86.8680    95.1530    24.4780     2.2300 
  219.8750    -3.5390    68.2250   100.7210    93.3460   114.7510    24.4770     2.2250 
  220.0000    -3.5960    68.6830   106.8350    98.9940   126.1770    24.4970     2.2210 
  220.1250    -3.6760    70.9280   109.7560   102.0010   118.0630    24.4880     2.2190 
  220.2500    -3.7400    71.8240   110.3570   102.7180   108.1300    24.4700     2.2190 
  220.3750    -3.8080    71.2680   110.4200   102.4050   104.6560    24.4950     2.2190 
  220.5000    -3.8700    70.0270   111.9380   102.7990   111.6000    24.5330     2.2150 
  220.6250    -3.9370    67.5250   116.7010   105.7740   115.8100    24.5530     2.2070 
  220.7500    -4.0040    65.0130   123.9960   111.2190   123.2380    24.5360     2.1980 
  220.8750    -4.0760    62.9550   132.0690   117.9300   148.9970    24.5070     2.1880 
  221.0000    -4.1450    63.5100   138.0800   123.5440   178.0850    24.5260     2.1800 
  221.1250    -4.2120    66.1340   138.0140   124.4900   170.4660    24.5280     2.1810 
  221.2500    -4.2820    67.2060   131.9520   120.3170   134.4200    24.5150     2.1920 
  221.3750    -4.3520    66.6550   121.9910   112.4270   107.1250    24.4830     2.2070 
  221.5000    -4.4000    66.5830   111.2180   103.3630    94.1260    24.4800     2.2230 
  221.6250    -4.4340    68.4080   102.3660    95.6290    90.5220    24.5000     2.2430 
  221.7500    -4.4580    69.9490    95.8640    89.8910    91.6600    24.4920     2.2710 
  221.8750    -4.4870    70.7920    91.1890    85.8070    94.0000    24.4830     2.3010 
  222.0000    -4.4970    70.4940    87.3780    82.5500    92.2870    24.4960     2.3120 
  222.1250    -4.4930    67.2190    83.4710    79.2080    88.6400    24.4850     2.2860 
  222.2500    -4.4730    64.4520    79.1850    75.4270    84.7980    24.4670     2.2550 
  222.3750    -4.4480    64.3050    74.8190    71.3920    80.0610    24.4830     2.2400 
  222.5000    -4.4170    65.0120    70.8280    67.5280    74.7420    24.4880     2.2420 
  222.6250    -4.3840    64.6680    67.7180    64.4060    68.5990    24.4670     2.2430 
