~V
VERS. 2.00: Ver 2.00
~W
STRT.M 60.0000:
STOP.M 276.0000:
STEP.M 0.1250:
NULL. -999.2500:
UWI. F11026:
~C
DEPT.M :
DEN.GM/CC :
GR.API :
RML.OHMM :
RI. :
RXO.OHMM :
CALI.CM :
SP.MV :
~A
# ...
  172.5000     2.2050    61.1060   131.4140   117.0960   225.4720    25.2480   -15.8300 
  172.6250     2.2110    62.8310   141.4140   126.6330   231.1910    25.1190   -16.1470 
  172.7500     2.2270    62.8340   143.8410   129.6400   209.2080    25.0500   -16.3810 
  172.8750     2.2450    60.0370   139.2980   126.2120   178.6150    25.0380   -16.6050 
  173.0000     2.2600    56.9990   130.3790   118.3420   157.9620    25.0440   -16.9840 
  173.1250     2.2720    57.0980   120.7770   109.2710   134.0820    25.0120   -17.4110 
  173.2500     2.2820    58.9690   113.5230   102.0780   112.5690    24.9800   -17.7350 
  173.3750     2.2890    60.0360   109.7820    98.1730    99.4240    24.9380   -18.0200 
  173.5000     2.2930    58.4890   109.5510    97.9570    99.3690    24.9160   -18.3620 
  173.6250     2.2920    57.8680   112.1060   101.1680   127.3780    24.9210   -18.7460 
  173.7500     2.2880    60.3780   115.2350   105.6060   133.7770    24.9360   -19.1660 
  173.8750     2.2830    63.6930   117.1790   109.4390   128.3430    24.9320   -19.5320 
  174.0000     2.2780    65.0710   116.5080   110.9870   126.9490    24.9220   -19.6470 
  174.1250     2.2760    62.7700   112.0980   108.5340   117.8960    24.8940   -19.6650 
  174.2500     2.2750    58.1730   105.2710   102.9960   108.1230    24.8700   -19.6570 
  174.3750     2.2740    54.2910    97.4490    95.9640   102.8980    24.8230   -19.5450 
  174.5000     2.2750    54.1230    90.5140    89.3520   105.9870    24.7490   -19.3240 
  174.6250     2.2760    56.9850    88.2920    85.1740    90.9820    24.7070   -19.0080 
  174.7500     2.2760    59.3170    90.9990    83.8980    77.4470    24.7550   -18.6710 
  174.8750     2.2770    61.3830    95.9030    85.2060    75.0680    24.7890   -18.3200 
  175.0000     2.2800    62.4920    99.4160    87.7830   105.7570    24.8210   -18.0580 
  175.1250     2.2870    62.3300    99.3070    89.2810   133.2690    24.8670   -17.9460 
  175.2500     2.2930    62.8020    96.2850    88.0220   135.8270    24.8560   -17.8870 
  175.3750     2.2930    63.6660    90.4680    83.5980   112.7050    24.7660   -17.8620 
  175.5000     2.2860    63.5520    82.8340    76.8780    83.5670    24.6440   -17.8870 
  175.6250     2.2780    63.2800    75.3120    69.6080    70.8960    24.5030   -17.8940 
  175.7500     2.2790    63.9850    69.4420    63.4580    64.7260    24.3190   -17.9170 
  175.8750     2.2900    63.8450    66.0260    59.2230    60.2490    24.1100   -18.0630 
  176.0000     2.3050    61.6970    65.5420    57.3770    51.2700    23.8760   -18.3150 
  176.1250     2.3020    59.9020    68.9460    58.8660    43.7110    23.6200   -18.5510 
  176.2500     2.2740    59.8520    75.8910    63.6500    44.2060    23.4860   -18.9420 
  176.3750     2.2260    59.1850    86.0010    71.7530    62.4430    23.5730   -19.3770 
  176.5000     2.1770    56.8140    97.8500    82.3190    86.2420    23.8930   -19.5680 
  176.6250     2.1480    55.8140   108.0450    92.5410   116.7630    24.4420   -19.5020 
  176.7500     2.1460    57.7330   113.4410    98.7100   127.3290    24.9260   -19.2750 
  176.8750     2.1660    60.2190   112.9330    99.0020   117.7500    25.1080   -18.8790 
  177.0000     2.1990    59.7420   108.0430    94.5730   103.2500    25.1010   -18.4870 
  177.1250     2.2310    57.1380   102.3520    88.9010   106.5590    25.0700   -18.1750 
  177.2500     2.2510    56.3000    99.1920    85.3920    94.8520    25.0630   -17.6920 
  177.3750     2.2540    56.9300    99.6710    85.3920    90.1090    25.0870   -17.0370 
  177.5000     2.2430    57.2090   103.1130    88.9030    97.7810    25.1320   -16.4040 
  177.6250     2.2240    56.7400   106.4200    94.0660   106.5870    25.1460   -16.0020 
  177.7500     2.2060    55.8860   105.1220    96.1320   114.4500    25.1200   -15.7310 
  177.8750     2.1940    55.5770    96.4330    90.7280   132.6850    25.1260   -15.4760 
  178.0000     2.1900    57.2160    80.8600    76.8250   142.7940    25.1470   -15.0590 
  178.1250     2.2000    62.0680    62.4040    58.6040   111.4380    25.1780   -14.4460 
  178.2500     2.2260    66.1990    46.3210    42.6820    60.2030    25.0700   -13.8100 
  178.3750     2.2640    68.4830    34.7170    31.3940    32.2290    24.9010   -13.3220 
  178.5000     2.3060    71.4550    27.7390    24.6140    22.4450    24.6030   -12.9890 
  178.6250     2.3410    75.3220    25.2320    21.7420    20.3780    24.1470   -12.6530 
  178.7500     2.3620    76.8830    25.8420    21.3720    19.0390    23.7650   -12.2580 
  178.8750     2.3670    75.5480    29.1870    23.3110    18.6970    23.6900   -11.7580 
  179.0000     2.3550    73.1650    34.8610    27.6430    24.4610    24.0310   -11.2160 
  179.1250     2.3300    70.9930    42.0940    34.5470    43.7890    24.6230   -10.8910 
  179.2500     2.3030    68.6530    48.8780    42.3880    64.1340    24.9940   -10.9030 
  179.3750     2.2810    67.0460    53.3540    48.9200    74.2260    25.1100   -11.0030 
  179.5000     2.2690    68.7100    54.3050    51.9030    79.0450    25.0910   -11.0640 
  179.6250     2.2680    72.1420    51.5250    50.2280    81.6860    25.0530   -11.3150 
  179.7500     2.2720    73.7050    47.2270    46.3630    75.1080    25.0420   -11.6770 
  179.8750     2.2750    73.0320    42.9320    42.1910    62.1920    25.0430   -12.2080 
  180.0000     2.2740    72.2220    39.3880    38.6920    50.1900    25.0710   -12.8840 
  180.1250     2.2670    72.5600    36.5190    35.8850    47.1570    25.1030   -13.2200 
  180.2500     2.2610    72.5680    33.5850    32.9910    40.6990    25.1500   -13.0850 
  180.3750     2.2650    72.1420    30.1520    29.4880    36.3130    25.1410   -12.8360 
  180.5000     2.2840    71.4960    26.1970    25.3440    30.8470    25.1150   -12.6330 
  180.6250     2.3170    72.3140    22.1920    21.1450    22.9300    25.0230   -12.2530 
  180.7500     2.3520    76.3180    18.8280    17.6090    16.4660    24.8460   -11.8490 
  180.8750     2.3790    81.8710    16.5840    15.1120    12.3650    24.6290   -11.4150 
  181.0000     2.3930    85.2790    15.7370    13.7990    11.7950    24.5860   -10.8730 
  181.1250     2.3900    84.0310    16.7230    13.9520    13.9930    24.7650   -10.5120 
  181.2500     2.3730    80.0000    19.4170    15.5200    15.9240    24.8530   -10.3990 
  181.3750     2.3410    74.6610    23.8510    18.7400    21.1990    24.7060   -10.3690 
  181.5000     2.2960    70.6020    29.7850    23.7650    37.4510    24.5010   -10.4380 
  181.6250     2.2430    69.9220    36.5080    30.4140    53.6120    24.4250   -10.7070 
  181.7500     2.1950    68.1850    42.6770    37.1690    57.7850    24.7370   -11.0180 
  181.8750     2.1630    64.5870    47.3420    42.5870    57.9380    25.5620   -11.3400 
  182.0000     2.1540    63.5950    50.1170    45.8420    61.0390    26.5080   -11.7900 
  182.1250     2.1690    66.0070    50.9990    46.8940    62.3190    26.4570   -12.3400 
  182.2500     2.1970    67.7170    50.7200    46.7400    62.6210    25.6770   -12.8870 
  182.3750     2.2280    68.1470    49.4860    45.5720    64.7580    24.7710   -13.4340 
  182.5000     2.2580    69.5280    47.4370    43.3430    62.7310    24.2590   -13.8460 
  182.6250     2.2810    71.0490    45.0250    40.3290    56.4160    24.1000   -13.9900 
  182.7500     2.2940    70.7580    43.2530    37.6000    47.8970    23.9220   -14.1690 
  182.8750     2.2950    70.4310    43.0600    36.0720    39.8220    23.7400   -14.4820 
  183.0000     2.2860    71.3590    45.1330    36.4570    37.3990    23.6490   -14.7160 
  183.1250     2.2710    73.5700    50.1360    39.5610    52.0970    23.7090   -14.7590 
  183.2500     2.2590    75.1170    57.3220    44.9750    63.7280    23.8110   -14.7890 
  183.3750     2.2520    74.4810    65.8970    52.2350    62.4800    23.8490   -14.8780 
  183.5000     2.2500    71.3030    74.6670    60.3010    65.0900    23.8040   -15.0590 
  183.6250     2.2500    67.0060    81.8960    67.3180    71.6140    23.6680   -15.2240 
