~V
VERS. 2.00: Ver 2.00
~W
STRT.M 62.0000:
STOP.M 236.0000:
STEP.M 0.1250:
NULL. -999.2500:
UWI. F11006:
~C
DEPT.M :
GR.API :
RML.OHMM :
RI. :
RXO.OHMM :
CALI.CM :
SP.MV :
DEN.GM/CC :
~A
# ...
  107.0000    76.7790     8.1760     7.0690     8.4280    21.9930   -21.6910     2.1800 
  107.1250    75.1410     8.2080     7.0960     8.5230    22.0140   -21.7250     2.1780 
  107.2500    75.2780     8.2210     7.1080     8.6800    22.1010   -21.8060     2.1780 
  107.3750    78.4020     8.2000     7.0880     8.7410    22.1200   -21.9170     2.1810 
  107.5000    83.3600     8.1430     7.0320     8.6480    22.0430   -22.0370     2.1880 
  107.6250    86.0460     8.0640     6.9560     8.3850    21.8570   -22.1380     2.1970 
  107.7500    82.9980     7.9930     6.8880     8.2060    21.6610   -22.2290     2.2030 
  107.8750    78.5580     7.9490     6.8460     8.0630    21.5250   -22.3490     2.2040 
  108.0000    77.9010     7.9430     6.8400     8.2090    21.4960   -22.5180     2.1980 
  108.1250    79.3680     7.9710     6.8690     8.5680    21.5070   -22.6990     2.1850 
  108.2500    79.2380     8.0160     6.9170     8.7320    21.5350   -22.8600     2.1710 
  108.3750    78.4060     8.0670     6.9740     8.7120    21.5920   -23.0080     2.1580 
  108.5000    78.7620     8.1200     7.0330     8.7240    21.6910   -23.1580     2.1510 
  108.6250    81.2480     8.1720     7.0890     8.9340    21.8500   -23.3380     2.1510 
  108.7500    83.2760     8.2170     7.1380     9.1640    22.0100   -23.5240     2.1570 
  108.8750    82.7360     8.2450     7.1770     9.2980    22.1150   -23.6810     2.1660 
  109.0000    78.1910     8.2520     7.2020     9.2290    22.1700   -23.7990     2.1730 
  109.1250    74.5850     8.2440     7.2130     9.0130    22.2380   -23.8840     2.1740 
  109.2500    75.0230     8.2360     7.2130     8.8710    22.3010   -23.9370     2.1680 
  109.3750    76.5530     8.2360     7.2040     8.7670    22.2600   -23.9180     2.1590 
  109.5000    76.2060     8.2370     7.1820     8.7880    22.1260   -23.8190     2.1520 
  109.6250    73.9220     8.2120     7.1370     8.9280    22.0850   -23.6150     2.1530 
  109.7500    72.0080     8.1450     7.0640     9.0690    22.1180   -23.3670     2.1580 
  109.8750    72.8000     8.0360     6.9630     9.0660    22.1560   -23.1280     2.1630 
  110.0000    76.4670     7.9070     6.8450     8.7670    22.1980   -22.9090     2.1650 
  110.1250    81.9800     7.8350     6.7540     8.5010    22.2070   -22.6990     2.1590 
  110.2500    84.4390     7.9360     6.7700     8.5940    22.1890   -22.4890     2.1500 
  110.3750    82.0900     8.3650     7.0070     8.9250    22.1640   -22.3170     2.1490 
  110.5000    77.5570     9.2850     7.6060     9.4350    22.1730   -22.2100     2.1760 
  110.6250    75.2480    10.8870     8.7950    12.7980    22.3420   -22.2320     2.2510 
  110.7500    74.2910    12.9120    10.5020    25.5930    22.8160   -22.3770     2.3540 
  110.8750    71.5800    14.8810    12.4550    53.7220    23.5380   -22.5880     2.4560 
  111.0000    67.1010    16.0980    14.0640    80.4750    24.0950   -22.8060     2.5280 
  111.1250    65.0450    15.7400    14.4280    78.0830    24.2150   -23.0210     2.5490 
  111.2500    67.3990    14.1060    13.5120    63.8460    24.0140   -23.2130     2.5360 
  111.3750    73.1670    11.8570    11.7520    39.5600    23.6140   -23.3570     2.5020 
  111.5000    78.4620     9.7750     9.8310    18.4930    23.2010   -23.4660     2.4540 
  111.6250    80.6270     8.5470     8.3970    11.8620    23.0200   -23.4980     2.3970 
  111.7500    82.5840     8.1680     7.6090     9.9660    22.9490   -23.3640     2.3410 
  111.8750    83.3180     8.4540     7.4330     9.7700    22.9110   -23.0030     2.3000 
  112.0000    80.9290     9.0430     7.6840     9.7460    22.9210   -22.3770     2.2840 
  112.1250    76.2360     9.3680     7.9800    10.5890    23.1170   -21.4280     2.3020 
  112.2500    73.2130     9.0640     7.9070    13.6010    23.3950   -20.3030     2.3320 
  112.3750    75.8700     8.1290     7.3290    16.8960    23.7240   -19.1260     2.3480 
  112.5000    85.1940     6.9080     6.4130    13.1460    24.1130   -18.0320     2.3260 
  112.6250    94.6770     5.9600     5.5520     6.4530    24.5740   -17.2160     2.2600 
  112.7500    96.8170     5.5680     5.0480     4.6380    24.8720   -16.7660     2.1930 
  112.8750    92.3720     5.7530     5.0020     5.7500    24.8760   -16.7240     2.1640 
  113.0000    86.8540     6.3660     5.3810    10.1670    24.5080   -17.0830     2.1850 
  113.1250    83.0050     7.1370     6.0510    15.7400    23.9680   -17.8070     2.2330 
  113.2500    78.4140     7.7340     6.7040    14.2290    23.6380   -18.7690     2.2670 
  113.3750    73.8390     8.0100     7.1370    10.7030    23.5130   -19.8600     2.2700 
  113.5000    71.7070     8.0140     7.2970     9.2250    23.4730   -20.9410     2.2520 
  113.6250    73.4450     7.9660     7.2980     9.0250    23.3830   -21.8110     2.2360 
  113.7500    77.0900     8.0830     7.3610     9.0240    23.3330   -22.3610     2.2350 
  113.8750    80.9180     8.4100     7.5770     9.3170    23.3310   -22.5830     2.2490 
  114.0000    83.0300     8.8670     7.9270     9.6740    23.3660   -22.5690     2.2680 
  114.1250    81.0720     9.2680     8.2780     9.8610    23.4170   -22.4790     2.2830 
  114.2500    78.6090     9.4600     8.4750     9.9460    23.4090   -22.3890     2.2870 
  114.3750    78.6230     9.3920     8.4420     9.9100    23.3050   -22.3090     2.2810 
  114.5000    79.3870     9.1150     8.1960     9.7630    23.1300   -22.1840     2.2680 
  114.6250    78.3930     8.7580     7.8280     9.4140    23.0250   -22.0190     2.2550 
  114.7500    78.8050     8.4640     7.4770     8.9970    22.9370   -21.8740     2.2480 
  114.8750    80.7410     8.2810     7.2100     8.8320    22.8090   -21.7420     2.2450 
  115.0000    81.9620     8.1980     7.0400     9.0330    22.6880   -21.6200     2.2440 
  115.1250    82.3230     8.1710     6.9500     9.2040    22.7390   -21.4730     2.2410 
  115.2500    83.8070     8.1470     6.8890     9.0490    22.8460   -21.3030     2.2370 
  115.3750    85.9520     8.1140     6.8380     8.7930    22.9210   -21.1140     2.2310 
  115.5000    86.5480     8.0770     6.7890     8.5740    22.9280   -20.9280     2.2270 
  115.6250    84.0720     8.0520     6.7480     8.3980    22.8220   -20.7260     2.2280 
  115.7500    80.5910     8.0620     6.7310     8.2980    22.6390   -20.5210     2.2340 
  115.8750    79.2130     8.1380     6.7600     8.3080    22.4410   -20.3450     2.2440 
  116.0000    81.4800     8.3100     6.8590     8.3310    22.3290   -20.2550     2.2530 
  116.1250    85.8140     8.6030     7.0580     8.4640    22.3620   -20.2700     2.2590 
  116.2500    88.6760     8.9560     7.3260     8.9690    22.5060   -20.3190     2.2600 
  116.3750    88.1100     9.2900     7.6200     9.8430    22.6730   -20.4030     2.2560 
  116.5000    83.6770     9.5190     7.8730    10.8970    22.8380   -20.5310     2.2500 
  116.6250    77.6860     9.5620     8.0070    11.5040    22.8990   -20.7040     2.2430 
  116.7500    73.0650     9.4710     8.0260    10.9990    22.8690   -20.9190     2.2360 
  116.8750    70.4870     9.3300     7.9670    10.1390    22.7800   -21.2010     2.2300 
  117.0000    69.7220     9.2300     7.8960     9.8340    22.6850   -21.4990     2.2270 
  117.1250    73.3570     9.2420     7.8770     9.7290    22.6440   -21.7610     2.2280 
  117.2500    80.0550     9.3290     7.9130     9.5360    22.6350   -22.0110     2.2340 
  117.3750    86.4830     9.4210     7.9720     9.2750    22.6500   -22.2230     2.2440 
  117.5000    89.6640     9.4400     8.0040     9.0720    22.6500   -22.3640     2.2530 
  117.6250    86.0840     9.3270     7.9600     8.6760    22.5550   -22.4490     2.2570 
  117.7500    79.2060     9.1270     7.8550     8.4770    22.5140   -22.5140     2.2550 
  117.8750    76.0340     8.9080     7.7260     8.5430    22.6920   -22.5560     2.2450 
  118.0000    79.5730     8.7430     7.6220     8.7460    23.0750   -22.5620     2.2270 
  118.1250    83.1520     8.6790     7.5840     8.8440    23.2870   -22.4820     2.2050 
