~V
VERS. 2.00: Ver 2.00
~W
STRT.M 51.0000:
STOP.M 282.0000:
STEP.M 0.1250:
NULL. -999.2500:
UWI. F11065:
~C
DEPT.M :
GR.API :
RML.OHMM :
RI. :
RXO.OHMM :
CALI.CM :
DEN.GM/CC :
SP.MV :
~A
# ...
  129.7500    87.6790     8.9500     7.4470    12.1170    24.7420     2.4340   -15.1110 
  129.8750    80.2130     8.8210     7.3550    13.3460    24.6030     2.3940   -15.1120 
  130.0000    76.5030     8.5700     7.1540    10.4240    24.3750     2.3420   -15.1630 
  130.1250    76.8670     8.5890     7.0920     8.6300    24.1860     2.3190   -15.3300 
  130.2500    77.8460     9.4150     7.4640     8.1120    24.2630     2.3480   -15.6470 
  130.3750    75.7140    11.5450     8.6690     9.1630    24.6250     2.4240   -15.9910 
  130.5000    70.7270    14.3480    10.7000    14.5760    24.9290     2.4930   -16.3780 
  130.6250    65.0450    16.8590    13.2610    26.8850    25.0750     2.5140   -16.6540 
  130.7500    61.2320    18.1190    15.4460    35.1350    25.0680     2.4710   -16.8060 
  130.8750    60.0650    17.4880    15.8340    25.7030    24.9570     2.3830   -16.8230 
  131.0000    62.2620    15.7540    14.7120    16.3060    24.8520     2.2980   -16.7540 
  131.1250    66.3980    13.8250    13.0340    12.8070    24.7680     2.2430   -16.6430 
  131.2500    69.8630    12.4440    11.5940    11.7310    24.7060     2.2200   -16.4360 
  131.3750    71.7480    11.9510    10.8160    11.7050    24.7010     2.2150   -16.2200 
  131.5000    71.5010    11.9860    10.5590    11.6940    24.7640     2.2100   -15.9920 
  131.6250    68.0180    12.2460    10.6460    11.5770    24.8660     2.2000   -15.7690 
  131.7500    62.8430    12.5140    10.8730    11.6910    24.9130     2.1900   -15.5670 
  131.8750    61.3280    12.6650    11.0500    12.0570    24.8990     2.1850   -15.3880 
  132.0000    62.7010    12.7030    11.0950    12.1770    24.8870     2.1870   -15.2870 
  132.1250    62.2790    12.6470    11.0000    11.9990    24.8850     2.1920   -15.2170 
  132.2500    60.2620    12.5100    10.7950    11.7570    24.8850     2.1930   -15.1600 
  132.3750    61.5790    12.2710    10.5310    11.1430    24.8750     2.1890   -15.1490 
  132.5000    64.3530    11.9410    10.2620    11.0320    24.8220     2.1830   -15.1290 
  132.6250    67.1410    11.5470    10.0070    11.1960    24.6950     2.1810   -15.1600 
  132.7500    69.4590    11.1600     9.7830    11.0760    24.5810     2.1840   -15.2960 
  132.8750    71.0200    10.9280     9.6620    10.6510    24.5950     2.1870   -15.4780 
  133.0000    70.7860    10.9450     9.6990    10.4590    24.7500     2.1850   -15.6380 
  133.1250    69.5650    11.2600     9.9310    10.6550    24.9230     2.1770   -15.8030 
  133.2500    68.8200    11.8370    10.3480    11.3050    25.0510     2.1660   -16.0600 
  133.3750    66.3190    12.5590    10.8910    12.0880    25.0210     2.1610   -16.3210 
  133.5000    63.0850    13.2090    11.4140    12.5420    24.8210     2.1620   -16.6000 
  133.6250    61.7230    13.6220    11.8060    12.5550    24.6280     2.1620   -16.8600 
  133.7500    61.9520    13.6810    11.9670    12.2640    24.5390     2.1600   -16.9850 
  133.8750    62.0870    13.2900    11.7550    11.7820    24.5290     2.1600   -17.0970 
  134.0000    62.1290    12.5890    11.2110    11.4750    24.5770     2.1690   -17.1790 
  134.1250    64.3630    11.7290    10.4460    11.3960    24.6650     2.1890   -17.2190 
  134.2500    68.6260    10.8950     9.6430    10.7780    24.7320     2.2120   -17.1820 
  134.3750    73.2870    10.3260     9.0260     9.4330    24.7500     2.2240   -17.1760 
  134.5000    75.9590    10.1160     8.6960     8.6610    24.7390     2.2210   -17.2310 
  134.6250    75.1560    10.2790     8.6820     9.3090    24.6980     2.2070   -17.3050 
  134.7500    71.5820    10.7200     8.9430    10.6210    24.6460     2.1910   -17.4780 
  134.8750    67.6400    11.2340     9.3750    11.3440    24.6310     2.1800   -17.6980 
  135.0000    65.6320    11.5930     9.7740    11.4980    24.6370     2.1730   -17.9560 
  135.1250    65.2350    11.7070    10.0120    11.4700    24.6270     2.1700   -18.2220 
  135.2500    63.9230    11.6080    10.0500    11.3910    24.6040     2.1690   -18.4210 
  135.3750    61.1540    11.3920     9.9330    11.1940    24.6120     2.1740   -18.5210 
  135.5000    61.2360    11.1870     9.7830    11.0500    24.6350     2.1790   -18.5350 
  135.6250    65.7650    11.0710     9.6790    11.1690    24.6880     2.1790   -18.5170 
  135.7500    69.9020    11.1210     9.7090    11.3490    24.7720     2.1760   -18.5140 
  135.8750    68.8920    11.4380     9.9830    11.2950    24.8860     2.1790   -18.4940 
  136.0000    67.5730    11.9420    10.4560    11.1790    24.9880     2.1980   -18.4830 
  136.1250    68.0930    12.4650    11.0070    11.6840    24.9820     2.2310   -18.4540 
  136.2500    67.3260    12.7720    11.4270    13.4780    24.7580     2.2650   -18.4710 
  136.3750    63.5960    12.6020    11.4320    15.7910    24.4380     2.2800   -18.5720 
  136.5000    62.6890    12.0370    11.0300    14.1370    24.4010     2.2720   -18.7230 
  136.6250    65.1220    11.2950    10.3700    11.6420    24.5720     2.2480   -18.9760 
  136.7500    66.9490    10.6810     9.6760    10.3910    24.7010     2.2200   -19.2230 
  136.8750    66.4400    10.5490     9.2100    10.1470    24.6510     2.2040   -19.5540 
  137.0000    66.4580    10.9010     9.0850    10.2920    24.5370     2.2070   -19.9070 
  137.1250    66.7540    11.5780     9.3180    10.6650    24.4080     2.2290   -20.3240 
  137.2500    65.8050    12.2910     9.8110    11.1230    24.2370     2.2590   -20.8560 
  137.3750    65.2240    12.6730    10.3420    11.7470    24.0120     2.2780   -21.3660 
  137.5000    66.2730    12.6280    10.6610    12.2660    24.0230     2.2740   -21.8950 
  137.6250    66.2440    12.2290    10.6760    12.0780    24.2580     2.2490   -22.3400 
  137.7500    63.7270    11.6670    10.4500    11.8090    24.5740     2.2160   -22.7550 
  137.8750    61.7790    11.1750    10.1540    11.5990    24.6760     2.1920   -23.0280 
  138.0000    62.7200    10.8730     9.9390    11.5030    24.6820     2.1830   -23.1650 
  138.1250    65.5840    10.7560     9.8300    11.2530    24.6420     2.1900   -23.1170 
  138.2500    67.4680    10.7130     9.7510    10.8040    24.6000     2.2110   -22.6990 
  138.3750    67.3000    10.5070     9.4940    10.5180    24.5340     2.2440   -21.9240 
  138.5000    69.2370     9.9930     8.9390    10.2060    24.4560     2.2810   -20.7950 
  138.6250    76.8300     9.1690     8.1070     9.6640    24.3710     2.3140   -19.3970 
  138.7500    88.3430     8.1930     7.1560     8.3580    24.3210     2.3380   -17.8600 
  138.8750    94.4390     7.3530     6.3410     6.9820    24.3600     2.3490   -16.2560 
  139.0000    92.2290     6.8430     5.8110     6.2630    24.4650     2.3550   -14.7040 
  139.1250    85.9750     6.7400     5.6190     6.3010    24.4990     2.3610   -13.2770 
  139.2500    81.8280     7.0230     5.7640     6.4740    24.4280     2.3650   -12.1090 
  139.3750    81.9050     7.6180     6.2420     7.1530    24.3060     2.3570   -11.3260 
  139.5000    81.1950     8.2850     6.8780     8.4570    24.1720     2.3360   -10.8630 
  139.6250    77.4220     8.8320     7.4850     9.1690    24.0650     2.3060   -10.7290 
  139.7500    72.9220     9.1340     7.8930     9.2960    23.9970     2.2760   -10.7400 
  139.8750    72.9890     9.1650     8.0170     9.1230    23.9690     2.2550   -10.8990 
  140.0000    76.9280     9.1080     8.0070     8.8420    23.9450     2.2410   -11.1410 
  140.1250    80.9940     9.0970     8.0020     8.8500    23.9430     2.2320   -11.4430 
  140.2500    81.7660     9.1970     8.0930     9.1400    23.9830     2.2260   -11.8070 
  140.3750    80.0940     9.4180     8.2980     9.5370    23.9790     2.2220   -12.1060 
  140.5000    79.1550     9.7140     8.5260    10.1470    23.8720     2.2210   -12.4140 
  140.6250    78.9200    10.0670     8.7130    10.9430    23.7130     2.2190   -12.6200 
  140.7500    78.4670    10.4240     8.8250    11.7400    23.6490     2.2150   -12.7620 
  140.8750    77.0770    10.6450     8.8390    10.8110    23.7670     2.2080   -12.8110 
