~V
VERS. 2.00: Ver 2.00
~W
STRT.M 52.0000:
STOP.M 286.0000:
STEP.M 0.1250:
NULL. -999.2500:
UWI. F11061:
~C
DEPT.M :
GR.API :
RML.OHMM :
RI. :
RXO.OHMM :
CALI.CM :
DEN.GM/CC :
SP.MV :
~A
# ...
  265.7500    59.5530     8.2480     7.6040     7.9210    23.9190     2.4370   -20.2530 
  265.8750    56.7870     8.1780     7.5730     8.0290    23.8400     2.4380   -20.2230 
  266.0000    56.6310     8.0940     7.5230     8.2360    23.7400     2.4410   -20.1980 
  266.1250    58.1680     8.0330     7.4850     8.3960    23.6180     2.4470   -20.1640 
  266.2500    58.7080     8.0160     7.4760     8.2520    23.4970     2.4500   -20.1460 
  266.3750    56.6530     8.0440     7.5030     8.1680    23.4350     2.4530   -20.1510 
  266.5000    53.9810     8.0940     7.5520     8.4620    23.4720     2.4560   -20.1610 
  266.6250    52.8490     8.1280     7.5930     9.1280    23.5650     2.4590   -20.1730 
  266.7500    52.6780     8.1190     7.6030     9.8740    23.6990     2.4610   -20.1940 
  266.8750    52.3860     8.0610     7.5720    10.0170    23.8420     2.4590   -20.2200 
  267.0000    51.9860     7.9700     7.5060     9.4620    23.9240     2.4530   -20.2550 
  267.1250    51.7540     7.8880     7.4380     8.8700    23.9650     2.4460   -20.2890 
  267.2500    51.2260     7.8460     7.3980     8.6660    23.9980     2.4400   -20.2880 
  267.3750    51.1070     7.8690     7.4100     8.7840    24.0170     2.4410   -20.2430 
  267.5000    52.1340     7.9740     7.4980     9.2940    24.0120     2.4480   -20.1980 
  267.6250    52.9180     8.1520     7.6570     9.7850    23.9910     2.4580   -20.1720 
  267.7500    52.7060     8.3880     7.8750    10.3540    23.9590     2.4680   -20.1510 
  267.8750    51.6090     8.6630     8.1370    11.0960    23.9150     2.4760   -20.1420 
  268.0000    51.0160     8.9470     8.4190    11.9790    23.8790     2.4800   -20.1440 
  268.1250    51.3530     9.2090     8.6890    13.2910    23.8550     2.4820   -20.1450 
  268.2500    52.2140     9.4230     8.9210    14.7600    23.8470     2.4810   -20.1700 
  268.3750    52.8530     9.5740     9.0980    13.8630    23.8490     2.4790   -20.2310 
  268.5000    53.2010     9.6520     9.2050    12.1580    23.8560     2.4750   -20.2940 
  268.6250    53.7740     9.6790     9.2580    11.2360    23.8580     2.4700   -20.3470 
  268.7500    54.4620     9.6770     9.2810    11.0540    23.8490     2.4660   -20.4110 
  268.8750    54.4870     9.6700     9.2940    11.1220    23.8410     2.4640   -20.4730 
  269.0000    52.4330     9.6660     9.3100    11.1040    23.8360     2.4670   -20.5290 
  269.1250    49.8950     9.6520     9.3130    10.8590    23.8320     2.4730   -20.6150 
  269.2500    49.7250     9.5990     9.2760    10.5220    23.8250     2.4780   -20.7300 
  269.3750    52.0300     9.4780     9.1710    10.3810    23.8170     2.4800   -20.8660 
  269.5000    53.6760     9.2630     8.9700    10.0370    23.8070     2.4770   -21.0280 
  269.6250    53.3470     8.9780     8.7000     9.7700    23.7990     2.4710   -21.2090 
  269.7500    53.1740     8.6710     8.4010     9.8030    23.7830     2.4670   -21.3960 
  269.8750    54.9230     8.3950     8.1260    10.0640    23.7650     2.4660   -21.5890 
  270.0000    57.7250     8.2120     7.9300    10.4100    23.7650     2.4690   -21.7750 
  270.1250    58.5390     8.1380     7.8360    11.4300    23.7560     2.4720   -21.9320 
  270.2500    57.0690     8.1600     7.8380    13.7840    23.7450     2.4710   -22.0560 
  270.3750    56.2680     8.2470     7.9130    15.0970    23.7290     2.4650   -22.1360 
  270.5000    57.9090     8.3570     8.0240    12.8220    23.6960     2.4540   -22.1680 
  270.6250    58.3120     8.4420     8.1230    10.1180    23.6700     2.4410   -22.1710 
  270.7500    56.4890     8.4740     8.1780     8.7960    23.6580     2.4300   -22.1500 
  270.8750    55.1340     8.4400     8.1740     8.2640    23.6370     2.4260   -22.0880 
  271.0000    56.1310     8.3470     8.1100     7.9770    23.5620     2.4300   -22.0000 
  271.1250    57.5000     8.2270     8.0170     7.7840    23.4420     2.4370   -21.9280 
  271.2500    58.1720     8.1150     7.9200     7.6110    23.3350     2.4440   -21.8560 
  271.3750    58.3580     8.0310     7.8420     7.5130    23.3200     2.4480   -21.7710 
  271.5000    58.0760     7.9880     7.7900     7.5540    23.4070     2.4500   -21.7050 
  271.6250    58.2290     7.9680     7.7570     7.6780    23.5340     2.4510   -21.6590 
  271.7500    59.0700     7.9540     7.7280     7.8060    23.6420     2.4520   -21.6110 
  271.8750    59.3270     7.9260     7.6900     7.7610    23.7070     2.4500   -21.5870 
  272.0000    58.9560     7.8700     7.6320     7.6100    23.7380     2.4430   -21.5880 
  272.1250    59.7140     7.7870     7.5540     7.5200    23.7420     2.4290   -21.5550 
  272.2500    61.3170     7.6870     7.4640     7.5320    23.7210     2.4120   -21.5010 
  272.3750    62.0100     7.5900     7.3760     7.5930    23.6680     2.3950   -21.4470 
  272.5000    60.9170     7.5220     7.3080     7.5700    23.5740     2.3890   -21.3820 
  272.6250    58.9030     7.5000     7.2780     7.3470    23.4110     2.3920   -21.3020 
  272.7500    57.9010     7.5310     7.2910     7.0220    23.1780     2.4040   -21.2310 
  272.8750    58.5900     7.6140     7.3500     6.8840    22.9340     2.4190   -21.1500 
  273.0000    59.5480     7.7410     7.4520     6.9130    22.8310     2.4320   -21.0310 
  273.1250    59.7970     7.8890     7.5760     6.8490    22.8860     2.4430   -20.8900 
  273.2500    60.2630     8.0370     7.7030     6.6590    23.0520     2.4520   -20.7270 
  273.3750    61.5480     8.1670     7.8180     6.6790    23.2640     2.4600   -20.5450 
  273.5000    62.8530     8.2620     7.9030     6.9500    23.5030     2.4670   -20.3470 
  273.6250    63.6280     8.3250     7.9580     7.2510    23.6640     2.4720   -20.1600 
  273.7500    63.3230     8.3620     7.9900     7.6040    23.7420     2.4770   -19.9800 
  273.8750    61.4010     8.3860     8.0070     7.9530    23.7640     2.4830   -19.8170 
  274.0000    59.4550     8.4080     8.0220     8.2350    23.7780     2.4910   -19.7190 
  274.1250    58.6440     8.4370     8.0420     8.2670    23.8210     2.5010   -19.6980 
  274.2500    58.3210     8.4730     8.0690     8.3460    23.8810     2.5090   -19.7540 
  274.3750    58.7230     8.5120     8.1030     8.6730    23.9290     2.5130   -19.8700 
  274.5000    59.9790     8.5500     8.1420     9.1420    23.9470     2.5070   -20.0190 
  274.6250    60.2180     8.5870     8.1850     9.5190    23.9600     2.4900   -20.1620 
  274.7500    59.0570     8.6280     8.2360     9.8660    23.9820     2.4680   -20.2930 
  274.8750    58.4950     8.6800     8.2990    10.2460    24.0110     2.4470   -20.4210 
  275.0000    59.6880     8.7540     8.3780    10.4140    24.0240     2.4370   -20.5160 
  275.1250    60.4100     8.8460     8.4660    10.4220    24.0160     2.4380   -20.5660 
  275.2500    59.5090     8.9380     8.5500    10.6680    23.9840     2.4470   -20.5590 
  275.3750    58.0970     8.9990     8.6040    11.4170    23.9270     2.4560   -20.5080 
  275.5000    57.9630     8.9800     8.5910    12.3590    23.8770     2.4570   -20.4300 
  275.6250    58.0580     8.8680     8.4960    12.4820    23.8410     2.4490   -20.3350 
  275.7500    57.6910     8.6850     8.3390    11.7880    23.8200     2.4370   -20.2280 
  275.8750    58.3000     8.4880     8.1630    10.9720    23.8060     2.4280   -20.1090 
  276.0000    58.4760     8.3670     8.0460     9.9300    23.8120     2.4270   -19.9830 
  276.1250    58.4760     8.3650     8.0310     8.9440    23.8210     2.4350   -19.8620 
  276.2500    58.4760     8.4840     8.1260     8.3990    23.8270     2.4480   -19.7550 
  276.3750    58.4760     8.6820     8.3030     8.4940    23.8290     2.4610   -19.6510 
  276.5000    58.4760     8.8880     8.5080     8.9890    23.8270     2.4680   -19.5630 
  276.6250    58.4760     9.0520     8.6920     9.6640    23.8230     2.4690   -19.4990 
  276.7500    58.4760     9.1610     8.8310    10.3710    23.8120     2.4660   -19.4680 
  276.8750    58.4760     9.2330     8.9330    10.9780    23.7950     2.4600   -19.4530 
