~V
VERS. 2.00: Ver 2.00
~W
STRT.M 49.0000:
STOP.M 284.0000:
STEP.M 0.1250:
NULL. -999.2500:
UWI. F11034:
~C
DEPT.M :
GR.API :
RML.OHMM :
RI. :
RXO.OHMM :
CALI.CM :
DEN.GM/CC :
SP.MV :
~A
# ...
   60.2500    63.2620     4.2700     5.5490    10.8670    22.8050     2.1930   -22.3930 
   60.3750    64.9340     4.1450     5.3680    10.8030    22.7750     2.1970   -21.9580 
   60.5000    68.1500     4.2340     5.4070    10.4940    22.7640     2.2080   -21.4320 
   60.6250    70.1910     4.7290     5.8760    10.3760    22.7690     2.2320   -20.8870 
   60.7500    69.7830     5.7880     6.9670    11.5880    22.8110     2.2750   -20.3960 
   60.8750    67.9940     7.4370     8.7420    15.7540    22.9590     2.3360   -20.0010 
   61.0000    67.1720     9.4210    10.9860    23.7890    23.2480     2.3990   -19.7760 
   61.1250    68.5990    11.1070    13.0190    33.0180    23.5540     2.4400   -19.7310 
   61.2500    70.3060    11.8170    14.0710    39.8240    23.6680     2.4390   -19.8630 
   61.3750    69.3920    11.1160    13.5880    38.6770    23.5090     2.3950   -20.1280 
   61.5000    66.9150     9.2620    11.6680    27.4250    23.1700     2.3270   -20.4600 
   61.6250    66.4590     7.3240     9.4140    17.1880    22.8820     2.2600   -20.7810 
   61.7500    68.6700     5.9330     7.5970    11.8160    22.7400     2.2110   -21.0380 
   61.8750    69.7480     5.1910     6.4390     9.6920    22.7100     2.1830   -21.1940 
   62.0000    69.5400     4.9910     5.9140     9.0060    22.7600     2.1740   -21.1870 
   62.1250    70.9130     5.0670     5.7670     8.7800    22.8590     2.1770   -21.0140 
   62.2500    73.9320     5.2190     5.7950     8.7090    22.9420     2.1870   -20.6740 
   62.3750    76.8970     5.3200     5.8590     8.5820    22.9920     2.2030   -20.1930 
   62.5000    79.1580     5.3040     5.8690     8.2620    23.0600     2.2210   -19.6430 
   62.6250    82.2720     5.2160     5.8250     7.7360    23.1780     2.2380   -19.0890 
   62.7500    85.4760     5.1220     5.7630     7.1340    23.3160     2.2470   -18.5690 
   62.8750    87.8550     5.0720     5.7170     6.7720    23.4310     2.2480   -18.0930 
   63.0000    88.7690     5.0800     5.7030     6.7100    23.5020     2.2420   -17.6690 
   63.1250    88.7990     5.1110     5.6970     6.7410    23.5350     2.2340   -17.2690 
   63.2500    89.1600     5.1230     5.6740     6.8540    23.5760     2.2340   -16.8940 
   63.3750    89.7900     5.0910     5.6120     6.8030    23.6760     2.2440   -16.5660 
   63.5000    91.3810     5.0270     5.5180     6.5500    23.8180     2.2630   -16.2960 
   63.6250    92.9840     4.9820     5.4310     6.2650    23.9130     2.2810   -16.0820 
   63.7500    93.5510     5.0050     5.3940     6.1650    23.9470     2.2870   -15.9410 
   63.8750    92.9620     5.1260     5.4370     6.2120    23.9540     2.2810   -15.8870 
   64.0000    91.5250     5.3440     5.5730     6.3300    23.9330     2.2650   -15.9180 
   64.1250    89.4370     5.6080     5.7670     6.4380    23.8600     2.2530   -16.0620 
   64.2500    87.0140     5.8640     5.9760     6.6820    23.7260     2.2500   -16.3240 
   64.3750    86.1690     6.0730     6.1640     6.9870    23.5870     2.2560   -16.6680 
   64.5000    88.5200     6.2190     6.3030     7.1670    23.4940     2.2630   -17.0390 
   64.6250    89.5760     6.3310     6.4090     7.2010    23.4320     2.2620   -17.4050 
   64.7500    87.2800     6.4470     6.5040     7.2550    23.3730     2.2540   -17.7370 
   64.8750    83.9720     6.5870     6.6050     7.4440    23.3180     2.2420   -18.0010 
   65.0000    82.3270     6.7320     6.6950     7.7830    23.2600     2.2310   -18.1850 
   65.1250    80.6220     6.8300     6.7340     8.1150    23.2140     2.2260   -18.2450 
   65.2500    78.7260     6.8330     6.6810     8.2530    23.2040     2.2270   -18.1680 
   65.3750    78.5270     6.7220     6.5130     8.0530    23.2630     2.2290   -17.9690 
   65.5000    81.5120     6.5110     6.2400     7.4660    23.5250     2.2300   -17.6900 
   65.6250    86.3870     6.2670     5.9230     6.7170    24.0010     2.2240   -17.3930 
   65.7500    91.3590     6.0490     5.6240     6.2120    24.5180     2.2100   -17.1070 
   65.8750    94.1970     5.8970     5.3850     6.0980    24.8580     2.1930   -16.8640 
   66.0000    94.4780     5.8720     5.2650     6.2310    24.9610     2.1840   -16.7360 
   66.1250    93.8360     6.0340     5.3040     6.4320    24.9300     2.1880   -16.7510 
   66.2500    92.4220     6.4720     5.5640     6.6870    24.8360     2.2110   -16.9130 
   66.3750    89.4480     7.2650     6.1010     7.2380    24.7750     2.2500   -17.2260 
   66.5000    84.5780     8.4390     6.9600     8.9680    24.8470     2.2970   -17.7250 
   66.6250    78.7150     9.7810     8.0110    11.8820    24.9300     2.3350   -18.3640 
   66.7500    71.9650    10.9850     9.0450    15.6080    24.9000     2.3480   -19.1090 
   66.8750    65.4310    11.7240     9.8110    19.5830    24.7020     2.3300   -19.8880 
   67.0000    62.0830    11.6880    10.0220    20.8670    24.4420     2.2870   -20.6010 
   67.1250    62.1480    11.0340     9.7200    18.9500    24.3400     2.2410   -21.2030 
   67.2500    63.0430    10.1120     9.1220    17.5260    24.2670     2.2070   -21.6760 
   67.3750    63.4390     9.2760     8.4930    16.9840    24.0270     2.1900   -22.0110 
   67.5000    64.6960     8.7890     8.0530    13.9230    23.6830     2.1840   -22.1750 
   67.6250    66.1470     8.6250     7.8350    10.2130    23.5040     2.1800   -22.1580 
   67.7500    66.3180     8.6630     7.7830     8.6550    23.5120     2.1740   -21.9610 
   67.8750    65.2790     8.7740     7.8140     8.5340    23.5990     2.1690   -21.6460 
   68.0000    66.4400     8.8350     7.8370     8.6770    23.6530     2.1700   -21.2490 
   68.1250    71.1430     8.7700     7.7820     8.6790    23.6680     2.1800   -20.7990 
   68.2500    77.7040     8.5470     7.6130     8.5150    23.6780     2.1970   -20.3160 
   68.3750    83.3290     8.1850     7.3310     8.2960    23.7480     2.2200   -19.8230 
   68.5000    85.4690     7.7720     6.9920     7.9730    23.9670     2.2430   -19.3580 
   68.6250    85.3930     7.4510     6.6980     7.5160    24.2750     2.2570   -18.9700 
   68.7500    83.9220     7.3390     6.5390     7.1320    24.5010     2.2620   -18.7070 
   68.8750    81.0930     7.4960     6.5710     7.1710    24.4920     2.2600   -18.5630 
   69.0000    78.2080     7.9220     6.8190     7.8870    24.2350     2.2520   -18.5170 
   69.1250    74.3330     8.4650     7.1920     8.9650    23.9540     2.2430   -18.5580 
   69.2500    69.6400     8.9540     7.5750     9.9030    23.7850     2.2330   -18.6870 
   69.3750    67.3920     9.2460     7.8540    10.4520    23.6940     2.2230   -18.8640 
   69.5000    69.8860     9.2400     7.9230    10.4300    23.5960     2.2120   -19.0220 
   69.6250    73.8370     9.0200     7.8080     9.9030    23.4890     2.2030   -19.1140 
   69.7500    76.6770     8.7290     7.5930     9.2320    23.4140     2.1980   -19.1310 
   69.8750    77.7500     8.4990     7.3770     8.7710    23.3920     2.1990   -19.0850 
   70.0000    76.0220     8.4260     7.2480     8.4130    23.3920     2.2010   -19.0080 
   70.1250    72.9200     8.5000     7.2240     8.1100    23.3660     2.2010   -18.9690 
   70.2500    71.1510     8.6690     7.2880     8.0530    23.2790     2.1980   -18.9800 
   70.3750    70.7700     8.8660     7.3990     8.3030    23.1370     2.1940   -19.0300 
   70.5000    70.6960     9.0170     7.5090     8.5980    23.0170     2.1940   -19.1720 
   70.6250    71.8600     9.1010     7.5900     8.7250    22.9150     2.1980   -19.4000 
   70.7500    73.3950     9.1570     7.6570     8.7370    22.8040     2.2060   -19.6570 
   70.8750    71.7740     9.2790     7.7650     8.8060    22.7310     2.2140   -19.9530 
   71.0000    66.5210     9.6170     8.0150     9.1570    22.7430     2.2180   -20.3040 
   71.1250    62.1920    10.1920     8.4370    10.1190    22.8270     2.2150   -20.6530 
   71.2500    60.3820    10.9090     8.9860    11.8460    22.9410     2.2040   -20.9770 
   71.3750    59.3920    11.5610     9.5270    13.8920    23.0480     2.1880   -21.2930 
