~V
VERS. 2.00: Ver 2.00
~W
STRT.M 62.0000:
STOP.M 273.0000:
STEP.M 0.1250:
NULL. -999.2500:
UWI. F11050:
~C
DEPT.M :
SP.MV :
GR.API :
RML.OHMM :
RI. :
RXO.OHMM :
CALI.CM :
DEN.GM/CC :
~A
# ...
   73.2500   -19.4250    65.9270    10.5720     7.7350     9.9250    23.8950     2.1730 
   73.3750   -19.4400    65.5890    10.4830     7.6040     9.8770    23.9280     2.1700 
   73.5000   -19.4270    69.2380    10.3880     7.4530     9.9320    23.9510     2.1730 
   73.6250   -19.2630    73.6750    10.3070     7.3260     9.9170    23.9290     2.1810 
   73.7500   -19.0620    75.3140    10.2530     7.2460     9.8150    23.9000     2.1930 
   73.8750   -18.9070    76.3940    10.2340     7.2190     9.5810    23.9300     2.2040 
   74.0000   -18.7890    79.8810    10.2590     7.2360     9.3830    23.9550     2.2090 
   74.1250   -18.6980    80.6120    10.3340     7.2880     9.5110    23.9420     2.2060 
   74.2500   -18.6470    74.8250    10.4380     7.3580     9.6080    23.9720     2.1990 
   74.3750   -18.5870    67.6710    10.5450     7.4380     9.6880    24.0770     2.1910 
   74.5000   -18.4630    65.0330    10.6250     7.5100     9.7090    24.1830     2.1830 
   74.6250   -18.4090    64.9570    10.6320     7.5420     9.6510    24.2690     2.1770 
   74.7500   -18.4400    63.9540    10.5620     7.5220     9.7160    24.2660     2.1770 
   74.8750   -18.4260    64.7600    10.4390     7.4580    10.0670    24.1900     2.1860 
   75.0000   -18.3140    68.2290    10.3170     7.3790    10.4960    24.0730     2.2020 
   75.1250   -18.1190    72.0970    10.2790     7.3330    10.5450    24.0030     2.2180 
   75.2500   -17.8450    74.3590    10.3490     7.3460    10.3990    23.9930     2.2260 
   75.3750   -17.5440    74.7170    10.5090     7.4220    10.4220    23.9970     2.2230 
   75.5000   -17.3340    73.6410    10.7000     7.5350    10.7340    24.0000     2.2100 
   75.6250   -17.0970    72.2110    10.8320     7.6370    10.7830    24.0130     2.1990 
   75.7500   -16.7350    70.8780    10.8410     7.6730    10.6860    24.0360     2.1940 
   75.8750   -16.3180    68.2630    10.6990     7.6160    10.5450    24.0470     2.2000 
   76.0000   -15.8790    66.1980    10.4380     7.4800    10.3660    24.0500     2.2200 
   76.1250   -15.3930    68.3080    10.1760     7.3400    10.2030    24.0750     2.2540 
   76.2500   -14.8920    72.9120    10.0350     7.2670     9.6720    24.1520     2.2940 
   76.3750   -14.3910    77.3390    10.0760     7.2950     8.7250    24.2600     2.3370 
   76.5000   -13.7830    80.5430    10.2870     7.4180     8.9770    24.4590     2.3860 
   76.6250   -13.0890    83.5060    10.5620     7.5950    10.3510    24.6610     2.4360 
   76.7500   -12.5000    86.4100    10.7560     7.7420    11.8140    24.7960     2.4640 
   76.8750   -12.0340    88.2760    10.7930     7.7980    11.5520    24.8070     2.4620 
   77.0000   -11.6740    88.6970    10.6420     7.7210    10.6990    24.7930     2.4430 
   77.1250   -11.4300    89.0640    10.2660     7.4690    10.0620    24.7870     2.4330 
   77.2500   -11.2860    91.1580     9.7300     7.0990     9.2830    24.7640     2.4350 
   77.3750   -11.1550    93.6570     9.0950     6.6710     8.9410    24.7380     2.4370 
   77.5000   -11.1040    95.5520     8.4600     6.2520     7.9960    24.7310     2.4230 
   77.6250   -11.2670    96.0830     8.0260     5.9450     6.8210    24.6920     2.3870 
   77.7500   -11.5090    96.1720     7.9070     5.8150     6.4020    24.6030     2.3460 
   77.8750   -11.7780    97.7130     8.1120     5.8840     6.6280    24.5160     2.3100 
   78.0000   -12.0720    98.8480     8.5260     6.1150     6.9600    24.4770     2.2830 
   78.1250   -12.3310    95.7170     8.9170     6.3980     8.0690    24.4490     2.2670 
   78.2500   -12.5220    90.3930     9.0620     6.5690     9.6800    24.4160     2.2610 
   78.3750   -12.7690    87.2710     8.8760     6.5350     9.9900    24.4450     2.2660 
   78.5000   -13.0580    89.4450     8.4410     6.3010     7.9490    24.5260     2.2840 
   78.6250   -13.2510    94.4080     7.9900     5.9800     6.8490    24.6030     2.3090 
   78.7500   -13.3830    97.7280     7.7520     5.7370     6.2690    24.5170     2.3280 
   78.8750   -13.5110    96.0310     7.8370     5.6740     6.4190    24.2600     2.3330 
   79.0000   -13.6410    90.4890     8.2540     5.8380     6.7620    23.9820     2.3240 
   79.1250   -13.8600    85.5260     8.9320     6.2360     7.4280    23.7840     2.3020 
   79.2500   -14.1980    81.0250     9.6360     6.7270     8.3480    23.6510     2.2720 
   79.3750   -14.5270    75.1510    10.1820     7.1830     9.1930    23.5640     2.2430 
   79.5000   -14.8470    70.1530    10.4330     7.4760     9.4780    23.5280     2.2220 
   79.6250   -15.1470    70.9830    10.2650     7.4780     9.2470    23.5460     2.2160 
   79.7500   -15.4770    74.9280     9.8190     7.2540     8.8240    23.5840     2.2230 
   79.8750   -15.7530    76.4160     9.3120     6.9430     8.6660    23.6370     2.2430 
   80.0000   -15.9980    75.0790     9.0090     6.7270     8.7850    23.7870     2.2750 
   80.1250   -16.1420    75.9260     9.1990     6.8030     8.0750    24.0460     2.3160 
   80.2500   -16.2340    78.3110     9.8620     7.1870     7.3950    24.3250     2.3610 
   80.3750   -16.3220    77.0740    10.8350     7.8200     7.6950    24.4900     2.4040 
   80.5000   -16.3980    71.5480    11.7590     8.5130     8.7090    24.3680     2.4310 
   80.6250   -16.5890    67.7340    12.0770     8.9060     9.5800    24.1850     2.4010 
   80.7500   -16.7050    66.3000    11.7150     8.8410     9.7350    24.0920     2.3280 
   80.8750   -16.8340    66.5100    10.9360     8.4040     9.2690    24.1340     2.2580 
   81.0000   -16.9320    68.2360    10.1660     7.8400     8.4180    24.1970     2.2230 
   81.1250   -17.0570    69.1840     9.7550     7.4010     7.8100    24.2000     2.2180 
   81.2500   -17.1200    68.3550     9.5970     7.1190     8.3440    24.2100     2.2190 
   81.3750   -17.1610    66.9650     9.4510     6.9080     9.1340    24.2820     2.2210 
   81.5000   -17.1490    67.3120     9.1750     6.6980     9.7120    24.3600     2.2330 
   81.6250   -17.0480    71.4470     8.9480     6.5770     9.4730    24.3220     2.2710 
   81.7500   -16.9920    78.1430     9.1450     6.7140     8.4010    24.2730     2.3290 
   81.8750   -16.9500    82.5900    10.0580     7.2650     7.6030    24.2540     2.3890 
   82.0000   -16.9880    79.8320    11.7780     8.3220     8.8830    24.2510     2.4390 
   82.1250   -17.0820    71.4230    14.0150     9.8430    14.6090    24.2170     2.4700 
   82.2500   -17.2950    66.5320    15.8100    11.2810    19.5820    24.1290     2.4730 
   82.3750   -17.5490    66.2860    16.3200    12.0040    15.4640    24.0540     2.4350 
   82.5000   -17.9310    66.7430    15.3500    11.7040    11.4550    24.0110     2.3660 
   82.6250   -18.3420    65.2270    13.5720    10.6610    10.0580    24.0290     2.2940 
   82.7500   -18.7870    63.1710    12.0570     9.6130     9.8620    24.0700     2.2420 
   82.8750   -19.2370    63.9130    11.1600     8.8620    10.1920    24.1450     2.2130 
   83.0000   -19.6250    67.5100    10.7950     8.4410    10.5540    24.3030     2.2000 
   83.1250   -19.9810    69.4900    10.6840     8.2390    10.6130    24.3780     2.1970 
   83.2500   -20.2370    68.4680    10.5830     8.0910    10.5070    24.3570     2.2000 
   83.3750   -20.4560    65.8230    10.5140     7.9830    10.3470    24.2530     2.2090 
   83.5000   -20.5810    63.9200    10.6380     7.9980    10.2150    24.1580     2.2150 
   83.6250   -20.7280    62.1510    11.1950     8.2970    10.1690    24.1240     2.2130 
   83.7500   -20.7930    61.6700    12.1370     8.8820    10.4570    24.1590     2.2060 
   83.8750   -20.8530    62.6220    13.2610     9.6610    11.8170    24.2380     2.1960 
   84.0000   -20.8950    62.2300    14.1900    10.3960    14.6930    24.4100     2.1830 
   84.1250   -20.9240    61.6330    14.3680    10.6720    16.4280    24.5480     2.1720 
   84.2500   -20.9400    64.0230    13.7600    10.3750    14.3400    24.5480     2.1690 
   84.3750   -20.9370    67.3230    12.6640     9.6580    11.8590    24.3080     2.1760 
