~V
VERS. 2.00: Ver 2.00
~W
STRT.M 50.0000:
STOP.M 229.0000:
STEP.M 0.1250:
NULL. -999.2500:
UWI. F11009:
~C
DEPT.M :
DEN.GM/CC :
GR.API :
RML.OHMM :
RI. :
RXO.OHMM :
CALI.CM :
SP.MV :
~A
# ...
  106.2500     2.1900    90.5030     6.9340     6.4660     9.5530    28.7890   -19.6830 
  106.3750     2.1980    91.9380     7.0190     6.4810     9.5590    28.8920   -19.3700 
  106.5000     2.2050    89.2620     7.1180     6.5100     9.6050    28.9570   -19.0820 
  106.6250     2.2080    87.9100     7.2070     6.5450     9.4610    28.9780   -18.8500 
  106.7500     2.2030    88.5830     7.2720     6.5710     9.6150    28.9780   -18.6860 
  106.8750     2.1900    86.6530     7.3100     6.5820     9.9020    28.9780   -18.5940 
  107.0000     2.1730    80.7450     7.3220     6.5730    10.1440    28.9780   -18.5670 
  107.1250     2.1610    75.6510     7.3140     6.5500     9.9970    28.9780   -18.5590 
  107.2500     2.1580    73.5510     7.2990     6.5240     9.8520    28.9780   -18.5950 
  107.3750     2.1640    74.2690     7.2870     6.5060     9.7370    28.9780   -18.6450 
  107.5000     2.1740    77.0860     7.2870     6.5030     9.9500    28.9780   -18.6800 
  107.6250     2.1810    78.5820     7.3040     6.5220    10.1930    28.9780   -18.7410 
  107.7500     2.1850    77.3510     7.3290     6.5520    10.3870    28.9780   -18.8430 
  107.8750     2.1900    77.5290     7.3460     6.5820    10.4670    28.9730   -18.9740 
  108.0000     2.1970    81.0860     7.3420     6.5980    10.4830    28.9430   -19.1140 
  108.1250     2.2050    82.1530     7.3030     6.5840    10.4240    28.8680   -19.3160 
  108.2500     2.2120    78.0620     7.2340     6.5400    10.3000    28.8000   -19.5440 
  108.3750     2.2140    71.3580     7.1420     6.4700    10.1150    28.8150   -19.7680 
  108.5000     2.2100    66.8960     7.0360     6.3800     9.9840    28.9550   -19.9880 
  108.6250     2.1890    68.0780     6.9280     6.2820     9.8680    29.3040   -20.1700 
  108.7500     2.1430    71.8370     6.8360     6.1880     9.6550    29.6900   -20.3050 
  108.8750     2.0720    74.4490     6.7720     6.1080     9.4160    30.1590   -20.3930 
  109.0000     1.9950    74.9580     6.7400     6.0460     9.2820    30.6320   -20.4720 
  109.1250     1.9470    75.9620     6.7310     6.0030     9.1930    30.7000   -20.5420 
  109.2500     1.9470    77.9780     6.7300     5.9740     9.1660    29.9860   -20.5660 
  109.3750     1.9900    78.7560     6.7420     5.9610     9.3440    28.9800   -20.5380 
  109.5000     2.0530    77.7520     6.8010     5.9820     9.7330    28.3400   -20.4590 
  109.6250     2.1080    76.3770     6.9750     6.0810     9.7920    28.1570   -20.3370 
  109.7500     2.1480    76.4700     7.2790     6.2750    10.1050    28.1000   -20.1950 
  109.8750     2.1820    77.8290     7.6880     6.5640    10.7460    28.0280   -20.0300 
  110.0000     2.2190    78.3780     8.1150     6.9020    11.9230    27.9590   -19.8120 
  110.1250     2.2610    77.4430     8.3960     7.1830    13.5690    27.9520   -19.5700 
  110.2500     2.2920    77.5800     8.4390     7.3110    14.5940    28.0050   -19.3460 
  110.3750     2.3020    80.6150     8.2360     7.2430    13.7680    28.0790   -19.1660 
  110.5000     2.2870    83.8500     7.8670     7.0100    11.9470    28.1190   -19.0190 
  110.6250     2.2520    83.2220     7.4750     6.6990    10.7540    28.0320   -18.9000 
  110.7500     2.2170    79.5640     7.1850     6.4290     9.9570    27.8070   -18.7620 
  110.8750     2.1920    76.2410     7.0390     6.2600     9.7080    27.5760   -18.5530 
  111.0000     2.1770    75.0240     7.0180     6.2040     9.8820    27.4430   -18.2150 
  111.1250     2.1720    76.7190     7.0530     6.2290    10.1580    27.3880   -17.6600 
  111.2500     2.1730    80.3720     7.0390     6.2470    10.2640    27.3290   -16.8760 
  111.3750     2.1860    84.2990     6.9100     6.1860    10.0980    27.2930   -15.8320 
  111.5000     2.2140    87.3040     6.6360     6.0020     9.7570    27.2520   -14.5560 
  111.6250     2.2520    90.2750     6.2270     5.6790     9.3190    27.2270   -13.0800 
  111.7500     2.2860    95.9260     5.7730     5.2930     8.3180    27.2810   -11.5450 
  111.8750     2.3090   103.8840     5.3430     4.9090     6.7090    27.4340   -10.0700 
  112.0000     2.3190   109.0160     4.9890     4.5780     5.5920    27.7680    -8.7850 
  112.1250     2.3210   108.8340     4.7480     4.3410     4.9570    28.2800    -7.7960 
  112.2500     2.3270   107.9250     4.6040     4.1860     4.6030    28.4580    -7.1470 
  112.3750     2.3380   110.1970     4.5500     4.1030     4.5460    27.9990    -6.8710 
  112.5000     2.3530   111.7820     4.5860     4.0900     4.8630    27.4570    -6.9740 
  112.6250     2.3610   106.6930     4.7260     4.1560     5.2190    27.2240    -7.4490 
  112.7500     2.3540    99.1260     4.9470     4.2890     5.3870    27.1140    -8.1440 
  112.8750     2.3310    93.0050     5.2160     4.4780     5.7690    27.0160    -8.9470 
  113.0000     2.2950    88.1160     5.4880     4.6930     6.4040    26.8970    -9.7910 
  113.1250     2.2550    82.9240     5.7000     4.8900     7.1470    26.8200   -10.6380 
  113.2500     2.2230    79.1490     5.8370     5.0370     7.4750    26.7800   -11.4820 
  113.3750     2.2020    77.1470     5.9150     5.1310     7.6020    26.7480   -12.3120 
  113.5000     2.1940    75.4140     5.9710     5.1940     7.7790    26.7140   -13.0970 
  113.6250     2.1980    75.4300     6.0530     5.2660     8.0350    26.6460   -13.8390 
  113.7500     2.2080    76.5480     6.1700     5.3670     8.2470    26.5310   -14.5750 
  113.8750     2.2180    75.3590     6.2990     5.4880     8.4130    26.4290   -15.3620 
  114.0000     2.2230    72.0160     6.4040     5.6030     8.6860    26.4250   -16.1650 
  114.1250     2.2200    70.1180     6.4550     5.6830     9.0370    26.4640   -16.9290 
  114.2500     2.2140    70.5020     6.4790     5.7320     9.0180    26.4780   -17.5640 
  114.3750     2.2080    71.5140     6.5140     5.7720     8.7510    26.4290   -18.0720 
  114.5000     2.2060    72.8120     6.5890     5.8210     8.5720    26.3450   -18.4470 
  114.6250     2.2080    74.2330     6.6730     5.8670     8.8000    26.2660   -18.5940 
  114.7500     2.2100    74.9860     6.6650     5.8490     8.8260    26.2240   -18.4690 
  114.8750     2.2150    75.8510     6.4610     5.6970     8.5910    26.2060   -18.0250 
  115.0000     2.2270    79.2700     6.0160     5.3680     8.1600    26.2260   -17.3280 
  115.1250     2.2490    87.1510     5.3800     4.8750     7.3620    26.3350   -16.4890 
  115.2500     2.2770    96.8780     4.7640     4.3570     6.1430    26.5700   -15.7320 
  115.3750     2.3020   105.8570     4.3390     3.9380     4.8500    26.8640   -15.1390 
  115.5000     2.3130   110.1840     4.2180     3.7180     4.3680    27.0060   -14.7890 
  115.6250     2.3030   105.6890     4.4880     3.7930     4.5670    26.8890   -14.8040 
  115.7500     2.2790    97.4900     5.0340     4.1220     5.4430    26.5890   -15.1750 
  115.8750     2.2480    89.3120     5.7340     4.6470     7.0100    26.2810   -15.8480 
  116.0000     2.2220    84.3650     6.4230     5.2620     8.7780    26.0270   -16.7250 
  116.1250     2.2070    82.8950     6.8940     5.8000    10.0270    25.8700   -17.6690 
  116.2500     2.2020    80.9940     7.0950     6.1460    10.8210    25.8000   -18.5570 
  116.3750     2.2030    79.8470     7.0690     6.2780    10.5680    25.7530   -19.3460 
  116.5000     2.2070    80.8330     6.9230     6.2450     9.7010    25.7030   -19.9500 
  116.6250     2.2100    83.2590     6.7770     6.1370     9.3220    25.6800   -20.3210 
  116.7500     2.2090    84.3180     6.6930     6.0390     9.1920    25.6800   -20.4970 
  116.8750     2.2040    83.0140     6.6710     5.9760     9.0570    25.6970   -20.5690 
  117.0000     2.2000    81.4500     6.6820     5.9450     9.0640    25.7300   -20.5720 
  117.1250     2.1980    79.9600     6.6890     5.9240     9.2910    25.7590   -20.5270 
  117.2500     2.2000    78.0300     6.6720     5.8930     9.3280    25.7820   -20.3960 
  117.3750     2.2030    76.9990     6.6310     5.8480     9.2340    25.7950   -20.1620 
