~V
VERS. 2.00: Ver 2.00
~W
STRT.M 51.0000:
STOP.M 277.0000:
STEP.M 0.1250:
NULL. -999.2500:
UWI. F11053:
~C
DEPT.M :
GR.API :
RML.OHMM :
RI. :
RXO.OHMM :
CALI.CM :
DEN.GM/CC :
SP.MV :
~A
# ...
  107.2500    97.2690     6.6430     5.7410     5.6630    25.0840     2.3270   -18.6910 
  107.3750    93.6230     7.1920     6.1660     6.4020    24.9180     2.2950   -18.8270 
  107.5000    88.8340     7.5250     6.4640     7.0270    24.8180     2.2700   -19.0100 
  107.6250    87.4450     7.4350     6.4590     7.2430    24.8510     2.2660   -19.1980 
  107.7500    90.2310     6.9320     6.1170     6.7830    25.0350     2.2820   -19.3660 
  107.8750    94.9070     6.2090     5.5490     5.6650    25.2800     2.3090   -19.5080 
  108.0000    98.7570     5.5490     4.9560     4.9660    25.4700     2.3370   -19.6490 
  108.1250    99.8740     5.1360     4.5100     4.6810    25.5510     2.3560   -19.8020 
  108.2500    98.0350     5.0510     4.3150     4.6320    25.5610     2.3630   -19.9620 
  108.3750    94.9560     5.3390     4.4290     4.7030    25.5130     2.3570   -20.1260 
  108.5000    92.5230     6.0740     4.9190     5.3070    25.3410     2.3360   -20.3120 
  108.6250    89.0220     7.1450     5.7060     6.6370    25.0690     2.3000   -20.5650 
  108.7500    83.7350     8.3180     6.6490     8.0970    24.7830     2.2540   -20.8740 
  108.8750    78.9050     9.2310     7.5030     9.0810    24.5730     2.2070   -21.2230 
  109.0000    76.9020     9.4760     7.9120     9.4160    24.5010     2.1770   -21.5300 
  109.1250    76.5170     9.1240     7.8120     9.3350    24.5260     2.1690   -21.7870 
  109.2500    76.2020     8.4930     7.3740     8.9990    24.6180     2.1780   -22.0120 
  109.3750    75.7490     7.9420     6.8640     8.5190    24.7230     2.1940   -22.2140 
  109.5000    74.9280     7.7600     6.5350     7.8640    24.7770     2.2030   -22.3840 
  109.6250    73.6330     7.9690     6.4730     7.6140    24.7900     2.2030   -22.5150 
  109.7500    72.2460     8.4760     6.6610     8.1910    24.7900     2.1970   -22.6010 
  109.8750    71.0440     9.1100     7.0190     8.8350    24.7900     2.1870   -22.6490 
  110.0000    71.0620     9.6480     7.4130     9.0360    24.7900     2.1760   -22.6750 
  110.1250    71.1570     9.9790     7.7130     9.1980    24.7920     2.1660   -22.6900 
  110.2500    71.0830    10.1250     7.8660     9.4740    24.7980     2.1580   -22.7000 
  110.3750    72.1980    10.1870     7.8970     9.7390    24.8190     2.1540   -22.6870 
  110.5000    74.8500    10.2800     7.8770     9.7580    24.8780     2.1550   -22.6450 
  110.6250    76.0560    10.4390     7.8690     9.6250    24.9560     2.1620   -22.5800 
  110.7500    74.1040    10.6240     7.8900     9.5360    25.0190     2.1680   -22.5190 
  110.8750    71.2620    10.7620     7.9300     9.5720    25.0490     2.1730   -22.4330 
  111.0000    70.5280    10.7480     7.9420     9.6610    25.0540     2.1770   -22.3480 
  111.1250    71.5020    10.5560     7.8850     9.6770    25.0540     2.1840   -22.2260 
  111.2500    73.3400    10.2180     7.7440     9.6220    25.0500     2.1940   -22.0470 
  111.3750    74.8600     9.8210     7.5380     9.5800    25.0320     2.2060   -21.8230 
  111.5000    75.4870     9.4830     7.3320     8.9620    24.9730     2.2150   -21.5810 
  111.6250    76.1240     9.2730     7.1890     8.0930    24.8890     2.2190   -21.3300 
  111.7500    76.5520     9.2130     7.1480     7.9540    24.8230     2.2130   -21.0500 
  111.8750    74.6490     9.3120     7.2220     8.6820    24.8060     2.1950   -20.7770 
  112.0000    69.6100     9.5960     7.4480     9.3520    24.8670     2.1730   -20.5110 
  112.1250    64.9770    10.0180     7.8250     9.5820    24.9910     2.1620   -20.2620 
  112.2500    62.5090    10.4560     8.2930     9.6470    25.0810     2.1790   -20.0170 
  112.3750    61.2660    10.6890     8.7030     9.9500    25.0590     2.2310   -19.7660 
  112.5000    62.7160    10.3920     8.7710    11.1460    24.9670     2.3060   -19.4570 
  112.6250    68.2350     9.5450     8.3590    11.8430    24.9840     2.3720   -19.0680 
  112.7500    76.8360     8.3680     7.5340    10.0730    25.1750     2.4060   -18.6240 
  112.8750    87.1410     7.1970     6.5400     7.3360    25.4410     2.4030   -18.1580 
  113.0000    97.1460     6.3760     5.6960     6.0470    25.5140     2.3750   -17.6840 
  113.1250   103.1020     5.9890     5.1540     5.7610    25.3680     2.3440   -17.2310 
  113.2500   103.2580     5.9930     4.9380     5.7270    25.2080     2.3200   -16.8230 
  113.3750   100.6680     6.2590     4.9970     5.9450    25.1230     2.3050   -16.4790 
  113.5000    99.9120     6.5510     5.2070     6.4570    25.0770     2.3000   -16.2220 
  113.6250    99.6420     6.6580     5.3880     6.8240    25.0590     2.3010   -16.0430 
  113.7500    98.2660     6.5420     5.4540     6.4520    25.0600     2.3080   -15.9350 
  113.8750    97.6070     6.3330     5.4390     5.8270    25.0790     2.3230   -15.8670 
  114.0000    98.6510     6.2480     5.4630     5.3560    25.1180     2.3480   -15.8250 
  114.1250    99.7300     6.3810     5.6130     5.4500    25.1280     2.3800   -15.8050 
  114.2500    98.6160     6.6890     5.8920     6.5870    25.1040     2.4080   -15.8040 
  114.3750    95.3040     7.0270     6.2110     8.5340    25.0780     2.4190   -15.7910 
  114.5000    91.8890     7.1810     6.3770     9.3840    25.0830     2.4050   -15.7740 
  114.6250    91.5290     7.0750     6.2940     7.9170    25.1200     2.3790   -15.7660 
  114.7500    95.1730     6.7790     6.0050     6.4410    25.2020     2.3540   -15.7710 
  114.8750   100.5860     6.4410     5.6480     5.7450    25.3480     2.3370   -15.7750 
  115.0000   103.4470     6.2210     5.3830     5.4410    25.4840     2.3270   -15.8210 
  115.1250   102.6880     6.1650     5.2770     5.4180    25.5280     2.3180   -15.8800 
  115.2500    99.0960     6.2520     5.3200     5.6160    25.4750     2.3100   -15.9490 
  115.3750    94.9920     6.4210     5.4610     6.0240    25.3590     2.3070   -16.0440 
  115.5000    93.5190     6.5970     5.6200     6.2840    25.2810     2.3080   -16.1770 
  115.6250    94.2170     6.7140     5.7260     6.3270    25.2400     2.3070   -16.3200 
  115.7500    94.9100     6.7480     5.7540     6.0610    25.1960     2.3010   -16.4840 
  115.8750    95.5700     6.7220     5.7310     5.9210    25.1360     2.2910   -16.6700 
  116.0000    96.5910     6.7090     5.7260     6.0390    25.0840     2.2840   -16.8170 
  116.1250    96.4540     6.7870     5.7970     6.0350    25.0600     2.2850   -16.9260 
  116.2500    93.6920     7.0010     5.9730     6.2450    25.0510     2.2920   -17.0120 
  116.3750    88.8320     7.3520     6.2470     6.7630    25.0460     2.3030   -17.0890 
  116.5000    84.0300     7.7990     6.5820     7.7380    25.0430     2.3130   -17.1450 
  116.6250    79.8780     8.2670     6.9240     8.3460    25.0490     2.3180   -17.1950 
  116.7500    76.6850     8.6980     7.2300     8.4830    25.0570     2.3140   -17.2330 
  116.8750    74.2130     9.0640     7.4760     8.3910    25.0830     2.2940   -17.2500 
  117.0000    72.2670     9.3920     7.6700     8.5930    25.1450     2.2510   -17.2540 
  117.1250    71.0030     9.7910     7.9130     9.0130    25.2070     2.2010   -17.2550 
  117.2500    70.6440    10.3880     8.3430     9.4930    25.2280     2.1690   -17.2190 
  117.3750    71.7210    11.2620     9.0620     9.8280    25.2080     2.1860   -17.1310 
  117.5000    73.9610    12.3060    10.0370    10.4850    25.1860     2.2670   -16.9860 
  117.6250    75.5310    13.0680    10.9400    13.1300    25.1500     2.3760   -16.7790 
  117.7500    76.7790    13.0700    11.3300    19.2450    25.0720     2.4650   -16.4990 
  117.8750    79.2550    12.1450    10.9020    21.7800    24.9800     2.5000   -16.1870 
  118.0000    84.1820    10.6070     9.7480    15.1830    24.9110     2.4660   -15.8810 
  118.1250    88.7260     9.1040     8.4400     9.1990    24.8550     2.3980   -15.5740 
  118.2500    90.9180     7.9960     7.3680     6.9250    24.8130     2.3290   -15.2950 
  118.3750    91.0880     7.3390     6.6600     6.5170    24.7880     2.2780   -15.0390 
