~V
VERS. 2.00: Ver 2.00
~W
STRT.M 53.0000:
STOP.M 287.0000:
STEP.M 0.1250:
NULL. -999.2500:
UWI. F11059:
~C
DEPT.M :
GR.API :
RML.OHMM :
RI. :
RXO.OHMM :
CALI.CM :
DEN.GM/CC :
SP.MV :
~A
# ...
  199.2500    63.5160    48.7680    57.6670    50.9380    25.1140     2.2390   -11.6780 
  199.3750    58.2050    82.4820   102.1680    90.8370    25.2420     2.2020   -12.0370 
  199.5000    56.4390   138.5460   167.5030   129.3330    25.3080     2.1830   -12.4090 
  199.6250    57.8420   217.2880   242.3370   165.4970    25.2880     2.1780   -12.7970 
  199.7500    58.2170   304.0240   302.7490   184.8290    25.2130     2.1800   -13.1800 
  199.8750    55.3530   365.6720   324.7580   207.7160    25.1450     2.1840   -13.5450 
  200.0000    52.9600   386.9870   317.8520   241.7400    25.0870     2.1860   -13.8960 
  200.1250    52.7670   372.9030   293.3460   286.6750    25.0360     2.1890   -14.2250 
  200.2500    53.9170   339.6320   261.6110   306.9900    25.0090     2.1940   -14.5350 
  200.3750    56.2270   303.4410   233.0190   262.4230    24.9930     2.2010   -14.8220 
  200.5000    58.8400   274.7130   213.8440   213.4400    24.9790     2.2050   -15.0610 
  200.6250    59.4570   257.5820   206.4180   187.0940    24.9760     2.2050   -15.2340 
  200.7500    56.5500   252.8640   210.1030   196.7710    24.9780     2.1990   -15.3430 
  200.8750    54.0090   259.1170   221.6000   277.4880    24.9710     2.1910   -15.4130 
  201.0000    54.7680   268.0280   231.9680   312.0370    24.9580     2.1870   -15.4540 
  201.1250    56.6750   271.8550   233.6360   270.2840    24.9460     2.1910   -15.4730 
  201.2500    56.6080   264.7220   222.8620   203.7960    24.9570     2.2010   -15.4780 
  201.3750    56.0600   244.9580   202.3460   171.2020    24.9970     2.2120   -15.4670 
  201.5000    56.0500   220.9760   182.0740   155.8050    25.0420     2.2200   -15.4620 
  201.6250    56.4110   199.8930   167.8770   142.5200    25.0800     2.2200   -15.4710 
  201.7500    56.5920   186.4310   162.3540   122.1540    25.0900     2.2150   -15.4950 
  201.8750    55.7150   183.9790   167.4320   127.6490    25.0880     2.2050   -15.5310 
  202.0000    54.0910   190.8630   181.1310   149.8700    25.0640     2.1950   -15.5520 
  202.1250    52.2180   206.3560   202.4780   185.1480    25.0510     2.1880   -15.5590 
  202.2500    51.5630   228.9350   229.1140   218.0170    25.0400     2.1850   -15.5510 
  202.3750    51.3200   254.6220   254.6670   247.9840    24.9980     2.1860   -15.5120 
  202.5000    50.6720   274.5620   269.4620   286.6530    24.9410     2.1860   -15.4520 
  202.6250    51.5080   279.5330   265.0200   324.9590    24.9050     2.1860   -15.3930 
  202.7500    54.1560   263.5730   238.8280   325.7680    24.9010     2.1870   -15.3340 
  202.8750    55.8790   226.9150   197.2640   257.1890    24.9200     2.1930   -15.2480 
  203.0000    55.1440   184.1220   156.1180   176.1260    24.9390     2.2040   -15.1570 
  203.1250    54.5050   145.8030   123.5870   125.6440    24.9310     2.2150   -15.0810 
  203.2500    57.4300   117.9100   102.6060    91.2590    24.9080     2.2240   -15.0090 
  203.3750    62.5530   103.4140    94.7210    74.1520    24.8970     2.2270   -14.9550 
  203.5000    63.7160    98.9680    96.5890    76.4700    24.9040     2.2250   -14.9200 
  203.6250    60.7170   102.9880   106.3700    92.5490    24.9290     2.2180   -14.8780 
  203.7500    56.9530   113.6450   121.2160   120.7750    24.9360     2.2080   -14.8020 
  203.8750    54.6390   128.1270   136.1090   152.9340    24.9320     2.1990   -14.7060 
  204.0000    53.0400   141.2510   145.9020   181.7340    24.9230     2.1950   -14.6010 
  204.1250    53.5200   149.6730   149.3240   163.0770    24.9350     2.1990   -14.4590 
  204.2500    56.7430   152.9110   149.2520   132.0150    24.9840     2.2060   -14.3020 
  204.3750    57.6590   154.0940   151.5440   130.3610    25.0300     2.2110   -14.1380 
  204.5000    55.0890   158.3200   159.8990   142.8610    25.0520     2.2120   -13.9300 
  204.6250    52.8220   168.4750   175.4270   180.3690    25.0410     2.2110   -13.6990 
  204.7500    53.3470   185.0670   196.7210   230.6370    25.0290     2.2090   -13.4790 
  204.8750    55.1500   205.0540   217.4530   262.1900    25.0210     2.2070   -13.2610 
  205.0000    56.3080   219.7640   227.4730   280.1970    25.0210     2.2030   -13.0480 
  205.1250    57.0500   220.2810   218.6780   289.4750    25.0400     2.1960   -12.8570 
  205.2500    57.9530   201.5370   189.6460   300.1570    25.0460     2.1910   -12.6760 
  205.3750    58.0340   165.4980   148.4500   224.1970    24.9920     2.1980   -12.5020 
  205.5000    57.2020   126.3840   110.1760   133.5650    24.8430     2.2190   -12.3720 
  205.6250    57.2760    93.3790    81.3180    83.5230    24.6640     2.2480   -12.2640 
  205.7500    59.9330    70.2420    62.6500    52.9830    24.5310     2.2750   -12.1760 
  205.8750    63.4470    57.2310    52.9610    34.2620    24.5330     2.2900   -12.1170 
  206.0000    63.8020    49.9270    47.8960    42.7170    24.6350     2.2950   -12.0620 
  206.1250    61.8560    46.0060    45.1700    69.9950    24.7730     2.3000   -12.0300 
  206.2500    63.2710    43.8310    43.4000    77.1710    24.8570     2.3110   -12.0070 
  206.3750    70.4180    42.6740    42.4660    56.7760    24.8980     2.3260   -11.9820 
  206.5000    75.7510    42.4620    42.8560    36.1010    24.9650     2.3340   -11.9480 
  206.6250    73.9300    43.7580    45.2160    36.9440    25.0480     2.3230   -11.9200 
  206.7500    67.4820    47.0960    49.7480    55.7810    25.1350     2.2920   -11.8980 
  206.8750    63.6620    52.6110    55.6230    93.3160    25.1590     2.2550   -11.8750 
  207.0000    64.3800    58.3960    60.0270   149.8000    25.1380     2.2280   -11.8480 
  207.1250    66.4530    62.0810    60.4490   135.0870    25.1030     2.2180   -11.7980 
  207.2500    67.9170    61.8080    56.4140    73.1730    25.0550     2.2210   -11.7490 
  207.3750    68.9230    57.2400    49.9940    51.8820    25.0050     2.2310   -11.7020 
  207.5000    69.6350    51.3530    44.3090    47.2310    24.9680     2.2380   -11.6450 
  207.6250    70.5760    46.3340    40.5450    46.7530    24.9460     2.2430   -11.5590 
  207.7500    71.7250    43.3480    38.9220    46.2990    24.9420     2.2480   -11.4440 
  207.8750    71.6340    42.9080    39.4460    45.1340    24.9420     2.2560   -11.2820 
  208.0000    69.2510    44.2540    41.3080    47.2660    24.9340     2.2660   -11.0910 
  208.1250    66.2920    46.8340    43.9030    56.6050    24.9220     2.2730   -10.8710 
  208.2500    64.0700    49.9040    46.4280    66.7780    24.9070     2.2750   -10.6120 
  208.3750    62.2000    52.2770    47.6390    67.7870    24.9030     2.2740   -10.3300 
  208.5000    61.1310    52.9790    46.8860    62.6600    24.9080     2.2790   -10.0340 
  208.6250    61.0790    51.4660    43.9970    54.7520    24.9160     2.3030    -9.7240 
  208.7500    59.9040    47.7690    39.3110    46.2450    24.8920     2.3520    -9.3980 
  208.8750    57.6640    42.2600    33.4270    40.7470    24.8160     2.4220    -9.0710 
  209.0000    58.0980    36.0560    27.3910    34.7960    24.7320     2.4880    -8.7480 
  209.1250    62.0930    29.8620    21.8710    26.5570    24.7080     2.5300    -8.4400 
  209.2500    68.0250    24.2490    17.3030    19.8120    24.7070     2.5390    -8.1360 
  209.3750    73.8960    19.7920    14.0070    15.0210    24.7260     2.5240    -7.8500 
  209.5000    79.4390    16.4470    11.6810    11.4960    24.7440     2.5060    -7.5930 
  209.6250    84.0110    14.1070    10.1390    10.4360    24.7020     2.4930    -7.3660 
  209.7500    86.8370    12.6270     9.2170     9.6350    24.6180     2.4850    -7.1770 
  209.8750    88.3010    11.8430     8.8790     8.5800    24.5890     2.4740    -7.0420 
  210.0000    87.6430    11.2650     8.9760     8.2720    24.6250     2.4600    -6.9610 
  210.1250    84.2000    10.8540     9.4760     8.8860    24.6990     2.4500    -6.9160 
  210.2500    78.8650    10.9210    10.3490    11.4920    24.7810     2.4470    -6.9110 
  210.3750    74.9230    11.7870    11.5700    16.4620    24.8220     2.4500    -6.9230 
