~V
VERS. 2.00: Ver 2.00
~W
STRT.M 52.0000:
STOP.M 287.0000:
STEP.M 0.1250:
NULL. -999.2500:
UWI. F11078:
~C
DEPT.M :
GR.API :
RML.OHMM :
RI. :
RXO.OHMM :
CALI.CM :
DEN.GM/CC :
SP.MV :
~A
# ...
  265.7500   107.5900     8.0110     7.0450     8.9790    23.8090     2.4040    -6.3500 
  265.8750   113.5120     7.1540     6.6320     7.7580    23.7090     2.4050    -5.9130 
  266.0000   121.4220     6.5010     6.2650     7.0740    23.6220     2.4040    -5.4320 
  266.1250   127.7830     6.2210     5.9960     7.0540    23.6380     2.4040    -4.9790 
  266.2500   131.2350     6.1670     5.8370     7.2540    23.7300     2.4050    -4.6240 
  266.3750   132.6080     6.1790     5.7700     7.3880    23.8390     2.4060    -4.3810 
  266.5000   130.9710     6.2330     5.7590     7.2860    23.9130     2.4040    -4.2240 
  266.6250   126.0680     6.2750     5.7500     7.1400    23.9570     2.3980    -4.1570 
  266.7500   119.9510     6.2670     5.7190     6.9500    23.9840     2.3940    -4.1980 
  266.8750   116.6660     6.1950     5.6650     6.7190    23.9870     2.3920    -4.3440 
  267.0000   117.0500     6.0710     5.5960     6.6540    23.9670     2.3940    -4.5730 
  267.1250   118.6860     5.9500     5.5190     6.7380    23.9310     2.3960    -4.8010 
  267.2500   120.3260     5.8700     5.4390     6.8350    23.8910     2.3980    -4.9840 
  267.3750   120.2780     5.8450     5.3610     6.6960    23.8310     2.3990    -5.1410 
  267.5000   117.2220     5.8640     5.3050     6.4980    23.8070     2.3990    -5.2760 
  267.6250   114.0090     5.9020     5.2930     6.5140    23.8140     2.3980    -5.3840 
  267.7500   113.7510     5.9610     5.3410     6.8380    23.8530     2.3970    -5.4350 
  267.8750   114.8700     6.0530     5.4520     7.1410    23.9080     2.3960    -5.4210 
  268.0000   113.5010     6.1890     5.6170     7.3300    23.9650     2.3940    -5.3710 
  268.1250   111.5250     6.3430     5.8000     7.5320    23.9870     2.3910    -5.3030 
  268.2500   111.2160     6.4810     5.9650     7.6910    24.0020     2.3880    -5.2060 
  268.3750   110.5170     6.5720     6.0770     7.6480    24.0490     2.3850    -5.0470 
  268.5000   109.5550     6.5730     6.0810     7.5000    24.0950     2.3830    -4.8000 
  268.6250   112.0910     6.4710     5.9620     7.4920    24.0970     2.3850    -4.4720 
  268.7500   118.7930     6.2580     5.7200     7.3270    24.0630     2.3900    -4.0870 
  268.8750   123.6730     5.9560     5.3870     6.7360    24.0520     2.3950    -3.6470 
  269.0000   120.3550     5.6140     5.0260     6.1400    24.0640     2.3920    -3.1550 
  269.1250   113.4030     5.3000     4.7120     5.6740    24.0930     2.3820    -2.6660 
  269.2500   107.0840     5.0550     4.4880     5.5280    24.1140     2.3680    -2.2150 
  269.3750   104.6550     4.9030     4.3660     5.5150    24.1220     2.3580    -1.8160 
  269.5000   106.9220     4.8610     4.3440     5.5630    24.1220     2.3610    -1.5020 
  269.6250   108.8670     4.8910     4.3700     5.6310    24.1240     2.3720    -1.2590 
  269.7500   106.9960     4.9520     4.4050     5.6410    24.1290     2.3850    -1.0820 
  269.8750   101.9340     4.9970     4.4150     5.5320    24.1290     2.3930    -0.9450 
  270.0000    98.2570     4.9800     4.3760     5.4680    24.0760     2.3940    -0.8140 
  270.1250    98.0680     4.9150     4.3020     5.4170    23.9940     2.3910    -0.6960 
  270.2500    99.1080     4.8300     4.2190     5.3550    23.9250     2.3890    -0.6290 
  270.3750   102.2750     4.7600     4.1510     5.2430    23.8760     2.3860    -0.6520 
  270.5000   106.4050     4.7390     4.1270     5.1320    23.8630     2.3830    -0.7250 
  270.6250   107.5330     4.7630     4.1430     5.1410    23.8580     2.3790    -0.8050 
  270.7500   104.4100     4.8140     4.1810     5.2390    23.8540     2.3750    -0.8560 
  270.8750   100.2860     4.8710     4.2150     5.4150    23.8480     2.3730    -0.9070 
  271.0000    97.3500     4.9100     4.2220     5.4710    23.8440     2.3720    -0.9880 
  271.1250    95.2980     4.9310     4.2040     5.3990    23.8370     2.3690    -1.0750 
  271.2500    96.2090     4.9440     4.1710     5.2450    23.8300     2.3630    -1.1070 
  271.3750   100.4430     4.9580     4.1410     5.1010    23.8010     2.3540    -1.0440 
  271.5000   104.2250     4.9680     4.1310     5.0810    23.7670     2.3480    -0.9150 
  271.6250   106.3280     4.9620     4.1350     5.1500    23.7350     2.3460    -0.7670 
  271.7500   106.3490     4.9280     4.1410     5.1980    23.7230     2.3510    -0.6150 
  271.8750   102.4780     4.8630     4.1370     5.2550    23.7220     2.3600    -0.4340 
  272.0000    97.4760     4.7700     4.1130     5.2680    23.7210     2.3680    -0.2290 
  272.1250    97.8520     4.6660     4.0750     5.2360    23.7120     2.3730    -0.0110 
  272.2500   101.5450     4.5640     4.0310     5.1760    23.6880     2.3770     0.1980 
  272.3750   102.3770     4.4760     3.9890     5.1520    23.6680     2.3850     0.4000 
  272.5000    99.3970     4.4310     3.9590     5.2490    23.6500     2.4000     0.5930 
  272.6250    96.2030     4.4520     3.9580     5.2990    23.6240     2.4140     0.7640 
  272.7500    94.5170     4.5580     4.0030     5.2530    23.5930     2.4200     0.8560 
  272.8750    96.7440     4.7460     4.1000     5.1600    23.5620     2.4110     0.8420 
  273.0000   100.7610     4.9740     4.2340     5.2610    23.5260     2.3860     0.7830 
  273.1250   102.4470     5.1490     4.3570     5.6150    23.5070     2.3610     0.7640 
  273.2500   102.4470     5.1960     4.4230     5.8560    23.5220     2.3450     0.8530 
  273.3750   103.2210     5.0810     4.4060     5.5610    23.5790     2.3430     1.0410 
  273.5000   102.8440     4.8220     4.2980     5.1540    23.5720     2.3530     1.2140 
  273.6250   100.0240     4.5300     4.1520     5.0120    23.5440     2.3650     1.3210 
  273.7500    98.9000     4.2840     4.0060     5.0200    23.5150     2.3740     1.4520 
  273.8750   100.0470     4.1350     3.8980     5.0390    23.4850     2.3800     1.6260 
  274.0000   100.2000     4.1250     3.8680     5.0210    23.4680     2.3840     1.7530 
  274.1250    98.2410     4.2320     3.9250     5.0710    23.4640     2.3900     1.8010 
  274.2500    95.4290     4.4460     4.0730     5.1760    23.4500     2.3970     1.6720 
  274.3750    93.6860     4.7410     4.3040     5.3300    23.4070     2.3980     1.4150 
  274.5000    95.1470     5.0540     4.5800     5.5390    23.3480     2.3870     1.1110 
  274.6250    98.7970     5.2940     4.8210     5.8090    23.3160     2.3680     0.9140 
  274.7500   100.6410     5.3910     4.9560     5.8650    23.3440     2.3480     0.7860 
  274.8750   100.5890     5.3140     4.9470     5.7960    23.4500     2.3390     0.7240 
  275.0000   101.0740     5.0710     4.7900     5.5670    23.5080     2.3470     0.7810 
  275.1250   100.7760     4.7710     4.5690     5.3440    23.5280     2.3650     0.8480 
  275.2500    97.2410     4.5080     4.3450     5.2190    23.5370     2.3820     0.9900 
  275.3750    92.2110     4.3650     4.1610     5.1920    23.5580     2.3920     1.1040 
  275.5000    91.0490     4.4210     4.0540     5.1710    23.5670     2.3900     1.2560 
  275.6250    94.2440     4.6440     4.0390     5.1890    23.5590     2.3840     1.3530 
  275.7500    99.1500     4.9940     4.1360     5.3620    23.5400     2.3820     1.3880 
  275.8750   102.0460     5.4370     4.3600     5.8990    23.5230     2.3880     1.3590 
  276.0000   100.4490     5.9800     4.7560     6.8690    23.5050     2.3950     1.1560 
  276.1250    97.7690     6.6490     5.3220     7.9900    23.4800     2.3950     0.9510 
  276.2500    96.2950     7.5010     6.0830     8.6460    23.4720     2.3890     0.7600 
  276.3750    96.1200     8.5890     7.0710     9.6280    23.4900     2.3870     0.6550 
  276.5000    96.1200     9.9940     8.3490    14.0770    23.5380     2.4010     0.4890 
  276.6250    96.1200    11.6450     9.8570    22.3450    23.5070     2.4210     0.2820 
  276.7500    96.1200    13.4550    11.5390    25.9870    23.4080     2.4320     0.0280 
  276.8750    96.1200    15.2760    13.3160    24.5170    23.3460     2.4260    -0.2660 
