~V
VERS. 2.00: Ver 2.00
~W
STRT.M 59.0000:
STOP.M 217.0000:
STEP.M 0.1250:
NULL. -999.2500:
UWI. F11019:
~C
DEPT.M :
DEN.GM/CC :
GR.API :
RML.OHMM :
RI. :
RXO.OHMM :
CALI.CM :
SP.MV :
~A
   59.0000     2.3820    48.7860    -0.0010     0.0680     0.7700    24.9230    55.8880 
   59.1250     2.3930    48.7620    -0.0030     0.0570     0.7430    24.6970    49.1100 
   59.2500     2.3870    50.9480    -0.0040     0.0560     0.8060    24.3580    41.4470 
   59.3750     2.3430    54.8280     0.0060     0.0770     0.9760    24.0270    33.1160 
   59.5000     2.2430    59.0600     0.0620     0.1590     1.3230    24.0000    24.4730 
   59.6250     2.1010    62.8650     0.2450     0.3980     2.0600    24.8720    16.1840 
   59.7500     1.9610    65.7720     0.5950     0.8460     3.1220    26.5860     8.6800 
   59.8750     1.8460    67.2160     1.1170     1.5130     4.3470    28.9200     2.1740 
   60.0000     1.7650    67.1200     1.7460     2.3360     5.5140    31.3270    -3.2370 
   60.1250     1.7220    66.1730     2.3170     3.1480     6.1560    33.1120    -7.3810 
   60.2500     1.7080    65.9830     2.7020     3.7950     5.9620    34.1860   -10.3840 
   60.3750     1.7200    67.7850     2.9320     4.2650     5.2080    34.3300   -12.2930 
   60.5000     1.7580    71.5960     3.1420     4.6570     4.6660    33.1210   -13.3380 
   60.6250     1.8350    76.4600     3.4270     5.0840     5.2710    29.7950   -13.9080 
   60.7500     1.9450    81.5560     3.7480     5.5360     6.7700    26.0680   -14.4010 
   60.8750     2.0720    86.6360     4.0290     5.9310     8.4000    24.2390   -14.9210 
   61.0000     2.1890    91.4630     4.2020     6.1780     8.9410    23.7010   -15.5240 
   61.1250     2.2520    95.3850     4.2360     6.2160     7.4470    23.6410   -16.1740 
   61.2500     2.2610    97.2760     4.2120     6.1440     5.8760    23.5880   -16.8330 
   61.3750     2.2410    96.3710     4.2060     6.0650     5.3660    23.4150   -17.4880 
   61.5000     2.2190    94.0500     4.2570     6.0430     5.5110    23.0820   -18.1000 
   61.6250     2.2080    93.4120     4.3430     6.0740     5.8260    22.6630   -18.5800 
   61.7500     2.2070    95.1090     4.3950     6.0750     5.9450    22.3770   -18.9360 
   61.8750     2.2100    97.4340     4.3680     5.9840     5.6670    22.4420   -19.1860 
   62.0000     2.2130    99.2250     4.2600     5.7960     5.1290    22.8600   -19.3140 
   62.1250     2.2140   100.0650     4.1050     5.5680     4.7490    23.3270   -19.3710 
   62.2500     2.2120    99.7980     3.9670     5.3860     4.6600    23.5770   -19.4610 
   62.3750     2.2080    98.8830     3.8940     5.2960     4.7120    23.6530   -19.6330 
   62.5000     2.2030    97.8810     3.9220     5.3210     4.8340    23.6390   -19.9190 
   62.6250     2.1960    95.9030     4.1000     5.4810     4.9400    23.4730   -20.3920 
   62.7500     2.1890    92.2150     4.4090     5.7410     5.0410    23.0840   -21.0270 
   62.8750     2.1840    88.1390     4.8240     6.0800     5.2090    22.4020   -21.7570 
   63.0000     2.1790    84.9150     5.2880     6.4680     5.5470    21.4530   -22.5620 
   63.1250     2.1750    80.6990     5.7020     6.8430     5.9230    20.5790   -23.4120 
   63.2500     2.1690    74.8730     5.9750     7.1280     6.1870    20.1810   -24.2130 
   63.3750     2.1610    70.1520     6.0450     7.2550     6.3800    20.0690   -24.9130 
   63.5000     2.1510    68.8890     5.8890     7.1800     6.6400    20.0950   -25.4980 
   63.6250     2.1450    70.7940     5.5440     6.8780     6.8300    20.1920   -25.9100 
   63.7500     2.1480    74.4000     5.2050     6.4880     6.7480    20.3020   -26.2060 
   63.8750     2.1610    79.4100     5.0730     6.1830     6.5060    20.4790   -26.4470 
   64.0000     2.1840    84.0410     5.3300     6.1620     6.4280    20.8050   -26.6700 
   64.1250     2.2160    84.1450     6.1220     6.6440     7.0470    21.2380   -26.9170 
   64.2500     2.2460    79.5440     7.2480     7.5440     8.4360    21.5580   -27.2220 
   64.3750     2.2660    73.4560     8.4330     8.6770    10.1770    21.5710   -27.5500 
   64.5000     2.2640    69.6200     9.3320     9.7280    11.1980    21.0270   -27.8900 
   64.6250     2.2330    69.8890     9.5610    10.2530     9.9670    19.8790   -28.2950 
   64.7500     2.1870    71.2420     9.2220    10.1780     7.7650    18.8230   -28.7240 
   64.8750     2.1400    71.2830     8.5880     9.6720     6.6150    18.3390   -29.1390 
   65.0000     2.1020    69.7890     7.9790     9.0520     6.2740    18.2060   -29.5450 
   65.1250     2.0770    68.8450     7.6320     8.6150     6.2160    18.1470   -29.8740 
   65.2500     2.0630    69.4280     7.4980     8.4020     6.2080    18.1470   -30.1490 
   65.3750     2.0560    70.4900     7.4740     8.3380     6.2110    18.1670   -30.4510 
   65.5000     2.0550    70.5580     7.4660     8.3260     6.2260    18.1820   -30.7720 
   65.6250     2.0590    68.9790     7.4180     8.2850     6.2610    18.1900   -31.0430 
   65.7500     2.0670    67.0150     7.3250     8.1920     6.3220    18.1990   -31.3120 
   65.8750     2.0790    65.9960     7.2050     8.0610     6.4410    18.2200   -31.5940 
   66.0000     2.0950    66.6370     7.1220     7.9390     6.4030    18.3100   -31.8460 
   66.1250     2.1160    68.9090     7.3110     7.9920     5.1790    18.5190   -32.0780 
   66.2500     2.1420    71.4530     8.0910     8.4900     4.3730    18.9120   -32.3220 
   66.3750     2.1740    72.9220     9.8370     9.7950     8.2620    19.5580   -32.5480 
   66.5000     2.2110    72.3360    12.7400    12.1940    20.3290    20.5130   -32.7430 
   66.6250     2.2570    69.9260    16.5730    15.7120    44.2680    21.6980   -32.8900 
   66.7500     2.3040    67.7800    20.1370    19.3530    70.5660    22.5670   -32.9540 
   66.8750     2.3440    66.7650    22.1580    21.8950    88.0260    22.8720   -32.9360 
   67.0000     2.3620    66.8200    21.6450    22.1770    79.7770    22.5250   -32.8470 
   67.1250     2.3460    67.5920    18.3890    19.5770    41.1650    21.4080   -32.6580 
   67.2500     2.3080    68.7680    14.3490    15.8040    16.1440    20.0180   -32.3470 
   67.3750     2.2630    70.3130    10.9540    12.3140     8.0910    18.8910   -31.9530 
   67.5000     2.2250    72.1170     8.7770     9.8180     6.2490    18.3580   -31.5410 
   67.6250     2.1990    73.5850     7.8170     8.4660     6.0670    18.2010   -31.1550 
   67.7500     2.1820    74.1090     7.4980     7.8130     6.1520    18.1780   -30.7940 
   67.8750     2.1710    73.7950     7.5090     7.6130     6.2590    18.1840   -30.4820 
   68.0000     2.1640    73.0660     7.6230     7.6560     6.3560    18.1960   -30.2290 
   68.1250     2.1620    72.2340     7.6750     7.7600     6.4440    18.2290   -30.0610 
   68.2500     2.1630    71.5910     7.6130     7.7920     6.5080    18.3050   -29.9910 
   68.3750     2.1650    71.6530     7.4430     7.7100     6.5320    18.4280   -30.0400 
   68.5000     2.1670    72.7590     7.2060     7.5280     6.5380    18.5720   -30.1930 
   68.6250     2.1700    75.0250     6.9620     7.2920     6.5580    18.6650   -30.4580 
   68.7500     2.1730    77.6950     6.7740     7.0750     6.5810    18.6920   -30.8430 
   68.8750     2.1730    79.0520     6.6810     6.9220     6.6070    18.6990   -31.3190 
   69.0000     2.1700    77.6230     6.6980     6.8560     6.6800    18.7800   -31.8770 
   69.1250     2.1630    73.7460     6.8230     6.8830     6.8640    19.0200   -32.5090 
   69.2500     2.1540    70.5110     6.9930     6.9590     7.1070    19.3570   -33.1590 
   69.3750     2.1480    69.2700     7.1590     7.0530     7.3330    19.5130   -33.7540 
   69.5000     2.1440    68.9150     7.2900     7.1380     7.4690    19.5070   -34.2340 
   69.6250     2.1420    68.1420     7.3780     7.2040     7.4830    19.3830   -34.5630 
   69.7500     2.1390    67.7510     7.4520     7.2620     7.3990    19.1530   -34.7710 
   69.8750     2.1360    68.7900     7.5340     7.3150     7.2380    18.8920   -34.8590 
   70.0000     2.1320    71.2700     7.6260     7.3580     7.0230    18.6590   -34.8260 
   70.1250     2.1280    73.5730     7.7060     7.3720     6.8000    18.4730   -34.7500 
