~V
VERS. 2.00: Ver 2.00
~W
STRT.M 59.0000:
STOP.M 217.0000:
STEP.M 0.1250:
NULL. -999.2500:
UWI. F11019:
~C
DEPT.M :
DEN.GM/CC :
GR.API :
RML.OHMM :
RI. :
RXO.OHMM :
CALI.CM :
SP.MV :
~A
# ...
  104.0000     1.9240    66.9400     8.2510     7.7340     6.7390    17.2800   -25.7910 
  104.1250     1.9200    65.5900     8.3120     7.7570     6.8640    17.6070   -26.2280 
  104.2500     1.9180    64.4310     8.3520     7.7460     6.9570    17.6300   -26.6000 
  104.3750     1.9170    63.9350     8.3690     7.7140     6.9900    17.2550   -26.8490 
  104.5000     1.9170    63.9220     8.3530     7.6770     7.0090    16.5570   -27.0240 
  104.6250     1.9190    63.9180     8.2920     7.6530     7.0800    15.9580   -27.2100 
  104.7500     1.9200    63.6990     8.2010     7.6430     7.1650    15.6970   -27.4120 
  104.8750     1.9190    62.8350     8.1020     7.6410     7.2060    15.6020   -27.6130 
  105.0000     1.9170    61.2980     8.0200     7.6350     7.1730    15.5690   -27.8060 
  105.1250     1.9140    60.2650     7.9780     7.6160     7.0710    15.5560   -27.9350 
  105.2500     1.9110    60.1970     7.9720     7.5860     6.9630    15.5690   -27.9860 
  105.3750     1.9110    60.2290     7.9880     7.5560     6.8640    15.5940   -27.9860 
  105.5000     1.9140    59.9770     8.0130     7.5430     6.7640    15.6180   -27.8910 
  105.6250     1.9220    60.3270     8.0460     7.5700     6.6400    15.6760   -27.6300 
  105.7500     1.9360    61.6200     8.0910     7.6280     6.5000    15.8090   -27.2200 
  105.8750     1.9530    63.4590     8.1390     7.6880     6.3810    16.0570   -26.6810 
  106.0000     1.9730    65.4560     8.1460     7.6980     6.3460    16.4530   -26.0360 
  106.1250     1.9930    67.7360     8.0170     7.5660     6.4060    17.0060   -25.2670 
  106.2500     2.0100    70.1970     7.7050     7.2710     6.4430    17.7200   -24.4150 
  106.3750     2.0200    72.9380     7.2170     6.8250     6.3260    18.5960   -23.5050 
  106.5000     2.0220    75.8150     6.6300     6.2970     6.0070    19.6420   -22.6240 
  106.6250     2.0130    78.4830     6.1000     5.8110     5.6170    21.0390   -21.8490 
  106.7500     1.9950    80.5340     5.7620     5.4780     5.4020    22.2050   -21.2110 
  106.8750     1.9760    81.2820     5.6870     5.3650     5.4360    22.2750   -20.7520 
  107.0000     1.9630    79.9590     5.8840     5.4960     5.6670    21.0180   -20.4390 
  107.1250     1.9590    76.4620     6.3370     5.8830     6.0620    18.9360   -20.2790 
  107.2500     1.9630    72.5770     6.9090     6.4170     6.5000    17.1070   -20.1920 
  107.3750     1.9700    69.3830     7.4890     7.0060     6.8630    16.3500   -20.0960 
  107.5000     1.9760    67.2380     7.9620     7.5440     7.1160    16.3460   -19.9150 
  107.6250     1.9800    66.1420     8.1860     7.8820     7.3590    16.7260   -19.6430 
  107.7500     1.9860    66.3870     8.1270     7.9520     7.6140    17.3270   -19.2860 
  107.8750     1.9950    68.1220     7.7780     7.7200     7.7550    18.1120   -18.8330 
  108.0000     2.0080    71.4200     7.1840     7.2090     7.5860    19.0400   -18.3220 
  108.1250     2.0200    76.6600     6.4370     6.4940     6.9460    20.0640   -17.7970 
  108.2500     2.0300    83.1420     5.7110     5.7520     6.0200    21.2350   -17.3390 
  108.3750     2.0360    89.9460     5.1440     5.1200     5.1050    22.3740   -17.0100 
  108.5000     2.0390    95.5900     4.8440     4.7070     4.5710    23.1610   -16.8570 
  108.6250     2.0370    98.0950     4.9140     4.6280     4.4920    23.1250   -16.8430 
  108.7500     2.0350    96.8460     5.2710     4.8350     4.8250    22.4560   -16.9210 
  108.8750     2.0380    91.4710     5.8320     5.2790     5.5550    21.0510   -17.0260 
  109.0000     2.0480    83.6100     6.4960     5.8840     6.4750    19.2920   -17.0520 
  109.1250     2.0660    77.1140     7.1720     6.5750     7.1080    18.6120   -16.9300 
  109.2500     2.0850    73.6920     7.8150     7.2800     7.3360    18.7680   -16.6740 
  109.3750     2.1020    71.9250     8.4130     7.9510     7.7700    19.1410   -16.2760 
  109.5000     2.1160    70.3920     8.9210     8.5180     9.2640    19.5850   -15.7160 
  109.6250     2.1290    70.3090     9.1700     8.8100    11.7100    20.1840   -15.0420 
  109.7500     2.1430    73.0760     9.0440     8.7300    13.8790    20.8490   -14.3210 
  109.8750     2.1570    78.3120     8.4860     8.2370    14.1770    21.4740   -13.6330 
  110.0000     2.1710    84.3830     7.5860     7.4200    11.6380    21.8440   -13.0860 
  110.1250     2.1830    89.2440     6.5900     6.4990     8.0990    21.8200   -12.7760 
  110.2500     2.1950    92.2840     5.7680     5.7200     6.1140    21.7930   -12.6640 
  110.3750     2.2070    93.6900     5.2300     5.1920     5.1920    21.9850   -12.7360 
  110.5000     2.2170    93.9850     4.9780     4.9280     4.7960    22.4660   -12.9390 
  110.6250     2.2220    93.7630     4.9880     4.9160     4.6070    23.2130   -13.1700 
  110.7500     2.2210    93.3120     5.1640     5.0580     4.5230    23.7870   -13.3970 
  110.8750     2.2130    92.6010     5.4660     5.3070     4.6160    23.9220   -13.5970 
  111.0000     2.2020    91.5590     5.8490     5.6200     4.9610    23.7030   -13.8120 
  111.1250     2.1950    90.4420     6.2160     5.9240     5.5510    23.3090   -14.0060 
  111.2500     2.1960    89.9710     6.4350     6.1270     6.1360    23.0640   -14.0750 
  111.3750     2.2060    90.7300     6.4130     6.1530     6.3780    23.2210   -14.0470 
  111.5000     2.2190    93.3850     6.1380     5.9730     6.0720    23.6330   -13.9950 
  111.6250     2.2250    97.9900     5.6870     5.6180     5.3950    24.2100   -13.9890 
  111.7500     2.2160   101.9570     5.2480     5.2240     4.7980    24.8270   -14.0350 
  111.8750     2.1940   103.6560     4.9210     4.8840     4.5180    25.4350   -14.1080 
  112.0000     2.1640   103.5530     4.7340     4.6490     4.4650    25.9550   -14.1300 
  112.1250     2.1400   103.1510     4.6680     4.5320     4.5290    26.1450   -14.0800 
  112.2500     2.1270   102.4270     4.6550     4.4840     4.4730    25.9820   -14.0750 
  112.3750     2.1290   101.2980     4.6710     4.4720     4.2870    25.7680   -14.1440 
  112.5000     2.1480   101.0880     4.7170     4.4770     4.1690    25.4490   -14.2460 
  112.6250     2.1820   102.2810     4.8080     4.5000     4.2500    24.7430   -14.4200 
  112.7500     2.2230   102.9000     4.9380     4.5500     4.4380    24.0480   -14.6210 
  112.8750     2.2600   101.9590     5.1050     4.6390     4.6300    23.7500   -14.8370 
  113.0000     2.2870    99.5130     5.3190     4.7860     4.7920    23.5990   -15.1070 
  113.1250     2.2950    96.1870     5.6330     5.0360     4.9660    23.3110   -15.5110 
  113.2500     2.2890    92.6120     6.0780     5.4030     5.1630    22.7790   -16.0410 
  113.3750     2.2760    89.5510     6.6710     5.8980     5.3960    21.9940   -16.6530 
  113.5000     2.2610    87.3410     7.3790     6.4990     5.6720    20.9840   -17.3100 
  113.6250     2.2540    85.4200     8.0910     7.1330     5.8930    19.9260   -17.9680 
  113.7500     2.2570    83.1590     8.6460     7.6710     5.9150    19.0190   -18.5770 
  113.8750     2.2680    80.5560     8.9190     8.0010     5.7340    18.2990   -19.1170 
  114.0000     2.2800    78.3840     8.8520     8.0540     5.4700    17.8450   -19.5750 
  114.1250     2.2820    77.4040     8.4540     7.8000     5.2850    17.6630   -19.8890 
  114.2500     2.2700    77.6840     7.9240     7.3840     5.1680    17.5830   -20.0630 
  114.3750     2.2490    78.7780     7.4110     6.9250     5.0870    17.6150   -20.0770 
  114.5000     2.2260    79.8020     7.0210     6.5230     5.0480    17.7300   -19.9720 
  114.6250     2.2080    80.4690     6.8290     6.2650     5.1030    17.8350   -19.7730 
  114.7500     2.1960    81.9690     6.7990     6.1520     5.2490    17.8500   -19.5570 
  114.8750     2.1870    85.0140     6.8950     6.1790     5.4480    17.8360   -19.3860 
  115.0000     2.1770    87.9580     7.0670     6.3160     5.7190    17.8190   -19.2520 
  115.1250     2.1660    87.9260     7.2340     6.5070     6.0710    17.8460   -19.0870 
