~V
VERS. 2.00: Ver 2.00
~W
STRT.M 65.0000:
STOP.M 225.0000:
STEP.M 0.1250:
NULL. -999.2500:
UWI. F11012:
~C
DEPT.M :
SP.MV :
GR.API :
RML.OHMM :
RI. :
RXO.OHMM :
CALI.CM :
DEN.GM/CC :
~A
# ...
  200.0000   -18.7350    53.9590   178.9620   155.6610   192.5260    22.8100     2.2530 
  200.1250   -18.7510    53.0920   174.6650   152.9980   201.3640    22.8140     2.2510 
  200.2500   -18.8430    55.0570   166.3440   147.1100   188.8380    22.8260     2.2410 
  200.3750   -18.9050    58.4950   156.7330   139.6130   156.6200    22.8310     2.2390 
  200.5000   -18.9390    60.5630   149.3280   133.0630   135.9680    23.0030     2.2550 
  200.6250   -19.0160    59.7410   147.5070   130.6280   130.9190    23.4450     2.2820 
  200.7500   -19.1760    57.7370   152.9760   134.7730   131.4910    24.1170     2.3060 
  200.8750   -19.3860    57.2410   157.3990   139.1430   128.9080    24.4670     2.3380 
  201.0000   -19.5640    57.0550   146.4830   131.5530   125.7430    24.3640     2.4040 
  201.1250   -19.6900    53.4490   113.0480   104.0290   137.8470    23.8310     2.5060 
  201.2500   -19.8180    48.4470    72.4080    67.4510   256.2500    23.4580     2.5930 
  201.3750   -20.0170    49.2520    42.4880    39.4780   187.3180    23.3310     2.6030 
  201.5000   -20.2670    53.9710    24.6050    22.7690    60.1240    23.3610     2.5380 
  201.6250   -20.4610    55.8840    15.0820    14.1310    17.9020    23.4210     2.4600 
  201.7500   -20.5620    53.2840    10.8200    10.3630    10.1980    23.4950     2.4100 
  201.8750   -20.6730    50.3380     8.7690     8.4680     8.1810    23.6790     2.3810 
  202.0000   -20.8250    48.5410     7.9190     7.5890     7.9130    24.0520     2.3670 
  202.1250   -20.9760    47.1230     7.6970     7.3000     8.1130    24.2980     2.3710 
  202.2500   -21.0550    45.8190     7.7350     7.3230     7.9490    24.2580     2.3930 
  202.3750   -21.0390    44.6300     7.7640     7.3970     7.6080    24.2330     2.4050 
  202.5000   -20.9770    45.4860     7.7050     7.4200     7.3710    24.3190     2.3940 
  202.6250   -20.9480    49.7720     7.5450     7.3510     7.1620    24.3910     2.3760 
  202.7500   -20.9000    53.9690     7.3160     7.1910     7.2700    24.2210     2.3720 
  202.8750   -20.7790    55.5260     7.0930     7.0030     7.5100    24.0440     2.3680 
  203.0000   -20.6250    55.9750     6.9440     6.8450     7.4610    23.9210     2.3570 
  203.1250   -20.4750    56.1070     6.9370     6.7790     7.0240    23.7760     2.3510 
  203.2500   -20.3200    55.1130     7.1510     6.8780     6.9570    23.8340     2.3690 
  203.3750   -20.1770    54.7400     7.5340     7.1150     7.5260    24.0420     2.3910 
  203.5000   -20.0520    56.3440     7.9920     7.4250     7.9860    24.1640     2.4000 
  203.6250   -19.9340    58.1190     8.3940     7.7050     8.2250    24.0930     2.3990 
  203.7500   -19.8430    56.7380     8.5560     7.7970     8.7190    23.8530     2.4030 
  203.8750   -19.7740    56.8110     8.4440     7.6580     9.2000    23.6770     2.4100 
  204.0000   -19.6900    61.7430     8.1200     7.3350     8.7080    23.7180     2.4100 
  204.1250   -19.5890    68.3420     7.7310     6.9490     7.6110    23.9280     2.4040 
  204.2500   -19.5570    70.1430     7.4750     6.6570     7.2870    24.0170     2.4010 
  204.3750   -19.5960    67.8140     7.4480     6.5400     7.4700    24.0910     2.4050 
  204.5000   -19.6900    66.8380     7.6700     6.6220     7.6330    24.0870     2.4190 
  204.6250   -19.8050    71.7530     8.0900     6.8800     7.9570    23.9370     2.4400 
  204.7500   -19.9760    82.2050     8.6000     7.2520     8.9010    23.7840     2.4610 
  204.8750   -20.1910    90.3420     9.0590     7.6270     9.2860    23.6610     2.4730 
  205.0000   -20.4280    93.3820     9.3990     7.9390     9.2260    23.4700     2.4740 
  205.1250   -20.6680    93.7750     9.6030     8.1570     9.0110    23.1900     2.4710 
  205.2500   -20.9020    92.7750     9.6810     8.2680     9.0670    22.9490     2.4690 
  205.3750   -21.0960    91.9410     9.7090     8.3150     9.2910    22.9120     2.4670 
  205.5000   -21.2500    92.8970     9.7260     8.3240     9.4690    23.0710     2.4640 
  205.6250   -21.3720    94.9440     9.7480     8.3070     9.6200    23.3090     2.4620 
  205.7500   -21.4900    95.2470     9.7650     8.2640     9.8660    23.5760     2.4630 
  205.8750   -21.6090    97.0290     9.7640     8.1970    10.0200    23.7860     2.4640 
  206.0000   -21.7220   105.2430     9.7270     8.1100    10.0050    23.9350     2.4660 
  206.1250   -21.8390   116.6360     9.6360     8.0000     9.9020    24.0970     2.4700 
  206.2500   -21.9370   120.7200     9.5090     7.8730     9.9690    24.1760     2.4770 
  206.3750   -22.0320   114.8750     9.4520     7.7870     9.9650    24.1760     2.4810 
  206.5000   -22.0770   106.4070     9.6250     7.8400     9.8670    24.1310     2.4790 
  206.6250   -22.0910   101.7130    10.2120     8.1560     9.9040    24.0870     2.4690 
  206.7500   -22.0550   100.1100    11.5250     8.9570    10.8190    24.0930     2.4540 
  206.8750   -21.9950    97.7030    13.6300    10.3240    13.7570    24.0590     2.4370 
  207.0000   -21.9160    94.3660    16.5580    12.3510    19.9930    23.9670     2.4190 
  207.1250   -21.8010    90.5320    20.1640    15.0240    25.5450    23.8700     2.4010 
  207.2500   -21.6220    86.1800    24.0230    18.1430    27.1830    23.8190     2.3810 
  207.3750   -21.4240    82.7580    27.3970    21.0800    28.4180    23.7820     2.3600 
  207.5000   -21.1760    79.7890    29.6700    23.2310    31.7110    23.7520     2.3410 
  207.6250   -20.8880    76.7010    30.5050    24.2040    35.2470    23.7430     2.3290 
  207.7500   -20.5320    72.4400    29.8310    23.8640    35.7880    23.8410     2.3320 
  207.8750   -20.1380    68.9600    28.3960    22.8220    32.9580    23.9480     2.3470 
  208.0000   -19.7180    67.8610    26.7690    21.5340    29.1790    23.9890     2.3730 
  208.1250   -19.2790    68.7200    25.4550    20.4000    26.5670    23.9060     2.4060 
  208.2500   -18.8420    70.0980    24.8750    19.7740    24.8820    23.8340     2.4380 
  208.3750   -18.3560    70.4770    24.8880    19.6220    24.7330    23.8010     2.4600 
  208.5000   -17.9150    68.9790    25.1910    19.7790    26.2280    23.7840     2.4660 
  208.6250   -17.4930    65.2510    25.3730    19.9700    27.1960    23.7850     2.4560 
  208.7500   -17.0560    61.9270    25.0150    19.8700    26.7290    23.7540     2.4240 
  208.8750   -16.6190    62.6240    24.1960    19.4470    26.0080    23.7260     2.3820 
  209.0000   -16.1630    64.5140    23.2060    18.8500    23.7310    23.7050     2.3470 
  209.1250   -15.7440    65.8030    22.4060    18.3130    21.5820    23.6190     2.3300 
  209.2500   -15.3770    67.7400    22.0570    18.0380    20.5660    23.4240     2.3310 
  209.3750   -15.0250    71.2210    21.9150    17.9060    20.7810    23.1640     2.3360 
  209.5000   -14.6780    74.6730    21.5480    17.6230    21.5770    22.9170     2.3420 
  209.6250   -14.3370    77.5100    20.5090    16.8420    21.3170    22.7900     2.3490 
  209.7500   -14.0860    80.3300    18.4960    15.3100    19.8590    22.7770     2.3560 
  209.8750   -13.8830    82.3260    15.9890    13.3810    18.0610    22.8290     2.3520 
  210.0000   -13.7040    81.6700    13.5210    11.4580    16.6510    23.0280     2.3390 
  210.1250   -13.5520    79.0180    11.5270     9.8640    12.7890    23.3430     2.3320 
  210.2500   -13.4200    78.4600    10.3000     8.8250    10.8310    23.4750     2.3450 
  210.3750   -13.3400    80.7160     9.6680     8.2460     9.4420    23.5200     2.3710 
  210.5000   -13.2870    82.1860     9.4910     8.0440     9.4750    23.6220     2.3960 
  210.6250   -13.2740    79.5350     9.6110     8.1150    11.4310    23.7380     2.4050 
  210.7500   -13.2740    75.4710     9.8880     8.3560    14.9090    23.7190     2.3960 
  210.8750   -13.2320    75.0320    10.1660     8.6270    16.5960    23.6550     2.3790 
  211.0000   -13.2220    76.6480    10.3640     8.8530    17.0050    23.5720     2.3670 
  211.1250   -13.2330    76.6130    10.4270     8.9820    17.1140    23.5370     2.3640 
