~V
VERS. 2.00: Ver 2.00
~W
STRT.M 52.0000:
STOP.M 286.0000:
STEP.M 0.1250:
NULL. -999.2500:
UWI. F11061:
~C
DEPT.M :
GR.API :
RML.OHMM :
RI. :
RXO.OHMM :
CALI.CM :
DEN.GM/CC :
SP.MV :
~A
# ...
  130.7500    60.5890    11.1370    10.7630     9.8400    22.3930     2.1530   -16.2170 
  130.8750    59.4710    11.1090    10.7500    10.0040    22.3870     2.1500   -16.3560 
  131.0000    56.4970    11.0510    10.7000     9.9180    22.3750     2.1520   -16.5320 
  131.1250    54.5540    10.9680    10.6170     9.6930    22.3670     2.1580   -16.7290 
  131.2500    55.0180    10.8640    10.5090     9.5260    22.3770     2.1650   -16.9180 
  131.3750    57.0330    10.7430    10.3810     9.4380    22.3890     2.1760   -17.0740 
  131.5000    57.5570    10.6120    10.2430     9.3450    22.3900     2.1860   -17.2100 
  131.6250    56.0520    10.4890    10.1100     9.2190    22.3780     2.1940   -17.3140 
  131.7500    54.8490    10.4010    10.0040     9.0700    22.3570     2.2000   -17.3640 
  131.8750    55.9230    10.3770     9.9490     8.9560    22.3390     2.2030   -17.3710 
  132.0000    56.7520    10.4520     9.9810     8.8340    22.3250     2.2070   -17.3230 
  132.1250    55.0160    10.6210    10.1000     8.7750    22.3340     2.2160   -17.2190 
  132.2500    53.4180    10.8560    10.2890     8.9370    22.3820     2.2280   -17.0730 
  132.3750    55.6070    11.1110    10.5120     9.3120    22.4430     2.2410   -16.8970 
  132.5000    59.8200    11.3120    10.6990    10.0210    22.5080     2.2460   -16.6720 
  132.6250    61.0300    11.3930    10.7920    10.8200    22.6130     2.2430   -16.4130 
  132.7500    59.3800    11.3170    10.7440    10.8110    22.7270     2.2340   -16.1530 
  132.8750    58.8000    11.0800    10.5440    10.0740    22.7060     2.2220   -15.9100 
  133.0000    61.2740    10.7130    10.2090     9.3140    22.5320     2.2130   -15.6800 
  133.1250    64.9340    10.3090     9.8180     8.7570    22.3690     2.2060   -15.4650 
  133.2500    67.7970     9.9540     9.4490     8.2290    22.2820     2.2020   -15.2780 
  133.3750    68.0910     9.7110     9.1690     7.7840    22.2360     2.1980   -15.1290 
  133.5000    66.2980     9.6340     9.0370     7.7070    22.1780     2.1930   -15.0270 
  133.6250    64.3790     9.7000     9.0440     7.8880    22.1400     2.1860   -14.9620 
  133.7500    61.0680     9.8640     9.1600     8.0830    22.1320     2.1790   -14.9330 
  133.8750    55.5910    10.0700     9.3370     8.2130    22.1560     2.1710   -14.9350 
  134.0000    51.6250    10.2590     9.5170     8.3410    22.1690     2.1670   -14.9650 
  134.1250    51.1200    10.3960     9.6590     8.4180    22.1690     2.1670   -15.0110 
  134.2500    52.9420    10.4770     9.7450     8.4210    22.1750     2.1710   -15.0740 
  134.3750    55.4480    10.5090     9.7770     8.3630    22.2060     2.1780   -15.1560 
  134.5000    58.2420    10.4940     9.7550     8.3140    22.2630     2.1880   -15.2470 
  134.6250    59.2180    10.4330     9.6830     8.3510    22.3060     2.1960   -15.3350 
  134.7500    58.3230    10.3130     9.5500     8.5110    22.3600     2.2010   -15.4320 
  134.8750    57.7140    10.1200     9.3470     8.7580    22.4500     2.2030   -15.5420 
  135.0000    58.3480     9.8490     9.0710     9.0750    22.5790     2.2020   -15.6620 
  135.1250    60.5480     9.5450     8.7610     9.2590    22.6860     2.2030   -15.7970 
  135.2500    63.0680     9.2770     8.4800     9.1670    22.6820     2.2070   -15.9460 
  135.3750    64.1100     9.1420     8.3080     8.8950    22.5790     2.2220   -16.1050 
  135.5000    63.7790     9.2650     8.3600     8.6880    22.4850     2.2570   -16.2540 
  135.6250    62.9730     9.6530     8.6550     8.6120    22.4610     2.3110   -16.3910 
  135.7500    61.1130    10.2310     9.1540     8.6160    22.4850     2.3730   -16.5090 
  135.8750    56.9300    10.8470     9.7510     8.6830    22.5280     2.4250   -16.5940 
  136.0000    52.4870    11.2680    10.2610     8.6490    22.5870     2.4380   -16.6310 
  136.1250    50.8610    11.3670    10.5360     8.3890    22.6330     2.4090   -16.6020 
  136.2500    50.5060    11.1380    10.5180     8.1270    22.6230     2.3540   -16.4840 
  136.3750    49.3080    10.6830    10.2530     8.1960    22.5520     2.2980   -16.2790 
  136.5000    48.5160    10.1440     9.8320     8.5120    22.4340     2.2610   -16.0020 
  136.6250    49.8150     9.6100     9.3520     8.6610    22.3820     2.2450   -15.6740 
  136.7500    53.1580     9.0710     8.8270     8.6240    22.4080     2.2460   -15.2950 
  136.8750    58.7040     8.4750     8.2340     8.4490    22.5090     2.2570   -14.8890 
  137.0000    66.0200     7.7820     7.5520     8.1230    22.7060     2.2740   -14.4980 
  137.1250    71.5570     7.0390     6.8230     7.5480    22.9900     2.2910   -14.1540 
  137.2500    75.0260     6.3240     6.1160     6.8010    23.3640     2.3060   -13.8780 
  137.3750    77.2570     5.7130     5.4980     6.2880    23.7790     2.3170   -13.6770 
  137.5000    78.4010     5.2780     5.0380     6.0290    24.1200     2.3230   -13.5590 
  137.6250    78.3810     5.0280     4.7470     5.8190    24.2890     2.3250   -13.5290 
  137.7500    77.5300     4.9510     4.6210     5.6080    24.3110     2.3230   -13.5830 
  137.8750    75.6920     5.0240     4.6400     5.4210    24.2360     2.3170   -13.6980 
  138.0000    72.0430     5.2100     4.7820     5.3430    24.1200     2.3110   -13.8510 
  138.1250    69.3940     5.4390     4.9830     5.5290    23.9890     2.3070   -14.0260 
  138.2500    69.3400     5.6510     5.1910     5.9980    23.9020     2.3040   -14.2140 
  138.3750    71.3480     5.8070     5.3660     6.2730    23.9010     2.3020   -14.4140 
  138.5000    74.3770     5.9010     5.4930     6.2850    23.9740     2.2950   -14.6340 
  138.6250    76.7380     5.9830     5.6040     6.2810    24.0450     2.2850   -14.8530 
  138.7500    77.3620     6.1120     5.7460     6.4040    24.0340     2.2710   -15.0490 
  138.8750    76.0660     6.3190     5.9460     6.5170    23.8940     2.2550   -15.2130 
  139.0000    73.2910     6.5710     6.1870     6.4800    23.5810     2.2430   -15.3300 
  139.1250    69.8870     6.7550     6.3790     6.4500    23.1700     2.2390   -15.3790 
  139.2500    66.5860     6.7560     6.4210     6.4600    22.8050     2.2450   -15.3360 
  139.3750    65.2570     6.5170     6.2500     6.5210    22.5970     2.2600   -15.2020 
  139.5000    68.2870     6.0690     5.8710     6.5520    22.6200     2.2810   -15.0060 
  139.6250    74.1370     5.5820     5.4210     6.3040    22.8070     2.3010   -14.7680 
  139.7500    77.7900     5.2170     5.0380     5.8030    23.0920     2.3150   -14.5080 
  139.8750    76.5470     5.0640     4.8070     5.4680    23.4450     2.3230   -14.2550 
  140.0000    72.4260     5.1440     4.7700     5.4730    23.8230     2.3240   -14.0590 
  140.1250    71.2350     5.3430     4.8550     5.8430    24.1430     2.3220   -13.9430 
  140.2500    74.4130     5.5450     4.9780     6.2730    24.3060     2.3200   -13.9080 
  140.3750    78.4320     5.6590     5.0650     6.3360    24.3100     2.3180   -13.9470 
  140.5000    78.5550     5.6440     5.0730     6.1120    24.1930     2.3150   -14.0560 
  140.6250    76.5660     5.5730     5.0410     5.8410    23.9210     2.3110   -14.2140 
  140.7500    75.6210     5.5640     5.0470     5.7050    23.4280     2.3080   -14.4020 
  140.8750    75.6480     5.7230     5.1820     5.6070    22.8100     2.3080   -14.5900 
  141.0000    74.1230     6.1730     5.5490     5.7450    22.3280     2.3140   -14.7460 
  141.1250    69.9120     6.9220     6.1710     6.2720    22.0650     2.3270   -14.8400 
  141.2500    63.9260     7.9450     7.0470     7.2490    21.9910     2.3500   -14.8620 
  141.3750    58.9820     9.1740     8.1370     8.5550    22.0410     2.3790   -14.8250 
  141.5000    59.7880    10.4450     9.3210     9.9750    22.1870     2.4100   -14.7170 
  141.6250    62.6470    11.4730    10.3560    11.4250    22.3990     2.4300   -14.5430 
  141.7500    61.9390    11.9560    10.9600    12.6380    22.6640     2.4320   -14.3260 
  141.8750    58.4550    11.6810    10.9030    13.5460    22.9760     2.4100   -14.0880 
