~V
VERS. 2.00: Ver 2.00
~W
STRT.M 60.0000:
STOP.M 273.0000:
STEP.M 0.1250:
NULL. -999.2500:
UWI. F11028:
~C
DEPT.M :
DEN.GM/CC :
GR.API :
RML.OHMM :
RI. :
RXO.OHMM :
CALI.CM :
SP.MV :
~A
# ...
  138.7500     2.4430    50.9440    18.1490    15.0780    17.4190    23.5980   -12.1700 
  138.8750     2.4610    51.9780    17.4450    14.5410    15.3470    23.6000   -12.1830 
  139.0000     2.4710    55.8860    16.8010    14.0380    13.5170    23.6000   -12.2380 
  139.1250     2.4720    59.6500    16.4120    13.7050    13.2710    23.6010   -12.2990 
  139.2500     2.4670    59.8970    16.2440    13.5390    13.9060    23.6050   -12.3690 
  139.3750     2.4600    59.4630    16.1210    13.4360    14.0550    23.6280   -12.4440 
  139.5000     2.4550    60.9780    15.7490    13.1800    13.9840    23.6640   -12.5120 
  139.6250     2.4480    62.4810    14.6920    12.3940    13.6810    23.6460   -12.5670 
  139.7500     2.4380    62.5070    12.9590    11.0440    12.5740    23.5960   -12.5920 
  139.8750     2.4210    64.0830    10.8250     9.3410    10.2440    23.4690   -12.5840 
  140.0000     2.3970    70.2250     8.7380     7.6300     7.6690    23.0810   -12.5550 
  140.1250     2.3670    78.0240     6.9340     6.2640     5.7150    23.6690   -12.5110 
  140.2500     2.3400    82.2990     5.2830     5.3130     4.7910    25.5940   -12.4820 
  140.3750     2.3210    82.6780     4.8740     4.7600     4.6400    27.0770   -12.4530 
  140.5000     2.3100    81.0040     4.7680     4.5270     4.7530    28.1810   -12.4210 
  140.6250     2.3060    80.2830     4.8330     4.5340     4.7660    27.6680   -12.3960 
  140.7500     2.3060    83.4500     4.9310     4.6290     4.7520    25.9860   -12.3630 
  140.8750     2.3060    90.3080     5.0050     4.7280     4.7510    24.9060   -12.3200 
  141.0000     2.3070    95.9300     5.0320     4.7840     4.8800    24.6020   -12.2740 
  141.1250     2.3090    96.4820     5.0070     4.7860     5.0520    24.2080   -12.1990 
  141.2500     2.3110    94.7470     4.9540     4.7550     5.0300    23.7910   -12.0940 
  141.3750     2.3110    92.9980     4.8860     4.7030     4.7810    24.1470   -11.9840 
  141.5000     2.3100    91.4780     4.8150     4.6320     4.6200    24.4740   -11.8900 
  141.6250     2.3070    91.1530     4.7670     4.5490     4.6130    24.5340   -11.8000 
  141.7500     2.3020    93.4470     4.7570     4.4660     4.6710    24.5280   -11.7580 
  141.8750     2.2970    94.9610     4.7880     4.3940     4.6940    24.4980   -11.7540 
  142.0000     2.2910    92.8380     4.8520     4.3420     4.6970    24.3640   -11.7800 
  142.1250     2.2870    90.5350     4.9260     4.3140     4.7540    24.2480   -11.8380 
  142.2500     2.2820    91.5690     4.9930     4.3080     4.8050    24.2410   -11.9380 
  142.3750     2.2780    92.1430     5.0550     4.3170     4.7910    24.1750   -12.0350 
  142.5000     2.2740    87.3830     5.1240     4.3330     4.7770    23.9730   -12.1400 
  142.6250     2.2710    81.7290     5.1950     4.3470     4.7880    23.8300   -12.2310 
  142.7500     2.2700    83.5220     5.2430     4.3520     4.8090    23.6460   -12.3170 
  142.8750     2.2720    91.2160     5.2540     4.3500     4.8020    23.5210   -12.4020 
  143.0000     2.2800    97.2450     5.2360     4.3470     4.7830    23.3810   -12.5120 
  143.1250     2.2920    98.8540     5.2140     4.3500     4.8070    23.2020   -12.6270 
  143.2500     2.3050    98.7360     5.2050     4.3580     4.9080    23.0890   -12.7470 
  143.3750     2.3170    98.3180     5.1990     4.3660     5.0690    22.6970   -12.8630 
  143.5000     2.3250    97.4620     5.1660     4.3660     5.2000    22.3680   -12.9520 
  143.6250     2.3300    96.4540     5.0840     4.3460     5.1880    22.1440   -13.0080 
  143.7500     2.3320    95.9040     4.9940     4.2990     5.1980    21.9750   -13.0430 
  143.8750     2.3360    92.1320     4.9420     4.2290     5.2400    21.8290   -13.0420 
  144.0000     2.3390    85.1380     4.9310     4.1460     5.2180    21.7940   -12.9820 
  144.1250     2.3410    81.1360     4.9230     4.0690     5.0290    21.8520   -12.8770 
  144.2500     2.3390    84.2560     4.8990     4.0200     4.9690    22.1000   -12.7410 
  144.3750     2.3340    91.1370     4.8910     4.0110     4.8790    22.4870   -12.6010 
  144.5000     2.3270    96.8840     4.9390     4.0410     4.7510    22.6430   -12.4570 
  144.6250     2.3210   102.1200     5.0480     4.1020     4.8780    22.7200   -12.3240 
  144.7500     2.3190   105.2500     5.1450     4.1640     5.0790    22.7310   -12.2100 
  144.8750     2.3210   104.4460     5.1670     4.2110     5.2940    22.7470   -12.1050 
  145.0000     2.3260   101.9690     5.1180     4.2330     5.3750    22.8330   -11.9990 
  145.1250     2.3340    98.8910     5.0780     4.2320     5.2870    22.9520   -11.9000 
  145.2500     2.3430    96.1780     5.0960     4.2220     5.0720    23.1040   -11.7980 
  145.3750     2.3500    93.5800     5.1440     4.2130     4.9740    23.4370   -11.7000 
  145.5000     2.3530    93.2390     5.1630     4.2080     4.9420    23.6460   -11.6090 
  145.6250     2.3500    93.3620     5.1150     4.1990     4.9460    23.9200   -11.5230 
  145.7500     2.3430    91.5340     5.0280     4.1750     4.9620    24.0320   -11.4260 
  145.8750     2.3330    90.6140     4.9360     4.1270     4.9580    24.0340   -11.3280 
  146.0000     2.3240    90.7030     4.8590     4.0560     4.8820    24.1030   -11.2430 
  146.1250     2.3160    89.6120     4.8000     3.9690     4.7010    24.1460   -11.1880 
  146.2500     2.3100    87.3680     4.7390     3.8800     4.5860    24.1320   -11.1540 
  146.3750     2.3070    86.8420     4.6690     3.8000     4.6000    23.8050   -11.1110 
  146.5000     2.3060    89.9320     4.5970     3.7320     4.6740    23.4430   -11.0900 
  146.6250     2.3060    94.1460     4.5440     3.6890     4.5740    23.3550   -11.0600 
  146.7500     2.3050    95.1210     4.5450     3.6840     4.3350    23.4540   -11.0110 
  146.8750     2.3020    90.9700     4.6240     3.7310     4.1110    23.5180   -10.9710 
  147.0000     2.2960    84.5810     4.7620     3.8270     4.0460    23.5220   -10.9310 
  147.1250     2.2880    84.5610     4.8910     3.9460     4.2820    23.5240   -10.8990 
  147.2500     2.2760    91.2050     4.9350     4.0320     4.6390    23.5980   -10.8400 
  147.3750     2.2620    98.8780     4.8600     4.0410     4.9860    23.6520   -10.8220 
  147.5000     2.2490   102.8410     4.6880     3.9580     4.9920    23.5920   -10.8090 
  147.6250     2.2450   102.0120     4.5030     3.8060     4.6360    23.3340   -10.8540 
  147.7500     2.2500    99.8430     4.3820     3.6560     4.4100    23.0220   -10.9530 
  147.8750     2.2620    98.1270     4.3410     3.5520     4.3630    22.8010   -11.0750 
  148.0000     2.2770    97.2650     4.3670     3.5200     4.3850    22.7350   -11.2120 
  148.1250     2.2870    97.7640     4.4390     3.5670     4.3780    22.7230   -11.3510 
  148.2500     2.2920    99.1290     4.5130     3.6510     4.3970    22.7340   -11.4900 
  148.3750     2.2940   102.0050     4.5630     3.7380     4.4780    22.7420   -11.6060 
  148.5000     2.2930   106.0660     4.5760     3.8010     4.6040    22.6780   -11.7000 
  148.6250     2.2900   108.6520     4.5390     3.8160     4.6220    22.7690   -11.7810 
  148.7500     2.2850   105.1750     4.4720     3.7970     4.5550    23.0280   -11.8410 
  148.8750     2.2780    96.3240     4.4020     3.7620     4.4950    23.2860   -11.8590 
  149.0000     2.2740    89.3020     4.3510     3.7310     4.5300    23.4550   -11.8710 
  149.1250     2.2730    86.6730     4.3370     3.7210     4.5630    23.2250   -11.9030 
  149.2500     2.2760    84.3780     4.3550     3.7360     4.5410    22.6130   -11.9450 
  149.3750     2.2810    83.0350     4.3930     3.7750     4.4870    22.3440   -11.9950 
  149.5000     2.2860    85.8050     4.4340     3.8330     4.4570    22.6500   -12.0610 
  149.6250     2.2920    90.8530     4.4740     3.9140     4.5010    22.7100   -12.0670 
  149.7500     2.2970    93.5210     4.5300     4.0190     4.6100    22.7210   -12.0480 
  149.8750     2.3010    94.8000     4.6380     4.1510     4.7570    22.6680   -12.0620 
