~V
VERS. 2.00: Ver 2.00
~W
STRT.M 50.0000:
STOP.M 275.0000:
STEP.M 0.1250:
NULL. -999.2500:
UWI. F11033:
~C
DEPT.M :
DEN.GM/CC :
GR.API :
RML.OHMM :
RI. :
RXO.OHMM :
CALI.CM :
SP.MV :
~A
# ...
  173.7500     2.1450    58.4420   136.1370   141.0670   134.2980    25.2720   -39.3160 
  173.8750     2.1450    59.0070   136.7580   141.3250   138.4920    25.2930   -39.3000 
  174.0000     2.1500    58.1300   137.1900   141.5680   141.5870    25.3020   -39.2330 
  174.1250     2.1590    56.9020   136.0230   140.3110   135.5190    25.3090   -39.1200 
  174.2500     2.1640    57.4220   133.3050   137.3290   110.9140    25.3380   -38.9890 
  174.3750     2.1630    60.3350   130.0700   133.4060    87.7570    25.3650   -38.8670 
  174.5000     2.1590    62.9700   127.8570   130.0380    76.9270    25.3680   -38.7270 
  174.6250     2.1540    61.1620   128.4050   129.1240    77.3150    25.3480   -38.5650 
  174.7500     2.1530    56.7350   131.8270   131.0560    87.3600    25.3250   -38.4120 
  174.8750     2.1500    53.7920   138.0130   135.8560   116.3010    25.3350   -38.3280 
  175.0000     2.1380    54.0040   146.6920   143.3270   162.2090    25.3930   -38.3420 
  175.1250     2.1210    58.3160   157.9230   153.6150   189.1490    25.4650   -38.4150 
  175.2500     2.1080    62.5780   171.0620   166.0770   189.2050    25.5090   -38.4920 
  175.3750     2.1010    62.4790   185.6140   180.3230   198.8580    25.5230   -38.5450 
  175.5000     2.0960    58.0420   200.4310   195.4270   234.1390    25.5240   -38.6170 
  175.6250     2.0920    53.1220   212.4720   208.9180   253.6970    25.5220   -38.6780 
  175.7500     2.0940    51.3450   218.0540   217.4250   244.6070    25.5240   -38.7760 
  175.8750     2.1060    51.5680   213.1980   217.0990   233.4320    25.5380   -38.8590 
  176.0000     2.1250    51.8450   195.7190   205.0060   236.2010    25.5650   -38.8920 
  176.1250     2.1470    52.3290   167.1170   180.2860   223.8320    25.5450   -38.9080 
  176.2500     2.1720    53.1960   136.6500   150.7250   190.2930    25.4820   -38.9370 
  176.3750     2.2000    53.6260   110.4590   122.8920   143.6230    25.4160   -38.9800 
  176.5000     2.2250    54.7230    91.4500   101.1670   102.4010    25.3820   -39.0380 
  176.6250     2.2350    59.5650    80.7590    88.0890    76.8620    25.3720   -39.1390 
  176.7500     2.2290    65.2220    75.6950    81.4120    69.2310    25.3590   -39.2000 
  176.8750     2.2190    66.1130    74.6420    79.4640    74.0650    25.3230   -39.2290 
  177.0000     2.2130    60.1080    75.9510    80.4190    85.0840    25.2830   -39.2270 
  177.1250     2.2110    53.5520    77.9620    82.5050    84.3280    25.2540   -39.2030 
  177.2500     2.2070    50.9960    79.2500    84.0930    73.1210    25.2620   -39.1810 
  177.3750     2.2010    51.7220    79.3200    84.5430    68.9700    25.3080   -39.1650 
  177.5000     2.1940    54.3260    78.3620    83.8610    72.6270    25.3790   -39.1110 
  177.6250     2.1850    58.1410    77.3120    82.7810    78.7110    25.4180   -39.0240 
  177.7500     2.1740    61.7980    77.4750    82.6460    80.5720    25.4030   -38.9160 
  177.8750     2.1630    63.6030    79.9140    84.6180    77.9610    25.3640   -38.7850 
  178.0000     2.1560    61.7850    85.5530    89.7830    72.0580    25.3350   -38.6720 
  178.1250     2.1480    56.7910    95.5840    99.7070    74.2230    25.3480   -38.5800 
  178.2500     2.1410    53.5340   108.2620   112.9730    85.4700    25.3850   -38.4830 
  178.3750     2.1390    54.3810   119.6450   125.8890    91.0550    25.4230   -38.3990 
  178.5000     2.1440    57.0610   123.2460   132.0160    87.5040    25.4310   -38.3540 
  178.6250     2.1580    57.2300   112.5000   123.7170    78.7710    25.3780   -38.3240 
  178.7500     2.1790    56.6110    93.8550   105.5460    66.5070    25.2720   -38.3360 
  178.8750     2.2010    56.8040    75.2090    85.1800    52.9560    25.1730   -38.3850 
  179.0000     2.2160    56.7880    61.6150    68.9560    39.3040    25.1400   -38.4520 
  179.1250     2.2100    56.5480    55.2670    60.2990    35.8750    25.1250   -38.5040 
  179.2500     2.1930    58.3820    54.4110    57.6530    40.2620    25.0980   -38.5470 
  179.3750     2.1760    62.1720    58.3320    60.2610    42.6500    25.0960   -38.5710 
  179.5000     2.1610    64.8280    66.3630    67.5990    44.4630    25.1410   -38.5860 
  179.6250     2.1490    62.1650    77.5890    79.1010    52.5050    25.1630   -38.6150 
  179.7500     2.1450    57.4440    88.9450    91.4390    63.0210    25.1170   -38.6380 
  179.8750     2.1480    55.4380    97.5180   101.2340    73.5870    25.0320   -38.6750 
  180.0000     2.1570    57.7340   101.4340   106.0700    84.3640    24.9620   -38.7450 
  180.1250     2.1640    62.0110   100.8000   105.5190    87.9270    24.9410   -38.8560 
  180.2500     2.1600    63.9130    99.0370   103.0680    80.0970    24.9400   -38.9950 
  180.3750     2.1420    62.6250    98.4780   101.2810    70.4730    24.9720   -39.1710 
  180.5000     2.1210    60.4590   100.4360   101.7500    73.1500    25.0630   -39.3800 
  180.6250     2.1090    59.1860   105.5830   105.3440    83.7010    25.2070   -39.5800 
  180.7500     2.1100    58.5980   112.7970   111.0820    95.6070    25.2910   -39.7370 
  180.8750     2.1150    58.0040   121.0600   118.0630   103.3410    25.3030   -39.8210 
  181.0000     2.1140    57.1150   129.2880   125.2910   108.4460    25.2740   -39.8250 
  181.1250     2.1020    55.9190   136.5150   131.8550   112.6520    25.3460   -39.8060 
  181.2500     2.0910    55.3970   142.6010   137.5100   115.6900    25.5350   -39.7550 
  181.3750     2.0890    57.1140   147.4380   142.1300   115.4630    25.7180   -39.6540 
  181.5000     2.0950    62.3030   150.8410   145.5300   115.5720    25.7890   -39.5200 
  181.6250     2.1000    67.2150   152.5080   147.3500   115.0900    25.7680   -39.4010 
  181.7500     2.1020    66.7740   153.0530   148.0650   114.8950    25.7790   -39.3190 
  181.8750     2.1070    61.8610   153.0630   148.2620   117.4290    25.8670   -39.3100 
  182.0000     2.1180    57.3510   153.0440   148.5620   126.3930    26.0220   -39.3610 
  182.1250     2.1290    57.1010   153.3380   149.4580   130.9990    26.1080   -39.4420 
  182.2500     2.1340    57.8290   153.9900   150.9570   127.3640    26.0980   -39.5450 
  182.3750     2.1350    57.5270   154.9390   152.9490   135.5740    26.0450   -39.6560 
  182.5000     2.1370    57.3630   155.9120   155.1330   153.3500    25.9840   -39.7520 
  182.6250     2.1390    56.5970   156.0980   156.7160   155.6830    25.8830   -39.8360 
  182.7500     2.1430    55.3720   154.5160   156.6420   149.9840    25.7170   -39.8990 
  182.8750     2.1520    54.8160   150.0530   153.6760   144.0960    25.5020   -39.9150 
  183.0000     2.1630    56.9270   141.9590   146.9030   133.8800    25.2950   -39.8920 
  183.1250     2.1750    60.2000   129.7670   135.6440   125.3480    25.2070   -39.7920 
  183.2500     2.1870    61.4930   115.3630   121.6260   116.6150    25.1980   -39.6510 
  183.3750     2.1960    63.0840   100.8300   106.7530   104.2920    25.2010   -39.5160 
  183.5000     2.2020    66.2180    88.4910    93.3950    86.3990    25.1790   -39.3980 
  183.6250     2.2010    68.3040    80.9680    84.4370    71.2790    25.2000   -39.2780 
  183.7500     2.1950    67.2700    78.5050    80.5110    57.6670    25.2720   -39.1750 
  183.8750     2.1820    64.1090    81.3860    82.1260    51.6870    25.3420   -39.0960 
  184.0000     2.1650    60.7500    89.5590    89.4510    64.5150    25.3780   -39.0440 
  184.1250     2.1480    57.7670   102.8580   102.5320   111.6830    25.3980   -39.0410 
  184.2500     2.1380    56.3790   118.0420   118.0180   145.7570    25.4320   -39.0650 
  184.3750     2.1350    57.3920   131.1440   131.9960   154.8940    25.4470   -39.1080 
  184.5000     2.1350    60.4280   137.9650   140.3190   157.8660    25.4490   -39.1660 
  184.6250     2.1390    63.3660   135.8960   139.8240   157.3320    25.4380   -39.2440 
  184.7500     2.1530    64.0380   129.3200   133.9780   141.9200    25.4120   -39.3400 
  184.8750     2.1720    63.7720   122.0100   126.3580   121.2620    25.3850   -39.4730 
