~V
VERS. 2.00: Ver 2.00
~W
STRT.M 52.0000:
STOP.M 279.0000:
STEP.M 0.1250:
NULL. -999.2500:
UWI. F11031:
~C
DEPT.M :
DEN.GM/CC :
GR.API :
RML.OHMM :
RI. :
RXO.OHMM :
CALI.CM :
SP.MV :
~A
# ...
  175.7500     2.2410    65.0360    67.2180    59.6570    63.2720    22.9390   -16.6010 
  175.8750     2.2420    68.4180    73.1230    65.0580    66.9590    22.9720   -16.7790 
  176.0000     2.2360    68.6500    78.7820    70.4690    70.4670    22.9740   -16.9090 
  176.1250     2.2250    65.7660    82.1000    74.3020    76.3160    22.9740   -17.0260 
  176.2500     2.2150    64.2690    81.5820    75.0520    79.7010    22.9700   -17.1100 
  176.3750     2.2090    63.3410    76.9980    72.1200    75.6300    22.9720   -17.1480 
  176.5000     2.2120    59.2860    74.8910    66.4590    61.2360    22.9690   -17.1830 
  176.6250     2.2240    54.4840    72.0080    60.2860    41.7250    22.9360   -17.1960 
  176.7500     2.2360    52.7880    68.2840    55.6590    28.6720    22.8460   -17.2220 
  176.8750     2.2430    53.0200    66.2080    53.3480    25.4400    22.7950   -17.2660 
  177.0000     2.2410    53.9660    66.5230    53.3360    30.3790    22.7260   -17.3290 
  177.1250     2.2300    56.1500    69.0310    55.2820    41.2590    22.7220   -17.4300 
  177.2500     2.2180    58.1710    72.0140    57.9930    47.6970    22.7500   -17.5580 
  177.3750     2.2080    59.0670    74.4260    60.6190    47.7530    22.7580   -17.7270 
  177.5000     2.2020    59.4850    75.7880    62.5790    46.2370    22.7180   -17.9080 
  177.6250     2.2010    60.2530    76.2280    63.7050    46.7770    22.6900   -18.1080 
  177.7500     2.2040    60.8710    76.3460    64.4180    49.1210    22.6400   -18.3140 
  177.8750     2.2110    61.7280    76.2500    64.8630    49.4260    22.6120   -18.5150 
  178.0000     2.2220    61.6430    75.8080    64.9570    44.9100    22.5270   -18.7080 
  178.1250     2.2360    59.6150    74.8130    64.4600    43.1810    22.3900   -18.8540 
  178.2500     2.2510    58.8230    73.4350    63.4610    45.1320    22.2160   -18.9760 
  178.3750     2.2650    59.7730    71.9130    62.1380    47.5720    22.0770   -19.0840 
  178.5000     2.2750    60.2800    70.5220    60.7430    47.7760    21.9740   -19.1890 
  178.6250     2.2800    60.4850    69.6850    59.6080    46.6250    22.0150   -19.2870 
  178.7500     2.2810    62.3210    69.8850    59.1170    46.5600    22.2220   -19.4030 
  178.8750     2.2800    64.5530    71.9150    59.8620    48.0690    22.5380   -19.5550 
  179.0000     2.2770    65.1020    76.7640    62.6240    50.6480    22.7050   -19.7080 
  179.1250     2.2710    63.2280    86.3660    69.0140    52.7220    22.7280   -19.8860 
  179.2500     2.2640    60.3440   101.3580    79.8110    59.4060    22.7120   -20.0770 
  179.3750     2.2550    57.3840   122.6760    96.0390    73.8140    22.6660   -20.2580 
  179.5000     2.2450    55.0840   150.2280   117.6800    98.8750    22.6350   -20.4580 
  179.6250     2.2360    54.6010   181.1020   142.2810   124.5650    22.5650   -20.6400 
  179.7500     2.2300    54.5870   207.2540   163.5060   141.4590    22.4950   -20.7780 
  179.8750     2.2260    55.0960   221.7620   176.0710   152.7120    22.5510   -20.8800 
  180.0000     2.2250    56.5630   223.3560   178.4590   142.3910    22.5490   -20.9520 
  180.1250     2.2260    57.1090   217.6550   173.9130   116.3670    22.4980   -21.0070 
  180.2500     2.2300    55.6850   213.3850   169.5020   103.9980    22.4480   -21.0370 
  180.3750     2.2330    53.5990   213.3380   168.1250   117.3600    22.2840   -21.0490 
  180.5000     2.2330    53.7000   216.9370   169.8870   130.0270    22.1320   -21.0310 
  180.6250     2.2320    55.6680   222.3900   173.6760   124.4790    22.0130   -20.9820 
  180.7500     2.2300    55.5040   228.4310   178.2490   113.5610    22.3830   -20.9210 
  180.8750     2.2290    54.5000   236.1780   184.2200   108.0060    22.8400   -20.8410 
  181.0000     2.2310    54.8550   247.8240   193.4590   105.1230    22.9700   -20.7380 
  181.1250     2.2330    55.1810   263.8680   207.4270   105.3560    22.9720   -20.6080 
  181.2500     2.2340    55.8730   276.3450   220.8410   117.0160    22.9620   -20.4810 
  181.3750     2.2320    56.6870   273.6460   224.8130   143.5220    23.0360   -20.3270 
  181.5000     2.2290    55.7790   249.1200   212.0730   167.6350    23.1140   -20.1760 
  181.6250     2.2270    52.5080   209.2690   183.2470   155.9200    23.0690   -20.0730 
  181.7500     2.2300    52.7230   171.3840   151.8560   113.6850    23.0990   -19.9160 
  181.8750     2.2380    57.6190   142.1420   125.5790    77.4660    23.1220   -19.7630 
  182.0000     2.2480    60.8660   121.4000   106.3780    64.2240    22.9840   -19.6440 
  182.1250     2.2560    58.6700   106.5460    92.8760    69.4820    22.8760   -19.4960 
  182.2500     2.2630    55.9170    93.8030    81.5580    85.2920    22.8330   -19.3880 
  182.3750     2.2730    55.4660    82.2990    71.4320    87.8150    22.7350   -19.2980 
  182.5000     2.2880    57.4850    72.4000    62.6480    63.7330    22.6280   -19.2040 
  182.6250     2.3110    61.8400    65.4760    56.2720    43.4010    22.3270   -19.1360 
  182.7500     2.3320    67.0150    61.7090    52.4700    38.3310    21.9670   -19.1250 
  182.8750     2.3420    70.7930    61.1390    51.3240    36.8650    21.5880   -19.1420 
  183.0000     2.3340    72.7040    63.5030    52.7350    31.2180    21.0390   -19.1670 
  183.1250     2.3090    72.0860    68.5420    56.7750    26.3820    20.4430   -19.2770 
  183.2500     2.2780    68.7450    74.7580    62.3840    24.6790    19.9520   -19.3960 
  183.3750     2.2530    64.7650    80.5440    68.4250    25.5730    19.6520   -19.5200 
  183.5000     2.2400    61.6290    83.5610    73.0720    28.1040    19.5560   -19.6610 
  183.6250     2.2440    59.3970    80.0740    72.9270    29.5890    19.4150   -19.7510 
  183.7500     2.2560    58.9310    70.3960    67.0720    29.5050    19.6210   -19.7920 
  183.8750     2.2720    62.2660    57.4250    57.0940    29.1910    20.7750   -19.7970 
  184.0000     2.2860    68.6480    45.3200    46.5200    29.5130    22.6140   -19.7770 
  184.1250     2.2970    71.7820    37.3210    38.6940    27.9280    24.1490   -19.6810 
  184.2500     2.3050    71.9460    32.7870    33.8260    22.1150    24.6830   -19.5810 
  184.3750     2.3120    71.1740    30.3840    31.0560    19.3750    24.7790   -19.4780 
  184.5000     2.3210    70.3140    28.5510    29.0340    23.2310    24.8190   -19.3430 
  184.6250     2.3350    72.0970    25.8440    26.3000    33.4880    24.9700   -19.2380 
  184.7500     2.3520    74.8670    22.0660    22.5300    30.4840    25.0140   -19.1480 
  184.8750     2.3700    76.8150    17.8420    18.3180    18.3880    24.8860   -19.0760 
  185.0000     2.3820    76.7980    14.0480    14.5080    10.8520    24.6780   -19.0250 
  185.1250     2.3800    75.3160    11.5290    11.8550     8.5200    24.0280   -18.9600 
  185.2500     2.3660    74.5500    10.3140    10.3420     7.7010    22.8200   -18.8270 
  185.3750     2.3460    74.2790    10.4450     9.9460     7.2810    21.7480   -18.6210 
  185.5000     2.3250    74.8550    12.1100    10.7290     7.2300    21.3880   -18.3480 
  185.6250     2.3100    74.4090    16.1770    13.3300     8.0490    21.2910   -18.0100 
  185.7500     2.3000    73.3010    22.8860    18.1530    10.7840    20.9860   -17.6330 
  185.8750     2.2920    71.7680    32.3250    25.6970    15.3420    20.2890   -17.2200 
  186.0000     2.2860    67.7800    43.5410    35.6220    18.2670    19.7390   -16.7660 
  186.1250     2.2790    62.3910    53.4190    45.3650    18.5630    19.9490   -16.3530 
  186.2500     2.2730    60.5780    58.9350    51.3610    19.8920    20.2940   -16.0280 
  186.3750     2.2690    63.7900    59.7130    52.5690    23.8480    20.8520   -15.7940 
  186.5000     2.2670    67.0410    57.9070    50.6580    29.3530    21.8290   -15.6670 
  186.6250     2.2690    66.4660    56.4440    48.1860    33.6010    22.8300   -15.6580 
  186.7500     2.2740    66.1540    56.9880    46.8480    35.4640    23.5310   -15.7250 
  186.8750     2.2790    67.0620    60.4190    47.3870    35.4440    23.7710   -15.8470 
