~V
VERS. 2.00: Ver 2.00
~W
STRT.M 52.0000:
STOP.M 286.0000:
STEP.M 0.1250:
NULL. -999.2500:
UWI. F11061:
~C
DEPT.M :
GR.API :
RML.OHMM :
RI. :
RXO.OHMM :
CALI.CM :
DEN.GM/CC :
SP.MV :
~A
# ...
  277.0000    58.4760     9.2900     9.0140    11.2660    23.7750     2.4560   -19.4430 
  277.1250    58.4760     9.3390     9.0820    11.3910    23.7610     2.4540   -19.4410 
  277.2500    58.4760     9.3650     9.1290    11.3750    23.7490     2.4550   -19.4470 
  277.3750    58.4760     9.3480     9.1380    11.2660    23.7330     2.4570   -19.4830 
  277.5000    58.4760     9.2710     9.0860    11.0530    23.7080     2.4590   -19.5380 
  277.6250    58.4760     9.1480     8.9820    10.4320    23.6900     2.4620   -19.6030 
  277.7500    58.4760     8.9980     8.8390     9.5620    23.6690     2.4650   -19.6650 
  277.8750    58.4760     8.8330     8.6690     8.8320    23.6300     2.4680   -19.7160 
  278.0000    58.4760     8.6540     8.4790     8.3810    23.5600     2.4690   -19.7670 
  278.1250    58.4760     8.4550     8.2740     7.8270    23.4580     2.4660   -19.8150 
  278.2500    58.4760     8.2320     8.0590     7.1500    23.3420     2.4590   -19.8560 
  278.3750    58.4760     7.9950     7.8390     6.6650    23.3630     2.4500   -19.8820 
  278.5000    58.4760     7.7620     7.6300     6.3270    23.6030     2.4390   -19.8930 
  278.6250    58.4760     7.5610     7.4500     6.2960    23.8980     2.4290   -19.8880 
  278.7500    58.4760     7.4130     7.3180     6.5370    24.0400     2.4200   -19.8670 
  278.8750    58.4760     7.3360     7.2530     6.8600    23.9740     2.4120   -19.8470 
  279.0000    58.4760     7.3460     7.2750     7.2920    23.8100     2.4060   -19.8170 
  279.1250    58.4760     7.4280     7.3690     7.7780    23.7150     2.4020   -19.7670 
  279.2500    58.4760     7.5560     7.5080     8.2130    23.6840     2.3990   -19.7090 
  279.3750    58.4760     7.7000     7.6590     8.4350    23.6680     2.3940   -19.6530 
  279.5000    58.4760     7.8230     7.7860     8.6380    23.6440     2.3850   -19.6040 
  279.6250    58.4760     7.9060     7.8720     8.8300    23.6090     2.3710   -19.5400 
  279.7500    58.4760     7.9480     7.9190     8.8490    23.5670     2.3530   -19.4660 
  279.8750    58.4760     7.9620     7.9400     8.7000    23.5150     2.3350   -19.3880 
  280.0000    58.4760     7.9600     7.9460     8.5010    23.4430     2.3240   -19.3230 
  280.1250    58.4760     7.9550     7.9490     8.2960    23.3410     2.3230   -19.2830 
  280.2500    58.4760     7.9520     7.9500     8.1010    23.1730     2.3330   -19.2660 
  280.3750    58.4760     7.9490     7.9480     7.9890    22.9310     2.3500   -19.2600 
  280.5000    58.4760     7.9500     7.9430     7.9930    22.6310     2.3670   -19.2530 
  280.6250    58.4760     7.9520     7.9370     7.7770    22.0610     2.3810   -19.2710 
  280.7500    58.4760     7.9560     7.9320     7.3650    21.0930     2.3930   -19.3180 
  280.8750    58.4760     7.9600     7.9300     7.0180    19.8620     2.3970   -19.3700 
  281.0000    58.4760     7.9640     7.9310     6.8230    18.5210     2.3950   -19.3990 
  281.1250    58.4760     7.9670     7.9330     6.8600    17.4100     2.3890   -19.3890 
  281.2500    58.4760     7.9670     7.9370     7.1470    16.7490     2.3820   -19.3400 
  281.3750    58.4760     7.9650     7.9410     7.5350    16.5590     2.3750   -19.2620 
  281.5000    58.4760     7.9620     7.9440     7.8970    16.7100     2.3700   -19.1760 
  281.6250    58.4760     7.9590     7.9440     8.1070    17.0380     2.3660   -19.0890 
  281.7500    58.4760     7.9550     7.9440     8.1960    17.4630     2.3630   -18.9870 
  281.8750    58.4760     7.9520     7.9430     8.1600    18.0290     2.3650   -18.8930 
  282.0000    58.4760     7.9520     7.9430     8.2900    18.6740     2.3670   -18.8380 
  282.1250    58.4760     7.9520     7.9430     8.4070    19.1400     2.3690   -18.8200 
  282.2500    58.4760     7.9520     7.9430     8.3930    19.2140     2.3720   -18.8500 
  282.3750    58.4760     7.9520     7.9430     8.1530    19.0130     2.3750   -18.9200 
  282.5000    58.4760     7.9520     7.9430     7.7220    18.7290     2.3790   -19.0270 
  282.6250    58.4760     7.9520     7.9430     7.2300    18.3170     2.3840   -19.1700 
  282.7500    58.4760     7.9520     7.9430     6.7700    17.6620     2.3920   -19.3390 
  282.8750    58.4760     7.9520     7.9430     6.4190    16.8240     2.4020   -19.5080 
  283.0000    58.4760     7.9520     7.9430     6.3260    16.1620     2.4140   -19.6650 
  283.1250    58.4760     7.9520     7.9430     6.3210    15.8230     2.4280   -19.8160 
  283.2500    58.4760     7.9520     7.9430     6.3080    15.6830     2.4390   -19.9400 
  283.3750    58.4760     7.9520     7.9430     6.3750    15.5720     2.4460   -20.0320 
  283.5000    58.4760     7.9520     7.9430     6.4110    15.4350     2.4460   -20.0850 
  283.6250    58.4760     7.9520     7.9430     6.4510    15.0640     2.4440   -20.1080 
  283.7500    58.4760     7.9520     7.9430     6.4890    14.7340     2.4410   -20.1140 
  283.8750    58.4760     7.9520     7.9430     6.4330    14.4490     2.4410   -20.1170 
  284.0000    58.4760     7.9520     7.9430     6.3810    14.1830     2.4460  -999.2500 
  284.1250    58.4760     7.9520     7.9430     6.3510    13.7600     2.4540  -999.2500 
  284.2500    58.4760     7.9520     7.9430     6.3740    13.1130     2.4630  -999.2500 
  284.3750    58.4760     7.9520     7.9430     6.4180    12.4900     2.4700  -999.2500 
  284.5000    58.4760     7.9520     7.9430     6.4750    12.1550     2.4730  -999.2500 
  284.6250    58.4760     7.9520     7.9430     6.5100    12.0560     2.4720  -999.2500 
  284.7500    58.4760     7.9520     7.9430     6.5160    12.0450     2.4680  -999.2500 
  284.8750    58.4760     7.9520     7.9430     6.5170    12.0450     2.4650  -999.2500 
  285.0000    58.4760     7.9520     7.9430     6.5190    12.0450     2.4620  -999.2500 
  285.1250    58.4760     7.9520     7.9430     6.5210    12.0450     2.4640  -999.2500 
  285.2500    58.4760     7.9520     7.9430     6.5220    12.0450     2.4660  -999.2500 
  285.3750    58.4760     7.9520     7.9430     6.5220    12.0450     2.4710  -999.2500 
  285.5000    58.4760     7.9520     7.9430     6.5210    12.0450     2.4750  -999.2500 
  285.6250    58.4760     7.9520     7.9430     6.5200    12.0450     2.4790  -999.2500 
  285.7500    58.4760     7.9520     7.9430     6.5190    12.0450     2.4820  -999.2500 
  285.8750    58.4760     7.9520     7.9430     6.5190    12.0440     2.4820  -999.2500 
  286.0000    58.4760     7.9520     7.9430     6.5190    12.0440     2.4810  -999.2500 
