~V
VERS. 2.00: Ver 2.00
~W
STRT.M 58.0000:
STOP.M 272.0000:
STEP.M 0.1250:
NULL. -999.2500:
UWI. F11073:
~C
DEPT.M :
GR.API :
RML.OHMM :
RI. :
RXO.OHMM :
CALI.CM :
DEN.GM/CC :
SP.MV :
~A
# ...
  204.2500    76.6560    51.9010    47.4990    51.7960    24.5400     2.2640    -9.7500 
  204.3750    77.6070    40.9100    37.5780    34.1610    24.5240     2.2830    -9.5280 
  204.5000    80.5640    34.6490    31.5180    23.5560    24.5020     2.3100    -9.4090 
  204.6250    82.5360    34.6140    30.2930    20.1010    24.4700     2.3320    -9.4840 
  204.7500    80.1700    40.1540    33.4380    23.6790    24.4830     2.3300    -9.6850 
  204.8750    73.6530    51.4660    41.5870    43.4070    24.5410     2.3020    -9.8810 
  205.0000    66.8880    68.1530    55.1660    74.8320    24.5740     2.2620   -10.0400 
  205.1250    63.9850    87.7430    72.9110    97.3780    24.5620     2.2320   -10.3840 
  205.2500    65.0450   103.9440    88.8080    98.8500    24.5780     2.2160   -10.8350 
  205.3750    67.8550   112.1340    97.8820   101.7460    24.5990     2.2070   -11.2440 
  205.5000    69.5130   112.4020    99.3280   106.2650    24.5980     2.2020   -11.5620 
  205.6250    67.9130   109.1330    96.3140    99.4380    24.5700     2.2040   -11.8100 
  205.7500    65.0060   107.3420    93.4850    90.0150    24.5760     2.2150   -12.0820 
  205.8750    63.9170   108.8590    92.6880    92.0290    24.5800     2.2270   -12.4000 
  206.0000    64.3380   114.3120    94.6770   101.8420    24.5510     2.2320   -12.6750 
  206.1250    65.7670   124.1640   100.0580   112.3270    24.5730     2.2280   -12.8970 
  206.2500    67.7920   136.7620   107.8150   118.0750    24.6360     2.2220   -13.1100 
  206.3750    67.7920   150.5180   116.9150   124.6380    24.6690     2.2180   -13.3270 
  206.5000    65.1150   163.7870   126.2210   134.7430    24.6650     2.2140   -13.5200 
  206.6250    61.7750   175.2840   134.9060   141.3790    24.6500     2.2100   -13.6330 
  206.7500    59.5800   185.2620   143.0380   137.8610    24.6210     2.2080   -13.6980 
  206.8750    58.7420   193.9580   150.6800   143.3130    24.5740     2.2120   -13.8080 
  207.0000    60.2060   201.1580   157.4970   153.9470    24.5340     2.2250   -13.9610 
  207.1250    63.2000   205.3700   162.2390   163.6060    24.5570     2.2440   -13.9760 
  207.2500    63.4260   205.4620   163.9470   172.8970    24.6170     2.2520   -13.9260 
  207.3750    60.6820   200.0350   161.5780   179.7940    24.6510     2.2420   -13.9590 
  207.5000    57.2900   188.4050   154.4980   176.2340    24.6610     2.2200   -14.0670 
  207.6250    55.0370   171.1450   142.6150   155.7950    24.6630     2.2050   -14.1410 
  207.7500    54.2240   152.2690   128.6850   136.6670    24.6630     2.2050   -14.1450 
  207.8750    56.3970   134.6470   114.9580   124.2220    24.6560     2.2120   -14.1350 
  208.0000    61.3540   120.2180   103.2550   112.2850    24.6480     2.2190   -14.1430 
  208.1250    64.4980   110.5100    95.1160   103.3040    24.6190     2.2260   -14.1590 
  208.2500    63.5280   104.6290    90.0670   101.2150    24.5630     2.2340   -14.2020 
  208.3750    60.8980   101.7790    87.5710    98.3820    24.5240     2.2400   -14.2500 
  208.5000    60.4580   100.9180    86.8570    90.5720    24.5380     2.2440   -14.2800 
  208.6250    63.2770   100.6360    86.9420    85.7070    24.5900     2.2450   -14.3230 
  208.7500    66.0640    99.2020    86.4210    87.5280    24.5860     2.2440   -14.3540 
  208.8750    66.6820    95.7520    84.4390    90.8630    24.5680     2.2420   -14.3620 
  209.0000    64.6090    90.4770    80.8900    89.5700    24.5740     2.2380   -14.4340 
  209.1250    62.3980    84.6360    76.5100    85.5760    24.5590     2.2350   -14.5280 
  209.2500    61.1140    79.9730    72.7500    77.0680    24.5160     2.2350   -14.5610 
  209.3750    60.6400    77.5440    70.6130    68.9430    24.4620     2.2380   -14.5660 
  209.5000    61.5780    77.7000    70.6100    67.3990    24.4470     2.2420   -14.6380 
  209.6250    63.8060    80.2270    72.8800    75.9600    24.5040     2.2420   -14.7930 
  209.7500    64.7940    83.6410    76.2710    88.6800    24.5620     2.2380   -14.9570 
  209.8750    63.4750    86.8380    79.7690   100.5720    24.5450     2.2370   -15.0650 
  210.0000    62.0690    88.9240    82.3980   104.6010    24.4750     2.2390   -15.1590 
  210.1250    62.6790    88.9800    83.1070    97.5820    24.4160     2.2430   -15.2830 
  210.2500    63.7370    87.0100    81.7980    91.3140    24.4000     2.2480   -15.3890 
  210.3750    64.2840    83.0120    78.4430    87.0000    24.4170     2.2500   -15.4450 
  210.5000    63.9160    77.3080    73.3200    89.1050    24.5180     2.2510   -15.4730 
  210.6250    64.3090    70.7430    67.1170    86.4070    24.6290     2.2500   -15.5510 
  210.7500    65.3050    64.9140    61.3060    79.4610    24.6440     2.2460   -15.6510 
  210.8750    66.1080    61.1250    57.0910    66.3610    24.4290     2.2450   -15.7000 
  211.0000    65.3180    60.3660    55.3980    56.4850    24.2600     2.2490   -15.6950 
  211.1250    62.7200    63.8980    57.3960    57.4920    24.4590     2.2530   -15.7700 
  211.2500    61.0450    71.2400    62.8320    68.3270    24.7740     2.2500   -15.8760 
  211.3750    60.2580    81.8850    71.4660    87.4950    24.7430     2.2420   -15.9310 
  211.5000    59.7230    94.6470    82.3870   108.9110    24.5210     2.2330   -15.9350 
  211.6250    59.1200   107.6160    93.9590   115.6450    24.3850     2.2240   -15.9600 
  211.7500    58.7130   119.1100   104.4160   118.2750    24.4190     2.2160   -16.0520 
  211.8750    58.5730   128.5420   112.9710   125.5240    24.4670     2.2070   -16.1720 
  212.0000    57.4340   135.9950   119.5810   139.5290    24.5050     2.1990   -16.3280 
  212.1250    56.6860   141.6270   124.5420   152.5030    24.5030     2.1940   -16.5050 
  212.2500    57.7920   146.0530   128.6650   159.2980    24.4810     2.1910   -16.6830 
  212.3750    61.0250   149.5270   132.2160   158.1360    24.4470     2.1900   -16.8880 
  212.5000    63.4430   152.0690   135.1750   158.1720    24.4040     2.1900   -17.0990 
  212.6250    61.2170   152.3840   136.5470   162.7000    24.3970     2.1910   -17.3010 
  212.7500    57.6320   148.5660   134.7500   173.7630    24.4050     2.1940   -17.5180 
  212.8750    56.8100   138.7920   128.0100   177.5230    24.4650     2.1980   -17.7450 
  213.0000    59.5040   123.3020   115.9370   169.3810    24.5590     2.2040   -17.8700 
  213.1250    62.8290   105.2300   100.3710   155.6840    24.6550     2.2140   -17.9820 
  213.2500    63.9900    89.3550    85.6270   127.6740    24.3920     2.2290   -18.1740 
  213.3750    64.2960    78.1630    74.3660    93.2870    24.2060     2.2460   -18.3560 
  213.5000    65.1700    72.5310    67.8480    72.2450    24.2120     2.2600   -18.4890 
  213.6250    67.0870    73.2260    67.0610    68.4560    24.3070     2.2660   -18.5970 
  213.7500    69.3000    78.7760    70.8100    79.3490    24.6210     2.2660   -18.7250 
  213.8750    69.8640    88.3460    78.4670    98.5720    25.1920     2.2590   -18.8540 
  214.0000    68.4470   100.6290    88.9900   121.5140    26.0740     2.2460   -19.0410 
  214.1250    64.3180   113.7170   100.7750   134.4990    25.1220     2.2320   -19.2410 
  214.2500    59.3760   125.5490   111.7850   131.3390    24.6130     2.2220   -19.3500 
  214.3750    55.6960   135.1090   120.9370   132.4060    24.2860     2.2160   -19.4270 
  214.5000    54.3200   142.0050   127.7070   143.2320    24.1520     2.2110   -19.5310 
  214.6250    54.6390   145.5720   131.3480   154.3130    24.1390     2.2080   -19.6250 
  214.7500    54.5730   146.1770   132.1350   159.3280    24.2270     2.2080   -19.6760 
  214.8750    54.6160   144.0980   130.3070   158.4240    24.2680     2.2100   -19.7090 
  215.0000    56.1950   140.1990   126.6870   147.2610    24.2670     2.2110   -19.6680 
  215.1250    57.4330   135.7560   122.5700   134.1730    24.1950     2.2160   -19.5830 
  215.2500    57.4950   131.8170   119.1580   126.1120    24.1200     2.2240   -19.5680 
  215.3750    57.2820   128.4170   116.6660   124.6440    24.1130     2.2350   -19.5860 
