~V
VERS. 2.00: Ver 2.00
~W
STRT.M 53.0000:
STOP.M 279.0000:
STEP.M 0.1250:
NULL. -999.2500:
UWI. F11068:
~C
DEPT.M :
GR.API :
RML.OHMM :
RI. :
RXO.OHMM :
CALI.CM :
SP.MV :
DEN.GM/CC :
~A
# ...
  199.2500    66.6730   102.8450    90.0540    99.9190    24.7390   -19.9240     2.2960 
  199.3750    63.4830    99.4800    87.2050    83.4670    24.7940   -19.7710     2.2960 
  199.5000    59.3480    97.8760    85.5930    76.2680    24.7960   -19.6730     2.2920 
  199.6250    58.8700   100.2630    87.6190    75.9850    24.7940   -19.5780     2.2820 
  199.7500    60.7830   106.5910    93.9810    80.4130    24.7940   -19.4960     2.2670 
  199.8750    61.6880   115.4780   104.5150    92.5560    24.8170   -19.4910     2.2500 
  200.0000    60.4320   123.2020   116.7190   122.6920    24.8620   -19.4830     2.2370 
  200.1250    57.9420   122.5290   122.9620   150.5150    24.9010   -19.4690     2.2390 
  200.2500    56.7820   111.0370   116.8000   153.2350    24.9250   -19.4850     2.2590 
  200.3750    58.0720    90.9080    98.0260   133.0830    24.9200   -19.4840     2.2950 
  200.5000    61.8230    68.0930    73.5370    93.1420    24.9020   -19.5180     2.3390 
  200.6250    65.9430    49.4700    52.6420    50.6130    24.9080   -19.5320     2.3760 
  200.7500    69.5040    36.8660    38.4240    26.1680    24.9120   -19.5510     2.3950 
  200.8750    73.3480    29.6840    30.1840    18.7950    24.8590   -19.5620     2.3930 
  201.0000    76.8670    26.6790    26.2960    15.7020    24.7290   -19.6390     2.3720 
  201.1250    76.3950    27.2240    25.9960    15.4380    24.7050   -19.7520     2.3400 
  201.2500    73.4200    30.0030    28.2030    19.5550    24.8290   -19.9040     2.3050 
  201.3750    70.5020    34.3500    32.5460    31.2550    25.0800   -20.0480     2.2720 
  201.5000    69.4930    39.5170    38.3640    45.5270    25.3960   -20.1940     2.2430 
  201.6250    69.1330    44.6460    44.5680    50.6940    25.5020   -20.3640     2.2280 
  201.7500    67.9610    49.0530    50.0150    46.2470    25.4860   -20.5290     2.2350 
  201.8750    67.5680    52.3430    54.1000    40.4700    25.3530   -20.6750     2.2630 
  202.0000    67.7710    54.2860    56.4850    39.6960    25.0570   -20.8270     2.3030 
  202.1250    65.0010    54.6370    56.7320    51.9710    24.6690   -21.0330     2.3260 
  202.2500    60.0530    54.0340    55.3510    68.1250    24.3820   -21.2110     2.3130 
  202.3750    58.5310    53.3910    53.1080    60.2810    24.1750   -21.4450     2.2660 
  202.5000    62.8080    54.0810    51.4070    39.9170    24.0780   -21.6500     2.2030 
  202.6250    66.1350    58.4000    52.6620    33.1960    24.2430   -21.8610     2.1570 
  202.7500    65.4690    67.3260    58.3650    40.3450    24.5910   -22.0740     2.1430 
  202.8750    63.1260    81.4650    69.7500    61.0390    24.7960   -22.3380     2.1610 
  203.0000    61.7180   100.0870    87.0030    87.3170    24.6180   -22.6200     2.1950 
  203.1250    60.8210   119.7460   107.7930   101.3500    24.2650   -22.7990     2.2280 
  203.2500    59.9540   134.7120   125.0580   102.2010    24.0080   -22.9490     2.2510 
  203.3750    60.0620   141.4510   133.3350    93.6100    23.8680   -23.0710     2.2630 
  203.5000    60.0990   140.3360   132.3370    84.8750    23.8060   -23.1920     2.2670 
  203.6250    60.1480   135.3220   126.8560    76.6750    23.8460   -23.2620     2.2630 
  203.7500    62.9170   131.5450   122.8530    68.8750    23.9410   -23.3230     2.2550 
  203.8750    68.0660   130.4560   122.1050    65.3990    23.9950   -23.3110     2.2480 
  204.0000    70.6090   131.1380   124.0240    75.8570    23.9630   -23.2160     2.2460 
  204.1250    65.6930   130.8660   125.9950    86.8490    23.8670   -23.1530     2.2510 
  204.2500    58.4270   127.3690   124.9670    84.6040    23.8130   -23.0590     2.2610 
  204.3750    54.9790   120.0330   119.5400    70.8380    23.8310   -22.9520     2.2700 
  204.5000    56.9670   110.0350   110.3410    58.6670    23.8930   -22.7930     2.2770 
  204.6250    61.7610   100.1260    99.9990    56.2550    23.9800   -22.7140     2.2800 
  204.7500    65.6580    92.8710    91.7310    56.7010    24.0220   -22.6530     2.2800 
  204.8750    68.2640    89.5170    87.1310    54.7610    24.0100   -22.5870     2.2750 
  205.0000    69.2460    90.4190    86.7180    51.6980    24.0260   -22.5240     2.2650 
  205.1250    66.3330    96.0770    91.0850    57.0500    24.0230   -22.4520     2.2540 
  205.2500    61.5340   105.4220    99.2340    68.4930    23.9080   -22.4070     2.2470 
  205.3750    59.0850   118.0060   110.7090    79.4290    23.7320   -22.3260     2.2460 
  205.5000    59.5920   133.2560   124.8590    81.6410    23.7830   -22.2600     2.2520 
  205.6250    60.6530   150.7130   141.0870    88.7500    24.1140   -22.1940     2.2580 
  205.7500    61.0420   169.2080   158.2970   107.4000    24.2720   -22.1160     2.2580 
  205.8750    60.4250   187.7570   175.8440   140.6830    24.2660   -22.0930     2.2500 
  206.0000    58.0940   204.7860   192.5800   179.0860    24.2290   -22.1250     2.2370 
  206.1250    55.6610   217.0890   205.3420   198.9910    24.2190   -22.1800     2.2230 
  206.2500    55.6570   223.2640   212.0130   191.8570    24.2110   -22.2830     2.2120 
  206.3750    57.5690   223.2290   212.3790   194.9820    24.2140   -22.4640     2.2020 
  206.5000    58.3040   218.4880   208.5870   202.1260    24.2610   -22.6980     2.1930 
  206.6250    56.6100   210.4460   203.0630   181.6540    24.3210   -22.9550     2.1890 
  206.7500    55.2320   199.9520   196.4860   159.1480    24.3730   -23.2590     2.1900 
  206.8750    55.9160   186.2610   187.3510   170.7880    24.4660   -23.5530     2.1980 
  207.0000    56.6560   169.0600   174.1240   185.6950    24.5840   -23.8320     2.2130 
  207.1250    54.2550   149.5140   156.6200   155.5590    24.6510   -24.1600     2.2340 
  207.2500    53.0670   130.9150   138.3960   108.9580    24.6180   -24.4420     2.2520 
  207.3750    56.2350   115.7150   122.6140    85.8150    24.5330   -24.6640     2.2600 
  207.5000    60.6950   105.1510   111.3140    84.9790    24.5260   -24.8320     2.2540 
  207.6250    62.0920    99.4710   105.4850    88.0320    24.6510   -24.9980     2.2370 
  207.7500    61.8160    96.1660   102.7620    94.3160    24.8030   -25.1390     2.2250 
  207.8750    61.9640    93.2410   100.7640   108.7050    24.7520   -25.2630     2.2300 
  208.0000    62.3010    89.2140    97.2220   126.3410    24.4470   -25.3000     2.2550 
  208.1250    62.5140    83.7580    90.9870   110.3830    24.3200   -25.1570     2.2910 
  208.2500    61.8390    78.5940    84.0570    87.1550    24.1990   -24.9760     2.3160 
  208.3750    59.7850    75.7650    78.9140    70.1360    24.0860   -24.8240     2.3200 
  208.5000    57.5570    77.2130    77.8680    71.0940    24.1340   -24.7560     2.3000 
  208.6250    56.7720    85.6880    84.0550    76.4400    24.2680   -24.5760     2.2660 
  208.7500    56.8530   101.5340    98.3950    94.8890    24.4910   -24.3890     2.2390 
  208.8750    57.2360   125.3240   122.1470   144.6010    24.7740   -24.2080     2.2310 
  209.0000    57.6620   155.9310   154.8680   237.2480    24.9030   -24.0960     2.2480 
  209.1250    56.6770   187.8040   191.6780   311.9630    24.6800   -24.1020     2.2850 
  209.2500    54.6050   210.9310   220.5470   329.1940    24.4360   -24.1560     2.3220 
  209.3750    52.2540   217.8360   231.0760   353.3590    24.4690   -24.2290     2.3430 
  209.5000    50.1520   207.3180   220.6870   344.1950    24.7230   -24.2290     2.3390 
  209.6250    50.1890   184.5090   195.8930   279.3470    24.9300   -24.2400     2.3110 
  209.7500    53.9880   160.1370   169.4670   195.8180    24.9550   -24.2500     2.2790 
  209.8750    62.3050   138.9510   146.4320   137.7590    24.9950   -24.2510     2.2580 
  210.0000    71.5660   122.3610   128.2540   118.1490    25.1460   -24.1980     2.2550 
  210.1250    73.3530   110.5510   115.2360   110.8210    25.2240   -24.1350     2.2640 
  210.2500    67.8460   101.8850   105.5680   105.9070    25.2340   -24.0470     2.2690 
  210.3750    62.3910    95.7270    98.5140    94.4040    25.1800   -23.9560     2.2610 
