~V
VERS. 2.00: Ver 2.00
~W
STRT.M 55.0000:
STOP.M 277.0000:
STEP.M 0.1250:
NULL. -999.2500:
UWI. F11037:
~C
DEPT.M :
SP.MV :
GR.API :
RML.OHMM :
RI. :
RXO.OHMM :
CALI.CM :
DEN.GM/CC :
~A
# ...
  122.5000   -18.8140    77.5560     8.0520     7.1440     8.3310    23.5430     2.1820 
  122.6250   -19.5930    76.0130     8.1000     7.1840     8.4270    23.5410     2.1840 
  122.7500   -20.5190    73.4990     8.1010     7.1730     8.6610    23.5290     2.1830 
  122.8750   -21.3470    71.6340     8.0830     7.1490     8.8580    23.5020     2.1800 
  123.0000   -21.7830    72.3480     8.0690     7.1340     8.8900    23.4820     2.1760 
  123.1250   -22.1070    73.1030     8.0840     7.1430     8.8280    23.4750     2.1740 
  123.2500   -22.3120    73.5170     8.1360     7.1900     8.6530    23.4770     2.1720 
  123.3750   -22.3820    75.7390     8.2230     7.2780     8.3350    23.4890     2.1690 
  123.5000   -22.4930    78.9800     8.3290     7.3900     7.9690    23.5160     2.1650 
  123.6250   -22.5150    79.3510     8.4170     7.4840     7.9530    23.5360     2.1590 
  123.7500   -22.3750    76.6990     8.4600     7.5270     8.1090    23.5510     2.1550 
  123.8750   -22.2390    74.7200     8.4560     7.5130     8.2330    23.5720     2.1540 
  124.0000   -22.1750    74.8640     8.4250     7.4700     8.1110    23.5970     2.1550 
  124.1250   -22.0910    75.6460     8.4060     7.4480     7.8460    23.6280     2.1590 
  124.2500   -22.0980    76.3140     8.4210     7.4610     7.7190    23.6630     2.1610 
  124.3750   -22.0810    75.9880     8.4800     7.5150     8.0860    23.6940     2.1570 
  124.5000   -21.9700    74.9930     8.5800     7.6150     8.4780    23.7040     2.1520 
  124.6250   -21.7630    75.8410     8.7230     7.7510     8.7500    23.7170     2.1490 
  124.7500   -21.4600    78.2510     8.9110     7.9190     8.9290    23.7220     2.1510 
  124.8750   -21.1750    78.9780     9.1710     8.1510     9.0110    23.7270     2.1620 
  125.0000   -21.0050    76.6280     9.5240     8.4870     9.0220    23.7230     2.1810 
  125.1250   -20.8990    74.3790     9.9550     8.9260     9.1650    23.7030     2.2010 
  125.2500   -20.7190    73.3080    10.3630     9.3490     9.5690    23.6760     2.2120 
  125.3750   -20.4960    71.0630    10.6520     9.6440     9.7580    23.6650     2.2110 
  125.5000   -20.2520    68.8510    10.7600     9.7410     9.8450    23.6650     2.1970 
  125.6250   -19.9690    69.8580    10.6710     9.6300    10.0120    23.6650     2.1770 
  125.7500   -19.6790    69.6400    10.4960     9.4350    10.1320    23.6820     2.1580 
  125.8750   -19.4880    66.4230    10.3540     9.2560    10.4390    23.7260     2.1440 
  126.0000   -19.4180    64.1780    10.3510     9.2260    10.8790    23.7950     2.1450 
  126.1250   -19.1610    67.1400    10.8690     9.6200    11.1840    23.8960     2.1810 
  126.2500   -18.7610    72.4070    12.4340    10.6360    11.8020    24.0140     2.2600 
  126.3750   -18.2810    76.1790    15.2910    12.5110    14.2610    24.1010     2.3740 
  126.5000   -17.6250    76.4490    19.0190    15.3600    21.6270    24.1730     2.4990 
  126.6250   -16.9710    72.3070    22.3900    18.7910    32.9730    24.2940     2.5930 
  126.7500   -16.4230    68.2760    24.1580    21.3160    39.2460    24.4830     2.6370 
  126.8750   -15.7580    67.6190    23.6610    21.5490    37.4390    24.6600     2.6350 
  127.0000   -15.0660    67.5470    21.0690    19.3560    31.3450    24.7940     2.6050 
  127.1250   -14.5440    65.5540    17.5090    16.0420    22.4950    24.7100     2.5700 
  127.2500   -14.0790    64.4190    14.4590    13.1820    15.6940    24.5500     2.5480 
  127.3750   -13.7120    65.3270    12.4890    11.2430    13.0020    24.4920     2.5370 
  127.5000   -13.4220    65.7010    11.6670    10.2420    12.5760    24.6330     2.5280 
  127.6250   -13.1640    62.8570    11.9420    10.1820    13.0900    24.7950     2.5150 
  127.7500   -12.8870    59.7840    12.8750    10.7940    13.0510    24.9710     2.5000 
  127.8750   -12.5730    58.2830    14.1820    11.9380    13.5520    25.1180     2.4910 
  128.0000   -12.2460    58.1500    15.5660    13.4180    15.1790    25.1530     2.4960 
  128.1250   -11.8550    58.2020    16.7030    14.9450    16.7000    25.0730     2.5180 
  128.2500   -11.4830    57.7960    17.4770    16.2080    17.6040    25.0340     2.5450 
  128.3750   -11.1760    57.1720    17.8930    17.0280    17.9580    25.0190     2.5670 
  128.5000   -10.9200    56.6020    18.0270    17.3640    18.0320    24.9990     2.5760 
  128.6250   -10.6500    56.2140    17.9270    17.2430    18.1700    24.9550     2.5720 
  128.7500   -10.4340    56.1610    17.6420    16.8790    18.2200    24.9150     2.5630 
  128.8750   -10.2880    56.9460    17.1750    16.3760    17.4430    24.8800     2.5570 
  129.0000   -10.1290    59.1840    16.5750    15.7950    15.8870    24.8880     2.5550 
  129.1250   -10.1370    60.2460    15.9860    15.1800    15.9230    24.9310     2.5590 
  129.2500   -10.1660    58.2240    15.5760    14.6180    15.9700    24.9030     2.5620 
  129.3750   -10.1310    54.8350    15.4590    14.2190    14.7860    24.7780     2.5670 
  129.5000   -10.1600    52.1930    15.7010    14.1120    14.0600    24.7710     2.5740 
  129.6250   -10.1940    51.4240    16.4020    14.5070    14.2000    24.8290     2.5860 
  129.7500   -10.2010    52.0990    17.4670    15.4010    15.4960    24.8740     2.6020 
  129.8750   -10.3000    53.1470    18.7630    16.6920    17.9940    24.8900     2.6180 
  130.0000   -10.3900    51.5750    20.0310    18.0860    20.7390    24.8710     2.6290 
  130.1250   -10.2660    48.4310    20.8180    19.0610    22.7890    24.8070     2.6280 
  130.2500   -10.1880    47.0080    20.9120    19.3250    23.0590    24.7220     2.6140 
  130.3750   -10.1290    48.2210    20.3140    18.8740    20.8490    24.6590     2.5900 
  130.5000   -10.0040    51.0650    19.2510    17.9640    18.2440    24.5910     2.5660 
  130.6250    -9.9380    53.6530    18.0900    16.9450    16.0920    24.4600     2.5520 
  130.7500    -9.8460    54.3180    17.1420    16.0730    15.3600    24.2960     2.5470 
  130.8750    -9.7870    53.5770    16.5040    15.4420    14.6420    24.1920     2.5500 
  131.0000    -9.7680    54.0160    16.1580    15.1220    14.1040    24.1530     2.5550 
  131.1250    -9.8110    56.4770    16.0690    15.1750    13.9600    24.1020     2.5650 
  131.2500    -9.9270    59.4090    16.1470    15.4560    14.4250    24.0700     2.5780 
  131.3750   -10.0230    60.8920    16.3690    15.8500    15.4350    24.1200     2.5920 
  131.5000   -10.1230    59.1930    16.7090    16.2690    16.8380    24.2490     2.6020 
  131.6250   -10.1490    53.8540    17.1470    16.6840    18.5690    24.3170     2.6040 
  131.7500   -10.1970    50.0530    17.6500    17.1120    18.6700    24.3250     2.6030 
  131.8750   -10.2410    50.8430    18.2530    17.6050    18.4530    24.3120     2.6050 
  132.0000   -10.3220    54.6720    19.0290    18.2310    19.5610    24.3480     2.6120 
  132.1250   -10.4900    58.1190    20.0620    19.0480    20.9320    24.4060     2.6200 
  132.2500   -10.6210    58.6820    21.2540    19.9950    22.0590    24.4320     2.6210 
  132.3750   -10.6860    56.1230    22.4550    20.9830    23.1640    24.4290     2.6140 
  132.5000   -10.7080    52.8960    23.5040    21.8870    24.4200    24.3990     2.6010 
  132.6250   -10.8170    53.2880    24.2550    22.5910    23.1350    24.3240     2.5910 
  132.7500   -10.8920    57.4450    24.7590    23.1350    22.1800    24.2470     2.5900 
  132.8750   -10.8170    61.1100    25.0560    23.5460    22.9200    24.1740     2.5990 
  133.0000   -10.7580    59.9220    25.1450    23.7810    24.4290    24.1330     2.6140 
  133.1250   -10.7020    55.1660    24.9220    23.7010    24.7880    24.1260     2.6280 
  133.2500   -10.5430    53.9610    24.4100    23.3290    23.7610    24.1530     2.6350 
  133.3750   -10.4640    57.0990    23.7140    22.7760    22.8800    24.2160     2.6320 
  133.5000   -10.4590    60.0290    23.0480    22.2260    22.3470    24.2680     2.6240 
  133.6250   -10.4510    58.5830    22.6920    21.9120    21.4440    24.2580     2.6170 
