~V
VERS. 2.00: Ver 2.00
~W
STRT.M 62.0000:
STOP.M 272.0000:
STEP.M 0.1250:
NULL. -999.2500:
UWI. F11076:
~C
DEPT.M :
GR.API :
RML.OHMM :
RI. :
RXO.OHMM :
CALI.CM :
DEN.GM/CC :
SP.MV :
~A
# ...
  219.5000    61.8270    85.6910    82.5450   122.5480    26.4530     2.2050   -28.3730 
  219.6250    62.5790    88.4330    87.5610   132.9500    26.4420     2.1990   -28.4410 
  219.7500    61.2750    85.7540    86.7920   131.2360    26.3480     2.2010   -28.4840 
  219.8750    56.7300    77.7230    79.3540   108.0030    25.9470     2.2150   -28.4810 
  220.0000    52.7910    66.6020    67.6640    79.2280    25.0980     2.2390   -28.4720 
  220.1250    56.3390    55.8840    55.9540    55.6390    24.2230     2.2640   -28.4580 
  220.2500    63.6480    47.7810    46.9170    42.7400    23.6410     2.2830   -28.4630 
  220.3750    68.0820    42.7920    41.1050    42.1250    23.5130     2.2950   -28.5040 
  220.5000    69.3390    40.5670    38.1740    46.3480    23.7920     2.3030   -28.5770 
  220.6250    71.6980    40.5950    37.6830    50.6280    24.2870     2.3080   -28.6970 
  220.7500    74.2780    41.6050    38.4260    52.7010    24.8040     2.3120   -28.8730 
  220.8750    74.7720    42.7990    39.6280    54.0660    25.2950     2.3120   -29.1040 
  221.0000    72.7190    43.5500    40.5660    54.6430    25.5220     2.3080   -29.3470 
  221.1250    69.4550    43.4160    40.6400    54.2550    25.5270     2.3010   -29.5980 
  221.2500    66.6280    42.6360    40.0110    51.9210    25.4830     2.2950   -29.8130 
  221.3750    65.8950    41.5310    39.0030    50.3280    25.4570     2.2930   -29.9580 
  221.5000    66.4890    40.4200    37.9420    49.8360    25.4950     2.2930   -30.0500 
  221.6250    66.8680    39.5290    37.0860    50.2150    25.5560     2.2950   -30.0790 
  221.7500    66.8770    38.8380    36.4520    50.8250    25.5840     2.2960   -30.0410 
  221.8750    66.3510    38.2570    35.9620    50.8270    25.5890     2.2980   -29.9650 
  222.0000    64.8710    37.6830    35.5000    49.9620    25.5890     2.2990   -29.8530 
  222.1250    64.3900    37.0540    34.9810    49.1390    25.5890     2.2980   -29.6860 
  222.2500    66.7310    36.3960    34.4360    49.1500    25.5890     2.2930   -29.5010 
  222.3750    69.6940    35.7380    33.9340    48.1460    25.5830     2.2820   -29.3260 
  222.5000    71.0840    35.0580    33.4880    45.6470    25.5320     2.2710   -29.1500 
  222.6250    71.6270    34.2050    32.9470    43.2100    25.3440     2.2660   -28.9700 
  222.7500    71.8610    33.0380    32.0750    41.4520    25.0870     2.2720   -28.7550 
  222.8750    72.2300    31.4880    30.7030    40.1180    24.9420     2.2910   -28.4670 
  223.0000    72.7720    29.6350    28.8420    37.6290    24.8910     2.3200   -28.1330 
  223.1250    73.8440    27.7630    26.7530    33.1800    24.8600     2.3490   -27.7830 
  223.2500    76.5810    26.2300    24.8900    28.7280    24.8320     2.3700   -27.4300 
  223.3750    78.7600    25.2660    23.5350    26.5670    24.8680     2.3790   -27.0960 
  223.5000    77.0460    24.9540    22.8070    25.8120    25.0190     2.3770   -26.7770 
  223.6250    73.5140    25.2820    22.7360    27.1610    25.2420     2.3690   -26.4850 
  223.7500    72.4570    25.9460    23.0270    29.3850    25.4230     2.3580   -26.2680 
  223.8750    72.4840    26.7740    23.4870    30.3590    25.4570     2.3380   -26.1390 
  224.0000    71.3930    27.7130    24.0130    30.4480    25.4280     2.3040   -26.0430 
  224.1250    71.1970    28.9820    24.7170    31.1970    25.5280     2.2630   -25.9460 
  224.2500    71.4280    30.9540    25.8830    33.4240    25.6640     2.2440   -25.8090 
  224.3750    69.0430    34.1970    27.9660    37.4220    25.8000     2.2740   -25.5930 
  224.5000    64.4410    39.4440    31.6180    41.9820    25.9850     2.3590   -25.2660 
  224.6250    61.8600    48.1710    38.4360    45.9310    26.0890     2.4790   -24.7670 
  224.7500    61.9310    60.3500    49.2080    57.2400    25.9000     2.5850   -24.0610 
  224.8750    61.2100    74.0860    63.5610    87.5510    25.5920     2.6500   -23.1150 
  225.0000    58.1680    83.9190    77.2630   129.0890    25.3900     2.6650   -21.9740 
  225.1250    56.4840    80.9810    78.6320   141.2340    25.2520     2.6390   -20.6770 
  225.2500    59.0330    66.5740    65.0330   147.2950    25.1360     2.5970   -19.2710 
  225.3750    65.2440    47.0920    44.8630    93.7740    25.0060     2.5520   -17.7960 
  225.5000    73.4210    29.7900    27.8380    32.9980    24.8040     2.5140   -16.3090 
  225.6250    82.7470    19.1380    18.0510    14.0080    24.6460     2.4910   -14.9160 
  225.7500    92.0400    13.4680    12.8030     8.8510    24.5530     2.4820   -13.6550 
  225.8750    98.1180    11.0350    10.2220     8.0310    24.5100     2.4800   -12.5840 
  226.0000    98.8170    10.3320     9.1450     8.2040    24.5180     2.4750   -11.7040 
  226.1250    96.4740    10.4990     9.0450     8.3670    24.5900     2.4620   -11.0260 
  226.2500    94.8440    10.9250     9.3400     8.8160    24.6840     2.4450   -10.5210 
  226.3750    92.5030    11.3150     9.7060     9.4080    24.7770     2.4360   -10.1450 
  226.5000    88.8880    11.5520     9.9530     9.4930    24.8240     2.4420    -9.8800 
  226.6250    87.1550    11.6610    10.0620     8.9750    24.7440     2.4610    -9.7120 
  226.7500    88.3340    11.7640    10.1470     8.2520    24.5520     2.4750    -9.6420 
  226.8750    90.7370    11.9180    10.2660     8.5580    24.3480     2.4760    -9.6560 
  227.0000    93.2890    12.1500    10.4360    10.2810    24.2580     2.4680    -9.6890 
  227.1250    94.5720    12.5230    10.6820    12.0670    24.3270     2.4630    -9.6930 
  227.2500    93.4700    13.1180    11.0490    11.3590    24.5430     2.4720    -9.6550 
  227.3750    91.8570    14.0310    11.6350     9.9940    24.8250     2.4940    -9.5880 
  227.5000    90.9920    15.2580    12.5160    10.4790    24.9680     2.5270    -9.4600 
  227.6250    88.7280    16.5270    13.6190    14.3120    24.9580     2.5710    -9.2310 
  227.7500    84.1160    17.2730    14.4910    17.4180    24.9310     2.6130    -8.9090 
  227.8750    81.3420    16.9960    14.5540    18.1760    24.9170     2.6380    -8.4850 
  228.0000    82.4950    15.5210    13.4440    17.2410    24.7970     2.6310    -8.0180 
  228.1250    85.5880    13.1060    11.3520    13.6030    24.7100     2.5830    -7.4770 
  228.2500    86.3330    10.6100     9.1750    10.3020    24.8480     2.5170    -6.8680 
  228.3750    84.5980     8.5450     7.3670     7.6720    25.2030     2.4540    -6.2040 
  228.5000    81.0140     7.1200     6.0720     5.8650    25.5230     2.4090    -5.5340 
  228.6250    73.4880     6.3730     5.3210     5.2320    25.5520     2.3900    -4.9230 
  228.7500    66.0720     6.0340     4.9290     4.9040    25.3120     2.3890    -4.4020 
  228.8750    63.9100     5.9560     4.7950     4.6820    24.8740     2.4020    -3.9920 
  229.0000    66.3930     6.0270     4.8330     4.5510    24.4240     2.4250    -3.7150 
  229.1250    68.9780     6.1710     4.9890     4.4750    24.1170     2.4450    -3.6320 
  229.2500    70.9240     6.3180     5.1820     4.5010    24.0000     2.4530    -3.6780 
  229.3750    75.8540     6.4320     5.3640     4.6630    24.0870     2.4460    -3.7980 
  229.5000    82.8980     6.4940     5.4940     4.8850    24.2540     2.4300    -3.9370 
  229.6250    87.9770     6.4980     5.5400     5.0490    24.3730     2.4170    -4.0200 
  229.7500    88.3820     6.4820     5.5270     4.9710    24.4210     2.4130    -4.0140 
  229.8750    85.6050     6.4810     5.4950     4.7610    24.4320     2.4180    -3.9480 
  230.0000    83.9140     6.5230     5.4790     4.6790    24.4600     2.4260    -3.7890 
  230.1250    84.4760     6.6220     5.5000     4.8370    24.5590     2.4250    -3.5040 
  230.2500    84.5430     6.7540     5.5450     5.1760    24.7340     2.4150    -3.1480 
  230.3750    83.1810     6.8940     5.5940     5.4700    24.9300     2.3990    -2.7920 
  230.5000    81.9870     7.0190     5.6320     5.5580    25.0990     2.3850    -2.5190 
  230.6250    82.8960     7.1120     5.6470     5.4100    25.1670     2.3800    -2.3940 
