~V
VERS. 2.00: Ver 2.00
~W
STRT.M 50.0000:
STOP.M 220.0000:
STEP.M 0.1250:
NULL. -999.2500:
UWI. F11004:
~C
DEPT.M :
SP.MV :
GR.API :
RML.OHMM :
RI. :
RXO.OHMM :
CALI.CM :
DEN.GM/CC :
~A
# ...
  162.5000   -25.3230    62.9160   113.1250   109.0570    96.4730    25.2110     2.1630 
  162.6250   -24.8440    61.4770   111.1260   106.9300    97.4160    25.3190     2.1640 
  162.7500   -24.3830    60.5920   109.9500   105.0700    95.5360    25.2830     2.1740 
  162.8750   -23.9890    59.7270   111.0240   104.9730    92.0370    25.2000     2.1840 
  163.0000   -23.5630    59.8080   115.0680   107.4490    91.1270    25.1580     2.1870 
  163.1250   -23.1490    59.8230   121.1620   111.7720    99.4680    25.1540     2.1880 
  163.2500   -22.8220    58.4010   128.6500   117.3950   119.7510    25.1240     2.1950 
  163.3750   -22.5110    56.9360   137.1730   124.0030   143.0940    25.0680     2.2160 
  163.5000   -22.2250    56.4740   147.6130   132.3790   143.3030    25.0360     2.2580 
  163.6250   -22.0130    55.0950   161.2690   143.7450   133.8550    24.9960     2.3180 
  163.7500   -21.8370    52.5170   179.7040   159.5920   140.0200    24.8910     2.4000 
  163.8750   -21.6370    52.3930   203.6060   180.4200   173.1800    24.7260     2.5020 
  164.0000   -21.4450    54.6540   230.8120   204.0350   235.4370    24.5660     2.6010 
  164.1250   -21.3130    52.6120   251.7700   222.8570   302.0400    24.4610     2.6680 
  164.2500   -21.1360    48.8810   252.0570   226.9480   346.3410    24.4030     2.6960 
  164.3750   -20.9280    48.4920   219.4450   206.5730   341.3700    24.3740     2.7030 
  164.5000   -20.7600    50.4000   158.9440   157.7900   285.9470    24.3380     2.7020 
  164.6250   -20.5430    50.1740   101.0510   103.0130   221.9530    24.2690     2.6990 
  164.7500   -20.2800    49.4880    59.2550    59.8490   154.4010    24.1780     2.6920 
  164.8750   -20.0300    51.3350    33.5680    33.1010    81.6940    24.1290     2.6690 
  165.0000   -19.7460    55.4350    20.2610    19.9520    33.8580    24.1780     2.6150 
  165.1250   -19.3940    59.8520    12.9020    12.9660    10.1430    24.2750     2.5480 
  165.2500   -19.0710    63.0580     8.9880     9.2270     7.4490    24.3780     2.4980 
  165.3750   -18.7960    63.3540     7.0350     7.2080     6.7730    24.4530     2.4790 
  165.5000   -18.4950    59.9630     6.2720     6.2620     6.5000    24.4740     2.4800 
  165.6250   -18.2550    55.6560     5.9920     5.8240     6.1380    24.4560     2.4730 
  165.7500   -18.0660    52.3680     5.9290     5.6730     5.7640    24.4220     2.4510 
  165.8750   -17.8670    50.7280     5.9290     5.6480     5.6270    24.3580     2.4220 
  166.0000   -17.7810    49.6570     5.9050     5.6410     5.7690    24.2390     2.3910 
  166.1250   -17.7530    48.2000     5.8480     5.6110     5.7380    24.1790     2.3550 
  166.2500   -17.7300    46.8930     5.7680     5.5610     5.4190    24.2440     2.3220 
  166.3750   -17.7560    46.9490     5.6840     5.5050     5.1730    24.3650     2.3070 
  166.5000   -17.8240    48.0380     5.6050     5.4460     5.2770    24.4270     2.3230 
  166.6250   -17.8590    48.6930     5.5310     5.3750     5.4240    24.4400     2.3510 
  166.7500   -17.9080    49.7140     5.4600     5.2840     5.3980    24.3880     2.3730 
  166.8750   -17.9810    52.5300     5.4060     5.1850     5.2290    24.2420     2.3860 
  167.0000   -18.0310    55.1010     5.4070     5.1080     5.0910    24.1210     2.3980 
  167.1250   -18.1330    55.2640     5.4860     5.0820     5.1000    24.1490     2.4100 
  167.2500   -18.2530    53.0980     5.6460     5.1160     5.2550    24.2850     2.4200 
  167.3750   -18.3030    50.4400     5.8510     5.1930     5.4570    24.4190     2.4260 
  167.5000   -18.3910    51.4980     6.0330     5.2750     5.7280    24.5130     2.4230 
  167.6250   -18.5250    57.2320     6.1550     5.3290     6.0180    24.5840     2.4120 
  167.7500   -18.6500    65.7390     6.2230     5.3500     6.1100    24.6100     2.3980 
  167.8750   -18.8270    72.3090     6.2840     5.3590     5.9790    24.5810     2.3890 
  168.0000   -19.0110    72.0620     6.4110     5.4030     6.1370    24.5600     2.3940 
  168.1250   -19.1620    66.6040     6.6270     5.5090     6.7880    24.5890     2.4030 
  168.2500   -19.2900    59.4060     6.9050     5.6710     7.3850    24.6410     2.4100 
  168.3750   -19.4420    54.9770     7.1720     5.8510     7.3420    24.6650     2.4150 
  168.5000   -19.5760    53.9200     7.3170     5.9750     6.9370    24.6440     2.4180 
  168.6250   -19.6830    52.6840     7.3010     5.9970     6.8060    24.6170     2.4170 
  168.7500   -19.8170    50.7260     7.1340     5.9030     6.8700    24.5900     2.4150 
  168.8750   -19.9360    47.5980     6.8760     5.7150     6.7440    24.5620     2.4120 
  169.0000   -20.0330    43.7090     6.6140     5.4750     6.3240    24.5380     2.4080 
  169.1250   -20.1460    41.0740     6.4070     5.2440     5.9790    24.5080     2.4030 
  169.2500   -20.2860    42.1440     6.2780     5.0590     5.8160    24.4670     2.3970 
  169.3750   -20.4290    46.6190     6.2310     4.9490     5.7620    24.4300     2.3940 
  169.5000   -20.6260    51.6910     6.2790     4.9420     5.7940    24.4420     2.3910 
  169.6250   -20.8430    54.0490     6.4040     5.0180     5.9870    24.4870     2.3860 
  169.7500   -21.0290    52.2470     6.6060     5.1680     6.3420    24.5330     2.3820 
  169.8750   -21.2520    48.2360     6.8800     5.3820     6.6820    24.5610     2.3800 
  170.0000   -21.5310    45.3900     7.2060     5.6450     6.7340    24.5480     2.3800 
  170.1250   -21.7700    44.3580     7.5180     5.9020     6.6590    24.5040     2.3810 
  170.2500   -22.0460    46.8770     7.7480     6.1040     6.7270    24.4640     2.3860 
  170.3750   -22.3370    52.4590     7.8470     6.2120     6.9710    24.4700     2.3940 
  170.5000   -22.5520    56.2790     7.7900     6.2050     7.1410    24.5280     2.4020 
  170.6250   -22.8100    55.9700     7.6630     6.1340     7.0560    24.5710     2.4060 
  170.7500   -23.1310    54.9820     7.5480     6.0470     6.8050    24.5620     2.4040 
  170.8750   -23.4470    56.7460     7.5120     5.9930     6.4900    24.5190     2.4030 
  171.0000   -23.8140    60.6860     7.5910     6.0110     6.3340    24.4970     2.4090 
  171.1250   -24.3100    65.7270     7.7290     6.0850     6.5040    24.4860     2.4170 
  171.2500   -24.8470    72.2350     7.8670     6.1820     6.9140    24.4260     2.4160 
  171.3750   -25.4170    81.0070     7.9560     6.2620     7.3040    24.3000     2.3990 
  171.5000   -26.1010    93.7510     7.9860     6.3010     7.5240    24.2090     2.3710 
  171.6250   -26.8330   107.0750     8.0010     6.3190     7.6800    24.2800     2.3430 
  171.7500   -27.5420   114.2300     8.0350     6.3390     7.8180    24.5370     2.3250 
  171.8750   -28.2600   112.0780     8.1060     6.3710     7.9910    24.8610     2.3210 
  172.0000   -28.9560   105.4240     8.2060     6.4100     8.2180    25.0640     2.3330 
  172.1250   -29.5390   102.5730     8.3010     6.4420     8.2320    25.1320     2.3490 
  172.2500   -30.0620   102.3030     8.3750     6.4680     7.9450    25.1300     2.3530 
  172.3750   -30.6030    99.5080     8.4330     6.4980     7.7030    25.0950     2.3400 
  172.5000   -31.0840    94.4470     8.5000     6.5490     7.7610    25.0580     2.3150 
  172.6250   -31.4720    91.7880     8.5960     6.6300     7.8940    25.0750     2.2920 
  172.7500   -31.8700    94.1950     8.7240     6.7440     8.0300    25.1200     2.2860 
  172.8750   -32.2380    98.0720     8.8690     6.8840     8.1900    25.0910     2.3020 
  173.0000   -32.4880    96.7900     8.9970     7.0310     8.3360    24.9680     2.3320 
  173.1250   -32.7070    89.5770     9.0910     7.1630     8.4540    24.8780     2.3510 
  173.2500   -32.8860    82.4730     9.1610     7.2790     8.6460    24.8730     2.3560 
  173.3750   -32.9260    82.2400     9.2300     7.3890     8.9210    24.8920     2.3520 
  173.5000   -32.8360    87.5150     9.3170     7.5070     9.1590    24.8520     2.3470 
  173.6250   -32.7000    90.8720     9.4280     7.6320     9.3630    24.7840     2.3480 
