~V
VERS. 2.00: Ver 2.00
~W
STRT.M 51.0000:
STOP.M 277.0000:
STEP.M 0.1250:
NULL. -999.2500:
UWI. F11053:
~C
DEPT.M :
GR.API :
RML.OHMM :
RI. :
RXO.OHMM :
CALI.CM :
DEN.GM/CC :
SP.MV :
~A
# ...
  231.0000   119.6610     7.9880     8.6640     7.5070    25.1590     2.3040    -3.8270 
  231.1250   121.1800     8.0810     8.6860     7.7830    24.9330     2.3130    -3.9040 
  231.2500   118.8460     8.1610     8.7080     7.8120    24.7490     2.3210    -4.0040 
  231.3750   115.8390     8.2230     8.7320     7.6910    24.7330     2.3220    -4.1270 
  231.5000   113.7790     8.2690     8.7780     7.6570    24.7020     2.3130    -4.2500 
  231.6250   111.7840     8.3110     8.8610     7.6970    24.5780     2.2940    -4.3490 
  231.7500   109.9380     8.3730     8.9820     7.8700    24.4130     2.2750    -4.4270 
  231.8750   108.0870     8.4820     9.1300     8.0410    24.2800     2.2670    -4.4800 
  232.0000   105.9830     8.6640     9.2690     8.0230    24.0440     2.2820    -4.4950 
  232.1250   104.5220     8.8900     9.3440     7.9590    23.5340     2.3120    -4.4770 
  232.2500   104.3830     9.0920     9.3100     7.7480    22.6340     2.3400    -4.4440 
  232.3750   104.7000     9.1890     9.1490     7.1700    21.3920     2.3480    -4.3920 
  232.5000   105.5560     9.0880     8.8510     6.5830    20.3770     2.3270    -4.3290 
  232.6250   107.4190     8.8080     8.4440     6.3830    20.0940     2.2900    -4.2660 
  232.7500   108.8810     8.4450     7.9880     6.5750    20.5620     2.2540    -4.2040 
  232.8750   108.5600     8.1610     7.6070     6.8280    21.3950     2.2330    -4.1550 
  233.0000   107.6550     8.2450     7.5700     7.3990    22.2380     2.2330    -4.1140 
  233.1250   106.1050     8.9590     8.1830     7.7900    23.0190     2.2500    -4.0820 
  233.2500   100.6220    10.6950     9.9890     9.5830    23.6340     2.2720    -4.0680 
  233.3750    91.0560    14.1790    14.0000    15.6000    23.9850     2.2870    -4.0820 
  233.5000    81.6780    21.8110    22.8400    35.8260    24.1700     2.2820    -4.1280 
  233.6250    75.2650    36.7550    38.7240    74.4450    24.3110     2.2590    -4.1930 
  233.7500    71.0340    61.6030    62.7130   125.9350    24.4020     2.2280    -4.2780 
  233.8750    68.5450    93.7870    91.4520   155.7290    24.4360     2.2000    -4.3750 
  234.0000    68.1810   122.0940   114.3450   157.6990    24.4420     2.1880    -4.4780 
  234.1250    68.5950   137.3270   125.1600   161.9000    24.4580     2.1880    -4.5880 
  234.2500    69.1850   139.2420   125.6630   163.0850    24.5150     2.1950    -4.6860 
  234.3750    69.4140   133.6690   120.7610   156.0710    24.6180     2.2020    -4.7680 
  234.5000    68.7760   126.1310   114.2590   139.4370    24.7150     2.2050    -4.8180 
  234.6250    68.1240   118.6700   107.9300   120.4700    24.7800     2.2030    -4.8250 
  234.7500    67.9130   111.2020   102.0160   110.2190    24.8360     2.2000    -4.8070 
  234.8750    67.3240   103.1060    96.0860   108.4400    24.8750     2.1970    -4.7660 
  235.0000    65.7350    94.1320    89.4110   106.0310    24.8890     2.1960    -4.7130 
  235.1250    65.1340    85.2500    81.7640    99.1840    24.8810     2.1980    -4.6390 
  235.2500    65.7920    77.0710    73.4140    84.7770    24.8520     2.1990    -4.5440 
  235.3750    67.1980    69.2350    64.9430    67.1820    24.8120     2.2000    -4.4420 
  235.5000    69.3280    61.3810    57.1410    51.3610    24.7780     2.2000    -4.3550 
  235.6250    71.9220    54.1740    50.4190    44.5170    24.7390     2.2010    -4.2950 
  235.7500    74.1950    48.4080    44.9130    40.8200    24.6650     2.2060    -4.2290 
  235.8750    76.3000    44.1680    40.6490    36.2460    24.5700     2.2190    -4.1390 
  236.0000    78.1370    41.4970    37.8100    31.9390    24.4890     2.2450    -4.0380 
  236.1250    78.4950    40.1850    36.3150    29.5220    24.3150     2.2810    -3.9190 
  236.2500    77.0330    40.1960    36.2060    26.5470    23.8210     2.3160    -3.7690 
  236.3750    74.8910    41.6350    37.6090    21.3080    22.8430     2.3410    -3.5710 
  236.5000    72.4800    44.9520    40.9160    17.2490    21.7160     2.3430    -3.3300 
  236.6250    69.7950    50.2040    46.0480    18.1550    21.1220     2.3260    -3.0740 
  236.7500    67.7550    57.3040    52.7970    24.2870    21.1960     2.2990    -2.8400 
  236.8750    68.3890    65.6650    60.5880    35.3210    21.6410     2.2700    -2.6520 
  237.0000    72.0480    73.6270    68.0140    44.3030    22.0530     2.2490    -2.4790 
  237.1250    74.7040    79.1990    73.3010    51.5760    22.3650     2.2350    -2.3320 
  237.2500    72.4400    81.1490    75.1560    57.2900    22.7440     2.2300    -2.2270 
  237.3750    67.5320    79.6050    73.4560    65.9730    23.2250     2.2300    -2.1740 
  237.5000    67.2900    75.9250    69.3280    73.0950    23.5870     2.2360    -2.1680 
  237.6250    70.9910    72.2570    65.0130    67.5880    23.7430     2.2470    -2.1800 
  237.7500    73.9210    70.0640    62.2110    55.3630    23.7950     2.2570    -2.1810 
  237.8750    74.6090    70.2350    62.0130    49.4500    23.9000     2.2640    -2.1530 
  238.0000    73.9010    73.7620    65.4380    56.5760    24.1890     2.2620    -2.1010 
  238.1250    71.7970    80.4370    72.1200    74.6860    24.5500     2.2520    -2.0360 
  238.2500    68.2120    89.4410    81.2240   101.3260    24.8010     2.2390    -1.9750 
  238.3750    65.2250    99.0080    91.2580   120.3790    24.9270     2.2240    -1.9160 
  238.5000    63.9770   105.5730    99.4300   117.2470    24.9800     2.2110    -1.8450 
  238.6250    63.9020   106.1600   103.1410   103.8090    24.9740     2.2000    -1.7870 
  238.7500    64.8700    99.3910   100.5990    89.3370    24.9360     2.1880    -1.7700 
  238.8750    66.5680    86.3020    91.4670    81.1040    24.9050     2.1750    -1.7800 
  239.0000    68.6030    70.2540    77.2120    80.2920    24.8740     2.1720    -1.8190 
  239.1250    70.9810    55.4590    61.9560    69.7550    24.8090     2.1850    -1.8780 
  239.2500    73.4460    44.1930    48.9620    47.3560    24.7100     2.2120    -1.9410 
  239.3750    76.5760    36.9910    39.8660    30.7440    24.6580     2.2450    -2.0110 
  239.5000    80.8300    33.9840    35.5990    24.4740    24.7400     2.2680    -2.1140 
  239.6250    83.7880    34.5260    35.7270    23.8630    24.8890     2.2730    -2.2300 
  239.7500    82.4500    38.7730    40.4450    28.9450    25.0100     2.2630    -2.3350 
  239.8750    76.5900    47.4930    50.3540    43.6310    25.0970     2.2530    -2.4620 
  240.0000    70.8930    61.7140    65.9860    72.5620    25.1310     2.2500    -2.6280 
  240.1250    69.1450    78.8910    84.1800   102.4340    25.1250     2.2550    -2.8260 
  240.2500    70.6290    94.3670    99.8110   120.2400    25.1060     2.2600    -3.0390 
  240.3750    72.5670   103.6670   108.2450   129.4260    25.0880     2.2640    -3.2680 
  240.5000    71.3820   104.8270   107.9960   124.1460    25.0490     2.2710    -3.5000 
  240.6250    69.1810   101.7510   103.5930   109.3040    25.0060     2.2860    -3.7210 
  240.7500    69.7030    98.4890    99.2350    97.1660    24.9960     2.3100    -3.9210 
  240.8750    73.2810    97.3460    97.2850    91.9020    25.0020     2.3340    -4.0770 
  241.0000    77.0490    99.1250    98.6680   101.4360    25.0010     2.3490    -4.1880 
  241.1250    79.1840   102.4830   101.9920   115.8440    25.0080     2.3490    -4.2670 
  241.2500    79.2730   105.5160   105.2440   132.4370    25.0320     2.3430    -4.3310 
  241.3750    78.0530   106.4200   106.5090   152.4190    25.0790     2.3350    -4.3530 
  241.5000    79.1230   103.8830   104.4100   154.4250    25.1220     2.3330    -4.3410 
  241.6250    83.6940    98.7980    99.8230   125.3270    25.1270     2.3310    -4.3190 
  241.7500    87.2110    92.5500    94.1350    92.1360    25.0710     2.3250    -4.2760 
  241.8750    84.5790    86.2890    88.4390    80.6710    24.9550     2.3090    -4.2400 
  242.0000    76.3080    80.7680    83.3740    79.9870    24.8860     2.2870    -4.2010 
  242.1250    69.5440    76.0950    78.9940    78.1700    24.8570     2.2650    -4.1310 
