~V
VERS. 2.00: Ver 2.00
~W
STRT.M 7.0000:
STOP.M 259.0000:
STEP.M 0.1250:
NULL. -999.2500:
UWI. F11018:
~C
DEPT.M :
DEN.GM/CC :
SP.MV :
GR.API :
RML.OHMM :
RI. :
RXO.OHMM :
CALI.CM :
~A
# ...
   63.2500     2.3120   -27.6710    93.6870     7.1130     7.5520     6.9490    24.3860 
   63.3750     2.3550   -27.9800    89.2000     7.7240     8.2440     9.3260    24.5580 
   63.5000     2.4050   -28.2350    88.0620     7.8320     8.4710    11.8950    24.6590 
   63.6250     2.4210   -28.4740    91.5030     7.5310     8.2090    11.4320    24.5930 
   63.7500     2.3820   -28.6680    96.6530     7.0610     7.6610     7.8740    24.4140 
   63.8750     2.3140   -28.8460    98.1510     6.6540     7.0990     5.6500    24.2880 
   64.0000     2.2620   -29.0530    94.0920     6.4600     6.7250     5.7360    24.2320 
   64.1250     2.2340   -29.2970    90.9100     6.4430     6.5420     6.9290    24.1620 
   64.2500     2.2280   -29.6010    91.3760     6.5570     6.5170     7.3210    23.9870 
   64.3750     2.2420   -29.9990    95.9900     6.7630     6.6130     6.3900    23.6820 
   64.5000     2.2670   -30.4450    99.5010     7.0210     6.7880     5.4370    23.4120 
   64.6250     2.2910   -30.9140    98.2590     7.2390     6.9350     5.7090    23.3450 
   64.7500     2.3130   -31.4230    93.1310     7.3480     6.9700     7.4000    23.4650 
   64.8750     2.3370   -31.9260    85.2960     7.3930     6.9000    10.4310    23.7560 
   65.0000     2.3680   -32.4270    81.3710     7.6480     6.9240    10.8540    24.1860 
   65.1250     2.4070   -33.0060    82.7070     8.3860     7.3100     8.0880    24.3190 
   65.2500     2.4570   -33.7280    86.8850     9.8150     8.2740     6.8640    24.0020 
   65.3750     2.5100   -34.6110    86.9960    12.0060     9.9150     9.8440    23.5420 
   65.5000     2.5380   -35.6830    78.9670    14.5250    12.0400    22.4300    23.2600 
   65.6250     2.5110   -36.8350    70.0910    15.9490    13.7160    33.3470    23.1440 
   65.7500     2.4190   -38.0190    65.1600    15.3560    14.0390    27.7240    23.3340 
   65.8750     2.2990   -39.2300    64.4060    13.4290    12.9250    17.2660    23.9930 
   66.0000     2.2070   -40.4260    65.3340    11.6250    11.2130    13.2480    24.9220 
   66.1250     2.1580   -41.5250    66.0000    10.4720     9.7940    11.8520    25.5820 
   66.2500     2.1410   -42.4440    67.2150     9.8770     8.8730    11.4750    25.8370 
   66.3750     2.1420   -43.1350    68.5120     9.6550     8.3930    11.2350    25.8920 
   66.5000     2.1460   -43.5590    67.8730     9.6660     8.2540    11.0780    25.9790 
   66.6250     2.1440   -43.7580    66.9670     9.7560     8.2780    11.0110    26.1960 
   66.7500     2.1390   -43.7220    67.9500     9.8310     8.3770    11.0390    26.4860 
   66.8750     2.1370   -43.4760    69.8270     9.8070     8.4760    11.1250    26.7410 
   67.0000     2.1450   -43.0000    67.7520     9.6510     8.4900    11.5070    26.8910 
   67.1250     2.1570   -42.3560    63.0220     9.4600     8.4020    11.8290    26.9530 
   67.2500     2.1730   -41.5650    61.1550     9.3240     8.2310    11.3210    26.7570 
   67.3750     2.1980   -40.6740    64.4450     9.3040     8.0320    10.1050    26.2390 
   67.5000     2.2290   -39.7720    67.9840     9.4250     7.8650     9.6730    25.5650 
   67.6250     2.2520   -38.9490    68.1760     9.6160     7.7510     9.5880    25.0800 
   67.7500     2.2510   -38.2270    66.0060     9.8060     7.6800     9.7510    24.7620 
   67.8750     2.2250   -37.5970    63.9180     9.9350     7.6260     9.8170    24.5830 
   68.0000     2.1880   -37.1400    62.9080     9.9630     7.5600     9.8550    24.4900 
   68.1250     2.1610   -36.8520    63.4100     9.9270     7.4780     9.8830    24.6010 
   68.2500     2.1500   -36.7140    64.3470     9.8850     7.4020     9.8580    24.7720 
   68.3750     2.1530   -36.6740    63.2380     9.8860     7.3620     9.9740    24.9880 
   68.5000     2.1620   -36.6220    60.4890     9.9470     7.3750    10.3430    25.2830 
   68.6250     2.1690   -36.5180    58.3220    10.0310     7.4220    10.7580    25.4820 
   68.7500     2.1730   -36.3910    57.3140    10.1180     7.4810    11.0760    25.4430 
   68.8750     2.1760   -36.2640    60.2530    10.2210     7.5440    11.2120    25.1970 
   69.0000     2.1830   -36.0750    66.3050    10.4090     7.6430    10.7820    25.0060 
   69.1250     2.1930   -35.7940    69.8290    10.7210     7.8140    10.4820    25.0000 
   69.2500     2.1970   -35.4530    68.3670    11.1340     8.0660    10.4310    25.0700 
   69.3750     2.1910   -35.0910    65.8070    11.5460     8.3550    10.4770    24.9710 
   69.5000     2.1860   -34.7710    68.5530    11.7520     8.5630    10.5410    24.4830 
   69.6250     2.1990   -34.5260    71.6480    11.6460     8.5890    10.6180    23.7420 
   69.7500     2.2270   -34.3410    70.9410    11.2490     8.4020    10.5930    22.8300 
   69.8750     2.2540   -34.1810    67.7970    10.7260     8.0670    10.4530    22.0970 
   70.0000     2.2650   -34.0860    65.6640    10.3220     7.7210    10.3720    21.8720 
   70.1250     2.2660   -34.0920    65.1860    10.1310     7.4700    10.4640    21.9590 
   70.2500     2.2590   -34.1940    64.1810    10.1100     7.3360    10.6050    22.1630 
   70.3750     2.2410   -34.3630    62.1250    10.1440     7.2830    10.6600    22.4520 
   70.5000     2.2230   -34.5490    61.4730    10.0880     7.2350    10.5710    23.0250 
   70.6250     2.2150   -34.7380    62.8100     9.9340     7.1440    10.4650    23.7830 
   70.7500     2.2150   -34.9630    64.4930     9.8020     7.0420    10.3430    24.2790 
   70.8750     2.2050   -35.2770    63.6980     9.8590     7.0210    10.2660    24.4600 
   71.0000     2.1580   -35.6740    61.8360    10.2660     7.2100    10.6030    24.9490 
   71.1250     2.0760   -36.0830    62.3100    10.9350     7.6070    11.4050    25.7240 
   71.2500     1.9760   -36.4640    62.4010    11.6890     8.1440    13.9410    26.1140 
   71.3750     1.8900   -36.8210    60.2000    12.2590     8.6650    21.0390    25.8050 
   71.5000     1.8570   -37.1900    59.2740    12.2910     8.9170    32.5490    24.8740 
   71.6250     1.8780   -37.5470    60.9730    11.8330     8.8270    26.6200    24.2810 
   71.7500     1.9400   -37.8300    63.0420    11.1190     8.4750    15.4770    24.0300 
   71.8750     2.0200   -37.9610    63.6140    10.4450     8.0360    10.9620    23.9840 
   72.0000     2.0880   -37.9070    62.8730    10.0540     7.6810    10.8180    24.0560 
   72.1250     2.1290   -37.7560    62.5070     9.9190     7.4670    11.6840    24.2220 
   72.2500     2.1470   -37.5320    63.6110     9.9290     7.3700    12.3600    24.4230 
   72.3750     2.1540   -37.2220    64.7460     9.9420     7.3200    12.2380    24.5700 
   72.5000     2.1590   -36.7880    66.0260     9.8290     7.2280    11.5310    24.6190 
   72.6250     2.1610   -36.2570    68.2150     9.6050     7.0660    10.8340    24.6170 
   72.7500     2.1630   -35.6710    70.1870     9.3440     6.8580    10.4850    24.6120 
   72.8750     2.1670   -35.1090    71.0840     9.1310     6.6560    10.2270    24.6550 
   73.0000     2.1740   -34.6110    72.1080     9.0500     6.5240     9.8220    24.7490 
   73.1250     2.1810   -34.1840    73.8570     9.1040     6.4840     9.4130    24.7820 
   73.2500     2.1870   -33.8340    73.9550     9.2740     6.5400     9.5870    24.7250 
   73.3750     2.1880   -33.5570    71.4090     9.5150     6.6690    10.1020    24.6680 
   73.5000     2.1870   -33.3270    69.3160     9.7610     6.8370    10.3700    24.6670 
   73.6250     2.1880   -33.1270    68.0850     9.9610     6.9900    10.3790    24.6890 
   73.7500     2.1950   -32.9950    67.0120    10.0960     7.0930    10.4580    24.6730 
   73.8750     2.2060   -32.9580    66.2140    10.1630     7.1330    10.5190    24.5970 
   74.0000     2.2110   -33.0250    67.3510    10.1710     7.1090    10.4750    24.4820 
   74.1250     2.2100   -33.1530    68.9240    10.1450     7.0540    10.3870    24.4250 
   74.2500     2.2050   -33.3410    69.5290    10.0950     6.9910    10.2460    24.4430 
   74.3750     2.1990   -33.6040    70.4520    10.0390     6.9410    10.2610    24.5220 
