~V
VERS. 2.00: Ver 2.00
~W
STRT.M 53.0000:
STOP.M 287.0000:
STEP.M 0.1250:
NULL. -999.2500:
UWI. F11059:
~C
DEPT.M :
GR.API :
RML.OHMM :
RI. :
RXO.OHMM :
CALI.CM :
DEN.GM/CC :
SP.MV :
~A
# ...
   64.2500   101.5210     6.6890     6.3440     7.1570    24.0020     2.2950   -10.7740 
   64.3750   102.3070     6.3290     5.9050     5.9340    24.1160     2.3340    -9.9670 
   64.5000   100.7720     6.1170     5.5690     5.3170    24.3180     2.3610    -9.2830 
   64.6250   101.8070     6.0380     5.3640     5.2800    24.5470     2.3770    -8.7160 
   64.7500   105.1180     6.0370     5.2800     5.2430    24.6930     2.3840    -8.3300 
   64.8750   107.4540     6.0480     5.2830     5.2940    24.7210     2.3820    -8.1370 
   65.0000   107.8810     6.0160     5.2980     5.6580    24.6990     2.3720    -8.0990 
   65.1250   107.1610     5.9310     5.2970     6.0570    24.6880     2.3560    -8.1940 
   65.2500   105.8110     5.8510     5.3260     6.3510    24.6990     2.3410    -8.3470 
   65.3750   101.9390     5.9760     5.5540     6.4260    24.7040     2.3460    -8.5610 
   65.5000    96.2400     6.4830     6.1100     6.8950    24.7010     2.3860    -8.8000 
   65.6250    88.6260     7.4740     7.0620     8.1550    24.6960     2.4540    -9.0610 
   65.7500    80.1750     8.8700     8.3260    11.7330    24.7000     2.5260    -9.3210 
   65.8750    76.4280    10.2530     9.4830    21.6320    24.7290     2.5580    -9.5720 
   66.0000    79.4290    11.0590     9.9970    28.5650    24.7700     2.5340    -9.8480 
   66.1250    86.0420    11.0160     9.7010    18.9170    24.7960     2.4630   -10.1300 
   66.2500    90.4540    10.2840     8.8850     9.9670    24.7880     2.3740   -10.4130 
   66.3750    91.1000     9.3730     8.0160     7.7700    24.7100     2.3020   -10.6910 
   66.5000    89.9400     8.7470     7.3570     8.1590    24.5690     2.2590   -10.9290 
   66.6250    86.7220     8.4720     6.9110     8.8060    24.4840     2.2410   -11.1090 
   66.7500    83.8090     8.3850     6.5760     9.1160    24.4960     2.2360   -11.2210 
   66.8750    86.0800     8.2440     6.2710     8.5690    24.5820     2.2410   -11.2470 
   67.0000    92.8470     8.0260     6.0840     7.7720    24.6920     2.2600   -11.2010 
   67.1250    97.7760     7.9500     6.2330     6.7560    24.7530     2.3060   -11.1170 
   67.2500    96.2210     8.3420     6.9400     6.2310    24.7100     2.3840   -11.0530 
   67.3750    89.0860     9.6140     8.4490     8.0590    24.5450     2.4740   -10.9890 
   67.5000    82.3150    11.5980    10.4540    15.2960    24.4200     2.5340   -10.9880 
   67.6250    78.3340    13.8000    12.2790    28.2290    24.3820     2.5360   -11.0680 
   67.7500    75.7320    15.3900    12.9650    32.5930    24.3480     2.4750   -11.2170 
   67.8750    74.3780    15.3920    11.9520    20.5430    24.2980     2.3740   -11.4260 
   68.0000    76.1720    14.1220    10.2700    12.3440    24.3350     2.2760   -11.6350 
   68.1250    79.9000    12.3100     8.6940     9.7970    24.4510     2.2040   -11.8150 
   68.2500    82.1420    10.6980     7.5760     9.4640    24.5680     2.1650   -11.8980 
   68.3750    80.9530     9.7230     7.0070     9.5750    24.6250     2.1620   -11.8560 
   68.5000    81.9180     9.2020     6.7480     9.3630    24.6420     2.1780   -11.6870 
   68.6250    88.7200     8.9230     6.6390     8.5040    24.6670     2.2030   -11.4010 
   68.7500    97.9380     8.7180     6.5600     7.1300    24.7120     2.2250   -11.0660 
   68.8750    99.7190     8.5260     6.4820     6.8700    24.7100     2.2350   -10.7280 
   69.0000    94.9170     8.3830     6.4510     7.2420    24.6560     2.2360   -10.4100 
   69.1250    91.4610     8.3510     6.5240     7.8830    24.5990     2.2320   -10.1360 
   69.2500    93.9300     8.4570     6.7210     8.3340    24.5620     2.2290    -9.9210 
   69.3750    96.6960     8.6850     7.0160     8.0720    24.5400     2.2280    -9.7910 
   69.5000    96.4000     8.9500     7.2980     8.0610    24.5340     2.2260    -9.7540 
   69.6250    96.5720     9.1930     7.4700     8.0970    24.5340     2.2240    -9.7900 
   69.7500    98.2060     9.3640     7.4530     7.8830    24.5350     2.2250    -9.8210 
   69.8750    97.7960     9.3910     7.1940     7.9080    24.5320     2.2310    -9.8320 
   70.0000    96.2060     9.2520     6.7950     8.0480    24.5410     2.2420    -9.8240 
   70.1250    96.2390     8.9430     6.3680     7.7000    24.5810     2.2520    -9.7950 
   70.2500    98.5390     8.5240     6.0210     6.9160    24.6520     2.2550    -9.7990 
   70.3750    98.4050     8.1640     5.9040     6.7550    24.6590     2.2460    -9.8790 
   70.5000    94.3400     8.0860     6.1120     7.2220    24.5860     2.2370    -9.9930 
   70.6250    89.7040     8.5180     6.7750     8.4220    24.4550     2.2490   -10.1580 
   70.7500    86.6500     9.6500     7.9950     9.3310    24.3360     2.2980   -10.3730 
   70.8750    82.1870    11.6510     9.8250    11.3440    24.2940     2.3790   -10.6290 
   71.0000    75.8290    14.0660    11.7790    18.3370    24.2890     2.4470   -10.9430 
   71.1250    71.4860    16.1780    13.0910    32.0300    24.2790     2.4660   -11.3010 
   71.2500    72.1390    17.1410    13.0760    30.4600    24.2220     2.4230   -11.6790 
   71.3750    74.4380    16.3090    11.7520    16.2250    24.1070     2.3390   -12.0280 
   71.5000    75.7570    14.4850    10.1820    10.1240    23.9850     2.2640   -12.3420 
   71.6250    75.4270    12.5600     8.9200     8.5260    23.8840     2.2210   -12.6560 
   71.7500    73.3050    11.1960     8.1570     8.4840    23.7820     2.2090   -12.9760 
   71.8750    72.6790    10.6990     7.9210     8.7550    23.7300     2.2110   -13.2950 
   72.0000    73.4730    10.7380     7.9670     9.0950    23.7690     2.2080   -13.6040 
   72.1250    74.6620    11.0180     8.1270     9.2850    23.9200     2.1950   -13.8770 
   72.2500    75.7720    11.2870     8.2770     9.3810    24.1490     2.1720   -14.0870 
   72.3750    76.3010    11.3750     8.3670     9.4340    24.3490     2.1470   -14.2470 
   72.5000    74.8120    11.3080     8.4170     9.5780    24.4230     2.1260   -14.3880 
   72.6250    71.9480    11.1520     8.4460     9.6570    24.4360     2.1160   -14.4630 
   72.7500    70.8910    10.9690     8.4600     9.7290    24.4380     2.1160   -14.4850 
   72.8750    72.0690    10.8100     8.4330     9.7030    24.4440     2.1250   -14.4570 
   73.0000    73.7160    10.6900     8.3550     9.6850    24.4480     2.1390   -14.4010 
   73.1250    75.8930    10.6160     8.2390     9.6890    24.4450     2.1540   -14.3360 
   73.2500    77.9940    10.5910     8.1310     9.7940    24.4350     2.1670   -14.2970 
   73.3750    77.3880    10.6220     8.1040     9.8940    24.3910     2.1740   -14.2500 
   73.5000    75.4460    10.6880     8.1640     9.9510    24.3340     2.1740   -14.2080 
   73.6250    74.8560    10.7670     8.2660     9.9760    24.3440     2.1680   -14.1730 
   73.7500    74.6810    10.8310     8.3270    10.0580    24.4560     2.1580   -14.1580 
   73.8750    71.0360    10.8440     8.2530    10.0990    24.5310     2.1480   -14.1130 
   74.0000    66.5500    10.8020     8.0700    10.1070    24.5510     2.1420   -14.0400 
   74.1250    66.3800    10.7240     7.8480    10.1030    24.5550     2.1410   -13.9880 
   74.2500    71.2850    10.6460     7.6730     9.9430    24.5740     2.1460   -13.9210 
   74.3750    76.3830    10.6220     7.6320     9.6400    24.5840     2.1520   -13.8620 
   74.5000    78.4240    10.6650     7.7180     9.5680    24.5920     2.1580   -13.8080 
   74.6250    77.9270    10.7660     7.8880     9.8090    24.5890     2.1630   -13.7830 
   74.7500    74.4310    10.8930     8.0760    10.2450    24.5770     2.1690   -13.7720 
   74.8750    68.6820    11.0000     8.2010    10.2860    24.5520     2.1750   -13.7910 
   75.0000    65.9680    11.0750     8.2420    10.2920    24.5420     2.1800   -13.8300 
   75.1250    68.2580    11.1320     8.2190    10.2540    24.5430     2.1810   -13.8610 
   75.2500    71.7910    11.1940     8.1920    10.1570    24.5500     2.1750   -13.8780 
   75.3750    71.9330    11.2840     8.2270     9.9910    24.5700     2.1630   -13.8940 
