~V
VERS. 2.00: Ver 2.00
~W
STRT.M 60.0000:
STOP.M 279.0000:
STEP.M 0.1250:
NULL. -999.2500:
UWI. F11060:
~C
DEPT.M :
GR.API :
RML.OHMM :
RI. :
RXO.OHMM :
CALI.CM :
DEN.GM/CC :
SP.MV :
~A
# ...
  240.0000    59.9800    24.1120    22.8360    19.9350    24.6390     2.3200     5.6640 
  240.1250    59.5030    24.9950    23.4280    22.7880    24.5140     2.3200     5.7690 
  240.2500    63.0150    26.0950    24.3600    26.2110    24.4440     2.3030     5.8550 
  240.3750    64.8350    26.7660    25.0360    27.4790    24.5610     2.2940     5.8550 
  240.5000    63.3910    26.5160    24.9340    25.9860    24.8030     2.3110     5.8390 
  240.6250    62.6950    25.0240    23.6660    23.7680    24.8710     2.3510     5.9250 
  240.7500    64.2680    22.7130    21.5850    22.1170    24.7260     2.3870     5.9690 
  240.8750    65.5230    20.0460    19.1240    19.1860    24.4800     2.3950     5.9620 
  241.0000    67.4010    17.6280    16.8340    16.5430    24.3230     2.3720     6.0320 
  241.1250    71.6950    16.2740    15.3830    15.3490    24.2460     2.3480     6.1090 
  241.2500    74.4150    16.3540    15.0380    14.6800    24.0840     2.3380     6.1310 
  241.3750    72.2390    18.1790    16.0700    15.6600    23.8250     2.3340     6.1400 
  241.5000    66.2450    21.8750    18.7180    21.2840    23.7600     2.3360     6.1820 
  241.6250    61.1060    27.3040    23.2160    34.2040    23.9670     2.3510     6.1920 
  241.7500    58.4990    32.7520    28.3460    48.9390    24.2610     2.3670     6.1440 
  241.8750    57.2880    35.9010    32.0880    49.3120    24.4170     2.3710     6.1740 
  242.0000    57.8630    34.8570    32.3330    40.9580    24.4520     2.3690     6.2460 
  242.1250    60.5300    29.8090    28.5560    32.5600    24.4370     2.3770     6.2410 
  242.2500    62.9420    24.0650    23.5950    24.9020    24.4310     2.3890     6.2110 
  242.3750    64.1190    19.3090    19.1410    19.8810    24.3730     2.3900     6.2600 
  242.5000    66.4400    16.0040    15.8200    16.1930    24.3490     2.3750     6.3600 
  242.6250    71.2370    14.1430    13.7610    15.1150    24.3860     2.3530     6.3890 
  242.7500    73.9610    13.1440    12.5180    17.9250    24.4630     2.3360     6.4590 
  242.8750    74.2440    12.7280    11.8780    19.5560    24.5220     2.3320     6.5610 
  243.0000    74.6340    12.6760    11.6780    14.9090    24.5120     2.3380     6.6010 
  243.1250    74.9530    12.8040    11.8000    12.0990    24.4800     2.3400     6.6040 
  243.2500    72.4230    12.9320    12.0410    11.7110    24.4620     2.3330     6.6460 
  243.3750    67.9380    13.0260    12.3110    12.2290    24.4580     2.3180     6.7200 
  243.5000    65.9260    13.1620    12.6000    12.4790    24.4560     2.3040     6.7940 
  243.6250    68.6210    13.4990    12.9860    12.2930    24.4430     2.2950     6.8560 
  243.7500    72.2000    14.0660    13.5130    12.0950    24.4050     2.2920     6.9510 
  243.8750    73.5740    14.7880    14.1600    12.8980    24.3320     2.2960     7.0510 
  244.0000    72.1850    15.4840    14.8110    15.1710    24.2560     2.3040     7.1150 
  244.1250    69.9400    15.8600    15.2180    18.3270    24.2130     2.3110     7.2240 
  244.2500    67.6860    15.8380    15.2670    18.5890    24.3000     2.3120     7.3970 
  244.3750    66.1440    15.5110    14.9940    16.4850    24.4930     2.3080     7.5250 
  244.5000    65.6180    15.0910    14.5660    15.4450    24.6620     2.3020     7.5460 
  244.6250    65.7140    14.8070    14.1900    15.5430    24.7340     2.3000     7.6350 
  244.7500    66.9710    14.7040    13.9700    16.5120    24.7590     2.3040     7.7210 
  244.8750    68.9910    14.7270    13.9100    16.5920    24.7400     2.3140     7.7120 
  245.0000    70.0620    14.7760    13.9530    16.1750    24.6750     2.3310     7.7140 
  245.1250    70.1170    14.7410    14.0030    15.4570    24.6020     2.3520     7.7760 
  245.2500    70.1670    14.5910    13.9780    15.3290    24.5020     2.3670     7.7980 
  245.3750    69.3520    14.3090    13.8410    16.5740    24.3870     2.3670     7.7650 
  245.5000    66.9640    13.8690    13.5660    16.2270    24.3240     2.3560     7.7660 
  245.6250    66.7930    13.2500    13.1350    14.9830    24.3470     2.3420     7.7810 
  245.7500    70.0970    12.5770    12.6420    13.6930    24.4140     2.3340     7.7350 
  245.8750    73.0320    12.0100    12.2040    12.7100    24.4880     2.3340     7.7020 
  246.0000    73.5140    11.7000    11.9430    12.1320    24.5690     2.3370     7.7390 
  246.1250    73.5760    11.7550    11.9650    12.1250    24.6030     2.3360     7.7560 
  246.2500    74.5340    12.0180    12.1830    12.5990    24.6180     2.3330     7.6800 
  246.3750    73.8690    12.2830    12.4430    13.5260    24.6490     2.3290     7.6230 
  246.5000    70.1920    12.3390    12.5510    14.2900    24.7100     2.3270     7.6450 
  246.6250    68.6980    12.0470    12.3290    13.9280    24.7260     2.3250     7.6080 
  246.7500    72.1410    11.5780    11.8830    12.4150    24.7400     2.3210     7.5490 
  246.8750    75.5130    11.1180    11.3740    11.1670    24.7340     2.3180     7.5460 
  247.0000    74.2770    10.8230    10.9600    10.4740    24.6890     2.3170     7.5080 
  247.1250    71.2840    10.8680    10.8240    10.9310    24.6410     2.3250     7.3930 
  247.2500    71.4440    11.2970    11.0390    12.0380    24.6180     2.3410     7.3060 
  247.3750    73.9310    12.1650    11.6680    13.2140    24.6030     2.3660     7.2500 
  247.5000    77.4110    13.5270    12.7580    13.3220    24.5550     2.4000     7.1700 
  247.6250    79.4190    15.5970    14.4800    14.8230    24.3740     2.4470     7.0440 
  247.7500    78.1980    18.4170    16.4200    17.5320    24.0280     2.4920     6.9740 
  247.8750    74.7950    22.0970    19.0500    18.5670    23.7070     2.5180     6.9390 
  248.0000    73.4290    26.7650    22.9860    17.0350    23.5480     2.5190     6.8620 
  248.1250    75.6740    32.7450    28.2350    22.2370    23.5470     2.5050     6.7840 
  248.2500    76.8470    39.9030    34.7270    34.0630    23.6720     2.4900     6.8090 
  248.3750    74.3180    48.2440    42.4710    44.4450    23.9180     2.4830     6.8760 
  248.5000    69.4550    57.9790    51.6080    52.4720    24.1080     2.4920     6.8840 
  248.6250    66.2600    70.3250    63.2700    70.1480    24.1840     2.5280     6.9450 
  248.7500    67.5950    86.2050    78.4700    87.1940    24.1960     2.5790     7.0750 
  248.8750    72.0070   105.5870    97.2110   106.2710    24.2190     2.6270     7.1460 
  249.0000    75.1680   123.1470   114.9910   136.8570    24.2090     2.6460     7.1870 
  249.1250    73.9290   119.9970   116.7430   182.1560    24.1690     2.6100     7.2990 
  249.2500    69.3810    93.0110    96.3390   191.4200    24.1450     2.5350     7.4080 
  249.3750    62.4440    59.4180    64.4090   130.2140    24.1380     2.4460     7.4860 
  249.5000    55.0880    34.1920    36.8770    44.9270    24.1330     2.3740     7.5510 
  249.6250    50.7860    20.5920    21.3070    17.8740    24.1320     2.3410     7.6690 
  249.7500    50.0940    13.2600    13.1810     8.5580    24.1370     2.3370     7.7510 
  249.8750    51.0010     9.5220     9.5040     6.3130    24.1380     2.3450     7.7680 
  250.0000    51.7320     7.7710     7.5840     5.9190    24.1270     2.3540     7.8410 
  250.1250    51.5510     7.1830     6.7610     5.8360    24.1070     2.3550     7.9330 
  250.2500    50.6140     7.0250     6.4720     5.5640    24.1180     2.3480     7.9100 
  250.3750    49.7880     7.0100     6.4360     5.2990    24.1340     2.3400     7.8220 
  250.5000    50.2210     6.9940     6.4800     5.1650    24.1290     2.3340     7.7960 
  250.6250    52.8870     6.9260     6.5120     5.1240    24.1090     2.3310     7.7630 
  250.7500    54.3260     6.8180     6.5000     5.1530    24.1160     2.3320     7.6390 
  250.8750    53.0670     6.6910     6.4380     5.2210    24.1200     2.3380     7.5600 
  251.0000    50.5300     6.5620     6.3290     5.2710    24.0690     2.3480     7.5250 
  251.1250    49.0020     6.4470     6.1800     5.2610    23.9710     2.3590     7.4190 
