~V
VERS. 2.00: Ver 2.00
~W
STRT.M 50.0000:
STOP.M 283.0000:
STEP.M 0.1250:
NULL. -999.2500:
UWI. F11058:
~C
DEPT.M :
DEN.GM/CC :
GR.API :
RML.OHMM :
RI. :
RXO.OHMM :
CALI.CM :
SP.MV :
~A
# ...
   95.0000     2.1940    63.2370     9.0510     7.8930    10.1170    23.5270   -21.9680 
   95.1250     2.1940    64.7060     9.1300     7.9360    10.1740    23.4490   -22.6690 
   95.2500     2.1910    67.6850     9.2770     8.0500    10.2070    23.4060   -23.1800 
   95.3750     2.1810    69.2300     9.4530     8.2080    10.2390    23.4190   -23.6360 
   95.5000     2.1630    69.2790     9.6010     8.3690    10.1910    23.5740   -23.9950 
   95.6250     2.1420    69.4170     9.6530     8.4660    10.3280    23.9260   -24.2310 
   95.7500     2.1260    68.5500     9.5950     8.4730    10.6180    24.3080   -24.4520 
   95.8750     2.1190    67.2410     9.4380     8.3830    10.7010    24.4960   -24.6050 
   96.0000     2.1170    67.6740     9.2160     8.2140    10.5900    24.5840   -24.7150 
   96.1250     2.1160    68.3840     8.9840     8.0050    10.3560    24.6480   -24.8730 
   96.2500     2.1130    66.3920     8.7930     7.8100    10.2180    24.6720   -25.0780 
   96.3750     2.1110    65.3330     8.6730     7.6640    10.3860    24.6670   -25.3330 
   96.5000     2.1140    67.8270     8.6320     7.5920    10.6000    24.6540   -25.5880 
   96.6250     2.1230    70.1340     8.6710     7.6090    10.6280    24.6090   -25.8260 
   96.7500     2.1300    70.1980     8.7530     7.6840    10.6000    24.5230   -26.0360 
   96.8750     2.1330    70.8250     8.8560     7.7890    10.7180    24.3550   -26.2470 
   97.0000     2.1330    72.4850     8.9570     7.8930    10.9690    24.1050   -26.4300 
   97.1250     2.1360    72.7510     9.0320     7.9710    11.0380    23.7290   -26.5210 
   97.2500     2.1450    72.3090     9.0780     8.0220    11.0110    23.2970   -26.5640 
   97.3750     2.1540    71.2370     9.0980     8.0530    10.9430    23.0220   -26.5380 
   97.5000     2.1580    68.8150     9.0970     8.0690    11.0160    23.0650   -26.4660 
   97.6250     2.1530    65.2850     9.0750     8.0680    11.0830    23.4920   -26.4020 
   97.7500     2.1430    62.5620     9.0310     8.0450    11.0650    24.1540   -26.4450 
   97.8750     2.1310    61.4550     8.9520     7.9950    10.9890    24.6760   -26.6070 
   98.0000     2.1190    62.1730     8.8350     7.9150    11.0090    24.8770   -26.7720 
   98.1250     2.1120    62.5090     8.6820     7.8020    11.0240    24.8030   -27.0310 
   98.2500     2.1150    61.4510     8.5220     7.6790    10.9920    24.4790   -27.3330 
   98.3750     2.1250    60.8510     8.3870     7.5640    10.7180    23.9370   -27.5940 
   98.5000     2.1390    63.2870     8.3030     7.4780    10.2520    23.6250   -27.9310 
   98.6250     2.1440    66.1220     8.3000     7.4480    10.2310    23.6710   -28.3540 
   98.7500     2.1400    66.6830     8.3650     7.4740    10.8300    23.8260   -28.6390 
   98.8750     2.1310    66.1680     8.4750     7.5490    11.5210    23.8590   -28.8420 
   99.0000     2.1220    66.0130     8.5930     7.6500    11.3040    23.7610   -29.0300 
   99.1250     2.1180    66.3810     8.6510     7.7300    10.9080    23.8190   -28.9930 
   99.2500     2.1200    66.5900     8.6080     7.7360    10.7620    23.9820   -28.8070 
   99.3750     2.1280    67.7670     8.4420     7.6310    10.5420    24.0460   -28.4930 
   99.5000     2.1410    70.7620     8.1630     7.4060    10.1990    24.0440   -27.9800 
   99.6250     2.1610    74.7310     7.8090     7.0800     9.3850    24.0510   -27.1680 
   99.7500     2.1830    77.4180     7.4610     6.7280     8.5180    24.0840   -26.1310 
   99.8750     2.2020    79.4420     7.1820     6.4150     8.0300    24.1480   -24.9330 
  100.0000     2.2170    81.1420     7.0260     6.1940     7.7970    24.2320   -23.7020 
  100.1250     2.2210    80.4750     7.0520     6.1320     7.7850    24.2290   -22.7570 
  100.2500     2.2180    76.7510     7.2330     6.2240     7.9470    24.1520   -22.1090 
  100.3750     2.2090    73.6780     7.5370     6.4550     8.1260    24.0710   -21.6980 
  100.5000     2.1980    73.5280     7.9120     6.7930     8.3150    24.0350   -21.5650 
  100.6250     2.1880    74.5260     8.2810     7.1760     8.6330    24.0310   -21.7270 
  100.7500     2.1800    75.2580     8.5680     7.5150     8.7710    24.0310   -22.1180 
  100.8750     2.1760    75.9330     8.7260     7.7460     8.8270    24.0320   -22.6910 
  101.0000     2.1760    76.2750     8.7390     7.8370     8.7910    24.0390   -23.3600 
  101.1250     2.1810    75.3230     8.6110     7.7780     8.6050    24.0580   -23.9120 
  101.2500     2.1890    73.8700     8.4120     7.6330     8.4670    24.0820   -24.3420 
  101.3750     2.1970    72.4020     8.1840     7.4410     8.3680    24.0920   -24.7090 
  101.5000     2.2000    72.5500     7.9640     7.2320     8.3640    24.0940   -24.8860 
  101.6250     2.1970    74.5040     7.7890     7.0330     8.4850    24.0940   -24.8900 
  101.7500     2.1920    76.2860     7.6770     6.8680     8.5670    24.0940   -24.8670 
  101.8750     2.1860    75.6430     7.6370     6.7550     8.5180    24.0890   -24.7800 
  102.0000     2.1830    73.3860     7.6590     6.7030     8.4160    24.0730   -24.6480 
  102.1250     2.1820    74.5930     7.7200     6.7130     8.2440    24.0340   -24.5150 
  102.2500     2.1830    79.2540     7.7810     6.7560     8.3080    23.9990   -24.4100 
  102.3750     2.1850    82.1270     7.8220     6.8090     8.4870    23.9770   -24.3180 
  102.5000     2.1820    78.9770     7.8460     6.8520     8.7520    23.9990   -24.2510 
  102.6250     2.1670    74.0520     7.8870     6.8930     9.1410    24.0930   -24.3320 
  102.7500     2.1460    73.3010     7.9920     6.9720     9.4870    24.2310   -24.4980 
  102.8750     2.1370    73.7120     8.1940     7.1270     9.8140    24.3860   -24.6690 
  103.0000     2.1580    73.8990     8.4900     7.3710    10.0410    24.5020   -24.7940 
  103.1250     2.2120    74.2250     8.8100     7.6830     9.8550    24.4080   -24.8110 
  103.2500     2.2670    73.8480     9.0230     7.9520     9.6150    24.1180   -24.6690 
  103.3750     2.2940    72.2590     9.0190     8.0580     9.3310    23.8790   -24.3300 
  103.5000     2.2830    71.3440     8.7510     7.9190     9.0340    23.8500   -23.8850 
  103.6250     2.2490    73.3660     8.2430     7.5150     9.3470    23.9600   -23.1640 
  103.7500     2.2190    76.7180     7.6710     7.0000     9.1850    24.0410   -22.2000 
  103.8750     2.2060    79.9750     7.1610     6.4990     8.3310    24.0830   -21.2590 
  104.0000     2.2020    82.3610     6.7970     6.1100     7.6020    24.0830   -20.4180 
  104.1250     2.1980    82.6390     6.6340     5.9010     7.2820    24.0140   -19.7910 
  104.2500     2.1900    81.7980     6.6190     5.8370     7.2880    23.8920   -19.4500 
  104.3750     2.1820    78.9460     6.7130     5.8850     7.3490    23.7830   -19.4170 
  104.5000     2.1780    75.0200     6.8750     6.0090     7.4370    23.7140   -19.6180 
  104.6250     2.1800    75.1010     7.0760     6.1800     7.4350    23.6830   -20.1770 
  104.7500     2.1850    78.6500     7.3010     6.3700     7.4810    23.6670   -21.0130 
  104.8750     2.1900    79.8840     7.5540     6.5850     7.6280    23.6770   -21.8170 
  105.0000     2.1950    74.8580     7.8300     6.8300     7.9680    23.7070   -22.5420 
  105.1250     2.2010    69.8270     8.0760     7.0790     8.1810    23.7430   -23.1770 
  105.2500     2.2060    70.7760     8.2090     7.2600     8.2570    23.7630   -23.5400 
  105.3750     2.2080    74.8680     8.1670     7.2970     8.4790    23.7750   -23.6790 
  105.5000     2.2040    76.4920     7.9420     7.1580     8.9190    23.8000   -23.6340 
  105.6250     2.1910    75.1330     7.6130     6.8740     8.8900    23.8880   -23.3750 
  105.7500     2.1750    75.3600     7.3570     6.5940     8.2030    23.9980   -23.0940 
  105.8750     2.1670    77.9080     7.3100     6.4430     7.7010    24.0320   -23.0150 
  106.0000     2.1800    80.0430     7.5470     6.5110     7.8480    23.8980   -23.1580 
  106.1250     2.2240    78.0160     8.0780     6.8660     8.4870    23.8480   -23.3460 
