~V
VERS. 2.00: Ver 2.00
~W
STRT.M 51.0000:
STOP.M 252.0000:
STEP.M 0.1250:
NULL. -999.2500:
UWI. F11020:
~C
DEPT.M :
DEN.GM/CC :
GR.API :
RML.OHMM :
RI. :
RXO.OHMM :
CALI.CM :
SP.MV :
~A
# ...
   84.7500     2.1500    59.0310     9.1340     7.7470     8.9930    26.1470   -32.1000 
   84.8750     2.1290    55.7640     9.0440     7.6610     8.9860    26.1900   -31.6460 
   85.0000     2.1110    55.5390     9.0040     7.6230     9.0390    26.2150   -31.1870 
   85.1250     2.1010    59.4550     9.0000     7.6190     9.0660    26.2230   -30.7120 
   85.2500     2.0990    62.2890     9.0010     7.6190     9.0530    26.2230   -30.1790 
   85.3750     2.0960    60.5230     8.9480     7.5690     9.1230    26.2230   -29.5920 
   85.5000     2.0810    57.0340     8.8000     7.4290     9.1400    26.2230   -28.9070 
   85.6250     2.0590    57.0550     8.5290     7.1700     9.0180    26.2180   -28.0980 
   85.7500     2.0460    61.8210     8.1420     6.8020     8.6290    26.1740   -27.1510 
   85.8750     2.0650    66.3120     7.7540     6.4320     7.7220    26.0470   -26.1180 
   86.0000     2.1280    68.6190     7.5190     6.2080     6.6510    25.8430   -25.0590 
   86.1250     2.2270    69.5400     7.6310     6.3150     6.3890    25.6720   -24.0290 
   86.2500     2.3370    70.4820     8.2760     6.9300     7.5840    25.5870   -23.0740 
   86.3750     2.4370    71.4720     9.4020     8.0020    11.0510    25.5490   -22.2480 
   86.5000     2.5160    70.5530    10.7710     9.3060    16.6580    25.5150   -21.5900 
   86.6250     2.5560    67.8180    11.7950    10.2820    19.0450    25.4750   -21.1670 
   86.7500     2.5480    67.3260    11.7600    10.2480    16.9500    25.4130   -21.0350 
   86.8750     2.5100    72.4490    10.8080     9.3410    13.8090    25.3300   -21.1720 
   87.0000     2.4520    80.6630     9.5610     8.1540     9.7730    25.2220   -21.5220 
   87.1250     2.3930    86.8710     8.6160     7.2530     6.6820    25.0300   -22.0460 
   87.2500     2.3570    87.7120     8.2610     6.9140     6.3940    24.7540   -22.7440 
   87.3750     2.3400    83.0450     8.3670     7.0160     8.7380    24.6000   -23.5670 
   87.5000     2.3140    74.5120     8.7280     7.3600    13.0860    24.7200   -24.4810 
   87.6250     2.2600    68.0460     9.0610     7.6770    14.1310    25.0480   -25.4140 
   87.7500     2.2010    67.7580     9.1080     7.7220    10.8630    25.3340   -26.3030 
   87.8750     2.1700    70.3570     8.8800     7.5050     9.0630    25.4180   -27.0790 
   88.0000     2.1660    71.7520     8.5340     7.1750     8.5480    25.4060   -27.7440 
   88.1250     2.1740    71.9000     8.2600     6.9140     8.4200    25.3740   -28.2960 
   88.2500     2.1830    73.7730     8.1860     6.8430     8.3960    25.3470   -28.7350 
   88.3750     2.1890    77.6300     8.2770     6.9310     8.4930    25.3220   -29.0680 
   88.5000     2.1930    81.3960     8.4760     7.1210     8.7190    25.3010   -29.3180 
   88.6250     2.1970    82.9670     8.7240     7.3560     9.0200    25.3000   -29.5300 
   88.7500     2.1970    82.0820     8.9640     7.5840     9.2670    25.3200   -29.7260 
   88.8750     2.1900    79.9630     9.1540     7.7650     9.4100    25.3290   -29.9540 
   89.0000     2.1840    76.1080     9.2670     7.8730     9.5210    25.3150   -30.2100 
   89.1250     2.1830    70.1280     9.2730     7.8790     9.5390    25.2910   -30.4820 
   89.2500     2.1900    63.5140     9.1550     7.7670     9.4770    25.2790   -30.7230 
   89.3750     2.1950    60.5480     8.9800     7.6010     9.5080    25.2760   -30.9210 
   89.5000     2.1930    62.0060     8.8450     7.4710     9.5260    25.2740   -31.0840 
   89.6250     2.1900    64.1190     8.8290     7.4570     9.4670    25.2590   -31.2060 
   89.7500     2.1880    64.3070     8.9460     7.5670     9.1950    25.2280   -31.3140 
   89.8750     2.1900    63.9250     9.0900     7.7050     8.9950    25.2220   -31.3920 
   90.0000     2.1940    63.4650     9.1780     7.7880     8.9220    25.2940   -31.4410 
   90.1250     2.1960    62.4560     9.1690     7.7800     8.9010    25.4070   -31.4530 
   90.2500     2.1870    61.2040     9.0830     7.6980     8.8670    25.4750   -31.4670 
   90.3750     2.1680    61.2640     8.9750     7.5950     8.9180    25.4980   -31.4930 
   90.5000     2.1470    61.4170     8.8660     7.4910     9.0360    25.5010   -31.5200 
   90.6250     2.1370    61.0420     8.7750     7.4050     9.0770    25.4690   -31.5420 
   90.7500     2.1410    60.6690     8.7190     7.3510     9.0410    25.3510   -31.5380 
   90.8750     2.1540    61.0690     8.6870     7.3200     8.9570    25.1850   -31.5380 
   91.0000     2.1680    61.7620     8.6400     7.2760     8.9730    25.0790   -31.5450 
   91.1250     2.1790    61.8660     8.5440     7.1860     9.0290    25.1030   -31.5720 
   91.2500     2.1860    60.6570     8.3910     7.0390     9.0470    25.2100   -31.5980 
   91.3750     2.1910    59.2350     8.2230     6.8800     9.1000    25.2680   -31.6320 
   91.5000     2.1930    58.4990     8.0860     6.7490     9.1670    25.3140   -31.6870 
   91.6250     2.1940    58.1140     8.0160     6.6810     9.1830    25.4070   -31.7760 
   91.7500     2.1960    59.4820     8.0410     6.7050     9.1390    25.5610   -31.9110 
   91.8750     2.2010    62.3820     8.1450     6.8050     9.1450    25.6740   -32.0600 
   92.0000     2.2110    64.4540     8.2880     6.9410     9.2400    25.7490   -32.2230 
   92.1250     2.2210    63.5700     8.4120     7.0590     9.3020    25.8060   -32.3980 
   92.2500     2.2260    61.6800     8.4730     7.1170     9.2610    25.8530   -32.5870 
   92.3750     2.2220    61.7440     8.4750     7.1190     9.2620    25.9090   -32.7870 
   92.5000     2.2070    61.9760     8.4160     7.0630     9.4070    26.0090   -32.9930 
   92.6250     2.1790    61.1300     8.2900     6.9420     9.5370    26.1860   -33.1870 
   92.7500     2.1380    59.6700     8.0930     6.7560     9.4780    26.5080   -33.3460 
   92.8750     2.0910    57.5330     7.8600     6.5340     9.2660    26.9300   -33.4730 
   93.0000     2.0480    55.0920     7.6430     6.3270     9.0120    27.3000   -33.5570 
   93.1250     2.0200    53.5820     7.5220     6.2120     8.7420    27.4950   -33.5730 
   93.2500     2.0110    54.9010     7.5730     6.2600     8.5260    27.4360   -33.5180 
   93.3750     2.0180    58.2640     7.7930     6.4690     8.7630    27.1750   -33.3750 
   93.5000     2.0380    60.7190     8.1690     6.8270    10.4700    26.7450   -33.1500 
   93.6250     2.0690    60.6650     8.6370     7.2740    15.2680    26.2530   -32.8530 
   93.7500     2.1110    61.1300     9.0500     7.6670    22.1150    25.8850   -32.5340 
   93.8750     2.1500    63.6140     9.2570     7.8640    23.0820    25.7080   -32.2150 
   94.0000     2.1740    65.0100     9.1940     7.8040    17.3690    25.6680   -31.9240 
   94.1250     2.1840    63.5010     8.8970     7.5200    11.8400    25.7070   -31.6840 
   94.2500     2.1810    61.4560     8.4870     7.1300     9.8780    25.8070   -31.5190 
   94.3750     2.1700    60.7370     8.1400     6.8000     9.3120    25.9350   -31.4280 
   94.5000     2.1540    59.8010     7.9550     6.6230     9.1780    26.0350   -31.3970 
   94.6250     2.1390    59.4310     7.9610     6.6280     9.1090    26.0890   -31.4030 
   94.7500     2.1330    60.5770     8.1130     6.7740     9.0730    26.1360   -31.4040 
   94.8750     2.1360    61.9170     8.2930     6.9450     9.0440    26.2180   -31.3960 
   95.0000     2.1440    61.0640     8.4100     7.0560     9.0090    26.3390   -31.3540 
   95.1250     2.1520    57.1250     8.4210     7.0680     8.9160    26.4850   -31.2680 
   95.2500     2.1650    54.9630     8.3370     6.9880     8.6810    26.6200   -31.1360 
   95.3750     2.1780    58.2290     8.2220     6.8780     8.4640    26.7090   -30.9700 
   95.5000     2.1810    62.6520     8.1280     6.7890     8.3830    26.7700   -30.7730 
   95.6250     2.1700    62.4890     8.0880     6.7500     8.4050    26.8440   -30.5660 
   95.7500     2.1560    57.4190     8.1150     6.7770     8.5090    26.8790   -30.3400 
   95.8750     2.1480    53.7470     8.1840     6.8420     8.7090    26.7470   -30.0730 
