~V
VERS. 2.00: Ver 2.00
~W
STRT.M 50.0000:
STOP.M 257.0000:
STEP.M 0.1250:
NULL. -999.2500:
UWI. F11021:
~C
DEPT.M :
GR.API :
RML.OHMM :
RI. :
RXO.OHMM :
CALI.CM :
SP.MV :
DEN.GM/CC :
~A
# ...
   95.0000    73.0390     8.8690     6.9990     8.8180    22.9920   -16.2270     2.1370 
   95.1250    78.2730     8.5970     6.7670     8.5410    22.9100   -16.2500     2.1260 
   95.2500    86.6070     8.4000     6.5760     8.1800    22.8810   -16.2110     2.1260 
   95.3750    91.5000     8.3460     6.4690     7.9430    22.8800   -16.0680     2.1340 
   95.5000    90.9810     8.4580     6.4710     7.8280    22.8020   -15.8060     2.1460 
   95.6250    88.4640     8.7060     6.5840     8.2830    22.6280   -15.4810     2.1570 
   95.7500    85.8020     8.9670     6.7390     8.4690    22.5250   -15.2470     2.1660 
   95.8750    83.1370     9.1330     6.8680     8.7130    22.5150   -15.1330     2.1760 
   96.0000    81.7780     9.1100     6.9030     9.0210    22.5100   -15.0730     2.1830 
   96.1250    82.6420     8.7900     6.7530     9.2220    22.5150   -15.0060     2.1860 
   96.2500    83.9970     8.2700     6.4440     9.0950    22.5780   -14.8440     2.1830 
   96.3750    85.0710     7.7600     6.0770     8.6640    22.6850   -14.5640     2.1750 
   96.5000    89.1240     7.5680     5.8250     8.0760    22.7970   -14.1760     2.1700 
   96.6250    95.9920     8.0800     5.9370     7.6110    22.8640   -13.6950     2.1870 
   96.7500    98.6770     9.2720     6.4780     7.7130    22.9940   -13.1990     2.2430 
   96.8750    94.6130    10.9420     7.4380     9.8260    23.1860   -12.8270     2.3390 
   97.0000    86.8010    12.5860     8.6230    17.0560    23.3650   -12.6870     2.4520 
   97.1250    81.6420    13.2780     9.4760    30.8450    23.3680   -12.7920     2.5310 
   97.2500    79.4070    12.7220     9.5600    26.3510    23.1880   -13.0560     2.5410 
   97.3750    77.1810    11.2690     8.9140    15.2260    22.9640   -13.4160     2.4810 
   97.5000    74.4700     9.6570     7.9490    10.3600    22.8430   -13.8040     2.3800 
   97.6250    73.1380     8.5800     7.1320     9.1920    22.7600   -14.1560     2.2870 
   97.7500    74.9840     8.1020     6.6310     9.0120    22.6540   -14.4170     2.2270 
   97.8750    78.2520     8.0420     6.4270     8.8940    22.5190   -14.5090     2.2010 
   98.0000    81.0170     8.1290     6.4030     8.7680    22.4110   -14.3160     2.1960 
   98.1250    82.6400     8.1140     6.4020     8.5300    22.4140   -13.7780     2.2020 
   98.2500    82.5780     7.9350     6.3210     8.2450    22.4330   -13.0040     2.2130 
   98.3750    84.7330     7.6410     6.1510     7.7270    22.4210   -12.0790     2.2330 
   98.5000    92.1530     7.3110     5.9210     6.9700    22.4080   -11.1000     2.2610 
   98.6250   100.8290     7.0160     5.6760     6.2780    22.4590   -10.1430     2.2900 
   98.7500   101.2530     6.7640     5.4450     6.1510    22.4790    -9.1860     2.3120 
   98.8750    96.6550     6.5230     5.2300     6.0910    22.4450    -8.1930     2.3230 
   99.0000    96.2820     6.2460     5.0170     6.0560    22.4110    -7.2670     2.3220 
   99.1250   100.9990     5.9190     4.7990     5.9150    22.3990    -6.5620     2.3140 
   99.2500   103.5240     5.6580     4.6160     5.8600    22.5390    -6.1220     2.3070 
   99.3750   101.3580     5.6880     4.5650     5.9240    22.8420    -5.9580     2.3020 
   99.5000    97.1600     6.3090     4.7960     6.0620    23.1140    -6.0280     2.3030 
   99.6250    93.9520     8.0190     5.6050     6.6950    23.2320    -6.2950     2.3230 
   99.7500    89.8020    10.8330     7.1280     8.8280    23.4460    -6.7820     2.3670 
   99.8750    82.1570    14.4990     9.4430    14.3470    23.7710    -7.5700     2.4320 
  100.0000    72.2930    18.1060    12.2340    24.2620    24.0080    -8.6160     2.5000 
  100.1250    70.3160    19.6290    14.1820    27.2230    24.0210    -9.8810     2.5330 
  100.2500    76.8610    18.4060    14.2240    20.2420    23.7580   -11.2340     2.5130 
  100.3750    83.6850    15.3950    12.6610    13.0220    23.3900   -12.5460     2.4440 
  100.5000    84.2890    12.2650    10.6050    10.4910    23.1160   -13.7430     2.3510 
  100.6250    78.5930    10.2500     8.9810    10.3930    23.1800   -14.8080     2.2690 
  100.7500    72.7130     9.2590     7.9410    10.5780    23.3660   -15.7420     2.2130 
  100.8750    71.0380     8.9720     7.4050    10.7070    23.5370   -16.4830     2.1840 
  101.0000    73.1110     9.0500     7.2280    10.7280    23.6880   -17.0080     2.1730 
  101.1250    76.7270     9.2230     7.2700    10.6480    23.8260   -17.2320     2.1710 
  101.2500    78.9190     9.3370     7.3660    10.5700    23.9180   -17.2190     2.1730 
  101.3750    78.7130     9.3790     7.4570    10.6910    23.9510   -17.0720     2.1770 
  101.5000    76.6380     9.3780     7.5260    10.7230    23.9520   -16.9290     2.1810 
  101.6250    77.0090     9.3560     7.5700    10.6980    23.9520   -16.8170     2.1850 
  101.7500    80.5840     9.3050     7.5830    10.6180    23.9600   -16.6630     2.1880 
  101.8750    82.9310     9.1960     7.5440    10.4900    23.9640   -16.4310     2.1900 
  102.0000    81.8390     9.0020     7.4280    10.2060    23.9750   -16.1230     2.1910 
  102.1250    80.5580     8.7050     7.2130     9.6900    23.9940   -15.7960     2.1930 
  102.2500    80.8250     8.3530     6.9340     9.0990    23.9920   -15.5400     2.1950 
  102.3750    80.5350     8.0040     6.6330     8.5800    23.9670   -15.3620     2.1990 
  102.5000    79.9740     7.7200     6.3610     8.2490    23.9490   -15.2070     2.2020 
  102.6250    80.5280     7.5710     6.1770     8.1400    23.9500   -15.0500     2.2040 
  102.7500    79.8920     7.5490     6.0890     8.0420    23.9560   -14.9360     2.2050 
  102.8750    78.8760     7.6270     6.0870     7.9560    23.9650   -14.9400     2.2070 
  103.0000    79.0560     7.7630     6.1490     7.9740    23.9830   -15.1100     2.2110 
  103.1250    79.9480     7.9210     6.2470     8.1370    24.0000   -15.4130     2.2180 
  103.2500    79.4040     8.1050     6.3740     8.2530    24.0410   -15.6900     2.2250 
  103.3750    78.1660     8.3560     6.5510     8.2300    24.1140   -15.8970     2.2300 
  103.5000    77.7520     8.7100     6.8020     8.1960    24.1860   -16.0250     2.2300 
  103.6250    76.7220     9.1880     7.1440     8.2580    24.2800   -16.0770     2.2290 
  103.7500    75.2640     9.7120     7.5330     8.2440    24.3710   -16.0800     2.2290 
  103.8750    74.9600    10.1740     7.9030     8.2450    24.3920   -16.0470     2.2310 
  104.0000    76.8200    10.4490     8.1700     9.1970    24.3700   -15.9580     2.2300 
  104.1250    77.8670    10.4340     8.2400    13.4560    24.3520   -15.7720     2.2200 
  104.2500    75.5600    10.2180     8.1480    22.2260    24.3110   -15.5370     2.1970 
  104.3750    73.1760     9.9030     7.9500    23.8130    24.1630   -15.3250     2.1690 
  104.5000    75.8630     9.5860     7.7140    14.4320    23.9000   -15.1950     2.1430 
  104.6250    82.5830     9.3430     7.5050    10.4720    23.6530   -15.1510     2.1330 
  104.7500    83.2670     9.1740     7.3430     9.4220    23.5390   -15.1340     2.1380 
  104.8750    77.8040     9.0680     7.2240     9.2290    23.4740   -15.0530     2.1530 
  105.0000    73.4410     9.0120     7.1390     9.2130    23.3630   -14.8720     2.1700 
  105.1250    74.6330     8.9850     7.0780     9.4830    23.2050   -14.6410     2.1820 
  105.2500    76.5490     8.9400     7.0180     9.3740    23.1110   -14.4540     2.1870 
  105.3750    76.5910     8.8410     6.9360     9.1770    23.0630   -14.2840     2.1870 
  105.5000    76.0960     8.6700     6.8180     9.0050    23.0350   -14.0600     2.1830 
  105.6250    76.2500     8.4290     6.6530     8.8120    23.0260   -13.7530     2.1810 
  105.7500    75.3190     8.1810     6.4660     8.6390    23.0180   -13.4220     2.1840 
  105.8750    73.4040     7.9890     6.2950     8.3060    22.9700   -13.2060     2.1900 
  106.0000    75.0250     7.9120     6.1820     7.9640    22.8570   -13.1930     2.1990 
  106.1250    81.2260     7.9990     6.1740     7.9680    22.8440   -13.3730     2.2070 
