~V
VERS. 2.00: Ver 2.00
~W
STRT.M 51.0000:
STOP.M 282.0000:
STEP.M 0.1250:
NULL. -999.2500:
UWI. F11065:
~C
DEPT.M :
GR.API :
RML.OHMM :
RI. :
RXO.OHMM :
CALI.CM :
DEN.GM/CC :
SP.MV :
~A
# ...
  231.0000    64.6000    89.7230    89.5250    56.7870    24.5510     2.2570   -10.4600 
  231.1250    61.2030    87.7120    87.8270    43.5640    24.3510     2.2610   -10.5860 
  231.2500    60.5250    85.5530    85.8040    35.4500    24.1310     2.2630   -10.6660 
  231.3750    61.8860    83.7440    83.7880    29.8670    23.7520     2.2600   -10.7360 
  231.5000    62.2150    82.7630    82.3400    25.1340    23.1500     2.2540   -10.7710 
  231.6250    62.1180    83.0040    81.9640    24.8090    22.7210     2.2470   -10.7930 
  231.7500    63.2170    84.7090    83.0640    29.3760    22.8890     2.2410   -10.8200 
  231.8750    64.9300    88.0500    86.0640    33.9830    23.2940     2.2350   -10.9110 
  232.0000    65.1660    92.2470    90.2860    36.9060    23.4960     2.2300   -11.0240 
  232.1250    63.2640    96.4290    94.8300    38.7940    23.5450     2.2270   -11.1130 
  232.2500    61.1650    99.6140    98.5610    43.9180    23.6910     2.2280   -11.1660 
  232.3750    61.9410   100.7260   100.1790    63.1650    24.1080     2.2330   -11.2070 
  232.5000    65.3320    99.9790    99.7280    94.5000    24.7510     2.2360   -11.2460 
  232.6250    67.9770    97.9210    97.7500   106.9400    25.2590     2.2350   -11.2750 
  232.7500    66.1620    95.4110    95.1850   101.6550    25.4440     2.2300   -11.2950 
  232.8750    62.3090    93.4690    93.0860   100.4330    25.3920     2.2280   -11.1870 
  233.0000    61.3740    92.5750    91.9840   101.3120    25.3180     2.2340   -11.0390 
  233.1250    62.2060    92.7520    92.0040   101.8320    25.3360     2.2440   -10.8960 
  233.2500    62.9230    93.6550    92.9150   101.3650    25.4530     2.2510   -10.8140 
  233.3750    65.1430    94.7130    94.2090   101.6940    25.5590     2.2480   -10.7430 
  233.5000    68.8200    95.4490    95.2900   105.0970    25.5950     2.2390   -10.6910 
  233.6250    71.7390    95.7320    95.9050   108.2090    25.5900     2.2320   -10.6850 
  233.7500    73.9480    95.6090    95.9940   106.9370    25.5820     2.2320   -10.7030 
  233.8750    77.1110    95.1550    95.5230   103.9520    25.5870     2.2380   -10.8080 
  234.0000    78.8400    94.5540    94.6390   104.2270    25.6030     2.2460   -10.8970 
  234.1250    77.3770    93.9690    93.4990   104.4070    25.6280     2.2540   -10.9360 
  234.2500    74.8220    93.6070    92.3940   104.2400    25.6420     2.2610   -10.9130 
  234.3750    73.6090    93.7350    91.7490   100.3650    25.6200     2.2640   -10.8800 
  234.5000    73.4980    94.3540    91.7190    93.8430    25.5610     2.2610   -10.8540 
  234.6250    74.2470    95.3980    92.3370    90.7860    25.4780     2.2540   -10.8100 
  234.7500    75.3680    96.7160    93.4680   109.4570    25.4120     2.2460   -10.7220 
  234.8750    76.9530    98.0990    94.7470   125.6880    25.4160     2.2410   -10.6060 
  235.0000    78.5740    99.3420    95.7310   121.2040    25.4500     2.2400   -10.5240 
  235.1250    78.0810   100.3390    96.2340   105.5720    25.4510     2.2420   -10.5580 
  235.2500    74.5380   101.0520    96.2830    99.2250    25.4110     2.2420   -10.6600 
  235.3750    69.6000   101.4490    96.0670   101.5400    25.3660     2.2380   -10.7770 
  235.5000    66.4450   101.5950    95.8550   100.2430    25.3020     2.2300   -10.8200 
  235.6250    66.6560   101.4640    95.6700    93.1190    25.0830     2.2230   -10.7900 
  235.7500    69.1910   100.9940    95.3710    86.4990    24.6870     2.2200   -10.7400 
  235.8750    70.0600   100.1480    94.8240    89.8680    24.5760     2.2210   -10.6690 
  236.0000    67.4100    99.2280    94.2530    92.2150    24.8490     2.2240   -10.5800 
  236.1250    65.2220    98.6490    94.0390    97.4980    25.1880     2.2310   -10.3800 
  236.2500    67.6750    98.8450    94.6010   100.4610    25.3400     2.2450   -10.1360 
  236.3750    71.2710   100.1410    96.3180   100.1220    25.3360     2.2700    -9.8770 
  236.5000    71.2820   101.8840    98.6410    97.9170    25.3440     2.2980    -9.6520 
  236.6250    67.7210   102.9630   100.5420    95.8760    25.4010     2.3240    -9.4920 
  236.7500    63.4710   102.0080   100.4840   103.7020    25.4660     2.3420    -9.3960 
  236.8750    61.7390    97.6160    96.5420   113.3500    25.4320     2.3490    -9.3840 
  237.0000    61.9370    90.8170    89.5880   124.0000    25.2600     2.3470    -9.4120 
  237.1250    63.7030    83.2430    81.4490   114.3130    25.1280     2.3370    -9.4900 
  237.2500    67.2680    76.7910    74.2780    81.8070    25.1000     2.3190    -9.5810 
  237.3750    70.2120    73.4890    70.1960    62.6610    25.1450     2.2980    -9.6690 
  237.5000    68.9860    73.5210    69.4070    63.1310    25.1540     2.2810    -9.8000 
  237.6250    64.8360    76.6510    71.6850    76.3280    25.1380     2.2690    -9.9500 
  237.7500    62.2290    82.0100    76.2160    86.3560    25.0910     2.2620   -10.0740 
  237.8750    61.9450    88.0920    81.6590    87.0460    25.0770     2.2530   -10.1210 
  238.0000    60.4210    93.1460    86.3040    89.4210    25.1690     2.2430   -10.0990 
  238.1250    59.9270    96.4820    89.3380    94.0690    25.3130     2.2420   -10.0680 
  238.2500    62.4760    98.5950    91.0450    96.8940    25.3940     2.2630   -10.0560 
  238.3750    63.2410   101.5240    93.2230    96.5540    25.3910     2.3280   -10.0590 
  238.5000    59.7310   107.7300    98.3140    97.5590    25.3640     2.4240   -10.0160 
  238.6250    57.5840   119.5330   108.9160   103.1040    25.3120     2.5340    -9.9450 
  238.7500    59.6720   138.7960   127.7240   118.8190    25.2270     2.6360    -9.8890 
  238.8750    60.2920   164.0660   156.7280   157.3190    25.1130     2.7120    -9.8690 
  239.0000    56.9600   181.9160   186.3470   251.2800    25.0200     2.7600    -9.8310 
  239.1250    54.1460   176.6450   196.3280   406.4690    24.9540     2.7730    -9.7320 
  239.2500    55.0030   143.0710   166.0330   465.6140    24.9060     2.7450    -9.5690 
  239.3750    57.9890    94.6200   107.0110   215.5980    24.7580     2.6680    -9.3100 
  239.5000    62.0280    54.4960    58.6800    76.0000    24.5380     2.5680    -8.9650 
  239.6250    69.1190    29.3600    29.9290    27.2920    24.4470     2.4710    -8.4900 
  239.7500    77.1060    15.7990    15.5060    11.9230    24.5760     2.3980    -7.8680 
  239.8750    80.5210     9.4220     9.5120     6.7380    24.6230     2.3620    -7.1570 
  240.0000    78.0920     6.3430     6.6630     5.4630    24.6170     2.3550    -6.5330 
  240.1250    73.8040     5.2210     5.3960     5.2310    24.6180     2.3660    -6.0430 
  240.2500    72.1430     5.0650     5.0130     4.9820    24.7250     2.3880    -5.6360 
  240.3750    72.9470     5.3410     5.2420     5.2180    25.1100     2.4100    -5.3090 
  240.5000    74.4390     5.7410     5.7610     6.1040    25.6590     2.4220    -5.0930 
  240.6250    76.4830     6.1080     6.3920     6.9480    25.9260     2.4220    -5.0580 
  240.7500    80.0840     6.3870     6.9750     7.0740    25.8400     2.4150    -5.2170 
  240.8750    86.9700     6.5910     7.3550     6.9320    25.6630     2.4060    -5.4860 
  241.0000    98.8820     6.7590     7.5100     6.9200    25.6820     2.4020    -5.7250 
  241.1250   113.0410     6.8800     7.4590     6.9470    25.8870     2.4020    -5.8580 
  241.2500   121.9710     6.9280     7.2530     7.0520    26.0390     2.4030    -5.9130 
  241.3750   120.7260     6.8880     6.9600     7.1990    26.0710     2.4040    -5.9230 
  241.5000   118.8300     6.8050     6.6710     7.3000    26.0910     2.4060    -5.8790 
  241.6250   121.1240     6.7260     6.4440     7.3020    26.1340     2.4090    -5.7440 
  241.7500   125.5620     6.6830     6.3140     7.2400    26.1960     2.4110    -5.4880 
  241.8750   129.2100     6.6890     6.2920     7.3410    26.3120     2.4010    -5.1470 
  242.0000   130.5240     6.7170     6.3290     7.5400    26.4510     2.3770    -4.7580 
  242.1250   127.6700     6.7520     6.3860     7.9500    26.6370     2.3470    -4.3860 
