~V
VERS. 2.00: Ver 2.00
~W
STRT.M 57.0000:
STOP.M 276.0000:
STEP.M 0.1250:
NULL. -999.2500:
UWI. F11063:
~C
DEPT.M :
DEN.GM/CC :
GR.API :
RML.OHMM :
RI. :
RXO.OHMM :
CALI.CM :
SP.MV :
~A
# ...
  192.0000     2.1700    54.0020   197.9200   162.8340    85.2450    24.4490   -16.9280 
  192.1250     2.1760    54.2690   181.0060   153.4480    90.8850    24.4510   -16.8210 
  192.2500     2.1880    55.7860   159.0500   137.0460    95.4150    24.4450   -16.7050 
  192.3750     2.2020    57.2820   141.9090   121.8760    93.1250    24.4400   -16.5940 
  192.5000     2.2120    57.8640   132.7080   112.2330    79.4670    24.4390   -16.5250 
  192.6250     2.2120    57.1550   129.3610   108.1560    78.6710    24.4200   -16.5190 
  192.7500     2.2030    56.3250   124.8210   104.5300    65.8530    24.4020   -16.5500 
  192.8750     2.1910    56.7080   114.3230    97.3430    55.7220    24.4200   -16.5850 
  193.0000     2.1870    57.6970    97.4860    85.3270    53.5170    24.4270   -16.6350 
  193.1250     2.1980    59.4700    79.0170    70.9080    45.8150    24.4130   -16.6870 
  193.2500     2.2190    63.2850    64.3290    58.4300    38.1840    24.4250   -16.7390 
  193.3750     2.2420    68.0900    55.1790    49.9010    33.9930    24.4410   -16.8270 
  193.5000     2.2580    69.8460    51.2080    45.6180    34.6950    24.4420   -16.9400 
  193.6250     2.2580    67.7440    51.5890    45.3050    38.2010    24.4400   -17.0550 
  193.7500     2.2470    68.0250    54.1150    47.2470    41.4600    24.4400   -17.1660 
  193.8750     2.2330    71.1410    57.4890    50.3770    43.3190    24.4280   -17.2910 
  194.0000     2.2210    71.6060    60.6730    53.6960    43.5650    24.3970   -17.4100 
  194.1250     2.2160    67.1040    62.9480    56.3510    43.3260    24.3240   -17.5220 
  194.2500     2.2150    64.5030    64.4880    58.2250    42.4620    24.2920   -17.6330 
  194.3750     2.2190    66.9450    65.5400    59.4090    42.4060    24.2880   -17.6990 
  194.5000     2.2290    70.6010    66.1760    59.9560    43.1550    24.2820   -17.6970 
  194.6250     2.2420    70.2490    66.1080    59.6690    44.3260    24.2680   -17.6160 
  194.7500     2.2510    69.0690    65.2600    58.5860    43.9570    24.2790   -17.5050 
  194.8750     2.2530    70.1110    63.6790    56.7780    42.5940    24.2940   -17.3840 
  195.0000     2.2530    71.1210    61.6480    54.5250    40.5610    24.3020   -17.2640 
  195.1250     2.2540    69.4050    59.6020    52.2550    38.6260    24.3000   -17.1450 
  195.2500     2.2570    67.0370    57.8600    50.3410    38.0100    24.2870   -17.0380 
  195.3750     2.2610    67.7390    56.5890    48.9860    39.6500    24.2660   -16.9500 
  195.5000     2.2650    71.1910    55.9440    48.2890    40.1310    24.2460   -16.9040 
  195.6250     2.2660    72.4000    56.2400    48.4250    38.2380    24.1840   -16.9270 
  195.7500     2.2660    70.5680    57.5070    49.3560    36.2070    24.0380   -16.9800 
  195.8750     2.2640    68.7510    59.8830    51.2200    36.0230    23.8920   -17.0430 
  196.0000     2.2600    67.6250    63.4340    54.1410    37.7940    23.8160   -17.1110 
  196.1250     2.2540    65.4430    68.0760    58.1490    38.2450    23.7930   -17.1980 
  196.2500     2.2470    63.4560    72.9430    62.5300    37.7640    23.7940   -17.2980 
  196.3750     2.2410    63.5740    77.1040    66.4950    37.1290    23.7810   -17.4150 
  196.5000     2.2370    64.9710    79.6450    69.2500    38.0760    23.8100   -17.5140 
  196.6250     2.2360    64.4780    79.7520    70.0000    39.4580    23.9560   -17.5260 
  196.7500     2.2370    62.5900    77.9960    69.0560    40.5670    24.1930   -17.4780 
  196.8750     2.2400    61.4720    74.8600    66.7420    42.4590    24.4220   -17.4060 
  197.0000     2.2450    62.7220    70.9000    63.5020    45.8610    24.5610   -17.3310 
  197.1250     2.2490    65.2720    66.9310    60.0140    46.3440    24.6130   -17.2690 
  197.2500     2.2510    67.0750    63.8140    57.1310    45.0760    24.6250   -17.2240 
  197.3750     2.2540    69.3930    62.0840    55.3920    42.7200    24.6220   -17.1530 
  197.5000     2.2600    71.6160    61.9020    55.0230    41.2920    24.6240   -17.0260 
  197.6250     2.2620    70.6910    63.1680    56.1110    43.8060    24.6350   -16.9410 
  197.7500     2.2570    65.7550    64.9880    57.9570    48.5020    24.6370   -16.9590 
  197.8750     2.2480    61.3810    66.6280    59.8750    51.2600    24.6400   -17.0050 
  198.0000     2.2430    60.9260    67.5030    61.2290    49.5020    24.6560   -16.9830 
  198.1250     2.2430    62.2940    67.3690    61.6530    46.0390    24.6710   -16.8660 
  198.2500     2.2440    62.9370    66.9780    61.6520    44.3070    24.6750   -16.7420 
  198.3750     2.2450    64.4270    67.1520    61.8700    41.6330    24.6420   -16.6550 
  198.5000     2.2450    67.3290    68.4780    62.8700    37.1450    24.6090   -16.5680 
  198.6250     2.2480    67.9490    71.3540    65.0550    34.5400    24.5560   -16.4520 
  198.7500     2.2510    65.1850    75.4360    68.2180    35.4070    24.4860   -16.3150 
  198.8750     2.2540    62.8690    80.7110    72.4300    39.6470    24.4970   -16.1500 
  199.0000     2.2540    63.3610    87.4600    77.9920    45.5930    24.6230   -15.9580 
  199.1250     2.2490    65.2440    96.6610    85.6850    51.4440    24.7880   -15.7260 
  199.2500     2.2410    65.1650   108.4780    95.6150    53.4920    24.8850   -15.4700 
  199.3750     2.2290    63.6540   122.8490   107.8650    56.0480    24.9220   -15.2130 
  199.5000     2.2130    62.0820   138.9650   121.9460    58.9920    24.9280   -14.9880 
  199.6250     2.2010    60.4620   154.5230   136.0950    63.8790    24.9280   -14.7480 
  199.7500     2.1950    58.6910   166.0220   147.1580    66.0380    24.9280   -14.5120 
  199.8750     2.1950    57.5060   170.2060   152.0400    66.5250    24.9280   -14.3570 
  200.0000     2.1960    57.8560   165.8490   149.2090    65.7620    24.9300   -14.2860 
  200.1250     2.1990    58.4560   155.0240   139.7610    63.0170    24.9310   -14.2700 
  200.2500     2.2030    58.9080   144.2890   129.3950    60.2080    24.9300   -14.3040 
  200.3750     2.2080    59.0080   137.9740   122.2560    57.0900    24.9370   -14.4020 
  200.5000     2.2130    59.0680   138.6870   121.1450    55.1260    24.9510   -14.5360 
  200.6250     2.2150    60.3800   148.9720   128.7890    55.5500    24.9640   -14.7530 
  200.7500     2.2100    60.4520   166.9480   143.6900    72.8560    24.9590   -15.0460 
  200.8750     2.2030    58.5010   189.7710   163.4040   102.9070    24.9510   -15.3340 
  201.0000     2.1990    55.1180   211.6510   183.0230   120.2110    24.9710   -15.6040 
  201.1250     2.2010    51.9160   223.6790   195.0310   131.9370    25.0050   -15.9230 
  201.2500     2.2020    50.2760   225.5280   198.1820   135.8170    25.0660   -16.2970 
  201.3750     2.1930    50.2540   222.4570   195.9560   136.0020    25.0930   -16.6660 
  201.5000     2.1760    51.2310   221.2110   194.0220   133.1360    25.0850   -17.0140 
  201.6250     2.1600    50.9060   225.7380   197.5840   129.5480    25.0680   -17.3390 
  201.7500     2.1510    49.3210   229.8850   205.9690   126.3940    25.0560   -17.6370 
  201.8750     2.1490    47.6260   233.5510   215.6840   123.2770    25.0570   -17.9110 
  202.0000     2.1530    46.8130   236.0170   221.6380   119.0970    25.0550   -18.1560 
  202.1250     2.1650    47.2980   237.1560   218.2440   119.8780    25.0630   -18.3420 
  202.2500     2.1780    48.4070   230.6920   207.1000   125.6290    25.0620   -18.4850 
  202.3750     2.1890    48.4180   220.1970   192.1860   132.4220    25.0230   -18.5420 
  202.5000     2.1970    47.3840   212.5380   178.3030   136.6950    24.9790   -18.5280 
  202.6250     2.1990    46.9990   196.0320   170.0820   132.7840    24.9530   -18.5450 
  202.7500     2.1990    47.7250   195.1350   167.9850   116.5050    24.9580   -18.4820 
  202.8750     2.2020    49.8690   199.6210   170.9230   108.3700    24.9620   -18.2960 
  203.0000     2.2080    52.2180   206.2090   176.1060   106.9370    24.9260   -18.1070 
  203.1250     2.2150    53.3460   209.0880   178.7170   116.4710    24.8050   -18.0050 
