~V
VERS. 2.00: Ver 2.00
~W
STRT.M 60.0000:
STOP.M 279.0000:
STEP.M 0.1250:
NULL. -999.2500:
UWI. F11060:
~C
DEPT.M :
GR.API :
RML.OHMM :
RI. :
RXO.OHMM :
CALI.CM :
DEN.GM/CC :
SP.MV :
~A
# ...
  251.2500    48.1810     6.3580     6.0230     5.4850    23.8600     2.3660     7.3100 
  251.3750    47.3800     6.3090     5.8880     5.8600    23.8010     2.3680     7.2280 
  251.5000    47.8010     6.3120     5.7980     5.9580    23.7900     2.3650     7.1680 
  251.6250    49.5810     6.3780     5.7660     5.8340    23.8080     2.3630     7.0880 
  251.7500    51.0380     6.4800     5.7660     5.5920    23.8130     2.3650     7.0320 
  251.8750    50.9740     6.5910     5.7770     5.2810    23.8060     2.3700     7.0320 
  252.0000    48.6760     6.6790     5.7770     5.0020    23.8100     2.3780     7.0190 
  252.1250    46.3880     6.7160     5.7440     4.9680    23.8020     2.3930     6.9760 
  252.2500    46.8220     6.7110     5.6810     5.0160    23.7930     2.4140     6.9870 
  252.3750    47.7140     6.6770     5.6030     5.0140    23.8050     2.4350     7.0630 
  252.5000    46.9170     6.6350     5.5280     4.9800    23.8230     2.4400     7.0770 
  252.6250    45.1880     6.6050     5.4760     4.9180    23.8460     2.4230     7.0310 
  252.7500    45.3360     6.5940     5.4500     4.9630    23.8870     2.4050     7.0700 
  252.8750    47.6630     6.6040     5.4400     5.1190    23.9350     2.3960     7.0630 
  253.0000    50.9070     6.6350     5.4410     5.2380    23.9490     2.3950     6.9650 
  253.1250    52.7900     6.6870     5.4500     5.3200    23.9280     2.3950     6.9050 
  253.2500    52.4810     6.7490     5.4680     5.3240    23.9340     2.3960     6.8930 
  253.3750    52.6150     6.8120     5.4920     5.4560    23.9440     2.3960     6.8360 
  253.5000    54.4790     6.8750     5.5240     5.6190    23.9280     2.3920     6.7430 
  253.6250    55.0550     6.9460     5.5740     5.7440    23.9600     2.3850     6.7340 
  253.7500    52.9020     7.0360     5.6450     5.8840    24.0410     2.3800     6.7080 
  253.8750    49.9190     7.1490     5.7350     6.0650    24.1130     2.3840     6.6310 
  254.0000    48.6580     7.2760     5.8380     6.0840    24.1390     2.3940     6.6360 
  254.1250    49.4820     7.3980     5.9400     5.9340    24.1380     2.4030     6.7070 
  254.2500    51.2280     7.4940     6.0330     5.6880    24.1370     2.4110     6.6750 
  254.3750    52.9780     7.5630     6.1210     5.6270    24.1410     2.4180     6.5960 
  254.5000    53.5480     7.6160     6.2110     5.8550    24.1460     2.4230     6.5910 
  254.6250    52.3520     7.6760     6.3110     6.3070    24.1360     2.4220     6.5860 
  254.7500    50.0050     7.7600     6.4200     6.6210    24.0860     2.4170     6.4770 
  254.8750    49.0610     7.8710     6.5390     7.1360    24.0160     2.4110     6.4180 
  255.0000    50.8110     7.9950     6.6600     8.0940    23.9820     2.4030     6.3870 
  255.1250    51.9300     8.1140     6.7650     8.7130    23.9790     2.3970     6.2920 
  255.2500    51.2810     8.2050     6.8460     8.1840    24.0070     2.3950     6.2060 
  255.3750    50.1970     8.2520     6.8960     7.6530    24.0700     2.3960     6.1790 
  255.5000    50.1910     8.2460     6.9150     7.1450    24.1140     2.3990     6.1830 
  255.6250    50.8310     8.1850     6.9040     7.0930    24.1220     2.4030     6.0800 
  255.7500    50.8070     8.0970     6.8740     7.0570    24.1280     2.4070     6.0540 
  255.8750    49.8860     8.0100     6.8320     7.0550    24.1360     2.4080     6.0730 
  256.0000    48.2530     7.9520     6.7960     6.8990    24.1400     2.4120     5.9970 
  256.1250    48.2170     7.9680     6.8050     6.7880    24.1400     2.4240     5.8960 
  256.2500    49.0560     8.0680     6.8800     6.8790    24.1350     2.4340     5.8890 
  256.3750    48.0980     8.2540     7.0270     7.4160    24.1240     2.4380     5.8640 
  256.5000    45.9180     8.5120     7.2370     8.0790    24.1460     2.4350     5.7200 
  256.6250    45.2620     8.8090     7.4890     8.6460    24.2220     2.4330     5.6740 
  256.7500    46.3830     9.0920     7.7440     8.9070    24.3440     2.4320     5.6730 
  256.8750    48.5020     9.3240     7.9720     8.6540    24.4150     2.4290     5.5990 
  257.0000    51.3920     9.4880     8.1530     8.4580    24.4120     2.4280     5.5710 
  257.1250    52.6480     9.5910     8.2730     8.5340    24.3480     2.4330     5.6560 
  257.2500    49.8090     9.6770     8.3620     8.7930    24.3230     2.4420     5.7100 
  257.3750    46.3370     9.7810     8.4530     8.9320    24.3090     2.4490     5.7370 
  257.5000    46.4180     9.9260     8.5790     8.9120    24.2970     2.4520     5.7940 
  257.6250    48.4070    10.1520     8.7790     8.7710    24.2840     2.4490     5.8760 
  257.7500    49.4730    10.4860     9.0690     8.7560    24.2720     2.4400     5.8880 
  257.8750    49.1390    10.9400     9.4600     8.9210    24.2490     2.4320     5.9400 
  258.0000    48.1400    11.4740     9.9230     9.2110    24.1720     2.4380     6.0790 
  258.1250    46.6740    11.9540    10.3690     9.6050    24.0530     2.4660     6.1450 
  258.2500    46.4220    12.2250    10.6680    11.0540    23.9610     2.4940     6.1570 
  258.3750    46.4120    12.1950    10.7280    13.7430    23.9690     2.5100     6.2280 
  258.5000    45.7160    11.8870    10.5430    14.3180    24.0390     2.5130     6.3690 
  258.6250    46.1820    11.4610    10.2240    13.8500    24.0340     2.5030     6.4130 
  258.7500    47.2740    11.1460     9.9680    13.8410    23.9880     2.4800     6.5050 
  258.8750    47.8130    11.0630     9.8810    13.3700    23.9700     2.4430     6.6480 
  259.0000    47.8390    11.2370    10.0000    11.1950    24.0270     2.4020     6.7140 
  259.1250    49.1600    11.6060    10.3090     9.1930    24.1170     2.3780     6.7500 
  259.2500    51.1900    11.9830    10.6760     8.8710    24.1860     2.3740     6.8470 
  259.3750    51.4420    12.2480    10.9960     9.2970    24.2440     2.3840     6.9720 
  259.5000    48.7080    12.3490    11.2000     9.4760    24.2850     2.4000     7.0410 
  259.6250    45.5040    12.2920    11.2460     9.2690    24.3050     2.4210     7.0990 
  259.7500    46.2370    12.1670    11.1930     9.3350    24.3150     2.4450     7.1740 
  259.8750    49.8250    12.0410    11.1020     9.3640    24.3140     2.4610     7.1770 
  260.0000    51.7530    11.9630    11.0320     9.4440    24.3150     2.4610     7.1300 
  260.1250    51.1470    11.9740    11.0360    10.0170    24.3160     2.4510     7.1420 
  260.2500    49.3410    12.0670    11.1110    11.0670    24.3100     2.4480     7.1690 
  260.3750    47.5180    12.2150    11.2350    12.1870    24.3060     2.4590     7.1180 
  260.5000    47.8350    12.3610    11.3680    12.8280    24.3050     2.4740     7.0360 
  260.6250    49.6740    12.4120    11.4460    13.1840    24.2770     2.4820     7.0460 
  260.7500    49.7530    12.3240    11.4220    13.4120    24.2150     2.4860     6.9830 
  260.8750    48.4530    12.0810    11.2640    13.0160    24.1500     2.4870     6.9020 
  261.0000    48.0370    11.7010    10.9660    11.7010    24.1360     2.4830     6.9060 
  261.1250    47.9600    11.2320    10.5400    10.6400    24.1090     2.4700     6.9430 
  261.2500    47.1060    10.7610    10.0740     9.4920    24.0910     2.4580     6.9440 
  261.3750    46.2200    10.3510     9.6500     8.5690    24.0900     2.4500     6.9590 
  261.5000    46.0180    10.0470     9.3300     8.0340    24.0700     2.4430     7.0860 
  261.6250    47.4590     9.8980     9.1680     8.2460    24.0750     2.4370     7.1880 
  261.7500    49.9810     9.8570     9.1210     8.6760    24.1080     2.4390     7.2770 
  261.8750    51.6120     9.8620     9.1340     9.0940    24.1320     2.4470     7.4350 
  262.0000    51.6710     9.8500     9.1470     9.2320    24.0950     2.4560     7.5900 
  262.1250    50.2410     9.7870     9.1140     9.3770    24.0440     2.4610     7.6440 
  262.2500    48.4940     9.7020     9.0470     9.4500    23.9020     2.4640     7.7200 
  262.3750    47.2510     9.6360     8.9770     9.0460    23.6290     2.4670     7.8600 
