~V
VERS. 2.00: Ver 2.00
~W
STRT.M 52.0000:
STOP.M 271.0000:
STEP.M 0.1250:
NULL. -999.2500:
UWI. F11069:
~C
DEPT.M :
GR.API :
RML.OHMM :
RI. :
RXO.OHMM :
CALI.CM :
DEN.GM/CC :
SP.MV :
~A
# ...
  175.7500    64.6090   106.5080    99.4740   125.4550    25.3730     2.2630   -32.4280 
  175.8750    69.8500   104.0230    95.9980    73.7920    25.2760     2.2660   -32.6160 
  176.0000    75.9450   104.8610    96.2760    53.8550    25.1890     2.2460   -32.7500 
  176.1250    76.7690   109.0360   101.8730    64.1230    25.1840     2.2170   -32.8420 
  176.2500    72.1880   112.0100   108.3870   102.1400    25.2540     2.2040   -32.9080 
  176.3750    66.9660   109.4800   110.0080   193.9460    25.3220     2.2170   -32.9080 
  176.5000    65.7130   100.0100   103.0040   288.0690    25.3300     2.2470   -32.8480 
  176.6250    68.7700    86.5730    89.4640   169.6990    25.2620     2.2700   -32.7660 
  176.7500    72.1760    75.2720    77.1450    74.7460    25.1670     2.2690   -32.6540 
  176.8750    74.1530    69.0240    70.1700    45.3530    25.0850     2.2490   -32.5750 
  177.0000    74.0300    67.8750    69.6060    50.2140    25.0880     2.2240   -32.5530 
  177.1250    71.6610    69.4120    74.0810    87.0710    25.2080     2.2130   -32.4990 
  177.2500    69.8310    68.9780    77.9270   108.2890    25.2320     2.2220   -32.4250 
  177.3750    71.3240    63.6210    75.6670    94.4420    25.1510     2.2480   -32.3970 
  177.5000    76.7390    53.1700    64.8500    82.2720    25.0690     2.2870   -32.4120 
  177.6250    81.8590    40.6070    49.2160    66.4580    25.0390     2.3330   -32.4520 
  177.7500    85.2280    30.0560    35.7810    41.3480    25.0190     2.3770   -32.5150 
  177.8750    88.0870    23.0270    26.7660    23.4390    24.9620     2.4110   -32.5330 
  178.0000    90.4660    19.3940    21.7940    16.8170    24.8420     2.4280   -32.4880 
  178.1250    89.7070    18.8040    20.1640    14.8430    24.6380     2.4190   -32.4590 
  178.2500    86.5920    20.2550    20.7070    15.1180    24.4820     2.3910   -32.4960 
  178.3750    83.2820    23.4680    23.2850    16.4350    24.4830     2.3530   -32.5450 
  178.5000    80.4350    28.1540    27.8520    20.5940    24.6600     2.3170   -32.5530 
  178.6250    78.8430    33.8860    34.3150    29.4140    24.8150     2.2950   -32.5630 
  178.7500    80.0030    39.6710    41.4150    42.0180    24.9030     2.2870   -32.6410 
  178.8750    82.6020    44.7380    47.8810    51.2330    24.9550     2.2880   -32.7670 
  179.0000    83.2210    48.6030    52.6570    54.3490    24.9910     2.2930   -32.8690 
  179.1250    80.3400    51.1740    55.2140    54.0110    24.9720     2.2940   -32.9620 
  179.2500    77.1730    53.2950    56.6350    56.0810    24.9230     2.2910   -33.0330 
  179.3750    75.1780    55.7030    57.9090    60.0930    24.8470     2.2820   -33.0830 
  179.5000    74.5380    58.9470    59.8310    64.4560    24.7880     2.2720   -33.1150 
  179.6250    78.8840    63.3950    62.9470    67.5250    24.7460     2.2650   -33.0750 
  179.7500    85.8320    68.6380    66.9640    69.3250    24.7520     2.2630   -33.0080 
  179.8750    88.9650    74.2080    71.4810    73.8240    24.7730     2.2660   -32.9250 
  180.0000    86.4030    79.5570    76.0090    82.4500    24.7270     2.2700   -32.8640 
  180.1250    81.0360    84.0880    80.0080    90.7720    24.6250     2.2730   -32.8710 
  180.2500    77.1170    87.7760    83.3540    90.1340    24.5990     2.2730   -32.9050 
  180.3750    74.6620    90.8420    86.1550    85.6640    24.6790     2.2700   -32.9350 
  180.5000    74.3990    93.7210    88.7480    85.4040    24.7770     2.2650   -33.0060 
  180.6250    77.3290    96.9870    91.6790    85.6820    24.8000     2.2560   -33.1660 
  180.7500    78.8820   100.9010    95.3090    84.9670    24.7800     2.2460   -33.3550 
  180.8750    76.9870   105.4390    99.7400    81.1280    24.7640     2.2340   -33.5790 
  181.0000    73.4850   110.2600   104.7300    80.1070    24.7550     2.2220   -33.8070 
  181.1250    72.2590   114.5320   109.4710    93.9220    24.7450     2.2130   -33.9920 
  181.2500    73.2240   117.4530   112.9900   101.0500    24.7360     2.2090   -34.1560 
  181.3750    74.1600   118.5450   114.6530    96.6650    24.6800     2.2130   -34.3400 
  181.5000    74.6030   117.9530   114.4480    99.0570    24.5930     2.2250   -34.5320 
  181.6250    74.4590   116.5590   113.0820   104.2190    24.5780     2.2440   -34.6370 
  181.7500    72.7420   115.8390   112.0140    96.0000    24.5520     2.2620   -34.7060 
  181.8750    69.5760   116.8000   112.2020    80.4050    24.4350     2.2730   -34.8250 
  182.0000    67.5160   120.0750   114.3090    75.3600    24.2460     2.2760   -34.9950 
  182.1250    67.9610   126.4970   119.3070    86.8510    24.1370     2.2690   -35.1340 
  182.2500    69.0610   135.9290   127.2290    98.2340    24.1370     2.2560   -35.2190 
  182.3750    69.0690   148.6550   138.3690    98.8110    24.2530     2.2390   -35.2870 
  182.5000    68.6080   164.7180   152.9550   106.6350    24.4670     2.2230   -35.3380 
  182.6250    67.1240   183.4690   171.0290   147.1050    24.7380     2.2090   -35.3730 
  182.7500    63.7330   201.6170   189.8690   209.5690    24.9750     2.2020   -35.3410 
  182.8750    61.7990   215.0430   205.5850   230.1210    25.1530     2.2010   -35.2280 
  183.0000    63.1470   219.6270   213.4250   216.0850    25.2460     2.2090   -35.1040 
  183.1250    66.0980   211.8640   208.2610   193.4970    25.2550     2.2220   -34.9730 
  183.2500    68.2050   196.2000   193.7700   177.8020    25.2020     2.2370   -34.8420 
  183.3750    69.5400   177.4360   175.1000   162.2960    25.1080     2.2510   -34.7360 
  183.5000    69.9850   159.9900   157.2600   135.3770    25.0000     2.2620   -34.6520 
  183.6250    67.0270   147.2190   143.9830   113.7340    24.8880     2.2690   -34.5540 
  183.7500    63.8380   138.9940   135.4380    98.0750    24.7260     2.2720   -34.5020 
  183.8750    64.2410   134.7650   131.2310    98.5260    24.5740     2.2700   -34.5030 
  184.0000    68.8100   133.5850   130.3870   107.2630    24.4830     2.2650   -34.5050 
  184.1250    71.7210   134.3960   131.7970   113.0470    24.4860     2.2600   -34.5430 
  184.2500    70.6070   135.4780   133.6740   119.5690    24.5790     2.2570   -34.5840 
  184.3750    67.9980   135.7270   134.8480   122.6670    24.7270     2.2570   -34.5510 
  184.5000    65.5830   134.4500   134.4650   114.4890    24.8290     2.2590   -34.4340 
  184.6250    63.6950   131.2760   131.9470   103.8240    24.7690     2.2620   -34.3260 
  184.7500    64.2040   126.9010   127.9810    99.4270    24.6720     2.2600   -34.1970 
  184.8750    68.3490   121.8750   123.1320    94.4190    24.6380     2.2550   -33.9690 
  185.0000    73.7530   116.7580   117.9650    88.3620    24.6460     2.2460   -33.6650 
  185.1250    74.6480   112.3010   113.2050    87.4460    24.6460     2.2360   -33.3830 
  185.2500    71.6770   109.0480   109.4800    90.7780    24.6080     2.2270   -33.1610 
  185.3750    68.2890   107.3830   107.3130    88.7260    24.5860     2.2180   -32.9510 
  185.5000    67.0600   107.3370   106.9820    83.3240    24.6400     2.2100   -32.7220 
  185.6250    68.2160   108.5540   108.4900    89.7600    24.8000     2.2050   -32.4890 
  185.7500    69.6060   109.8440   110.6180   115.4470    25.0120     2.2030   -32.2450 
  185.8750    70.2940   110.2190   112.1640   137.0830    25.1670     2.2070   -31.9810 
  186.0000    70.6120   108.9760   112.0860   123.7380    25.2150     2.2130   -31.6920 
  186.1250    70.5570   105.7350   109.6240    94.9160    25.1550     2.2180   -31.3460 
  186.2500    70.3890   101.4140   105.6210    81.2940    25.0710     2.2210   -30.9730 
  186.3750    71.2610    96.9160   101.0420    82.5270    24.9840     2.2250   -30.5870 
  186.5000    72.6130    93.1210    96.8840    86.4940    24.9340     2.2350   -30.2260 
  186.6250    73.1490    90.9790    94.1220    85.2670    24.9590     2.2490   -29.9220 
  186.7500    71.9290    90.6570    92.9620    82.1560    25.0240     2.2600   -29.6260 
  186.8750    71.8590    92.3160    93.6570    83.3780    25.0650     2.2650   -29.3470 
