~V
VERS. 2.00: Ver 2.00
~W
STRT.M 53.0000:
STOP.M 279.0000:
STEP.M 0.1250:
NULL. -999.2500:
UWI. F11057:
~C
DEPT.M :
GR.API :
RML.OHMM :
RI. :
RXO.OHMM :
CALI.CM :
DEN.GM/CC :
SP.MV :
~A
# ...
  165.5000    89.3560    56.5970    54.2480    30.2620    24.2550     2.3180   -18.6900 
  165.6250    88.6390    60.0600    56.8060    33.0750    24.3220     2.3180   -18.5940 
  165.7500    86.7040    67.8720    63.6790    36.9170    24.3990     2.3120   -18.5380 
  165.8750    83.9550    80.5130    75.5410    43.0620    24.4320     2.3010   -18.4730 
  166.0000    79.6780    97.7040    92.2380    54.1170    24.4360     2.2880   -18.3920 
  166.1250    76.9390   116.9780   111.6410    65.1920    24.4340     2.2730   -18.3170 
  166.2500    78.8270   130.7880   129.9210    69.6770    24.4340     2.2580   -18.2430 
  166.3750    82.9700   138.0060   139.0280    69.7520    24.4350     2.2480   -18.1640 
  166.5000    82.7870   138.6020   135.6860    76.6130    24.4360     2.2420   -18.0750 
  166.6250    76.7570   129.9970   123.7500    82.2150    24.4360     2.2430   -18.0150 
  166.7500    71.7910   116.7360   108.6090    74.8760    24.4370     2.2480   -17.9290 
  166.8750    73.1160   102.0060    93.4830    58.6480    24.4380     2.2580   -17.8400 
  167.0000    79.9980    88.6080    80.8600    47.3980    24.4390     2.2730   -17.7530 
  167.1250    86.2220    79.4320    73.1480    43.4690    24.4480     2.2840   -17.6450 
  167.2500    91.4060    74.9270    70.0770    35.0420    24.4810     2.2870   -17.5460 
  167.3750    96.4970    74.9700    71.1850    26.0730    24.5310     2.2860   -17.4330 
  167.5000    99.6370    78.9130    75.6870    21.0140    24.5840     2.2830   -17.3140 
  167.6250    96.3760    86.2370    82.8780    22.3620    24.6550     2.2810   -17.1830 
  167.7500    91.7330    95.0190    90.9150    27.8760    24.7540     2.2780   -17.0400 
  167.8750    91.0540   103.5260    98.1550    36.1810    24.8270     2.2740   -16.9010 
  168.0000    92.7280   110.0130   103.0970    44.5190    24.8570     2.2720   -16.7660 
  168.1250    92.9810   113.3220   105.1760    45.6570    24.8600     2.2730   -16.6830 
  168.2500    90.3840   115.8920   107.1660    44.6810    24.8600     2.2730   -16.5950 
  168.3750    86.5320   120.9780   112.0160    47.5690    24.8600     2.2660   -16.5480 
  168.5000    82.4690   130.8140   121.4110    51.6120    24.8600     2.2500   -16.5470 
  168.6250    78.0920   145.1680   134.7830    54.1410    24.8600     2.2320   -16.5620 
  168.7500    76.0670   158.8350   147.1250    58.4450    24.8570     2.2220   -16.6350 
  168.8750    77.8970   166.7010   153.5800    59.4050    24.8420     2.2230   -16.7270 
  169.0000    82.9160   166.3550   152.3500    53.9420    24.8100     2.2300   -16.8460 
  169.1250    85.6280   160.1810   146.7520    49.2900    24.7930     2.2360   -16.9580 
  169.2500    83.7050   155.0130   143.0980    49.6190    24.7880     2.2390   -17.0880 
  169.3750    80.9480   154.2560   144.0230    52.7440    24.7880     2.2420   -17.2220 
  169.5000    79.5130   159.1740   150.3610    55.6410    24.7880     2.2450   -17.3540 
  169.6250    78.8510   171.3100   163.3620    60.0110    24.7880     2.2430   -17.4990 
  169.7500    77.3280   189.6360   182.0920    66.7210    24.7880     2.2330   -17.5830 
  169.8750    76.3860   213.9110   206.4600    71.5050    24.7880     2.2200   -17.6530 
  170.0000    75.4150   243.2570   235.7690    74.6680    24.7880     2.2110   -17.7210 
  170.1250    70.8640   274.4800   266.7500    75.8420    24.7770     2.2060   -17.7450 
  170.2500    67.5100   301.1160   292.4900    75.0150    24.7520     2.2020   -17.7430 
  170.3750    68.5560   318.5620   308.3520    78.3530    24.7220     2.1970   -17.6760 
  170.5000    70.0640   327.0810   315.3970    90.9480    24.6970     2.1910   -17.5750 
  170.6250    67.4380   329.8900   317.3540   127.9650    24.6680     2.1860   -17.4360 
  170.7500    65.0230   329.4000   316.0160   166.5030    24.6470     2.1850   -17.2860 
  170.8750    66.0940   323.6080   308.7430   186.4220    24.6070     2.1890   -17.1210 
  171.0000    67.8720   309.3050   292.4610   209.3890    24.5250     2.1940   -16.9110 
  171.1250    67.4720   285.1760   267.3070   237.4800    24.4630     2.1960   -16.7190 
  171.2500    66.5600   257.6870   240.3100   283.3920    24.4400     2.1980   -16.5080 
  171.3750    67.2970   231.9180   215.8980   257.9310    24.4360     2.2020   -16.3340 
  171.5000    70.4220   211.0790   196.5720   189.8630    24.4360     2.2100   -16.1790 
  171.6250    74.0980   198.1320   184.9480   162.5910    24.4360     2.2150   -16.0330 
  171.7500    76.2410   192.1550   179.7170   201.0400    24.4360     2.2150   -15.9260 
  171.8750    77.4480   190.8950   178.1170   246.6900    24.4360     2.2110   -15.8330 
  172.0000    77.9560   189.5720   175.1070   250.5830    24.4360     2.2050   -15.7890 
  172.1250    75.4860   181.2060   164.1240   227.2080    24.4360     2.2020   -15.7300 
  172.2500    71.9620   164.7460   145.7650   222.5570    24.4360     2.2040   -15.7100 
  172.3750    69.0480   143.4200   124.2980   190.8570    24.4360     2.2110   -15.6860 
  172.5000    67.6410   122.2430   104.4550   140.5390    24.4360     2.2260   -15.6500 
  172.6250    69.3710   105.4210    89.3970   105.9500    24.4360     2.2450   -15.6190 
  172.7500    73.5920    92.9850    78.5090    90.2850    24.4360     2.2620   -15.5550 
  172.8750    78.4320    84.4400    71.1970    81.9440    24.4360     2.2730   -15.5100 
  173.0000    81.5580    79.1380    66.7610    76.3580    24.4360     2.2780   -15.4240 
  173.1250    82.6780    76.4200    64.4800    75.4660    24.4360     2.2810   -15.3380 
  173.2500    83.1710    74.6840    62.9380    73.5530    24.4360     2.2840   -15.2420 
  173.3750    84.0170    73.0150    61.3750    73.1360    24.4360     2.2870   -15.1370 
  173.5000    85.8370    70.8430    59.3540    73.7110    24.4360     2.2910   -15.0530 
  173.6250    88.7430    67.9480    56.7840    69.4710    24.4360     2.2920   -14.9510 
  173.7500    90.0130    64.8720    54.2260    63.4570    24.4290     2.2920   -14.8920 
  173.8750    88.6490    62.3910    52.4280    57.7120    24.4020     2.2900   -14.8190 
  174.0000    84.9980    61.3820    52.1840    53.8250    24.3510     2.2870   -14.7670 
  174.1250    82.2630    63.0090    54.5340    54.0050    24.3130     2.2830   -14.7760 
  174.2500    81.2460    67.3360    59.4150    58.5480    24.3000     2.2800   -14.7920 
  174.3750    80.9860    74.3310    66.6930    65.8060    24.2910     2.2780   -14.8390 
  174.5000    80.7650    83.4250    75.7510    75.7730    24.2740     2.2800   -14.8900 
  174.6250    81.9870    93.3280    85.2840    85.5640    24.2440     2.2850   -14.9860 
  174.7500    85.6470   101.9910    93.4490    90.1390    24.2300     2.2920   -15.0790 
  174.8750    88.5000   108.2500    99.3580    81.3850    24.2270     2.2980   -15.1860 
  175.0000    85.8060   112.7660   103.8800    73.8070    24.2280     2.2990   -15.3240 
  175.1250    79.7070   118.5540   109.8380    81.7460    24.2290     2.2900   -15.4380 
  175.2500    76.2170   127.7780   118.8190   105.1620    24.2330     2.2700   -15.5740 
  175.3750    75.3300   139.7660   129.7880   126.4570    24.2530     2.2450   -15.6970 
  175.5000    73.1980   150.5700   138.7630   150.8980    24.3170     2.2230   -15.8190 
  175.6250    70.4630   152.2870   138.3360   159.7760    24.4210     2.2130   -15.9260 
  175.7500    72.9800   142.9960   127.7780   156.6560    24.5310     2.2110   -15.9810 
  175.8750    79.6310   125.9250   111.1090   138.3740    24.6080     2.2150   -16.0130 
  176.0000    85.2270   106.8820    93.8750   109.5140    24.6400     2.2280   -16.0030 
  176.1250    85.1250    90.9910    80.3040    83.7160    24.6470     2.2490   -15.9330 
  176.2500    83.3300    79.6930    71.1500    67.1330    24.6450     2.2710   -15.8380 
  176.3750    82.3250    73.3820    66.6770    64.0660    24.6440     2.2910   -15.7210 
  176.5000    80.3610    72.1410    66.9800    68.0390    24.6440     2.3020   -15.5760 
  176.6250    76.9080    77.1000    73.0620    79.4260    24.6440     2.3000   -15.4290 
