~V
VERS. 2.00: Ver 2.00
~W
STRT.M 59.0000:
STOP.M 291.0000:
STEP.M 0.1250:
NULL. -999.2500:
UWI. F11077:
~C
DEPT.M :
DEN.GM/CC :
GR.API :
RML.OHMM :
RI. :
RXO.OHMM :
CALI.CM :
SP.MV :
~A
# ...
  104.0000     2.2250    69.4040     9.8520     8.4940     8.3010    26.2910   -10.7710 
  104.1250     2.1930    67.3580     9.5790     8.0630     8.2180    26.4860   -11.0440 
  104.2500     2.1810    68.4420     9.7470     8.0460     8.2830    26.5570   -11.1710 
  104.3750     2.1800    71.3030    10.0480     8.2310     8.4090    26.4340   -11.2130 
  104.5000     2.1860    72.5370    10.2620     8.4110     8.4350    26.1760   -11.2380 
  104.6250     2.1980    71.3460    10.3110     8.4910     8.2600    25.8800   -11.2860 
  104.7500     2.2130    70.5980    10.1940     8.4400     8.0040    25.6260   -11.3740 
  104.8750     2.2240    71.2540     9.9640     8.2880     7.9280    25.4660   -11.4920 
  105.0000     2.2190    69.8100     9.7210     8.1100     7.9710    25.4360   -11.6150 
  105.1250     2.1870    65.8990     9.5730     7.9870     7.8510    25.5900   -11.6960 
  105.2500     2.1340    64.4020     9.6330     7.9990     7.5840    26.0100   -11.7090 
  105.3750     2.0910    66.1430     9.9420     8.1810     7.5990    26.6600   -11.6780 
  105.5000     2.0820    65.1100    10.4160     8.4870     7.9540    27.1910   -11.5890 
  105.6250     2.1160    60.9290    10.9120     8.8310     8.3820    27.1470   -11.4310 
  105.7500     2.1730    59.8920    11.2310     9.0770     8.5960    26.5650   -11.2700 
  105.8750     2.2170    64.4510    11.2380     9.1160     8.6640    26.1010   -11.1260 
  106.0000     2.2310    69.7350    10.9840     8.9610     8.7870    26.0030   -10.9760 
  106.1250     2.2160    72.2050    10.6030     8.6920     8.9550    26.0610   -10.8780 
  106.2500     2.1900    71.3290    10.2630     8.4250     9.0210    26.1290   -10.8350 
  106.3750     2.1690    68.5270    10.0710     8.2450     8.9040    26.1780   -10.7780 
  106.5000     2.1570    66.3320    10.0230     8.1690     8.7350    26.1960   -10.7060 
  106.6250     2.1540    66.2640    10.0720     8.1710     8.6170    26.1990   -10.5840 
  106.7500     2.1590    68.1930    10.1570     8.2080     8.5490    26.2300   -10.3010 
  106.8750     2.1720    70.9440    10.2270     8.2390     8.4790    26.2770    -9.8460 
  107.0000     2.1950    73.0160    10.2330     8.2300     8.3930    26.3030    -9.3140 
  107.1250     2.2250    73.9770    10.1330     8.1480     8.3020    26.3070    -8.7460 
  107.2500     2.2560    75.2030     9.9010     7.9720     8.0870    26.2650    -8.2330 
  107.3750     2.2780    78.2910     9.5680     7.7180     7.7650    26.1490    -7.8670 
  107.5000     2.2850    82.0970     9.2330     7.4520     7.5090    26.0000    -7.6770 
  107.6250     2.2800    84.0470     8.9960     7.2430     7.3810    25.8920    -7.7070 
  107.7500     2.2670    83.9710     8.9470     7.1560     7.5030    25.8150    -7.9990 
  107.8750     2.2530    82.2260     9.1130     7.2190     7.9810    25.7420    -8.5010 
  108.0000     2.2390    79.0210     9.4100     7.3950     8.4000    25.7470    -9.1080 
  108.1250     2.2220    76.4530     9.7310     7.6250     8.5750    25.9590    -9.7590 
  108.2500     2.2050    75.9500     9.9590     7.8310     8.6850    26.3350   -10.3610 
  108.3750     2.1910    74.9670    10.0450     7.9580     8.8360    26.6520   -10.8840 
  108.5000     2.1830    71.1450    10.0520     8.0120     8.9020    26.7780   -11.3310 
  108.6250     2.1790    67.3310    10.0630     8.0380     8.8510    26.8060   -11.6840 
  108.7500     2.1740    67.0000    10.1370     8.0880     8.8670    26.8890   -11.9890 
  108.8750     2.1650    69.5510    10.2690     8.1780     9.0460    27.0790   -12.2880 
  109.0000     2.1540    72.0710    10.3940     8.2790     9.0710    27.2260   -12.5630 
  109.1250     2.1490    72.4020    10.4450     8.3450     8.7740    27.1950   -12.8210 
  109.2500     2.1530    70.5250    10.3670     8.3310     8.5190    26.9910   -13.0620 
  109.3750     2.1650    68.5410    10.1690     8.2260     8.4370    26.7620   -13.2460 
  109.5000     2.1790    67.6480     9.9290     8.0750     8.3970    26.6180   -13.3710 
  109.6250     2.1880    67.2310     9.7180     7.9210     8.4170    26.4730   -13.4380 
  109.7500     2.1890    67.5950     9.5870     7.8060     8.4880    26.3110   -13.3920 
  109.8750     2.1860    69.2130     9.5410     7.7490     8.5210    26.2110   -13.2460 
  110.0000     2.1830    70.4080     9.5340     7.7350     8.4930    26.1800   -13.0710 
  110.1250     2.1830    69.4950     9.5290     7.7460     8.4410    26.1890   -12.8650 
  110.2500     2.1870    67.7090     9.5070     7.7620     8.4430    26.2180   -12.6510 
  110.3750     2.1930    67.9110     9.4710     7.7750     8.4640    26.2570   -12.4370 
  110.5000     2.1950    70.2770     9.4350     7.7830     8.4710    26.2870   -12.2210 
  110.6250     2.1910    73.0620     9.4090     7.7860     8.4870    26.3070   -12.0320 
  110.7500     2.1830    74.2530     9.4030     7.7860     8.5190    26.3190   -11.8710 
  110.8750     2.1760    73.0870     9.4100     7.7870     8.5610    26.3340   -11.7300 
  111.0000     2.1720    70.5470     9.4130     7.7850     8.6400    26.3660   -11.5910 
  111.1250     2.1720    67.8830     9.4010     7.7790     8.7430    26.4050   -11.3990 
  111.2500     2.1760    67.3750     9.3620     7.7610     8.7460    26.4280   -11.1220 
  111.3750     2.1820    70.1920     9.3020     7.7260     8.6420    26.4340   -10.7510 
  111.5000     2.1920    74.0540     9.2520     7.6890     8.5930    26.4340   -10.2560 
  111.6250     2.2070    75.2860     9.2700     7.6840     8.6190    26.4340    -9.6640 
  111.7500     2.2230    73.0510     9.4110     7.7600     8.6190    26.4330    -9.0550 
  111.8750     2.2350    71.7090     9.6730     7.9340     8.5100    26.4380    -8.4370 
  112.0000     2.2390    75.0880     9.9650     8.1630     8.4450    26.4750    -7.8220 
  112.1250     2.2370    81.2100    10.1700     8.3740     8.6440    26.5340    -7.2470 
  112.2500     2.2380    85.5600    10.1990     8.4860     8.8550    26.5150    -6.7120 
  112.3750     2.2460    86.0830    10.1160     8.5000     8.5440    26.3230    -6.2450 
  112.5000     2.2620    84.8490    10.1650     8.5450     7.9630    26.0610    -5.8530 
  112.6250     2.2890    84.1640    10.5820     8.7830     7.6730    25.9780    -5.4330 
  112.7500     2.3350    84.0980    11.4150     9.3030     7.8990    26.0520    -4.9590 
  112.8750     2.4000    83.9180    12.3510     9.9740     9.3190    26.1610    -4.5530 
  113.0000     2.4740    84.0860    12.8120    10.4080    13.3920    26.2270    -4.3320 
  113.1250     2.5290    84.6680    12.3930    10.2530    18.5980    26.2310    -4.3740 
  113.2500     2.5380    85.0130    11.1390     9.4410    18.2500    26.2070    -4.7430 
  113.3750     2.4970    84.7520     9.6010     8.3160    11.8310    26.2220    -5.4060 
  113.5000     2.4190    84.5050     8.4150     7.3530     7.3130    26.2440    -6.2530 
  113.6250     2.3250    82.2360     7.8310     6.7670     6.8920    26.1710    -7.2350 
  113.7500     2.2350    76.3610     7.8640     6.6320     7.9600    26.0020    -8.3230 
  113.8750     2.1640    70.5140     8.3640     6.9080     8.7460    25.8650    -9.4020 
  114.0000     2.1260    68.5020     9.0630     7.4300     9.0920    25.8470   -10.3040 
  114.1250     2.1360    69.2680     9.7620     8.0410     9.1720    25.8940   -10.9680 
  114.2500     2.1900    70.5760    10.3190     8.5800     9.0200    25.9150   -11.3600 
  114.3750     2.2600    72.3470    10.6790     8.9520     8.8110    25.8710   -11.5150 
  114.5000     2.3160    73.9610    10.8370     9.1370     8.7830    25.8220   -11.5990 
  114.6250     2.3370    73.1380    10.7810     9.1280     8.9230    25.8180   -11.7000 
  114.7500     2.3280    69.4550    10.5340     8.9400     9.1050    25.8350   -11.8040 
  114.8750     2.3060    66.1980    10.1840     8.6380     9.1790    25.8400   -11.8810 
  115.0000     2.2840    67.0930     9.8470     8.3200     9.0810    25.8230   -11.9250 
  115.1250     2.2630    71.2030     9.5930     8.0490     8.8540    25.7830   -11.9400 
