~V
VERS. 2.00: Ver 2.00
~W
STRT.M 50.0000:
STOP.M 229.0000:
STEP.M 0.1250:
NULL. -999.2500:
UWI. F11009:
~C
DEPT.M :
DEN.GM/CC :
GR.API :
RML.OHMM :
RI. :
RXO.OHMM :
CALI.CM :
SP.MV :
~A
# ...
  140.0000     2.4820    66.1350    20.6720    18.1240    18.6470    26.9520    -9.1930 
  140.1250     2.5120    63.6660    20.9250    18.3920    19.9610    27.0010    -9.2360 
  140.2500     2.5370    59.6040    20.8500    18.4190    20.3840    27.0220    -9.2250 
  140.3750     2.5520    57.1710    20.4480    18.1640    19.4150    27.0570    -9.1710 
  140.5000     2.5510    57.7680    19.8270    17.6830    18.2450    27.1320    -9.0740 
  140.6250     2.5390    56.8120    19.1670    17.0970    17.7710    27.2310    -8.9730 
  140.7500     2.5240    54.3870    18.6340    16.5660    17.3970    27.3360    -8.8850 
  140.8750     2.5140    55.5140    18.3040    16.1770    17.2100    27.4220    -8.8300 
  141.0000     2.5120    59.9250    18.1840    15.9660    16.8060    27.4610    -8.8100 
  141.1250     2.5160    61.7130    18.2300    15.9290    16.5190    27.4760    -8.8380 
  141.2500     2.5190    59.4830    18.2980    15.9550    16.3700    27.4770    -8.9580 
  141.3750     2.5160    58.0550    18.2780    15.9480    16.7740    27.4840    -9.1290 
  141.5000     2.5060    59.9610    18.0980    15.8290    17.2570    27.5250    -9.3510 
  141.6250     2.4980    62.1320    17.7450    15.5560    17.3090    27.6040    -9.5500 
  141.7500     2.4960    62.8000    17.3380    15.2040    16.3320    27.6610    -9.7310 
  141.8750     2.5000    64.4500    16.9890    14.8610    15.2420    27.6750    -9.8980 
  142.0000     2.5080    66.9010    16.7840    14.6120    14.5720    27.6770   -10.0480 
  142.1250     2.5140    65.3100    16.7780    14.5260    14.4330    27.7190   -10.1290 
  142.2500     2.5170    61.0920    16.9040    14.5650    14.6970    27.7980   -10.1430 
  142.3750     2.5170    59.9560    17.0940    14.6770    15.2030    27.8600   -10.1380 
  142.5000     2.5170    63.0610    17.2710    14.7910    15.7500    27.8900   -10.1550 
  142.6250     2.5160    65.2460    17.3340    14.8170    15.8610    27.8930   -10.1990 
  142.7500     2.5160    64.7790    17.2260    14.7050    15.3570    27.8950   -10.2280 
  142.8750     2.5180    64.4390    16.9090    14.4250    14.7500    27.8950   -10.2610 
  143.0000     2.5210    63.9270    16.3870    13.9720    14.1880    27.8950   -10.2810 
  143.1250     2.5230    61.6370    15.6970    13.3710    13.7740    27.8800   -10.3250 
  143.2500     2.5230    60.6410    14.9740    12.7280    13.0240    27.8410   -10.3910 
  143.3750     2.5180    63.7930    14.3160    12.1230    12.2450    27.7960   -10.4480 
  143.5000     2.5080    67.2850    13.7910    11.6190    11.6250    27.7720   -10.4820 
  143.6250     2.4960    65.1580    13.4500    11.2720    11.1600    27.7580   -10.5010 
  143.7500     2.4860    60.8480    13.2410    11.0520    11.0360    27.7500   -10.5170 
  143.8750     2.4850    59.0400    13.1110    10.9200    11.0820    27.7630   -10.5000 
  144.0000     2.4920    59.9850    12.9910    10.8180    11.1520    27.7410   -10.5010 
  144.1250     2.5030    61.4960    12.7980    10.6720    10.8720    27.7110   -10.5230 
  144.2500     2.5080    62.8030    12.5030    10.4430    10.2810    27.6850   -10.5420 
  144.3750     2.4990    64.3360    12.1160    10.1340     9.7770    27.6690   -10.5840 
  144.5000     2.4700    66.5750    11.6950     9.7850     9.3880    27.6780   -10.6210 
  144.6250     2.4240    71.0690    11.3610     9.4830     8.9300    27.6740   -10.6850 
  144.7500     2.3710    76.3330    11.2140     9.3050     8.8360    27.6740   -10.7680 
  144.8750     2.3230    80.7490    11.3130     9.3080     9.2310    27.7000   -10.8890 
  145.0000     2.2850    83.1470    11.6630     9.5170     9.7630    27.7560   -11.0230 
  145.1250     2.2630    82.6020    12.2270     9.9290    10.3060    27.8180   -11.1820 
  145.2500     2.2540    80.0980    12.8630    10.4370    11.0320    27.9010   -11.3880 
  145.3750     2.2560    77.0570    13.4790    10.9570    11.8330    27.9820   -11.6310 
  145.5000     2.2640    76.6350    14.0190    11.4220    12.5290    28.0290   -11.9090 
  145.6250     2.2720    79.5420    14.4670    11.7930    12.8950    27.9820   -12.1910 
  145.7500     2.2760    81.5050    14.8820    12.1090    12.8930    27.9280   -12.4530 
  145.8750     2.2750    80.3440    15.3240    12.4240    13.3800    27.9490   -12.6640 
  146.0000     2.2710    76.8460    15.8370    12.7920    14.6060    28.0740   -12.8520 
  146.1250     2.2660    74.2090    16.4260    13.2530    16.2470    28.1320   -13.0200 
  146.2500     2.2590    72.4250    17.0030    13.7590    16.1090    28.1230   -13.1190 
  146.3750     2.2510    72.0660    17.4560    14.2300    16.0130    28.1300   -13.1380 
  146.5000     2.2430    73.3270    17.6740    14.5790    16.8700    28.1990   -13.0910 
  146.6250     2.2360    74.7690    17.5410    14.7010    18.4100    28.2740   -13.0310 
  146.7500     2.2330    75.6170    17.1320    14.6260    18.6810    28.1990   -12.9970 
  146.8750     2.2340    75.9140    16.5440    14.4070    16.9230    28.0150   -13.0090 
  147.0000     2.2380    74.3230    15.9050    14.1330    14.9070    27.8100   -13.0090 
  147.1250     2.2440    71.2860    15.3570    13.9160    14.2120    27.6180   -12.9670 
  147.2500     2.2490    72.4480    14.9420    13.8160    13.7110    27.4410   -12.9090 
  147.3750     2.2490    77.6560    14.6180    13.8160    13.2660    27.3250   -12.8410 
  147.5000     2.2430    81.3010    14.2720    13.8130    12.8660    27.2590   -12.7580 
  147.6250     2.2310    80.2760    13.6990    13.5780    12.5610    27.2420   -12.6060 
  147.7500     2.2200    78.5970    12.8020    12.9570    12.2390    27.1840   -12.4120 
  147.8750     2.2150    79.2990    11.5760    11.9000    11.5480    27.0890   -12.2050 
  148.0000     2.2220    81.0220    10.1390    10.5060    10.3270    27.0000   -12.0290 
  148.1250     2.2420    84.3910     8.7250     9.0020     8.5000    26.9850   -11.9000 
  148.2500     2.2660    89.1400     7.5430     7.6520     6.8710    27.0200   -11.8150 
  148.3750     2.2870    93.7450     6.6900     6.5910     5.6900    27.0670   -11.8150 
  148.5000     2.3000    94.9020     6.1840     5.8680     5.2120    27.1350   -11.8900 
  148.6250     2.3070    91.7330     6.0580     5.5330     5.2340    27.2810   -12.0870 
  148.7500     2.3110    88.5870     6.2840     5.5270     5.5270    27.4560   -12.3710 
  148.8750     2.3140    88.7720     6.9870     5.9000     6.1350    27.6560   -12.7500 
  149.0000     2.3150    89.8760     8.4530     6.7990     7.3740    27.8940   -13.2420 
  149.1250     2.3100    86.1230    11.5610     8.8300    10.5520    28.1510   -13.9160 
  149.2500     2.2970    78.8730    17.0790    12.7480    17.1660    28.4570   -14.7380 
  149.3750     2.2780    72.1130    26.1130    19.8610    28.6000    28.8950   -15.6030 
  149.5000     2.2560    67.6620    39.7300    31.6690    51.5270    29.4650   -16.5300 
  149.6250     2.2380    64.9450    58.9520    49.8430    81.2350    29.8970   -17.4860 
  149.7500     2.2270    64.0590    82.1740    71.9270    99.7830    30.3350   -18.4600 
  149.8750     2.2290    66.2490   107.8170    94.8130   108.3820    30.8220   -19.4160 
  150.0000     2.2480    68.7940   133.6360   115.8660   119.4920    31.2680   -20.3020 
  150.1250     2.2810    69.3690   158.1020   134.7410   121.5620    31.5430   -21.0720 
  150.2500     2.3140    68.2340   182.9420   154.0940   127.7370    31.8420   -21.6940 
  150.3750     2.3360    65.4710   210.3920   175.6740   145.8890    32.2740   -22.2180 
  150.5000     2.3410    61.0560   240.3350   199.2760   176.1680    32.7640   -22.6530 
  150.6250     2.3320    57.3720   268.0150   221.8000   222.7820    33.1660   -23.0330 
  150.7500     2.3180    56.5980   287.6800   239.0020   256.3950    33.4270   -23.3600 
  150.8750     2.3060    55.3320   295.4290   247.6750   255.0100    33.5590   -23.6020 
  151.0000     2.2950    53.0070   290.7750   246.7870   216.4720    33.6010   -23.8220 
  151.1250     2.2880    53.8650   275.9340   237.0550   193.4240    33.6040   -23.9720 
