~V
VERS. 2.00: Ver 2.00
~W
STRT.M 62.0000:
STOP.M 236.0000:
STEP.M 0.1250:
NULL. -999.2500:
UWI. F11006:
~C
DEPT.M :
GR.API :
RML.OHMM :
RI. :
RXO.OHMM :
CALI.CM :
SP.MV :
DEN.GM/CC :
~A
# ...
  118.2500    82.0940     8.6610     7.5860     8.8090    23.3370   -22.2450     2.1870 
  118.3750    78.6260     8.5970     7.5660     8.7010    23.2870   -21.8300     2.1770 
  118.5000    76.1560     8.3850     7.4390     8.5200    23.2440   -21.2290     2.1790 
  118.6250    77.3370     7.9330     7.1160     8.2410    23.1910   -20.3850     2.1940 
  118.7500    83.2240     7.3150     6.6350     7.5330    23.1210   -19.3390     2.2130 
  118.8750    92.5650     6.6330     6.0700     6.6450    23.2200   -18.1530     2.2300 
  119.0000   100.6120     6.0060     5.5160     6.0420    23.6420   -16.9160     2.2430 
  119.1250   102.4840     5.5540     5.0780     5.8270    24.1690   -15.6970     2.2540 
  119.2500   100.2410     5.2850     4.7840     5.2940    24.4930   -14.5770     2.2680 
  119.3750    98.1110     5.1770     4.6320     4.8600    24.6140   -13.5970     2.2820 
  119.5000    96.7250     5.1770     4.5930     4.6820    24.6200   -12.8150     2.2940 
  119.6250    95.8910     5.2200     4.6250     4.8170    24.6300   -12.3050     2.2960 
  119.7500    95.9390     5.2480     4.6690     5.1170    24.6280   -11.9820     2.2930 
  119.8750    96.6950     5.2510     4.6980     5.2320    24.6650   -11.7450     2.2930 
  120.0000    97.0000     5.2470     4.7080     5.1720    24.7100   -11.5460     2.2980 
  120.1250    96.5680     5.2700     4.7130     4.9210    24.6900   -11.4230     2.3090 
  120.2500    98.3410     5.3270     4.7290     4.8660    24.4930   -11.3830     2.3180 
  120.3750   101.4550     5.4060     4.7590     5.1010    24.0730   -11.4340     2.3180 
  120.5000   102.9630     5.4850     4.7920     5.4830    23.6710   -11.5520     2.3130 
  120.6250   100.3610     5.5490     4.8130     5.7360    23.4860   -11.7350     2.3080 
  120.7500    96.5230     5.6220     4.8290     5.7020    23.4380   -12.0230     2.3050 
  120.8750    96.2040     5.7470     4.8730     5.6250    23.4120   -12.4510     2.3030 
  121.0000    99.2940     5.9650     4.9830     5.6250    23.3050   -12.9620     2.2970 
  121.1250    99.1020     6.2960     5.1940     5.7160    23.0830   -13.5410     2.2900 
  121.2500    93.2490     6.6810     5.4700     6.4040    22.8260   -14.1510     2.2940 
  121.3750    86.4480     7.0780     5.7740     7.9570    22.6360   -14.7180     2.3150 
  121.5000    83.7200     7.4870     6.0940    10.0310    22.6220   -15.2310     2.3470 
  121.6250    83.3820     8.0080     6.4820    11.1310    22.6830   -15.7210     2.3760 
  121.7500    81.1260     8.7360     7.0150    10.0050    22.7450   -16.1540     2.3970 
  121.8750    78.0110     9.6940     7.7450     9.1770    22.7510   -16.4900     2.4180 
  122.0000    76.7180    10.7590     8.6370    10.7180    22.7630   -16.7630     2.4450 
  122.1250    76.2590    11.5760     9.4750    16.4790    22.8450   -16.9560     2.4720 
  122.2500    76.3280    11.8450     9.9720    20.3310    22.8620   -17.0890     2.4730 
  122.3750    77.9060    11.4690     9.9580    17.8480    22.7350   -17.2420     2.4340 
  122.5000    80.2020    10.6180     9.4730    12.5290    22.5180   -17.4230     2.3610 
  122.6250    80.3030     9.6600     8.7450    10.0630    22.3940   -17.6050     2.2800 
  122.7500    78.8520     8.9390     8.0990     9.1780    22.3650   -17.7720     2.2210 
  122.8750    77.8840     8.5660     7.6860     8.9990    22.3840   -17.8910     2.1940 
  123.0000    77.5500     8.5150     7.5450     8.9270    22.4240   -17.8910     2.1920 
  123.1250    77.3090     8.6740     7.6490     8.6920    22.5600   -17.7350     2.2050 
  123.2500    77.8120     8.8120     7.8170     8.4810    22.7290   -17.4580     2.2260 
  123.3750    79.2640     8.7490     7.8780     8.5690    22.8520   -17.0460     2.2530 
  123.5000    82.3650     8.3700     7.6840     9.0500    22.9640   -16.5000     2.2860 
  123.6250    88.1680     7.6520     7.1430     8.8050    23.1730   -15.7870     2.3180 
  123.7500    95.0180     6.8290     6.4190     7.2880    23.4810   -15.0160     2.3390 
  123.8750   100.7190     6.1080     5.6900     5.5610    23.7790   -14.2980     2.3460 
  124.0000   105.4650     5.6370     5.1070     4.9480    23.9730   -13.7120     2.3380 
  124.1250   107.3410     5.4890     4.7840     5.0060    23.9850   -13.3000     2.3210 
  124.2500   102.5890     5.5280     4.6600     5.1920    23.9530   -13.0140     2.3040 
  124.3750    94.4980     5.6370     4.6680     5.5710    23.8940   -12.8470     2.2910 
  124.5000    90.8960     5.7360     4.7420     5.9530    23.8260   -12.8020     2.2860 
  124.6250    96.5990     5.8420     4.8680     5.9480    23.7500   -12.8740     2.2920 
  124.7500   104.2670     6.0790     5.0870     5.6620    23.6970   -12.9720     2.3040 
  124.8750   109.3090     6.5900     5.4890     5.1200    23.6270   -13.0260     2.3210 
  125.0000   108.0480     7.4630     6.1630     6.3260    23.5300   -12.9880     2.3470 
  125.1250    98.9850     8.6820     7.1850    14.3830    23.4670   -12.8630     2.3860 
  125.2500    89.5750     9.9180     8.3630    17.2430    23.4430   -12.7190     2.4340 
  125.3750    85.0910    10.7930     9.3950    14.6620    23.4320   -12.5840     2.4780 
  125.5000    85.7370    10.9870     9.9270    11.5060    23.3590   -12.4690     2.5030 
  125.6250    89.5130    10.3000     9.6330    12.3170    23.2460   -12.3890     2.4930 
  125.7500    92.3130     9.1590     8.7610    12.0540    23.2040   -12.3050     2.4580 
  125.8750    93.4140     7.9750     7.6240     8.7080    23.1740   -12.2460     2.4130 
  126.0000    95.4830     7.0050     6.5160     6.3120    23.0690   -12.2700     2.3760 
  126.1250   102.1260     6.3140     5.6490     5.6060    23.0780   -12.3840     2.3550 
  126.2500   109.8950     5.8150     5.0270     5.4530    23.2600   -12.5360     2.3460 
  126.3750   113.7690     5.5270     4.6410     5.1420    23.5670   -12.6740     2.3420 
  126.5000   111.0520     5.5030     4.4860     4.9290    23.8960   -12.7890     2.3410 
  126.6250   103.3030     5.8580     4.6340     5.4520    24.1150   -12.9030     2.3440 
  126.7500    96.8720     6.6430     5.1080     6.1180    24.2660   -13.0840     2.3480 
  126.8750    94.1270     7.9370     5.9890     6.7340    24.2070   -13.3420     2.3420 
  127.0000    92.5200     9.7470     7.3390     8.2390    23.9810   -13.6480     2.3180 
  127.1250    88.8650    11.9600     9.2010    11.9660    23.8890   -13.9620     2.2710 
  127.2500    84.9960    14.1630    11.2940    15.2670    24.1330   -14.2950     2.2170 
  127.3750    82.0190    16.0080    13.3050    16.6680    24.4630   -14.6430     2.1690 
  127.5000    78.4170    17.3010    14.9440    17.6110    24.6700   -14.9620     2.1360 
  127.6250    73.5480    18.1110    16.0670    20.9070    24.7260   -15.2070     2.1210 
  127.7500    71.0840    18.9200    16.9930    22.6940    24.7380   -15.3300     2.1170 
  127.8750    72.7720    20.0650    18.0520    23.1210    24.7380   -15.3140     2.1180 
  128.0000    74.3980    21.5860    19.4210    23.8360    24.7380   -15.1670     2.1200 
  128.1250    71.7520    22.9050    20.7960    25.5770    24.7380   -14.9220     2.1210 
  128.2500    69.1600    23.0840    21.3490    27.9760    24.7380   -14.5930     2.1230 
  128.3750    71.2190    21.4580    20.3500    29.8300    24.7380   -14.1830     2.1290 
  128.5000    76.7790    18.0960    17.6760    28.5910    24.7090   -13.7120     2.1440 
  128.6250    82.6510    13.9000    13.9880    17.2150    24.5160   -13.2070     2.1740 
  128.7500    88.6370    10.2000    10.5380     9.2110    24.1180   -12.7670     2.2140 
  128.8750    95.8320     7.5580     7.9040     6.1140    23.7160   -12.4270     2.2560 
  129.0000   105.2180     5.9920     6.1900     5.0820    23.5110   -12.1870     2.2890 
  129.1250   114.6040     5.3280     5.3240     4.7550    23.4550   -12.0350     2.3090 
  129.2500   119.4010     5.1270     4.9530     4.7420    23.4250   -11.9270     2.3190 
  129.3750   118.6620     5.2060     4.9180     4.7600    23.4190   -11.8580     2.3240 
