~V
VERS. 2.00: Ver 2.00
~W
STRT.M 57.0000:
STOP.M 272.0000:
STEP.M 0.1250:
NULL. -999.2500:
UWI. F11045:
~C
DEPT.M :
DEN.GM/CC :
GR.API :
RML.OHMM :
RI. :
RXO.OHMM :
CALI.CM :
SP.MV :
~A
# ...
  259.5000     2.4010    70.9480    11.1630    10.2700    10.7080    24.2030     7.3300 
  259.6250     2.4170    70.5400    10.9630    10.0700    10.8110    24.1630     7.3440 
  259.7500     2.4230    70.0690    10.8320     9.9280    10.8230    24.1660     7.3060 
  259.8750     2.4260    68.5860    10.7250     9.8250    10.7990    24.1530     7.2360 
  260.0000     2.4280    67.9410    10.5930     9.7280    10.7250    24.1340     7.1780 
  260.1250     2.4320    70.4450    10.4290     9.6160    10.5660    24.1280     7.1110 
  260.2500     2.4350    71.6770    10.2720     9.5060    10.5220    24.1170     7.0070 
  260.3750     2.4330    69.7830    10.1810     9.4370    10.5990    24.1430     6.8800 
  260.5000     2.4270    68.1710    10.2160     9.4560    10.5180    24.1770     6.7320 
  260.6250     2.4190    68.9320    10.4280     9.6280    10.1240    24.1610     6.6010 
  260.7500     2.4160    68.6610    10.7540     9.9350     9.7310    24.1840     6.5550 
  260.8750     2.4230    66.6130    11.1240    10.3200     9.9080    24.2470     6.5690 
  261.0000     2.4360    65.8130    11.4490    10.6870    10.3320    24.3290     6.5730 
  261.1250     2.4480    67.3570    11.6060    10.8890    10.6230    24.3540     6.5410 
  261.2500     2.4600    67.3570    11.5610    10.8760    10.7750    24.3820     6.5090 
  261.3750     2.4720    67.3570    11.3360    10.6620    10.9540    24.3890     6.4910 
  261.5000     2.4820    67.3570    11.0150    10.3360    11.1620    24.3980     6.4820 
  261.6250     2.4850    67.3570    10.7170    10.0200    11.1480    24.3930     6.4530 
  261.7500     2.4850    67.3570    10.5200     9.7900    10.8080    24.3540     6.3450 
  261.8750     2.4870    67.3570    10.4300     9.6540    10.4250    24.2590     6.1950 
  262.0000     2.4890    67.3570    10.4080     9.5800    10.3700    24.1660     6.0670 
  262.1250     2.4900    67.3570    10.3780     9.5080    10.5750    24.1340     6.0210 
  262.2500     2.4890    67.3570    10.2810     9.3890    10.6950    24.1490     6.0030 
  262.3750     2.4770    67.3570    10.1070     9.2110    10.5390    24.1890     5.9750 
  262.5000     2.4530    67.3570     9.8910     8.9890    10.0510    24.2170     5.9570 
  262.6250     2.4310    67.3570     9.6760     8.7520     9.7280    24.2400     5.9780 
  262.7500     2.4270    67.3570     9.4780     8.5380     9.6830    24.2770     6.0360 
  262.8750     2.4350    67.3570     9.2880     8.3690     9.9700    24.2600     6.1220 
  263.0000     2.4430    67.3570     9.1080     8.2540    10.0430    24.1910     6.1770 
  263.1250     2.4410    67.3570     8.9900     8.2000    10.7170    24.1860     6.1890 
  263.2500     2.4340    67.3570     8.9890     8.1950    11.5150    24.2550     6.2320 
  263.3750     2.4200    67.3570     9.1060     8.2390    11.1160    24.3160     6.3060 
  263.5000     2.3990    67.3570     9.2800     8.3260    10.1080    24.3080     6.3780 
  263.6250     2.3780    67.3570     9.3960     8.4390     9.6780    24.2330     6.4010 
  263.7500     2.3670    67.3570     9.4230     8.5400     9.1730    24.2180     6.4180 
  263.8750     2.3680    67.3570     9.3920     8.5980     8.5810    24.2350     6.3840 
  264.0000     2.3800    67.3570     9.3370     8.5910     7.9940    24.2470     6.3350 
  264.1250     2.4010    67.3570     9.2570     8.4980     7.7530    24.2650     6.3450 
  264.2500     2.4260    67.3570     9.1460     8.3460     7.7980    24.3040     6.3570 
  264.3750     2.4440    67.3570     9.0080     8.1650     8.1080    24.3370     6.3230 
  264.5000     2.4480    67.3570     8.8700     7.9760     8.6680    24.3670     6.2260 
  264.6250     2.4440    67.3570     8.7560     7.7950     8.6890    24.3560     6.1250 
  264.7500     2.4400    67.3570     8.6630     7.6240     8.2200    24.3440     6.0360 
  264.8750     2.4350    67.3570     8.5670     7.4670     7.8110    24.3530     6.0490 
  265.0000     2.4260    67.3570     8.4480     7.3310     7.5290    24.3560     6.1650 
  265.1250     2.4170    67.3570     8.3030     7.2250     7.1620    24.3320     6.2180 
  265.2500     2.4100    67.3570     8.1500     7.1400     6.9820    24.3180     6.2500 
  265.3750     2.4030    67.3570     8.0070     7.0670     7.0390    24.2850     6.3460 
  265.5000     2.4020    67.3570     7.9000     7.0030     7.3210    24.2580     6.5250 
  265.6250     2.4110    67.3570     7.8490     6.9460     7.5460    24.2480     6.6940 
  265.7500     2.4240    67.3570     7.8320     6.8900     7.9540    24.2640     6.8570 
  265.8750     2.4300    67.3570     7.8280     6.8380     8.2850    24.2920     6.9470 
  266.0000     2.4280    67.3570     7.8180     6.7920     8.3270    24.3030     6.9460 
  266.1250     2.4210    67.3570     7.7930     6.7620     7.7470    24.2240     6.9470 
  266.2500     2.4120    67.3570     7.7590     6.7460     7.5060    24.1450     6.8480 
  266.3750     2.4040    67.3570     7.7200     6.7420     7.4620    24.1070     6.5520 
  266.5000     2.4000    67.3570     7.6700     6.7430     7.5080    24.0980     6.2190 
  266.6250     2.4010    67.3570     7.6020     6.7440     7.6160    24.0980     5.8810 
  266.7500     2.4050    67.3570     7.5280     6.7440     7.6170    24.1040     5.5180 
  266.8750     2.4110    67.3570     7.4550     6.7440     7.6240    24.1040     5.2000 
  267.0000     2.4190    67.3570     7.3970     6.7430     7.7020    24.0980     4.8520 
  267.1250     2.4280    67.3570     7.3970     6.7430     7.9620    24.0920     4.5330 
  267.2500     2.4350    67.3570     7.3970     6.7430     8.5620    24.0710     4.3820 
  267.3750     2.4400    67.3570     7.3970     6.7430     9.1040    24.0580     4.3820 
  267.5000     2.4430    67.3570     7.3970     6.7430     9.3190    24.0810     4.3820 
  267.6250     2.4430    67.3570     7.3970     6.7430     9.4070    24.0770  -999.2500 
  267.7500     2.4440    67.3570     7.3970     6.7430     9.0260    24.0240  -999.2500 
  267.8750     2.4430    67.3570     7.3970     6.7430     8.0780    23.9520  -999.2500 
  268.0000     2.4370    67.3570     7.3970     6.7430     7.3340    23.9030  -999.2500 
  268.1250     2.4280    67.3570     7.3970     6.7430     7.7160    23.9250  -999.2500 
  268.2500     2.4250    67.3570     7.3970     6.7430     8.6610    23.9270  -999.2500 
  268.3750     2.4290    67.3570     7.3970     6.7430     9.0860    23.9300  -999.2500 
  268.5000     2.4320    67.3570     7.3970     6.7430     8.6500    23.9210  -999.2500 
  268.6250     2.4280    67.3570     7.3970     6.7430     7.8490    23.8770  -999.2500 
  268.7500     2.4200    67.3570     7.3970     6.7430     7.1760    23.8440  -999.2500 
  268.8750     2.4140    67.3570     7.3970     6.7430     6.8620    23.8230  -999.2500 
  269.0000     2.4130    67.3570     7.3970     6.7430     6.8600    23.8100  -999.2500 
  269.1250     2.4170    67.3570     7.3970     6.7430     6.6960    23.7770  -999.2500 
  269.2500     2.4200    67.3570     7.3970     6.7430     6.6130    23.7350  -999.2500 
  269.3750     2.4190    67.3570     7.3970     6.7430     6.6660    23.6830  -999.2500 
  269.5000     2.4200    67.3570     7.3970     6.7430     6.8050    23.6560  -999.2500 
  269.6250     2.4240    67.3570     7.3970     6.7430     7.1400    23.6150  -999.2500 
  269.7500     2.4280    67.3570     7.3970     6.7430     7.4090    23.5480  -999.2500 
  269.8750     2.4290    67.3570     7.3970     6.7430     7.5070    23.4500  -999.2500 
  270.0000     2.4280    67.3570     7.3970     6.7430     7.3360    23.3260  -999.2500 
  270.1250     2.4290    67.3570     7.3970     6.7430     6.7670    23.1000  -999.2500 
  270.2500     2.4330    67.3570     7.3970     6.7430     6.4250    22.6970  -999.2500 
  270.3750     2.4370    67.3570     7.3970     6.7430     6.0890    21.7050  -999.2500 
  270.5000     2.4390    67.3570     7.3970     6.7430     5.6560    19.7990  -999.2500 
  270.6250     2.4360    67.3570     7.3970     6.7430     5.3450    17.8070  -999.2500 
