~V
VERS. 2.00: Ver 2.00
~W
STRT.M 59.0000:
STOP.M 230.0000:
STEP.M 0.1250:
NULL. -999.2500:
UWI. F11001:
~C
DEPT.M :
GR.API :
RML.OHMM :
RI. :
RXO.OHMM :
CALI.CM :
SP.MV :
DEN.GM/CC :
~A
# ...
  205.2500    91.5620    13.7660    10.9340    11.3550    24.4940    -1.2930     2.4530 
  205.3750    90.6190    13.7600    10.9730    11.8330    24.5870    -1.2420     2.4110 
  205.5000    88.3000    13.6280    10.9240    11.9820    24.6360    -1.2070     2.3770 
  205.6250    86.9320    13.3790    10.7820    10.9150    24.5950    -1.2070     2.3590 
  205.7500    86.8220    13.0490    10.5620     9.5750    24.4550    -1.2290     2.3600 
  205.8750    87.8100    12.7210    10.3280     8.9290    24.2620    -1.2640     2.3680 
  206.0000    89.8620    12.4670    10.1320     9.3700    24.1290    -1.2450     2.3750 
  206.1250    92.6420    12.3370    10.0190     9.8790    24.1700    -1.1760     2.3790 
  206.2500    93.7380    12.3670    10.0320    10.1420    24.4180    -1.0100     2.3860 
  206.3750    92.8150    12.4970    10.1420    10.3400    24.6280    -0.7590     2.4010 
  206.5000    91.8240    12.6690    10.3100    10.6360    24.7140    -0.4870     2.4220 
  206.6250    91.9100    12.8240    10.4850    10.6980    24.6820    -0.2160     2.4430 
  206.7500    92.5350    12.9040    10.6010    10.8960    24.6770     0.0130     2.4550 
  206.8750    92.0870    12.9120    10.6440    10.8340    24.7340     0.1820     2.4560 
  207.0000    89.7730    12.8760    10.6360    10.7060    24.7870     0.3260     2.4500 
  207.1250    86.6900    12.8480    10.6260    10.6720    24.8900     0.4940     2.4420 
  207.2500    86.2070    12.8990    10.6800    10.5010    24.8840     0.6430     2.4380 
  207.3750    88.0010    13.0480    10.8210    10.3610    24.8210     0.8030     2.4410 
  207.5000    89.3750    13.2780    11.0450    10.7040    24.7980     0.9770     2.4500 
  207.6250    89.8820    13.5340    11.3180    11.0780    24.7990     1.1640     2.4630 
  207.7500    91.4680    13.7260    11.5680    11.3250    24.7970     1.4370     2.4760 
  207.8750    92.9380    13.8110    11.7330    11.8490    24.8020     1.7400     2.4890 
  208.0000    92.5700    13.7900    11.7920    12.7530    24.8160     2.0470     2.5010 
  208.1250    91.3700    13.7100    11.7710    13.6020    24.7930     2.3150     2.5110 
  208.2500    91.0980    13.6480    11.7400    13.4560    24.7180     2.4950     2.5180 
  208.3750    92.5720    13.6490    11.7660    12.9800    24.6630     2.6370     2.5220 
  208.5000    96.5460    13.7120    11.8650    12.9630    24.6260     2.7360     2.5210 
  208.6250   100.4620    13.8000    12.0100    13.4370    24.5590     2.8340     2.5130 
  208.7500    98.9240    13.8660    12.1480    13.1080    24.4900     2.8450     2.4970 
  208.8750    93.9390    13.9040    12.2570    12.8280    24.5620     2.8260     2.4810 
  209.0000    91.2240    13.9430    12.3620    13.1520    24.7250     2.7880     2.4750 
  209.1250    93.1310    14.0330    12.5090    13.4790    24.7820     2.7530     2.4850 
  209.2500    96.8010    14.2070    12.7360    13.3660    24.7200     2.7290     2.5020 
  209.3750    99.3510    14.4010    12.9880    13.2070    24.6050     2.6460     2.5120 
  209.5000    97.2060    14.5090    13.1630    12.9090    24.5470     2.5190     2.5020 
  209.6250    90.4660    14.4130    13.1420    12.8520    24.5350     2.3550     2.4730 
  209.7500    87.7290    14.0180    12.8240    13.1320    24.5890     2.1930     2.4380 
  209.8750    92.1120    13.4440    12.3220    13.2320    24.5280     2.0770     2.4120 
  210.0000    97.0010    12.8430    11.7810    12.3520    24.3720     1.9760     2.4030 
  210.1250    94.5180    12.3770    11.3460    11.4280    24.2240     1.8650     2.4110 
  210.2500    88.5070    12.1900    11.1530    10.1820    24.2150     1.7590     2.4300 
  210.3750    86.5960    12.2410    11.1770     9.0740    24.3850     1.7030     2.4470 
  210.5000    90.3770    12.4560    11.3670     8.7590    24.5380     1.6710     2.4580 
  210.6250    97.2540    12.7320    11.6330     9.1640    24.6270     1.6790     2.4600 
  210.7500   100.7920    12.9580    11.8670     9.8190    24.6130     1.7140     2.4540 
  210.8750   101.0790    13.0780    11.9980    10.3500    24.5870     1.7340     2.4470 
  211.0000   101.4540    13.0860    12.0140    10.9110    24.6280     1.7680     2.4410 
  211.1250   100.7790    13.0030    11.9380    11.4060    24.7110     1.7890     2.4430 
  211.2500    98.0240    12.8660    11.8100    11.7010    24.7110     1.8380     2.4560 
  211.3750    95.3280    12.7300    11.6790    12.1070    24.6770     1.8800     2.4740 
  211.5000    94.9890    12.6350    11.5750    12.6040    24.5560     1.9370     2.4860 
  211.6250    95.6520    12.6250    11.5280    13.3340    24.3780     1.9640     2.4810 
  211.7500    94.5590    12.7750    11.6120    13.5120    24.3140     1.9850     2.4520 
  211.8750    94.5850    13.1080    11.8740    13.0300    24.3800     2.0160     2.4130 
  212.0000    96.4530    13.6300    12.3380    12.8400    24.4820     2.0570     2.3820 
  212.1250    97.8230    14.2950    12.9760    13.6890    24.4290     2.1270     2.3770 
  212.2500    96.3720    14.9770    13.6820    16.2600    24.3360     2.2110     2.4050 
  212.3750    92.9530    15.5050    14.2710    20.4180    24.4020     2.3040     2.4460 
  212.5000    92.1820    15.7540    14.5920    23.7890    24.6030     2.4070     2.4860 
  212.6250    94.7710    15.6800    14.5660    21.6120    24.7010     2.5140     2.5120 
  212.7500    97.2940    15.3190    14.2070    19.3260    24.6640     2.6470     2.5200 
  212.8750    98.4580    14.8750    13.7230    18.4320    24.5940     2.7800     2.5200 
  213.0000    98.6950    14.4950    13.2690    17.5020    24.6120     2.8930     2.5160 
  213.1250    97.7420    14.2710    12.9510    15.7890    24.6480     2.9860     2.5110 
  213.2500    94.2770    14.2480    12.8400    14.2980    24.6970     3.1050     2.5080 
  213.3750    91.0380    14.3450    12.8800    13.8650    24.7380     3.2260     2.5070 
  213.5000    90.7640    14.4960    13.0150    13.8220    24.7390     3.3670     2.5120 
  213.6250    91.7770    14.6440    13.1940    13.6100    24.7160     3.5380     2.5190 
  213.7500    90.2030    14.7480    13.3620    13.7500    24.7450     3.6580     2.5210 
  213.8750    86.6550    14.7960    13.4810    13.7150    24.7730     3.7910     2.5140 
  214.0000    84.4950    14.7820    13.5320    13.4130    24.7830     3.8990     2.4980 
  214.1250    84.4710    14.7030    13.5030    12.8980    24.7760     4.0040     2.4810 
  214.2500    85.2480    14.5580    13.3890    12.7760    24.7900     4.0660     2.4710 
  214.3750    84.9800    14.3880    13.2310    13.0900    24.8190     4.1120     2.4690 
  214.5000    84.8210    14.2290    13.0620    13.0340    24.8250     4.1230     2.4740 
  214.6250    85.4510    14.1060    12.9120    12.1830    24.7910     4.0810     2.4810 
  214.7500    85.5030    14.0290    12.7990    11.7950    24.8070     4.0280     2.4890 
  214.8750    83.7210    13.9740    12.7080    11.9580    24.8420     3.9380     2.4980 
  215.0000    81.1720    13.9220    12.6220    12.1820    24.8230     3.8440     2.5110 
  215.1250    82.0940    13.8640    12.5290    11.9360    24.7710     3.7620     2.5260 
  215.2500    87.9510    13.7970    12.4230    11.3410    24.7740     3.6860     2.5320 
  215.3750    92.4180    13.7280    12.3110    10.4420    24.7450     3.6060     2.5210 
  215.5000    91.4110    13.6620    12.2040     9.8830    24.6390     3.4970     2.4890 
  215.6250    88.0060    13.6120    12.1150     9.9950    24.5590     3.3980     2.4450 
  215.7500    88.0180    13.6020    12.0700    10.9310    24.6100     3.3310     2.4090 
  215.8750    90.4330    13.6510    12.0820    11.8130    24.7360     3.2910     2.3960 
  216.0000    92.0340    13.7750    12.1610    13.3140    24.8610     3.2460     2.4050 
  216.1250    91.5160    13.9790    12.3110    16.3450    24.9760     3.1910     2.4240 
  216.2500    91.9950    14.2540    12.5320    21.3600    24.9610     3.0870     2.4350 
  216.3750    93.2580    14.5420    12.7790    26.5270    24.8560     2.9760     2.4350 
