~V
VERS. 2.00: Ver 2.00
~W
STRT.M 62.0000:
STOP.M 273.0000:
STEP.M 0.1250:
NULL. -999.2500:
UWI. F11050:
~C
DEPT.M :
SP.MV :
GR.API :
RML.OHMM :
RI. :
RXO.OHMM :
CALI.CM :
DEN.GM/CC :
~A
# ...
  107.0000   -21.1910    68.4540    10.4260     7.8520    10.8450    23.9200     2.1910 
  107.1250   -21.2500    65.1680    10.5580     7.9630    10.8870    23.9110     2.1940 
  107.2500   -21.2900    63.1400    10.6510     8.0430    10.9170    23.9110     2.1920 
  107.3750   -21.3260    63.4000    10.6950     8.0930    11.0290    23.9210     2.1830 
  107.5000   -21.4380    63.9490    10.6880     8.1140    11.1230    23.9360     2.1750 
  107.6250   -21.4410    61.9590    10.6280     8.1010    11.1310    23.9180     2.1750 
  107.7500   -21.4650    60.0100    10.5440     8.0600    11.0860    23.8980     2.1800 
  107.8750   -21.4560    59.4120    10.4730     8.0010    10.9700    23.8650     2.1860 
  108.0000   -21.4480    60.0020    10.4480     7.9460    10.7600    23.7970     2.1920 
  108.1250   -21.4300    61.8940    10.4870     7.9260    10.6450    23.7680     2.1990 
  108.2500   -21.3980    64.1260    10.5600     7.9520    10.7880    23.7800     2.2070 
  108.3750   -21.3600    65.5610    10.6310     8.0150    11.8620    23.8190     2.2150 
  108.5000   -21.2250    65.3040    10.6710     8.0850    13.8520    23.8430     2.2220 
  108.6250   -21.1530    64.1830    10.6530     8.1250    14.2030    23.8440     2.2240 
  108.7500   -21.0320    63.6600    10.5890     8.1230    11.8440    23.8530     2.2240 
  108.8750   -20.9060    63.6590    10.4960     8.0860    10.6140    23.8870     2.2230 
  109.0000   -20.7770    63.4520    10.3960     8.0310    10.3700    23.9120     2.2180 
  109.1250   -20.6150    62.2370    10.3180     7.9710    10.3340    23.9030     2.2130 
  109.2500   -20.4740    61.0830    10.2660     7.9170    10.2180    23.8670     2.2080 
  109.3750   -20.2910    61.4950    10.2260     7.8700    10.0890    23.8040     2.2040 
  109.5000   -20.1890    62.4650    10.1800     7.8330     9.8390    23.7570     2.1980 
  109.6250   -20.0230    61.6430    10.1220     7.8180     9.5060    23.7130     2.1880 
  109.7500   -19.8760    59.5150    10.0700     7.8320     9.3860    23.7180     2.1780 
  109.8750   -19.7560    58.2670    10.0550     7.8810     9.5890    23.7680     2.1700 
  110.0000   -19.6000    59.6850    10.1010     7.9650     9.9380    23.7960     2.1630 
  110.1250   -19.5030    63.3480    10.2230     8.0770    10.2890    23.7780     2.1600 
  110.2500   -19.3700    66.1070    10.3810     8.1920    10.7630    23.7660     2.1620 
  110.3750   -19.2910    66.0620    10.5130     8.2810    11.3550    23.7760     2.1710 
  110.5000   -19.1390    64.9330    10.5280     8.2890    11.5800    23.7660     2.1870 
  110.6250   -19.0140    65.1920    10.2870     8.1220    11.5700    23.8100     2.2100 
  110.7500   -18.8880    65.5580     9.8190     7.7880    11.4390    23.8380     2.2380 
  110.8750   -18.7160    65.4610     9.2390     7.3650    10.8220    23.8990     2.2650 
  111.0000   -18.5750    67.8190     8.7300     6.9770     9.3500    24.0460     2.2850 
  111.1250   -18.4080    74.5730     8.5230     6.7860     8.0260    24.1940     2.2960 
  111.2500   -18.3450    79.2170     8.6640     6.8280     7.7000    24.2450     2.3000 
  111.3750   -18.3090    76.8370     9.0970     7.0890     8.1680    24.1640     2.2910 
  111.5000   -18.4140    70.5460     9.6600     7.4850    10.0040    24.0120     2.2620 
  111.6250   -18.5580    66.2830    10.0970     7.8740    11.4010    23.8990     2.2210 
  111.7500   -18.7140    63.5580    10.2700     8.1290    11.5570    23.8780     2.1910 
  111.8750   -18.9400    60.7020    10.1780     8.2030    11.2020    23.8980     2.1820 
  112.0000   -19.1190    59.8260     9.9220     8.1260    10.9780    23.9400     2.1850 
  112.1250   -19.3180    62.2910     9.6370     7.9740    10.9000    24.0260     2.1900 
  112.2500   -19.3920    64.4030     9.4050     7.8270    10.7240    24.1150     2.1920 
  112.3750   -19.4160    64.9140     9.2400     7.7060    10.3700    24.1440     2.1910 
  112.5000   -19.3300    65.0600     9.1410     7.6120    10.3150    24.1200     2.1910 
  112.6250   -19.1670    64.3040     9.0900     7.5290    10.1760    24.1150     2.1930 
  112.7500   -19.0200    62.0860     9.0210     7.4210    10.0420    24.1290     2.1990 
  112.8750   -18.8090    60.5440     8.8740     7.2610     9.7060    24.1450     2.2080 
  113.0000   -18.6560    61.8120     8.6240     7.0450     9.3100    24.1520     2.2180 
  113.1250   -18.4540    66.6470     8.3360     6.8160     9.1580    24.1540     2.2270 
  113.2500   -18.3220    71.6920     8.1640     6.6640     8.5220    24.1350     2.2350 
  113.3750   -18.1810    74.2040     8.2120     6.6610     7.9790    24.0800     2.2410 
  113.5000   -18.0730    73.3460     8.4870     6.8320     8.5090    24.0440     2.2450 
  113.6250   -18.0690    69.7840     8.9200     7.1610     9.8250    24.0530     2.2470 
  113.7500   -18.0470    67.0600     9.3590     7.5450    12.2060    24.0510     2.2490 
  113.8750   -18.1030    67.3290     9.7170     7.9110    13.9330    24.0220     2.2470 
  114.0000   -18.1250    69.4190     9.9500     8.2050    11.4110    24.0020     2.2380 
  114.1250   -18.2300    69.9330    10.0500     8.3860    10.1770    24.0060     2.2230 
  114.2500   -18.3010    69.3160    10.0510     8.4620    11.4010    24.0350     2.2080 
  114.3750   -18.4040    70.2390     9.9510     8.4320    14.6710    24.0870     2.1930 
  114.5000   -18.5260    71.9060     9.7540     8.3100    14.4430    24.1410     2.1760 
  114.6250   -18.5520    70.9340     9.4610     8.1030    10.7190    24.1270     2.1630 
  114.7500   -18.6190    67.9880     9.1250     7.8480     9.0840    24.0520     2.1660 
  114.8750   -18.6440    64.8650     8.8380     7.5980     8.9000    23.9080     2.1930 
  115.0000   -18.6750    62.1690     8.7560     7.4660     9.3650    23.6790     2.2450 
  115.1250   -18.6330    59.8750     9.0990     7.6410     9.9140    23.5870     2.3040 
  115.2500   -18.6040    58.6570     9.8520     8.1580    10.6340    23.7370     2.3490 
  115.3750   -18.5650    58.7990    10.9300     8.9770    12.6940    24.1550     2.3850 
  115.5000   -18.4470    59.7220    12.1180     9.9470    17.4060    24.5420     2.4250 
  115.6250   -18.4190    61.5370    13.0120    10.7580    23.7180    24.7300     2.4400 
  115.7500   -18.3420    66.8700    13.3630    11.1660    19.1750    24.4810     2.3960 
  115.8750   -18.2830    73.9220    13.1810    11.1230    12.8060    24.3130     2.3180 
  116.0000   -18.2430    76.4470    12.6960    10.7720    10.1090    24.2480     2.2590 
  116.1250   -18.2590    73.4860    12.1950    10.3280    10.2310    24.2220     2.2420 
  116.2500   -18.3050    73.6430    11.7920     9.9410    10.3830    24.2360     2.2430 
  116.3750   -18.3470    79.1860    11.4210     9.6050    10.3270    24.2530     2.2480 
  116.5000   -18.4840    85.1770    10.9870     9.2530    10.0620    24.2400     2.2510 
  116.6250   -18.5470    86.9170    10.4890     8.8340     9.9290    24.2120     2.2480 
  116.7500   -18.6410    86.5860    10.0660     8.4140     9.8860    24.1930     2.2360 
  116.8750   -18.7170    84.8250     9.8150     8.0870     9.8250    24.1740     2.2190 
  117.0000   -18.7870    82.0950     9.7530     7.9060     9.8350    24.1780     2.2020 
  117.1250   -18.8410    78.6480     9.8450     7.8880     9.8310    24.2010     2.1970 
  117.2500   -18.8610    74.5930    10.0120     7.9660     9.9700    24.2020     2.2020 
  117.3750   -18.8730    70.5620    10.2200     8.0980    10.2680    24.1770     2.2130 
  117.5000   -18.7530    68.4420    10.4380     8.2440    10.4900    24.1570     2.2230 
  117.6250   -18.6750    68.4050    10.6200     8.3670    10.5800    24.1510     2.2300 
  117.7500   -18.5410    69.4900    10.7390     8.4460    10.6260    24.1350     2.2360 
  117.8750   -18.3710    70.9220    10.7870     8.4790    10.7120    24.0720     2.2440 
  118.0000   -18.1590    71.5200    10.7720     8.4740    10.7210    23.9500     2.2540 
  118.1250   -17.8880    72.1680    10.7140     8.4370    10.5490    23.7710     2.2660 
