~V
VERS. 2.00: Ver 2.00
~W
STRT.M 50.0000:
STOP.M 281.0000:
STEP.M 0.1250:
NULL. -999.2500:
UWI. F11064:
~C
DEPT.M :
SP.MV :
GR.API :
RML.OHMM :
RI. :
RXO.OHMM :
CALI.CM :
DEN.GM/CC :
~A
# ...
  151.2500   -12.3730    60.0800    12.3530    11.4570    14.3500    23.5030     2.5980 
  151.3750   -12.5210    57.4410    12.1940    11.1700    13.6170    23.6480     2.6090 
  151.5000   -12.6410    55.1330    12.4740    11.2520    13.0470    23.7170     2.6190 
  151.6250   -12.7270    54.8200    13.1240    11.7300    13.6600    23.6630     2.6220 
  151.7500   -12.7980    53.5160    13.8970    12.4180    14.8130    23.5460     2.6190 
  151.8750   -12.8650    51.7250    14.6060    13.1480    16.2470    23.4660     2.6090 
  152.0000   -12.9370    50.6650    15.1050    13.7650    17.6170    23.4480     2.5950 
  152.1250   -13.0130    50.4280    15.2970    14.1390    17.2330    23.4590     2.5820 
  152.2500   -13.0950    49.7350    15.3040    14.3240    15.6260    23.5110     2.5730 
  152.3750   -13.1770    49.5780    15.2670    14.4160    14.6800    23.6270     2.5710 
  152.5000   -13.2770    50.7620    15.3300    14.5290    15.2060    23.7430     2.5750 
  152.6250   -13.3950    51.1580    15.6040    14.7720    17.0300    23.8740     2.5840 
  152.7500   -13.5040    49.5940    16.0440    15.1550    17.8770    24.0570     2.5870 
  152.8750   -13.6140    48.1750    16.5830    15.6510    18.0600    24.1610     2.5820 
  153.0000   -13.7080    49.5050    17.1580    16.2180    18.7080    24.1640     2.5750 
  153.1250   -13.7600    52.4540    17.7300    16.8240    19.5980    24.0930     2.5710 
  153.2500   -13.7740    52.7610    18.2920    17.4420    18.9530    23.9590     2.5700 
  153.3750   -13.7590    50.5930    18.8140    18.0340    19.1010    23.7080     2.5720 
  153.5000   -13.7540    49.2680    19.2060    18.5100    19.7900    23.5300     2.5800 
  153.6250   -13.7460    51.9450    19.2830    18.6930    19.8700    23.5230     2.5870 
  153.7500   -13.7470    56.1560    19.0280    18.5550    18.2840    23.4980     2.5860 
  153.8750   -13.7430    58.0830    18.4910    18.1330    16.9070    23.4280     2.5820 
  154.0000   -13.7390    56.9320    17.7780    17.5200    15.9140    23.3310     2.5770 
  154.1250   -13.7560    57.2540    17.0530    16.8540    15.4160    23.1580     2.5690 
  154.2500   -13.7870    60.9970    16.4900    16.3020    15.9980    22.9440     2.5570 
  154.3750   -13.8280    64.7030    16.1880    15.9720    17.3600    22.7980     2.5440 
  154.5000   -13.8830    64.4470    16.1690    15.9040    17.5570    22.7380     2.5320 
  154.6250   -13.9480    61.0830    16.4130    16.1050    17.4700    22.8040     2.5200 
  154.7500   -13.9980    58.6620    16.7660    16.4380    18.5140    22.8680     2.5080 
  154.8750   -14.0210    57.2930    17.0980    16.7840    19.8490    22.9070     2.4930 
  155.0000   -14.0150    56.8740    17.3120    17.0430    19.8410    22.9400     2.4750 
  155.1250   -13.9830    58.2600    17.3540    17.1520    18.4690    23.0180     2.4580 
  155.2500   -13.9530    59.4460    17.2900    17.1480    17.4650    23.2570     2.4450 
  155.3750   -13.9230    59.8720    17.1730    17.0790    17.0310    23.6690     2.4410 
  155.5000   -13.8730    59.9240    17.0410    16.9840    17.4550    24.0190     2.4500 
  155.6250   -13.7940    60.9920    16.8900    16.8580    17.1140    24.0660     2.4680 
  155.7500   -13.7280    62.3780    16.7000    16.6620    16.1230    24.0100     2.4810 
  155.8750   -13.6980    61.7370    16.4900    16.3930    15.6100    23.9320     2.4810 
  156.0000   -13.6990    59.7210    16.3170    16.1010    16.1600    23.7260     2.4750 
  156.1250   -13.7370    59.2410    16.2220    15.8640    17.9830    23.1950     2.4740 
  156.2500   -13.7860    60.9590    16.1540    15.6980    19.8410    22.5640     2.4820 
  156.3750   -13.8500    63.1940    16.0480    15.5650    19.1380    22.2330     2.4960 
  156.5000   -13.9040    63.5430    15.8450    15.3850    17.7850    22.1730     2.5040 
  156.6250   -13.9530    62.5200    15.5080    15.0660    15.6270    22.3050     2.4990 
  156.7500   -13.9890    61.4910    15.1110    14.6400    14.1510    22.5640     2.4920 
  156.8750   -14.0340    59.8640    14.7240    14.1840    13.3430    22.8130     2.4910 
  157.0000   -14.0850    57.8220    14.3910    13.7690    13.5290    22.9120     2.4960 
  157.1250   -14.1470    56.2350    14.1430    13.4580    13.1410    22.9150     2.5030 
  157.2500   -14.2240    55.7450    13.9650    13.2390    12.4720    22.9270     2.5120 
  157.3750   -14.3200    56.4670    13.8220    13.0740    11.7270    22.9290     2.5190 
  157.5000   -14.4370    58.4800    13.6530    12.9050    11.3870    22.8880     2.5210 
  157.6250   -14.5850    62.2910    13.3980    12.6690    11.6890    22.8110     2.5110 
  157.7500   -14.7590    64.9220    13.0730    12.3680    12.3560    22.8140     2.4940 
  157.8750   -14.9370    65.2760    12.7220    12.0290    12.5830    22.8870     2.4810 
  158.0000   -15.1420    64.2140    12.4010    11.6950    12.2140    22.9560     2.4750 
  158.1250   -15.3670    62.9790    12.1730    11.4240    11.1740    23.0160     2.4720 
  158.2500   -15.5800    62.2060    12.0420    11.2360    10.8590    23.1190     2.4660 
  158.3750   -15.7800    62.7010    11.9990    11.1360    11.4370    23.3140     2.4570 
  158.5000   -15.9880    62.6930    12.0320    11.1130    11.9020    23.5960     2.4530 
  158.6250   -16.1740    59.9680    12.1320    11.1530    12.1350    23.8230     2.4570 
  158.7500   -16.3440    56.5880    12.2710    11.2130    11.8660    23.9080     2.4640 
  158.8750   -16.4870    55.3450    12.4460    11.2850    12.1180    24.0430     2.4750 
  159.0000   -16.5720    54.8560    12.6780    11.3910    11.8570    24.2780     2.4900 
  159.1250   -16.5760    53.0890    12.9980    11.5890    11.6590    24.4400     2.5050 
  159.2500   -16.5280    52.8380    13.3860    11.8910    11.4690    24.5400     2.5170 
  159.3750   -16.4430    54.6680    13.7910    12.2710    12.5250    24.5570     2.5280 
  159.5000   -16.3370    55.6720    14.1390    12.6660    14.1090    24.5480     2.5400 
  159.6250   -16.2210    54.7920    14.3240    12.9860    15.5570    24.5470     2.5510 
  159.7500   -16.1010    54.8130    14.3340    13.1840    15.9420    24.5320     2.5590 
  159.8750   -15.9720    55.6530    14.1760    13.2440    16.1660    24.4900     2.5640 
  160.0000   -15.8470    56.6660    13.8750    13.1610    15.6210    24.4520     2.5660 
  160.1250   -15.7040    57.6980    13.4140    12.8960    14.2030    24.4270     2.5560 
  160.2500   -15.5460    58.5880    12.7410    12.4130    13.1380    24.4160     2.5300 
  160.3750   -15.3790    59.9660    11.7410    11.6020    12.1110    24.4230     2.4900 
  160.5000   -15.2090    61.8890    10.3530    10.3860    10.3490    24.4080     2.4390 
  160.6250   -15.0180    64.4040     8.6530     8.8030     8.8250    24.3720     2.3760 
  160.7500   -14.7990    67.2400     6.9560     7.1560     7.1800    24.3400     2.3160 
  160.8750   -14.5850    71.8460     5.4980     5.6770     5.2560    24.2230     2.2840 
  161.0000   -14.3830    77.2270     4.4080     4.5090     3.7640    23.7980     2.2890 
  161.1250   -14.2280    80.6960     3.7460     3.7430     3.2330    23.4090     2.3110 
  161.2500   -14.1220    83.4950     3.3620     3.2640     3.1030    23.2540     2.3160 
  161.3750   -14.0670    85.4880     3.1760     3.0080     3.0720    23.2270     2.3080 
  161.5000   -14.0390    85.8290     3.1450     2.9360     3.0090    23.1910     2.3000 
  161.6250   -14.0440    86.1990     3.2940     3.0780     3.0080    23.1970     2.2980 
  161.7500   -14.0920    88.4470     3.6120     3.4130     3.1380    23.1760     2.2980 
  161.8750   -14.1730    90.1730     4.0770     3.9140     3.6390    23.0750     2.3010 
  162.0000   -14.2930    87.4770     4.5910     4.4890     4.6120    23.0770     2.3040 
  162.1250   -14.4480    82.3730     4.9350     4.9270     5.6810    23.0910     2.3050 
  162.2500   -14.6270    80.1130     4.9900     5.0820     5.6220    23.1330     2.3070 
  162.3750   -14.8110    80.0640     4.8040     4.9570     4.7790    23.2370     2.3130 
