~V
VERS. 2.00: Ver 2.00
~W
STRT.M 58.0000:
STOP.M 277.0000:
STEP.M 0.1250:
NULL. -999.2500:
UWI. F11038:
~C
DEPT.M :
GR.API :
RML.OHMM :
RI. :
RXO.OHMM :
CALI.CM :
DEN.GM/CC :
SP.MV :
~A
# ...
  114.2500   114.5620     5.9460     5.3220     5.3670    24.4800     2.2390    -8.7670 
  114.3750   110.3550     5.9150     5.2970     5.3720    24.1810     2.2510    -8.9340 
  114.5000   108.1920     5.9060     5.2910     5.4330    23.9260     2.2670    -9.1600 
  114.6250   105.7490     5.8580     5.2470     5.2910    23.6340     2.2830    -9.4480 
  114.7500   105.1830     5.7710     5.1560     4.9300    23.4930     2.2990    -9.8110 
  114.8750   107.8750     5.6660     5.0310     4.7180    23.4150     2.3170   -10.2080 
  115.0000   112.1400     5.5670     4.8850     4.6950    23.3150     2.3320   -10.5990 
  115.1250   115.3570     5.5030     4.7360     4.8690    23.2130     2.3420   -10.9860 
  115.2500   117.5880     5.4860     4.6030     4.9670    23.2150     2.3470   -11.3760 
  115.3750   119.2890     5.5200     4.4990     4.9620    23.2800     2.3520   -11.7720 
  115.5000   120.3950     5.5920     4.4370     4.9370    23.3310     2.3580   -12.1870 
  115.6250   120.4140     5.6740     4.4160     4.9390    23.3470     2.3620   -12.6340 
  115.7500   117.2070     5.7330     4.4210     5.1260    23.3250     2.3560   -13.0940 
  115.8750   112.3330     5.7910     4.4600     5.5680    23.3080     2.3350   -13.5740 
  116.0000   108.8600     5.9450     4.5820     6.3520    23.3270     2.3000   -14.0600 
  116.1250   104.3700     6.4810     4.9420     6.9870    23.4020     2.2630   -14.5040 
  116.2500    96.2530     7.6540     5.6920     7.8800    23.4820     2.2500   -14.8960 
  116.3750    87.5400     9.6890     7.0340    10.3410    23.5630     2.2780   -15.2640 
  116.5000    82.1190    12.5750     9.1290    16.4720    23.6670     2.3520   -15.6610 
  116.6250    77.5000    15.7180    11.9110    24.5340    23.7520     2.4490   -16.2280 
  116.7500    71.7120    17.8730    14.3560    30.6680    23.8760     2.5240   -16.9990 
  116.8750    68.8100    18.1260    15.2250    31.4800    24.0270     2.5450   -18.0140 
  117.0000    69.5830    16.4220    14.1210    25.8690    24.1350     2.5020   -19.2840 
  117.1250    71.9850    13.6440    11.9440    17.3530    24.1780     2.4100   -20.7880 
  117.2500    74.7350    11.1750     9.9900    12.6180    24.2200     2.3130   -22.4480 
  117.3750    76.8510     9.5530     8.6290    10.9970    24.2840     2.2330   -24.1940 
  117.5000    76.8850     8.7980     7.8610    10.0770    24.3240     2.1820   -25.9410 
  117.6250    76.5930     8.7330     7.6110     9.6610    24.3570     2.1580   -27.5440 
  117.7500    77.5110     8.9400     7.6220     9.4500    24.4040     2.1460   -28.9460 
  117.8750    76.0570     9.2000     7.7380     9.3930    24.4990     2.1410   -30.1190 
  118.0000    70.3440     9.3880     7.8490     9.3540    24.6280     2.1380   -31.0490 
  118.1250    68.0760     9.4630     7.9100     9.2700    24.7520     2.1330   -31.7180 
  118.2500    72.2960     9.4890     7.9470     9.2330    24.8500     2.1230   -32.1830 
  118.3750    77.1820     9.5200     7.9930     9.2280    24.8980     2.1150   -32.4300 
  118.5000    78.1090     9.5900     8.0660     9.2850    24.9310     2.1180   -32.4620 
  118.6250    76.6210     9.7090     8.1660     9.3120    24.9330     2.1420   -32.2600 
  118.7500    76.2310     9.8450     8.2670     9.3580    24.8710     2.1780   -31.8720 
  118.8750    75.9830     9.9650     8.3470     9.7490    24.7150     2.2140   -31.3290 
  119.0000    75.0480    10.0470     8.3920    10.1120    24.4810     2.2390   -30.6670 
  119.1250    76.0570    10.0760     8.3900    10.1570    24.2500     2.2470   -29.9550 
  119.2500    77.2300    10.0680     8.3550    10.1510    24.0430     2.2420   -29.2080 
  119.3750    76.8620    10.0390     8.3150    10.4330    23.9280     2.2320   -28.4420 
  119.5000    75.9620    10.0050     8.2910    10.5730    23.9490     2.2220   -27.6200 
  119.6250    74.8110     9.9750     8.2950    10.5160    24.0830     2.2210   -26.7390 
  119.7500    73.3590     9.9470     8.3060    10.5230    24.2450     2.2300   -25.8670 
  119.8750    74.2640     9.9020     8.2930    10.6770    24.3770     2.2450   -25.0390 
  120.0000    79.3310     9.8150     8.2270    10.4090    24.3860     2.2570   -24.2880 
  120.1250    84.2410     9.6610     8.0940     9.8320    24.2660     2.2530   -23.6340 
  120.2500    85.5260     9.4610     7.9250     9.3450    24.1090     2.2370   -23.0890 
  120.3750    85.7600     9.2500     7.7490     9.2730    24.0020     2.2150   -22.6950 
  120.5000    88.8100     9.0720     7.5960     9.1840    23.9420     2.1970   -22.4930 
  120.6250    91.3430     8.9790     7.5060     9.8720    23.9280     2.1880   -22.5460 
  120.7500    89.5690     8.9730     7.4850     9.7450    23.9420     2.1880   -22.7750 
  120.8750    84.9880     9.0460     7.5330     9.4940    23.9890     2.1940   -23.1640 
  121.0000    81.1140     9.1710     7.6350     9.6490    24.1150     2.2000   -23.6730 
  121.1250    80.9570     9.3100     7.7680     9.7290    24.2840     2.1990   -24.3090 
  121.2500    80.0310     9.4220     7.8970     9.6860    24.3910     2.1860   -25.0310 
  121.3750    77.5140     9.4860     8.0020     9.2810    24.3380     2.1660   -25.8250 
  121.5000    75.8750     9.5080     8.0780     8.8640    24.1790     2.1460   -26.6150 
  121.6250    78.5130     9.5080     8.1360     8.6550    24.0550     2.1390   -27.3150 
  121.7500    82.9750     9.5130     8.1950     9.0670    23.9710     2.1450   -27.8760 
  121.8750    83.8130     9.5280     8.2670     9.5190    23.8740     2.1600   -28.2570 
  122.0000    80.7290     9.5450     8.3530     9.8440    23.7780     2.1770   -28.4630 
  122.1250    78.1980     9.5480     8.4430     9.8960    23.7520     2.1940   -28.4870 
  122.2500    77.7100     9.5360     8.5320     9.8090    23.7600     2.2120   -28.3660 
  122.3750    78.1160     9.5140     8.6200     9.7500    23.7580     2.2310   -28.1180 
  122.5000    78.4360     9.4820     8.7080     9.7430    23.8290     2.2440   -27.8150 
  122.6250    78.3290     9.4320     8.7840     9.6020    23.9160     2.2390   -27.4680 
  122.7500    78.5200     9.3530     8.8310     9.2890    23.8530     2.2150   -27.1150 
  122.8750    79.9160     9.2370     8.8330     9.3930    23.5610     2.1780   -26.7270 
  123.0000    81.8400     9.0790     8.7780     9.9800    23.3800     2.1450   -26.2850 
  123.1250    81.3990     8.8570     8.6330    10.1740    23.4170     2.1350   -25.7050 
  123.2500    77.9860     8.5680     8.3970     9.9270    23.4920     2.1510   -24.9850 
  123.3750    74.5710     8.2090     8.0700     9.6690    23.6100     2.1860   -24.1000 
  123.5000    74.1560     7.8770     7.6700     9.5950    23.7260     2.2290   -23.0050 
  123.6250    77.9300     7.6610     7.2150     8.9250    23.7660     2.2660   -21.7800 
  123.7500    82.0550     7.4520     6.7430     8.0810    23.7570     2.2890   -20.5130 
  123.8750    83.1620     7.1680     6.3110     7.5910    23.7700     2.2950   -19.2450 
  124.0000    80.3320     6.9260     6.0140     7.4110    23.8430     2.2880   -17.9880 
  124.1250    75.6030     7.1360     6.0490     6.9400    23.9510     2.2790   -16.8280 
  124.2500    72.7810     8.0520     6.5370     6.9630    23.9850     2.2860   -15.7710 
  124.3750    72.8370     9.8510     7.6520     8.0660    24.0220     2.3180   -14.8750 
  124.5000    72.0040    12.5030     9.5320    11.0480    24.1070     2.3740   -14.1900 
  124.6250    67.7000    15.4410    12.1140    18.5200    24.2070     2.4410   -13.7080 
  124.7500    62.5920    17.5260    14.4290    23.9890    24.2080     2.4960   -13.3530 
  124.8750    59.6780    17.9860    15.3920    25.4480    24.1930     2.5240   -13.1100 
  125.0000    60.0050    16.8760    14.7430    21.6940    24.1680     2.5210   -12.9580 
  125.1250    62.5820    15.1940    13.4020    15.4830    24.1370     2.4940   -12.8770 
  125.2500    65.2400    14.3330    12.5750    11.4100    24.1010     2.4690   -12.8410 
  125.3750    65.8580    14.9460    12.7380    12.5740    24.1190     2.4620   -12.8200 
