~V
VERS. 2.00: Ver 2.00
~W
STRT.M 52.0000:
STOP.M 278.0000:
STEP.M 0.1250:
NULL. -999.2500:
UWI. F11035:
~C
DEPT.M :
DEN.GM/CC :
GR.API :
RML.OHMM :
RI. :
RXO.OHMM :
CALI.CM :
SP.MV :
~A
# ...
  220.7500     2.2050    69.4550   141.0450   129.3430   147.2530    24.7080   -16.3640 
  220.8750     2.2120    72.7440   145.3820   135.9820   170.9320    24.7210   -16.5310 
  221.0000     2.2170    73.0580   148.3870   141.3630   194.6440    24.7380   -16.6480 
  221.1250     2.2180    70.1660   149.6840   143.5930   196.1940    24.7310   -16.6740 
  221.2500     2.2150    68.3770   147.9750   142.1130   177.4560    24.7120   -16.6620 
  221.3750     2.2090    68.7590   142.3500   136.7750   173.6730    24.7140   -16.5980 
  221.5000     2.2010    67.9650   133.6850   128.2360   183.7670    24.7770   -16.4880 
  221.6250     2.1910    65.3730   123.5710   117.9040   171.5970    24.8690   -16.1540 
  221.7500     2.1840    63.7200   114.0530   107.9620   139.0190    24.9390   -15.8570 
  221.8750     2.1810    63.5280   106.3760    99.7190   110.5520    24.9800   -15.5140 
  222.0000     2.1830    63.1690   101.3380    94.0110    97.0980    24.9590   -15.2260 
  222.1250     2.1910    64.1390    99.9140    91.8980    94.6730    24.8800   -14.9810 
  222.2500     2.2040    65.6610   101.6320    93.0470    97.9250    24.7810   -14.7390 
  222.3750     2.2250    65.0420   106.0160    97.1220    97.2810    24.6750   -14.4640 
  222.5000     2.2510    62.2940   111.8560   103.1380   101.8980    24.5970   -14.1950 
  222.6250     2.2740    60.7110   116.5040   108.8110   122.1130    24.5660   -14.1050 
  222.7500     2.2900    61.8870   117.2880   111.1800   133.8040    24.5550   -14.0710 
  222.8750     2.3050    64.2600   112.7940   108.3270   126.3260    24.4900   -14.1220 
  223.0000     2.3380    65.6590   103.5550   100.2980   111.2630    24.3650   -14.1280 
  223.1250     2.4080    66.6110    91.8080    89.0570    94.5670    24.4130   -14.1290 
  223.2500     2.4920    67.0020    80.8120    78.0890    84.3380    24.4700   -14.1420 
  223.3750     2.5550    66.4700    72.2240    69.2360    77.2220    24.4640   -14.2060 
  223.5000     2.5680    66.4610    66.8070    63.4080    85.9820    24.4140   -14.2860 
  223.6250     2.5310    68.4890    65.4080    61.4710    83.7740    24.3590   -14.3020 
  223.7500     2.4930    70.5110    67.5480    62.9400    70.4140    24.3460   -14.2280 
  223.8750     2.4930    69.5760    73.0650    67.9780    65.5500    24.3230   -14.1350 
  224.0000     2.5460    68.2470    80.6940    76.5050    78.1120    24.2850   -14.1010 
  224.1250     2.6360    71.4670    85.6420    85.6670   105.0790    24.3350   -14.1720 
  224.2500     2.7120    74.4680    82.3860    87.4030   128.6630    24.3920   -14.2520 
  224.3750     2.7350    72.6720    69.1040    75.3670   141.5880    24.3960   -14.3180 
  224.5000     2.6880    67.8790    49.6280    53.3350   125.8020    24.3780   -14.3520 
  224.6250     2.5810    70.6450    31.7270    33.1850    67.6810    24.3520   -14.3900 
  224.7500     2.4700    80.6170    19.2780    20.0220    25.7010    24.3600   -14.4220 
  224.8750     2.3950    88.2610    12.3040    12.8080    10.4020    24.4410   -14.2850 
  225.0000     2.3720    89.2260     9.1780     9.3150     7.8640    24.5200   -14.0180 
  225.1250     2.3910    88.2360     8.1200     7.9510     8.5390    24.5970   -13.5410 
  225.2500     2.4200    89.1390     7.8670     7.4890     9.0940    24.6600   -13.0480 
  225.3750     2.4410    91.1220     7.9810     7.5620     9.1170    24.6900   -12.4990 
  225.5000     2.4500    93.9650     8.1930     7.8860     8.9790    24.7430   -11.9530 
  225.6250     2.4490    98.8440     8.3310     8.2020     8.9330    24.8640   -11.4460 
  225.7500     2.4440   102.8170     8.3600     8.3980     9.0660    24.9760   -11.0300 
  225.8750     2.4370   105.2300     8.3080     8.4790     9.1430    24.9860   -10.7900 
  226.0000     2.4280   108.5970     8.2140     8.4730     9.1790    24.9540   -10.7160 
  226.1250     2.4190   112.9580     8.1310     8.4030     9.0820    24.9750   -10.7950 
  226.2500     2.4110   114.5600     8.1170     8.3230     8.9870    25.0070   -10.9320 
  226.3750     2.4070   113.2310     8.2270     8.2880     8.8570    24.9870   -11.1530 
  226.5000     2.4100   112.6180     8.4990     8.3520     8.8940    24.8740   -11.4650 
  226.6250     2.4190   114.4380     8.9530     8.5620     9.7300    24.7580   -11.8950 
  226.7500     2.4300   111.9090     9.5070     8.8810    10.8340    24.7080   -12.4280 
  226.8750     2.4380   103.4680    10.0840     9.2530    12.2440    24.6940   -13.0220 
  227.0000     2.4410    95.5580    10.6260     9.6120    12.7940    24.6610   -13.5960 
  227.1250     2.4350    94.4580    11.1370     9.9230    12.8010    24.6140   -14.1510 
  227.2500     2.4210    93.9950    11.7210    10.2500    12.8660    24.6280   -14.6810 
  227.3750     2.4020    89.5900    12.5080    10.7070    14.0520    24.6950   -15.1780 
  227.5000     2.3800    85.0240    13.6070    11.4130    15.0990    24.7340   -15.5030 
  227.6250     2.3600    84.9160    15.1030    12.5150    17.0380    24.7220   -15.6440 
  227.7500     2.3440    86.6800    16.8490    13.9570    20.5350    24.7110   -15.5980 
  227.8750     2.3320    87.7110    18.7080    15.6280    24.8540    24.7070   -15.4440 
  228.0000     2.3260    87.3690    20.5610    17.3780    27.2100    24.7040   -15.2380 
  228.1250     2.3260    86.2590    22.3700    19.0920    28.3490    24.6980   -15.0090 
  228.2500     2.3310    85.8150    24.2010    20.7840    29.0810    24.6990   -14.7590 
  228.3750     2.3370    85.9520    26.0990    22.5120    31.2310    24.7010   -14.4340 
  228.5000     2.3440    84.6720    27.9780    24.3010    34.0850    24.6990   -14.1630 
  228.6250     2.3490    80.4200    29.3670    25.9020    37.9710    24.6980   -13.9050 
  228.7500     2.3530    77.0850    29.7060    26.7040    38.4510    24.6960   -13.6780 
  228.8750     2.3580    77.1430    28.5480    26.0150    35.6690    24.7020   -13.4560 
  229.0000     2.3630    79.7240    25.9130    23.6270    32.5770    24.7030   -13.2490 
  229.1250     2.3680    83.6000    22.4130    20.1720    29.9400    24.6870   -12.9900 
  229.2500     2.3700    89.3160    19.2730    17.0070    23.4290    24.6840   -12.7340 
  229.3750     2.3660    95.2120    17.3440    14.8440    17.1840    24.7010   -12.5240 
  229.5000     2.3570    97.6030    17.1820    14.0090    14.3610    24.7020   -12.3300 
  229.6250     2.3440    93.6560    19.5350    15.0110    16.4960    24.6800   -12.1530 
  229.7500     2.3330    87.0210    24.3350    18.0070    23.5520    24.6580   -12.0290 
  229.8750     2.3260    80.7500    31.5910    23.5090    33.7940    24.6530   -11.9700 
  230.0000     2.3210    75.9830    40.7850    31.7930    48.7640    24.6600   -11.9960 
  230.1250     2.3160    72.7060    50.4890    42.2310    67.6170    24.6370   -12.0770 
  230.2500     2.3110    70.9760    58.5450    51.9990    79.8600    24.6440   -12.1930 
  230.3750     2.3060    70.2970    63.4190    58.7640    81.8400    24.6610   -12.3320 
  230.5000     2.3040    70.2170    64.5400    61.5360    77.8280    24.6600   -12.4710 
  230.6250     2.3050    69.8880    62.0840    60.2400    73.9310    24.6640   -12.6720 
  230.7500     2.3070    70.9230    57.8930    56.6240    70.5170    24.6600   -12.8480 
  230.8750     2.3060    75.3720    53.0690    51.8410    63.9060    24.6630   -13.0340 
  231.0000     2.3020    80.4910    48.4170    46.8980    55.7820    24.6450   -13.1640 
  231.1250     2.2950    82.4670    44.6130    42.6200    49.3750    24.6290   -13.3450 
  231.2500     2.2920    80.6090    41.8720    39.3140    44.8990    24.6340   -13.4730 
  231.3750     2.2920    77.5710    40.4280    37.2180    43.6300    24.6720   -13.5780 
  231.5000     2.2950    76.7800    40.5410    36.5620    44.4910    24.6930   -13.6760 
  231.6250     2.2960    78.6200    42.8760    37.9680    44.5580    24.6930   -13.7830 
  231.7500     2.2940    80.1590    47.4760    41.5660    44.1280    24.7030   -13.9170 
  231.8750     2.2900    79.8340    54.5330    47.7340    49.1170    24.7230   -14.0330 
