~V
VERS. 2.00: Ver 2.00
~W
STRT.M 57.0000:
STOP.M 280.0000:
STEP.M 0.1250:
NULL. -999.2500:
UWI. F11041:
~C
DEPT.M :
SP.MV :
GR.API :
RML.OHMM :
RI. :
RXO.OHMM :
CALI.CM :
DEN.GM/CC :
~A
   57.0000    98.5700    49.0290     0.2060     0.2100     0.2870    25.6880     2.5460 
   57.1250    89.3400    51.1920     0.2110     0.1860     1.8930    25.5510     2.4980 
   57.2500    78.6480    52.8610     0.2730     0.1890     2.4080    25.6370     2.3840 
   57.3750    66.8480    56.9180     0.6450     0.4100     3.6640    25.6800     2.2660 
   57.5000    54.6720    63.3190     1.2530     0.8450     5.0630    25.0900     2.1910 
   57.6250    42.9200    67.2090     2.1250     1.6080     6.2100    24.1540     2.1770 
   57.7500    32.0030    66.5530     3.0020     2.5540     6.5020    23.5640     2.1860 
   57.8750    22.2080    63.4690     3.5980     3.4440     6.4170    23.4230     2.1960 
   58.0000    13.8390    60.3390     3.8960     4.1030     6.2290    23.4750     2.1990 
   58.1250     7.4510    59.0280     4.0580     4.4970     6.2170    23.5590     2.1970 
   58.2500     2.9060    60.7940     4.1910     4.7350     6.1720    23.6010     2.1950 
   58.3750    -0.0180    63.4090     4.2610     4.8550     6.1290    23.4960     2.1990 
   58.5000    -1.8670    63.5400     4.2810     4.9200     6.2740    23.2810     2.2120 
   58.6250    -3.0970    62.8060     4.4500     5.1460     6.7110    23.1330     2.2410 
   58.7500    -3.9980    61.9620     5.0550     5.8260     7.2480    23.0580     2.2890 
   58.8750    -4.6330    59.8040     6.3860     7.2980     8.0460    23.1240     2.3620 
   59.0000    -5.0490    57.0440     8.7120     9.8670     9.9410    23.3820     2.4620 
   59.1250    -5.2810    57.9730    12.2010    13.6370    14.9790    23.7790     2.5740 
   59.2500    -5.4130    61.3970    15.5260    17.0940    24.3260    24.1460     2.6620 
   59.3750    -5.4850    64.9180    16.4360    18.0090    31.5840    24.3430     2.6860 
   59.5000    -5.5380    70.1600    14.1010    15.6520    24.9800    24.3780     2.6290 
   59.6250    -5.5830    79.1450    10.6490    11.9500    13.0970    24.3120     2.5180 
   59.7500    -5.6830    88.2550     8.1320     8.9860     7.1440    24.1890     2.4140 
   59.8750    -5.8690    92.5350     6.7620     7.1150     5.5380    24.0030     2.3410 
   60.0000    -6.2050    90.9110     6.2900     6.1720     5.7440    23.8300     2.2970 
   60.1250    -6.6620    86.3710     6.4650     5.9670     6.0910    23.7030     2.2700 
   60.2500    -7.1520    83.7970     6.8420     6.0990     6.3950    23.6600     2.2500 
   60.3750    -7.6150    85.3810     7.1350     6.3200     6.3560    23.7410     2.2390 
   60.5000    -8.0250    91.1360     7.1880     6.4490     5.9750    23.9370     2.2410 
   60.6250    -8.3940    97.2090     7.0320     6.4200     5.5240    24.0850     2.2520 
   60.7500    -8.7460    99.1980     6.8790     6.3320     5.5320    24.1150     2.2590 
   60.8750    -9.1040    96.6980     6.8440     6.2630     5.8080    24.0290     2.2570 
   61.0000    -9.4610    93.3620     6.9580     6.2670     5.6980    23.8380     2.2510 
   61.1250    -9.8400    92.1900     7.1970     6.3790     5.8180    23.6500     2.2440 
   61.2500   -10.2550    89.7510     7.4720     6.5580     6.1210    23.4860     2.2320 
   61.3750   -10.7030    85.1540     7.7320     6.7630     6.6030    23.3660     2.2130 
   61.5000   -11.1720    81.0950     7.9480     6.9450     6.8690    23.3010     2.1960 
   61.6250   -11.6710    79.5040     8.0920     7.0550     6.9280    23.2960     2.1910 
   61.7500   -12.1370    79.0560     8.1590     7.0920     7.0080    23.3060     2.1970 
   61.8750   -12.5380    79.8210     8.1540     7.0660     7.0960    23.3290     2.2110 
   62.0000   -12.8520    83.4220     8.1120     7.0000     7.0490    23.3350     2.2230 
   62.1250   -13.0170    84.7870     8.0900     6.9230     6.9550    23.3070     2.2280 
   62.2500   -13.0350    82.3000     8.1180     6.8590     6.9910    23.2800     2.2250 
   62.3750   -12.9440    79.4410     8.1870     6.8160     7.0080    23.2660     2.2170 
   62.5000   -12.7920    78.5840     8.2730     6.7860     6.8850    23.2690     2.2060 
   62.6250   -12.5650    80.1890     8.3510     6.7610     6.7240    23.2810     2.1980 
   62.7500   -12.3080    82.4300     8.4070     6.7340     6.6800    23.2820     2.1970 
   62.8750   -12.0230    83.5370     8.4290     6.7020     6.7620    23.3070     2.1990 
   63.0000   -11.7130    81.4440     8.3940     6.6580     6.8770    23.3810     2.2040 
   63.1250   -11.4040    78.6020     8.2760     6.5880     6.9200    23.4510     2.2110 
   63.2500   -11.1010    80.4760     8.1210     6.4980     6.8730    23.4650     2.2230 
   63.3750   -10.7470    86.5170     7.9830     6.4070     6.6920    23.5280     2.2430 
   63.5000   -10.3470    93.4050     7.8960     6.3360     6.2160    23.7100     2.2690 
   63.6250    -9.9710    96.3920     7.8430     6.2940     5.7060    23.7910     2.2920 
   63.7500    -9.6710    93.9090     7.7480     6.2480     5.8560    23.6850     2.3030 
   63.8750    -9.4120    88.3870     7.5640     6.1540     6.1420    23.5760     2.3040 
   64.0000    -9.1650    85.1820     7.2940     5.9870     5.9900    23.7050     2.3050 
   64.1250    -8.8190    90.0880     7.0060     5.7550     5.4250    24.0750     2.3150 
   64.2500    -8.4210    98.4830     6.7910     5.5290     4.9070    24.3810     2.3240 
   64.3750    -8.1050   103.9650     6.6930     5.3700     4.7210    24.5080     2.3270 
   64.5000    -7.9150   103.8430     6.7170     5.3160     4.8770    24.4400     2.3190 
   64.6250    -7.8240   100.3030     6.8610     5.3910     5.1430    24.2680     2.2990 
   64.7500    -7.7510    97.2780     7.0900     5.5530     5.4630    24.2490     2.2690 
   64.8750    -7.7190    95.9430     7.3890     5.7690     5.5840    24.4440     2.2320 
   65.0000    -7.7270    95.2120     7.7310     6.0020     5.4180    24.7230     2.1990 
   65.1250    -7.8560    92.6280     8.0190     6.1840     5.7900    24.6890     2.1890 
   65.2500    -8.0490    88.6650     8.1280     6.2520     6.5810    24.3960     2.2080 
   65.3750    -8.2320    87.5370     7.9510     6.1450     6.8950    24.1950     2.2450 
   65.5000    -8.3880    92.4170     7.4870     5.8540     6.0430    24.2370     2.2780 
   65.6250    -8.5380    99.9100     6.9170     5.4640     5.2610    24.3480     2.2960 
   65.7500    -8.6790   103.3560     6.5570     5.1620     4.9380    24.3120     2.3070 
   65.8750    -8.8290   102.5770     6.6530     5.1080     4.8010    24.2060     2.3140 
   66.0000    -9.0000    98.6830     7.3880     5.4430     4.7570    24.0640     2.3210 
   66.1250    -9.1880    92.4010     8.9350     6.3510     5.2340    23.8820     2.3370 
   66.2500    -9.4280    83.9160    10.9540     7.7080     6.1250    23.8230     2.3580 
   66.3750    -9.7730    75.1590    12.9120     9.2380     7.5610    23.8600     2.3850 
   66.5000   -10.2040    69.1710    14.0790    10.4280    10.1440    24.0090     2.4200 
   66.6250   -10.6450    69.3340    13.7160    10.5890    13.8440    24.0440     2.4320 
   66.7500   -11.0770    73.7350    12.3450     9.8880    12.2660    23.8490     2.3880 
   66.8750   -11.4770    78.1920    10.7330     8.8100     8.0010    23.5370     2.3000 
   67.0000   -11.8230    78.8990     9.4990     7.8210     6.0480    23.3670     2.2210 
   67.1250   -12.0610    75.6320     8.9610     7.2130     5.9870    23.2940     2.1860 
   67.2500   -12.2410    73.5960     8.9130     6.9430     6.2900    23.2400     2.1790 
   67.3750   -12.3810    73.4750     9.1540     6.9330     6.4750    23.2320     2.1830 
   67.5000   -12.4470    74.2560     9.4720     7.0680     6.5500    23.2610     2.1890 
   67.6250   -12.3800    74.9760     9.6680     7.2070     6.9960    23.2950     2.1900 
   67.7500   -12.1940    75.8650     9.6720     7.2410     8.0660    23.3370     2.1900 
   67.8750   -11.8660    76.2240     9.4900     7.1340     8.9730    23.3550     2.1920 
   68.0000   -11.4170    75.1400     9.2180     6.9290     7.6910    23.3060     2.2020 
   68.1250   -10.9410    73.9840     9.1200     6.7990     6.8230    23.2420     2.2280 
