~V
VERS. 2.00: Ver 2.00
~W
STRT.M 54.0000:
STOP.M 226.0000:
STEP.M 0.1250:
NULL. -999.2500:
UWI. F11002:
~C
DEPT.M :
GR.API :
RML.OHMM :
RI. :
RXO.OHMM :
CALI.CM :
DEN.GM/CC :
SP.MV :
~A
   54.0000  -999.2500  -999.2500  -999.2500  -999.2500  -999.2500     2.1160  -999.2500 
   54.1250  -999.2500  -999.2500  -999.2500  -999.2500  -999.2500     2.1130  -999.2500 
   54.2500  -999.2500  -999.2500  -999.2500  -999.2500  -999.2500     2.1130  -999.2500 
   54.3750  -999.2500  -999.2500  -999.2500  -999.2500  -999.2500     2.1140  -999.2500 
   54.5000  -999.2500  -999.2500  -999.2500  -999.2500  -999.2500     2.1130  -999.2500 
   54.6250     0.0000     0.2260     0.0000     0.0000     0.0000     2.1110  -999.2500 
   54.7500     0.0000     0.2260     0.0000     0.0000     0.0000     2.1120  -999.2500 
   54.8750    61.6470     0.3080     0.5130     1.5290    24.6780     2.1160   203.3670 
   55.0000    55.1880     0.2670     0.5450     1.4620    25.0490     2.1200   203.3670 
   55.1250    53.9680     0.1620     0.5620     1.4370    25.6160     2.1170   202.5850 
   55.2500    54.9600     0.1190     0.5510     1.4680    25.3850     2.1070   200.5460 
   55.3750    63.1730     0.1780     0.5070     1.5380    24.5800     2.0940   197.9090 
   55.5000    63.2320     0.2430     0.5010     1.5510    24.2860     2.0840   195.1280 
   55.6250    59.8450     0.2690     0.5130     1.5390    24.0420     2.0780   192.0400 
   55.7500    57.3310     0.2450     0.5400     1.5190    23.9510     2.0770   188.8870 
   55.8750    54.8730     0.1910     0.5610     1.4940    24.0530     2.0830   186.2370 
   56.0000    51.5540     0.1440     0.5620     1.4610    24.3550     2.0920   184.4360 
   56.1250    50.0070     0.1180     0.5480     1.4690    24.7840     2.0990   183.2770 
   56.2500    52.0350     0.1040     0.5330     1.6640    25.2150     2.0990   183.0970 
   56.3750    54.5680     0.0910     0.5300     2.0960    25.5400     2.0930   183.8430 
   56.5000    55.0980     0.0800     0.5370     2.4130    25.7380     2.0880   183.0030 
   56.6250    53.6970     0.0900     0.5550     2.2610    25.8040     2.0920   180.8050 
   56.7500    52.6830     0.1370     0.5860     2.2890    25.8110     2.1070   177.1900 
   56.8750    53.5010     0.2190     0.6420     2.5610    25.8110     2.1240   171.6280 
   57.0000    53.6600     0.2980     0.7090     2.6680    25.8110     2.1330   164.2250 
   57.1250    52.7370     0.3350     0.7670     2.5050    25.8110     2.1330   155.3860 
   57.2500    53.3050     0.3090     0.7930     2.3560    25.8110     2.1260   144.9650 
   57.3750    55.2020     0.2290     0.7740     2.5540    25.8020     2.1180   132.6880 
   57.5000    54.3840     0.1480     0.7320     2.7310    25.7910     2.1140   120.8940 
   57.6250    50.5480     0.1000     0.6880     2.6330    25.7950     2.1100   109.5410 
   57.7500    47.7440     0.0940     0.6570     2.4280    25.7910     2.1050    99.1270 
   57.8750    48.9600     0.1180     0.6380     1.7690    25.6920     2.0980    90.4830 
   58.0000    52.2050     0.1430     0.6130     1.4630    25.3900     2.0890    83.5190 
   58.1250    54.6940     0.1520     0.5620     1.3290    25.2000     2.0790    78.4460 
   58.2500    54.5340     0.1320     0.4720     1.3270    25.2000     2.0670    74.9950 
   58.3750    52.1180     0.0820     0.3480     1.3550    25.2330     2.0550    72.4260 
   58.5000    50.5630     0.0210     0.2310     1.3800    24.6470     2.0560    70.0970 
   58.6250    50.1070    -0.0300     0.1520     1.3810    24.3640     2.0950    67.4040 
   58.7500    49.6820    -0.0580     0.1120     1.3460    24.4730     2.1990    63.4850 
   58.8750    51.0940    -0.0600     0.0980     1.4340    24.6990     2.3700    57.5510 
   59.0000    56.7040    -0.0450     0.0970     1.9020    25.1290     2.5410    49.9760 
   59.1250    64.2070    -0.0060     0.1180     3.0860    26.0340     2.6450    41.1840 
   59.2500    70.2880     0.0790     0.1900     4.1660    27.9290     2.6350    31.6540 
   59.3750    73.8290     0.2810     0.4060     4.4470    30.5670     2.5130    21.8850 
   59.5000    76.2810     0.6410     0.8380     4.4000    32.6070     2.3620    12.5910 
   59.6250    77.0870     1.1850     1.5480     4.7860    33.3520     2.2420     4.4380 
   59.7500    75.7940     1.8660     2.5040     5.6930    33.4400     2.1740    -1.9170 
   59.8750    73.5540     2.5470     3.5090     6.5220    33.4400     2.1430    -5.8520 
   60.0000    72.5060     3.0840     4.3030     7.0720    33.4400     2.1150    -7.9950 
   60.1250    73.4550     3.4210     4.7910     7.3880    33.3970     2.0820    -8.7750 
   60.2500    76.3180     3.5760     5.0060     7.0050    33.1960     2.0600    -8.6000 
   60.3750    80.9680     3.5790     5.0210     5.6480    32.5330     2.0750    -7.7970 
   60.5000    86.3870     3.5080     4.9530     4.3350    31.5230     2.1250    -6.8020 
   60.6250    90.8410     3.4080     4.8660     3.7700    30.2910     2.1920    -5.8360 
   60.7500    93.4870     3.3200     4.8030     3.6810    28.8420     2.2530    -5.0420 
   60.8750    96.4920     3.2800     4.7840     3.8000    27.0890     2.2960    -4.4950 
   61.0000   101.1220     3.2840     4.7820     3.9310    25.3920     2.3270    -4.1300 
   61.1250   105.4280     3.3150     4.7540     3.9930    24.3380     2.3550    -3.8470 
   61.2500   109.3480     3.3480     4.6540     4.0510    23.8790     2.3800    -3.6250 
   61.3750   112.9080     3.3700     4.4720     4.1240    23.8110     2.3940    -3.3600 
   61.5000   115.7960     3.4100     4.3080     4.1610    23.9630     2.4020    -3.0720 
   61.6250   118.2340     3.5280     4.2780     4.1200    24.2460     2.4090    -2.7940 
   61.7500   120.0260     3.8140     4.4880     4.1230    24.5410     2.4230    -2.6550 
   61.8750   118.2960     4.4480     5.1120     5.0290    24.7560     2.4410    -2.9090 
   62.0000   110.0080     5.5090     6.1880     7.6490    24.8570     2.4610    -3.5310 
   62.1250    96.9310     7.0310     7.7170    11.2270    24.9120     2.4820    -4.5330 
   62.2500    84.2080     8.8730     9.5320    11.2830    24.9010     2.4990    -5.8380 
   62.3750    77.3490    10.5990    11.1590    16.1770    24.8150     2.5010    -7.5410 
   62.5000    74.4290    11.7200    12.0690    22.3980    24.5420     2.4740    -9.5220 
   62.6250    71.7620    12.0070    12.0490    20.4200    24.5130     2.4140   -11.6780 
   62.7500    67.5650    11.5630    11.3280    11.7630    24.8030     2.3350   -13.8730 
   62.8750    64.4370    10.7220    10.3750     8.9080    25.2740     2.2650   -15.8660 
   63.0000    64.9000     9.9330     9.5720     8.3950    25.6120     2.2220   -17.5770 
   63.1250    66.9230     9.4140     9.0450     8.6250    25.7340     2.2030   -18.9880 
   63.2500    67.1410     9.2520     8.8200     8.9050    25.7180     2.1950   -20.0840 
   63.3750    63.3180     9.4350     8.8630     9.2810    25.6380     2.1890   -20.7600 
   63.5000    60.7010     9.7490     9.0180     9.2520    25.4500     2.1860   -21.0420 
   63.6250    62.7700    10.0640     9.2180     9.0760    24.9680     2.1920   -20.9930 
   63.7500    67.1310    10.3390     9.4520     9.3640    24.2120     2.2070   -20.6860 
   63.8750    69.6100    10.6220     9.7250     9.4910    23.8170     2.2200   -20.1440 
   64.0000    69.7320    10.9520    10.0110     9.7260    23.7440     2.2190   -19.4530 
   64.1250    68.8610    11.2810    10.2700     9.7760    23.8990     2.2030   -18.5930 
   64.2500    67.8850    11.5070    10.4450     9.7480    24.2070     2.1820   -17.6060 
   64.3750    69.3010    11.5070    10.4580     9.4470    24.3350     2.1710   -16.5160 
   64.5000    71.5200    11.3160    10.3130     8.9610    24.0670     2.1760   -15.4780 
   64.6250    70.1070    11.0140    10.0480     8.7460    23.6590     2.1960   -14.5510 
   64.7500    67.0750    10.6960     9.7330     9.0060    23.3670     2.2260   -13.7630 
   64.8750    67.5830    10.4690     9.4590     9.3610    23.2680     2.2580   -13.2080 
   65.0000    67.4170    10.3850     9.2740     9.4790    23.2400     2.2830   -12.8640 
   65.1250    63.9170    10.4620     9.1950     9.3710    23.2810     2.2930   -12.9170 
