~V
VERS. 2.00: Ver 2.00
~W
STRT.M 50.0000:
STOP.M 281.0000:
STEP.M 0.1250:
NULL. -999.2500:
UWI. F11064:
~C
DEPT.M :
SP.MV :
GR.API :
RML.OHMM :
RI. :
RXO.OHMM :
CALI.CM :
DEN.GM/CC :
~A
# ...
   61.2500    29.3650    45.7270     0.2710     0.2720     0.2280    23.2470     2.2840 
   61.3750    27.5960    43.2670     0.2850     0.2630     0.2230    23.3980     2.3020 
   61.5000    25.6000    41.6400     0.3080     0.2490     0.2180    23.5450     2.3330 
   61.6250    23.3530    42.0900     0.3090     0.2390     0.2160    23.6180     2.3750 
   61.7500    20.8620    43.3190     0.2930     0.2260     0.2100    23.7800     2.4180 
   61.8750    18.0640    43.3250     0.2620     0.2110     0.2070    23.9120     2.4520 
   62.0000    14.9400    41.7340     0.2020     0.0310     0.2920    23.2530     2.4600 
   62.1250    11.4920    41.8590     0.1210     0.0410     0.8810    23.0300     2.4090 
   62.2500     7.9530    44.6990     0.1720     0.1040     2.3690    22.6560     2.3000 
   62.3750     4.5000    47.2580     0.3440     0.2670     3.1730    22.5500     2.1680 
   62.5000     1.2400    47.2220     0.6640     0.5890     3.3650    22.5330     2.0640 
   62.6250    -1.7470    46.0730     1.2000     1.1690     3.4340    22.5330     2.0330 
   62.7500    -4.4040    47.3400     1.9000     1.9860     3.6230    22.5330     2.0600 
   62.8750    -6.6130    50.4440     2.6840     3.0030     3.9520    22.5420     2.1210 
   63.0000    -8.3520    54.2920     3.5100     4.1640     4.3240    22.7580     2.1820 
   63.1250    -9.5710    57.6410     4.3930     5.4130     5.0080    22.8860     2.2050 
   63.2500   -10.4600    59.4250     5.2950     6.6220     6.7560    23.1860     2.1920 
   63.3750   -11.1470    60.9930     6.0760     7.5860    10.0830    23.7870     2.1680 
   63.5000   -11.7490    63.8770     6.5010     8.0560    11.8110    24.3820     2.1500 
   63.6250   -12.3260    69.9750     6.3410     7.8220     8.1100    24.6790     2.1400 
   63.7500   -12.8990    77.0600     5.8590     7.1930     5.7500    24.8670     2.1270 
   63.8750   -13.4670    81.1440     5.3560     6.4870     4.7430    24.9390     2.1140 
   64.0000   -14.0050    80.8530     5.0340     5.9410     4.6130    24.3800     2.1120 
   64.1250   -14.5170    79.2100     4.9960     5.7010     4.5630    23.5050     2.1250 
   64.2500   -14.9990    79.6160     5.1550     5.7000     4.4050    22.9980     2.1350 
   64.3750   -15.4210    81.4660     5.4130     5.8500     4.1720    22.7710     2.1330 
   64.5000   -15.7420    82.2580     5.6540     6.0390     4.1890    22.5390     2.1310 
   64.6250   -15.9570    78.6600     5.7500     6.1330     4.3420    22.3910     2.1390 
   64.7500   -16.1070    73.9510     5.7230     6.1100     4.5880    22.4960     2.1510 
   64.8750   -16.2120    72.7840     5.6860     6.0530     4.7780    22.8780     2.1610 
   65.0000   -16.2650    76.4960     5.7960     6.1170     4.9130    23.4970     2.1670 
   65.1250   -16.2870    80.5890     6.2540     6.5170     5.2440    24.2350     2.1630 
   65.2500   -16.3190    80.2580     7.0760     7.2730     6.8480    24.8400     2.1510 
   65.3750   -16.3590    76.4470     8.1880     8.3010     8.4140    25.0280     2.1380 
   65.5000   -16.4090    71.1420     9.3310     9.3440    10.0330    24.6660     2.1310 
   65.6250   -16.4920    66.5400     9.9420     9.9200     8.9030    23.3630     2.1350 
   65.7500   -16.6210    64.8260     9.8130     9.8480     7.2820    22.2690     2.1480 
   65.8750   -16.7730    65.3990     9.1600     9.2610     6.5840    21.7360     2.1650 
   66.0000   -16.9440    67.5680     8.4120     8.4960     6.4460    21.4880     2.1760 
   66.1250   -17.0970    69.7530     7.9240     7.8980     6.4800    21.2780     2.1740 
   66.2500   -17.2260    71.0630     7.7110     7.5600     6.5690    21.2240     2.1600 
   66.3750   -17.3460    70.8750     7.6670     7.4270     6.6640    21.3510     2.1380 
   66.5000   -17.4600    69.5580     7.6590     7.3790     6.6800    21.5710     2.1120 
   66.6250   -17.5370    69.6390     7.5920     7.3050     6.6610    21.6200     2.0920 
   66.7500   -17.5960    70.8800     7.4690     7.1730     6.5280    21.5110     2.0820 
   66.8750   -17.6640    70.7350     7.3220     7.0020     6.2670    21.2070     2.0830 
   67.0000   -17.7380    69.5680     7.1740     6.8290     5.9780    20.8410     2.0960 
   67.1250   -17.7990    69.2180     7.0350     6.6930     5.8090    20.6090     2.1160 
   67.2500   -17.8800    67.4670     6.9150     6.5950     5.7470    20.4950     2.1360 
   67.3750   -17.9990    63.0970     6.8290     6.5230     5.7840    20.4860     2.1520 
   67.5000   -18.1080    61.6240     6.7860     6.4570     5.9140    20.6510     2.1640 
   67.6250   -18.1840    68.5810     6.7720     6.3750     6.0880    21.0950     2.1620 
   67.7500   -18.2230    76.1180     6.7590     6.2740     6.1510    21.6860     2.1490 
   67.8750   -18.2440    79.3240     6.7460     6.1640     5.9790    22.1240     2.1350 
   68.0000   -18.2580    79.8370     6.7390     6.0630     5.7570    22.0820     2.1300 
   68.1250   -18.2610    81.1800     6.7440     5.9860     5.6950    21.7830     2.1370 
   68.2500   -18.2420    81.6870     6.7410     5.9250     5.6540    21.4430     2.1480 
   68.3750   -18.2000    80.2800     6.7030     5.8630     5.6620    21.0840     2.1590 
   68.5000   -18.1640    78.9090     6.6170     5.7780     5.6970    20.7840     2.1680 
   68.6250   -18.1450    78.5360     6.5090     5.6710     5.6960    20.7470     2.1750 
   68.7500   -18.1170    78.5300     6.4390     5.5760     5.6790    20.8690     2.1780 
   68.8750   -18.0800    77.6330     6.4620     5.5350     5.6670    20.9390     2.1800 
   69.0000   -18.0400    75.7770     6.6290     5.5910     5.6710    20.7400     2.1880 
   69.1250   -17.9770    73.5800     7.0190     5.8150     5.7840    20.4610     2.2060 
   69.2500   -17.8650    70.2350     7.6120     6.2030     5.8450    20.3140     2.2350 
   69.3750   -17.7110    67.2320     8.3500     6.7290     5.8610    20.3360     2.2710 
   69.5000   -17.5430    66.2010     9.1040     7.3040     5.8730    20.4750     2.3090 
   69.6250   -17.3730    69.3210     9.6420     7.7560     5.9380    20.7700     2.3350 
   69.7500   -17.1940    72.3410     9.8230     7.9530     6.0350    21.1640     2.3380 
   69.8750   -16.9960    71.9160     9.6110     7.8480     6.0810    21.5570     2.3090 
   70.0000   -16.8260    69.0870     9.1180     7.5010     6.0710    21.8800     2.2540 
   70.1250   -16.7180    67.8810     8.5510     7.0430     6.0790    22.1330     2.2040 
   70.2500   -16.6540    70.7760     8.1060     6.6320     6.1030    22.2550     2.1740 
   70.3750   -16.6370    74.7330     7.8510     6.3370     6.1870    22.2640     2.1630 
   70.5000   -16.6650    76.3160     7.7640     6.1750     6.3430    22.2540     2.1610 
   70.6250   -16.7170    74.7430     7.7740     6.1290     6.4140    22.3450     2.1620 
   70.7500   -16.7710    74.7100     7.7830     6.1310     6.3460    22.4230     2.1620 
   70.8750   -16.8300    77.5340     7.7700     6.1510     6.2470    22.4010     2.1570 
   71.0000   -16.8700    78.9300     7.7510     6.1820     6.1880    22.2470     2.1450 
   71.1250   -16.9250    76.1200     7.7730     6.2330     6.1970    22.0860     2.1290 
   71.2500   -16.9880    73.2390     7.8490     6.3030     6.2500    21.9920     2.1130 
   71.3750   -17.0380    72.1380     7.9620     6.3850     6.3320    21.9910     2.1000 
   71.5000   -17.0690    70.2160     8.0640     6.4630     6.4330    22.0600     2.0910 
   71.6250   -17.1360    66.5660     8.0830     6.5030     6.6720    22.2960     2.0890 
   71.7500   -17.2450    64.7170     8.0070     6.4840     7.0090    22.7350     2.0920 
   71.8750   -17.3870    65.5340     7.8560     6.3950     7.3670    23.2700     2.0970 
   72.0000   -17.5550    68.4950     7.6780     6.2500     7.4270    23.5550     2.1010 
   72.1250   -17.7390    73.2120     7.5180     6.0810     6.8570    23.0170     2.1080 
   72.2500   -17.9390    77.8300     7.3790     5.9230     6.1850    21.8320     2.1220 
   72.3750   -18.1330    79.1870     7.2560     5.7860     5.9020    20.7940     2.1460 
