~V
VERS. 2.00: Ver 2.00
~W
STRT.M 55.0000:
STOP.M 277.0000:
STEP.M 0.1250:
NULL. -999.2500:
UWI. F11037:
~C
DEPT.M :
SP.MV :
GR.API :
RML.OHMM :
RI. :
RXO.OHMM :
CALI.CM :
DEN.GM/CC :
~A
# ...
  111.2500    -9.1800    93.2140     5.4540     4.6930     6.6620    24.3930     2.3130 
  111.3750    -9.1360   100.6840     5.3220     4.5610     6.5980    24.3600     2.3140 
  111.5000    -9.1950   107.4720     5.1250     4.3500     6.1840    24.4990     2.3310 
  111.6250    -9.2500   108.9970     4.9320     4.1450     6.1540    24.6750     2.3560 
  111.7500    -9.2890   109.1190     4.8080     4.0220     5.4990    24.7570     2.3720 
  111.8750    -9.3270   111.8810     4.7720     3.9970     5.1730    24.7690     2.3730 
  112.0000    -9.3010   114.2970     4.8030     4.0420     5.0450    24.7430     2.3610 
  112.1250    -9.2900   113.2440     4.8510     4.1040     5.0430    24.6810     2.3440 
  112.2500    -9.2670   111.5400     4.8670     4.1250     5.0820    24.6270     2.3310 
  112.3750    -9.2670   110.6690     4.8350     4.0870     5.1150    24.5800     2.3270 
  112.5000    -9.2640   110.8680     4.7700     4.0120     5.3570    24.5410     2.3340 
  112.6250    -9.2560   110.6990     4.7230     3.9520     5.5870    24.5420     2.3530 
  112.7500    -9.2820   112.0970     4.7380     3.9590     5.5200    24.5870     2.3740 
  112.8750    -9.4960   114.3060     4.8330     4.0530     5.3830    24.6600     2.3900 
  113.0000    -9.8800   113.5960     4.9940     4.2230     5.6560    24.7380     2.3940 
  113.1250   -10.0870   108.8760     5.1640     4.4070     6.1790    24.8590     2.3850 
  113.2500   -10.2380   105.0580     5.2790     4.5250     5.6250    24.9940     2.3700 
  113.3750   -10.4590   106.6910     5.3120     4.5500     5.1670    25.0230     2.3560 
  113.5000   -10.6020   111.5050     5.2760     4.4990     5.1310    24.9570     2.3470 
  113.6250   -10.8890   113.7830     5.2180     4.4280     5.2060    24.9170     2.3390 
  113.7500   -11.2030   112.5220     5.1950     4.3970     5.3270    24.8990     2.3280 
  113.8750   -11.1340   109.0860     5.2340     4.4360     5.6770    24.8440     2.3130 
  114.0000   -10.8390   105.5890     5.3280     4.5390     5.9610    24.6990     2.3010 
  114.1250   -10.6690   102.9980     5.4410     4.6610     5.9540    24.5060     2.3030 
  114.2500   -10.4840   100.2120     5.5150     4.7450     5.9410    24.4410     2.3260 
  114.3750   -10.2940    99.9870     5.5030     4.7440     6.0200    24.4420     2.3630 
  114.5000   -10.0850   105.8610     5.3790     4.6240     6.2060    24.4520     2.4040 
  114.6250    -9.7170   115.4410     5.1380     4.3810     5.4560    24.4890     2.4320 
  114.7500    -9.3290   122.0350     4.8430     4.0830     5.0160    24.5720     2.4370 
  114.8750    -9.0960   123.9760     4.5490     3.7890     4.7290    24.6860     2.4230 
  115.0000    -9.0210   122.1440     4.3090     3.5510     4.6360    24.7820     2.3970 
  115.1250    -8.9240   118.0620     4.1680     3.4180     4.7280    24.8120     2.3730 
  115.2500    -8.8310   113.8550     4.1130     3.3760     4.8170    24.7680     2.3600 
  115.3750    -8.6580   109.9440     4.1230     3.3950     4.8810    24.6500     2.3590 
  115.5000    -8.5040   107.2000     4.1700     3.4440     4.9030    24.5020     2.3680 
  115.6250    -8.4500   107.9050     4.2350     3.5080     4.8640    24.4180     2.3800 
  115.7500    -8.4080   111.0080     4.3060     3.5760     4.8120    24.4090     2.3900 
  115.8750    -8.4080   112.5200     4.3730     3.6430     4.8060    24.4560     2.3960 
  116.0000    -8.4670   111.7380     4.4270     3.6980     4.8490    24.5300     2.3950 
  116.1250    -8.5450   111.9610     4.4510     3.7230     4.8800    24.5710     2.3870 
  116.2500    -8.5600   113.6870     4.4510     3.7180     4.9060    24.5960     2.3750 
  116.3750    -8.6600   115.9000     4.4420     3.6980     4.9570    24.5990     2.3640 
  116.5000    -8.8400   117.8590     4.4530     3.6980     4.9990    24.5490     2.3550 
  116.6250    -8.8730   120.3440     4.5190     3.7610     5.0350    24.4800     2.3510 
  116.7500    -9.0050   120.9690     4.6390     3.8800     5.1020    24.4910     2.3460 
  116.8750    -9.3660   117.5750     4.8070     4.0410     5.2510    24.5990     2.3360 
  117.0000    -9.8110   109.8090     5.0290     4.2390     5.4510    24.6690     2.3170 
  117.1250   -10.4570   100.8180     5.3660     4.5360     5.7040    24.5160     2.2870 
  117.2500   -11.2310    92.7170     5.8640     4.9910     6.0830    24.1900     2.2610 
  117.3750   -12.0180    84.8280     6.5610     5.6530     7.0060    23.9100     2.2570 
  117.5000   -12.8810    78.7260     7.4230     6.5090     9.3330    23.7670     2.2850 
  117.6250   -13.8600    75.5090     8.2870     7.4100    13.4020    23.7350     2.3360 
  117.7500   -14.7860    74.3170     8.9050     8.0660    15.1790    23.7300     2.3750 
  117.8750   -15.5390    75.3940     9.1030     8.2620    12.6520    23.7300     2.3770 
  118.0000   -16.0180    78.5090     8.8540     7.9650    10.1640    23.7300     2.3380 
  118.1250   -16.2500    81.6520     8.2730     7.3370     9.1020    23.7300     2.2790 
  118.2500   -16.4730    82.9230     7.6550     6.6980     8.3640    23.7300     2.2330 
  118.3750   -16.6720    83.9050     7.1760     6.2210     7.9970    23.7300     2.2090 
  118.5000   -16.8150    85.0000     6.9270     5.9890     7.9950    23.7300     2.2020 
  118.6250   -16.8230    83.6080     6.9370     6.0260     8.2660    23.7410     2.2000 
  118.7500   -16.7440    82.1380     7.0770     6.1980     8.7270    23.7710     2.1940 
  118.8750   -16.6180    82.0150     7.2340     6.3800     8.7800    23.8120     2.1850 
  119.0000   -16.5720    82.7500     7.3180     6.4670     8.4350    23.8450     2.1790 
  119.1250   -16.6740    83.9450     7.2870     6.4140     8.2020    23.8550     2.1780 
  119.2500   -16.7750    85.8770     7.2140     6.3160     8.1120    23.8580     2.1810 
  119.3750   -16.6890    87.7810     7.1770     6.2630     8.1660    23.8590     2.1890 
  119.5000   -16.4170    87.3440     7.2230     6.3120     8.1190    23.8610     2.1990 
  119.6250   -16.3860    85.7300     7.3420     6.4540     7.9300    23.8600     2.2100 
  119.7500   -16.4360    85.7450     7.4410     6.5770     7.9040    23.8600     2.2180 
  119.8750   -16.4290    87.4680     7.4490     6.5930     7.8060    23.8560     2.2220 
  120.0000   -16.5040    90.6520     7.3350     6.4720     7.6720    23.8410     2.2250 
  120.1250   -16.5760    95.0490     7.1200     6.2440     7.5150    23.8080     2.2270 
  120.2500   -16.6500    97.6850     6.8900     6.0060     7.3840    23.7760     2.2300 
  120.3750   -16.8370    97.4040     6.7080     5.8240     7.2720    23.7340     2.2310 
  120.5000   -17.0890    96.5890     6.6070     5.7290     7.1970    23.7060     2.2280 
  120.6250   -17.2030    95.6520     6.6070     5.7360     6.9670    23.6620     2.2200 
  120.7500   -17.2450    93.3150     6.6660     5.8040     6.8890    23.6270     2.2120 
  120.8750   -17.2870    90.8730     6.7500     5.8960     7.0160    23.6050     2.2070 
  121.0000   -17.3010    91.2370     6.8210     5.9730     7.2050    23.6010     2.2080 
  121.1250   -17.1900    94.4040     6.8460     5.9950     7.2770    23.5970     2.2150 
  121.2500   -17.0270    97.2710     6.8350     5.9740     7.2680    23.5980     2.2210 
  121.3750   -16.9060    98.5700     6.8190     5.9440     7.1990    23.6040     2.2220 
  121.5000   -16.7970    95.7710     6.8330     5.9490     7.1460    23.6150     2.2160 
  121.6250   -16.7530    90.7340     6.9140     6.0290     7.2320    23.6320     2.2030 
  121.7500   -16.7340    87.9580     7.0490     6.1650     7.3260    23.6540     2.1890 
  121.8750   -16.7810    86.5150     7.2190     6.3320     7.3990    23.6590     2.1770 
  122.0000   -16.9090    83.8860     7.4030     6.5090     7.6320    23.6380     2.1700 
  122.1250   -17.1700    80.9150     7.5920     6.6860     7.9350    23.6020     2.1680 
  122.2500   -17.5590    79.3270     7.7740     6.8640     8.1560    23.5710     2.1710 
  122.3750   -18.1120    78.2160     7.9350     7.0260     8.3090    23.5510     2.1760 
