~V
VERS. 2.00: Ver 2.00
~W
STRT.M 57.0000:
STOP.M 278.0000:
STEP.M 0.1250:
NULL. -999.2500:
UWI. F11043:
~C
DEPT.M :
SP.MV :
GR.API :
RML.OHMM :
RI. :
RXO.OHMM :
CALI.CM :
DEN.GM/CC :
~A
# ...
  203.2500   -18.3300    82.4530     7.2740     5.5410     5.9580    24.2630     2.3340 
  203.3750   -17.8850    81.4270     7.3420     5.6720     6.2410    24.2180     2.3400 
  203.5000   -17.3580    77.9550     7.2570     5.6520     6.3140    24.1940     2.3380 
  203.6250   -16.8230    76.4270     7.0870     5.5080     6.1840    24.1980     2.3320 
  203.7500   -16.2840    77.8010     6.9380     5.3390     6.1930    24.2140     2.3340 
  203.8750   -15.8580    79.4040     6.8570     5.2000     6.1740    24.2130     2.3440 
  204.0000   -15.4730    79.1820     6.8570     5.1160     6.0680    24.2000     2.3500 
  204.1250   -15.1780    78.3970     6.9240     5.0810     6.2770    24.2010     2.3500 
  204.2500   -15.0670    79.9980     7.0060     5.0610     6.5770    24.2060     2.3510 
  204.3750   -14.9150    82.4350     7.0660     5.0420     6.6030    24.1980     2.3560 
  204.5000   -14.7460    83.1350     7.1020     5.0270     6.6070    24.1970     2.3620 
  204.6250   -14.6560    80.7460     7.1970     5.0660     7.0140    24.2040     2.3650 
  204.7500   -14.5750    79.2410     7.4760     5.2240     7.3040    24.1970     2.3640 
  204.8750   -14.4830    79.5120     8.0480     5.5680     7.5410    24.1900     2.3600 
  205.0000   -14.3700    79.1790     8.9770     6.1450     8.3570    24.2020     2.3560 
  205.1250   -14.2460    76.6960    10.3090     7.0220    10.6890    24.2070     2.3570 
  205.2500   -14.1350    72.4000    11.8800     8.1310    13.7950    24.2060     2.3660 
  205.3750   -14.0550    68.5940    13.5020     9.3840    15.9900    24.2050     2.3810 
  205.5000   -14.0110    67.2030    14.9790    10.6490    15.8990    24.1880     2.4000 
  205.6250   -14.0020    68.9370    16.1570    11.7800    16.5860    24.1770     2.4260 
  205.7500   -14.0110    69.9530    17.0740    12.7300    20.5530    24.1820     2.4540 
  205.8750   -14.0330    68.4090    17.7690    13.4820    22.5980    24.1990     2.4660 
  206.0000   -14.0660    69.0350    18.3190    14.0640    19.4940    24.2030     2.4390 
  206.1250   -14.1050    74.1360    18.8420    14.5470    20.0270    24.1870     2.3760 
  206.2500   -14.1360    79.4000    19.4650    15.0420    22.1200    24.1850     2.3240 
  206.3750   -14.1560    81.5980    20.3080    15.6460    22.9990    24.1980     2.3000 
  206.5000   -14.1640    80.6300    21.4900    16.4690    21.8870    24.2020     2.2990 
  206.6250   -14.1650    78.4730    23.0730    17.6180    21.9930    24.1930     2.3100 
  206.7500   -14.1650    75.7180    24.8920    19.0100    22.7940    24.1980     2.3180 
  206.8750   -14.1650    73.1630    26.8980    20.6230    24.1990    24.2070     2.3150 
  207.0000   -14.1650    70.5750    29.0830    22.4510    26.1300    24.2030     2.3020 
  207.1250   -14.1650    68.7820    31.3830    24.4480    28.4810    24.2060     2.2890 
  207.2500   -14.1690    68.6140    33.6870    26.4700    31.0600    24.1940     2.2810 
  207.3750   -14.1800    69.6390    36.0340    28.5000    33.0760    24.1820     2.2730 
  207.5000   -14.2040    70.4250    38.6030    30.6540    32.9460    24.1840     2.2620 
  207.6250   -14.2520    69.2410    41.8710    33.2880    31.6050    24.2010     2.2490 
  207.7500   -14.3310    66.4170    46.3040    36.7880    34.4140    24.1970     2.2360 
  207.8750   -14.3740    64.4710    52.3840    41.6270    44.3190    24.1920     2.2260 
  208.0000   -14.3980    65.2390    60.2800    48.0810    62.2790    24.2030     2.2210 
  208.1250   -14.4360    66.8370    69.6890    56.0920    76.5280    24.2030     2.2200 
  208.2500   -14.4840    65.9770    79.0180    64.3880    83.1150    24.1960     2.2200 
  208.3750   -14.5580    62.9980    86.5640    71.5520    87.8550    24.2020     2.2170 
  208.5000   -14.6670    61.2980    90.9950    76.3460    93.9170    24.2020     2.2130 
  208.6250   -14.7580    62.8220    91.6710    77.9640    95.7460    24.1830     2.2060 
  208.7500   -14.8280    64.8060    89.9730    77.3800    88.5130    24.1800     2.1970 
  208.8750   -14.8990    65.6550    86.5080    75.1060    81.8490    24.1950     2.1850 
  209.0000   -14.9050    65.8520    81.6130    71.4730    82.1070    24.2050     2.1710 
  209.1250   -14.8410    65.0350    90.7680    66.7700    78.5620    24.2040     2.1640 
  209.2500   -14.7770    63.2690    83.3390    61.8040    72.1280    24.2110     2.1690 
  209.3750   -14.7400    62.2900    76.6800    57.2830    62.2700    24.2070     2.1840 
  209.5000   -14.7220    63.3400    71.7140    53.8910    54.5020    24.1900     2.2010 
  209.6250   -14.7540    64.4490    69.4290    52.3930    53.4200    24.1930     2.2080 
  209.7500   -14.8190    63.7780    69.5080    52.6480    57.2740    24.1990     2.2060 
  209.8750   -14.8760    62.6780    71.5250    54.4550    62.8880    24.1910     2.2030 
  210.0000   -14.9600    62.5450    74.5970    57.2550    73.4220    24.1850     2.1990 
  210.1250   -15.0180    63.4660    77.2600    59.9980    91.6160    24.1900     2.1900 
  210.2500   -15.0150    63.0810    78.3650    61.6940    81.4970    24.1880     2.1770 
  210.3750   -14.9750    59.7750    77.5420    61.9310    69.2730    24.1970     2.1650 
  210.5000   -14.9540    57.8890    75.0970    60.7920    61.9560    24.1980     2.1600 
  210.6250   -14.9430    61.6390    71.7250    58.6380    55.9150    24.1870     2.1670 
  210.7500   -14.9690    65.9130    68.3430    56.1980    54.8040    24.1840     2.1820 
  210.8750   -15.0500    65.8930    65.3560    53.8440    54.9430    24.1770     2.1980 
  211.0000   -15.1550    62.2780    63.2100    51.9500    53.6800    24.1530     2.2080 
  211.1250   -15.2420    59.8890    63.1980    51.4820    52.5700    24.1510     2.2110 
  211.2500   -15.3530    60.6040    66.3080    53.2750    52.5700    24.1420     2.2110 
  211.3750   -15.5010    62.8240    73.6260    58.2920    56.0060    24.1660     2.2120 
  211.5000   -15.6370    65.0980    86.0960    67.4850    66.2840    24.1720     2.2110 
  211.6250   -15.7990    65.0570   105.0130    82.1840    97.5740    24.1480     2.2070 
  211.7500   -15.9880    63.2260   127.9970   100.5150   166.5830    24.1650     2.2000 
  211.8750   -16.1730    60.5340   151.4250   119.5960   207.0170    24.1920     2.1910 
  212.0000   -16.4060    58.4880   170.7740   135.8500   179.9040    24.1950     2.1820 
  212.1250   -16.7100    58.5660   182.6430   146.3020   172.0830    24.1750     2.1800 
  212.2500   -16.9800    59.7250   190.3750   153.0250   200.2120    24.1770     2.1860 
  212.3750   -17.1910    60.3990   197.7560   158.8520   285.1300    24.1530     2.2000 
  212.5000   -17.3770    58.4850   207.1420   165.9650   318.6340    24.1470     2.2180 
  212.6250   -17.4870    54.0580   218.2680   174.7410   246.4370    24.1710     2.2360 
  212.7500   -17.5540    52.8400   228.2340   183.2150   204.2880    24.1590     2.2490 
  212.8750   -17.6210    57.5800   234.1730   189.3060   205.0530    24.1470     2.2490 
  213.0000   -17.6570    64.0060   233.4690   190.9960   211.0500    24.1710     2.2340 
  213.1250   -17.7550    65.1740   223.5220   185.9470   207.9350    24.1650     2.2110 
  213.2500   -17.9200    62.8480   207.6380   175.8060   189.0730    24.1470     2.1940 
  213.3750   -18.0710    60.3930   189.8650   163.1030   162.6300    24.1650     2.1880 
  213.5000   -18.1950    59.4030   174.2240   150.9800   145.1970    24.1710     2.1900 
  213.6250   -18.3060    60.3740   163.8980   142.5730   138.9020    24.1400     2.1960 
  213.7500   -18.3650    61.7810   157.8300   137.8850   148.9930    24.1500     2.2030 
  213.8750   -18.4300    62.3370   153.8650   135.4360   164.0150    24.1840     2.2110 
  214.0000   -18.5240    61.9730   149.2120   132.8060   162.2880    24.1970     2.2150 
  214.1250   -18.5780    62.8720   141.2590   127.3600   146.6520    24.1860     2.2100 
  214.2500   -18.6430    64.9310   130.6790   119.1880   139.2230    24.1900     2.1990 
  214.3750   -18.7450    65.7040   119.3350   109.6750   125.8320    24.1950     2.1910 
