~V
VERS. 2.00: Ver 2.00
~W
STRT.M 50.0000:
STOP.M 229.0000:
STEP.M 0.1250:
NULL. -999.2500:
UWI. F11009:
~C
DEPT.M :
DEN.GM/CC :
GR.API :
RML.OHMM :
RI. :
RXO.OHMM :
CALI.CM :
SP.MV :
~A
# ...
  218.7500     2.5200    90.0980    11.0890    10.5840    13.3510    24.3070     2.3240 
  218.8750     2.5170    90.0980    11.3090    10.8240    15.3780    24.3610     2.4410 
  219.0000     2.5030    90.0980    11.4430    10.9790    18.0760    24.4320     2.5280 
  219.1250     2.4850    90.0980    11.4780    11.0290    16.7500    24.4300     2.5580 
  219.2500     2.4690    90.0980    11.4610    11.0210    15.6290    24.3910     2.5000 
  219.3750     2.4550    90.0980    11.3790    10.9450    14.1550    24.3440     2.4180 
  219.5000     2.4430    90.0980    11.2630    10.8290    13.8810    24.3070     2.3200 
  219.6250     2.4390    90.0980    11.1480    10.7080    14.2230    24.3180     2.1850 
  219.7500     2.4470    90.0980    11.0840    10.6280    14.5180    24.3270     2.0340 
  219.8750     2.4700    90.0980    11.1400    10.6580    13.9810    24.2600     1.9620 
  220.0000     2.5000    90.0980    11.3200    10.8120    13.3930    24.1450     1.8300 
  220.1250     2.5180    90.0980    11.5880    11.0690    12.9990    24.0740     1.6890 
  220.2500     2.5110    90.0980    11.8550    11.3570    12.6600    24.0170     1.5820 
  220.3750     2.4770    90.0980    11.9640    11.5270    12.3070    23.8530     1.5060 
  220.5000     2.4250    90.0980    11.8360    11.4770    11.8770    23.8850     1.4120 
  220.6250     2.3750    90.0980    11.4680    11.1780    11.6690    24.0670     1.3510 
  220.7500     2.3410    90.0980    10.9430    10.6850    11.3960    24.2890     1.2930 
  220.8750     2.3300    90.0980    10.4180    10.1320    11.2370    24.3260     1.2110 
  221.0000     2.3400    90.0980    10.0360     9.6770    11.0780    24.2850     1.2170 
  221.1250     2.3630    90.0980     9.8590     9.3980    10.9220    24.2680     1.2660 
  221.2500     2.3880    90.0980     9.8870     9.3190    11.1070    24.2680     1.2360 
  221.3750     2.4110    90.0980    10.0850     9.4330    12.1030    24.3510     1.1570 
  221.5000     2.4350    90.0980    10.3470     9.6470    13.2730    24.3490     1.1230 
  221.6250     2.4630    90.0980    10.6040     9.8940    14.1120    24.2680     1.1120 
  221.7500     2.4930    90.0980    10.8050    10.1190    14.2410    24.2200     1.1610 
  221.8750     2.5160    90.0980    10.9030    10.2630    13.2080    24.2320     1.2340 
  222.0000     2.5220    90.0980    10.9020    10.3130    12.5020    24.2230     1.2420 
  222.1250     2.5040    90.0980    10.8080    10.2640    12.5500    24.1870     1.2600 
  222.2500     2.4710    90.0980    10.6400    10.1260    13.6790    24.2020     1.3550 
  222.3750     2.4380    90.0980    10.4350     9.9260    13.2780    24.2200     1.5390 
  222.5000     2.4150    90.0980    10.2500     9.7210    11.9060    24.2710     1.6980 
  222.6250     2.4110    90.0980    10.1260     9.5530    11.1350    24.3320     1.7620 
  222.7500     2.4140    90.0980    10.0840     9.4500    10.9670    24.3450     1.7580 
  222.8750     2.4160    90.0980    10.1280     9.4300    10.4230    24.3170     1.7360 
  223.0000     2.4100    90.0980    10.2180     9.4670     9.6620    24.3190     1.7990 
  223.1250     2.4040    90.0980    10.3260     9.5380     9.2770    24.3480     1.8470 
  223.2500     2.4100    90.0980    10.4270     9.6170     9.0470    24.3670     1.8520 
  223.3750     2.4290    90.0980    10.5020     9.6830     8.7020    24.3100     1.8680 
  223.5000     2.4480    90.0980    10.5520     9.7270     8.4580    24.1870     1.9590 
  223.6250     2.4590    90.0980    10.5800     9.7500     8.3380    24.0920     2.1590 
  223.7500     2.4600    90.0980    10.5930     9.7590     7.7710    24.0910     2.3610 
  223.8750     2.4590    90.0980    10.5970     9.7620     7.3100    24.1610     2.4590 
  224.0000     2.4660    90.0980    10.5980     9.7640     7.6890    24.1760     2.4490 
  224.1250     2.4800    90.0980    10.5990     9.7640     8.6910    24.1500     2.4350 
  224.2500     2.4920    90.0980    10.5990     9.7640     9.8500    24.1230     2.4740 
  224.3750     2.4970    90.0980    10.5990     9.7640    11.1820    24.1620     2.5220 
  224.5000     2.5010    90.0980    10.5990     9.7640    12.8520    24.2290     2.4150 
  224.6250     2.5090    90.0980    10.5990     9.7640    14.3890    24.2800     2.1990 
  224.7500     2.5220    90.0980    10.5990     9.7640    14.5750    24.2570     2.0280 
  224.8750     2.5290    90.0980    10.5990     9.7640    12.8220    24.2450     1.9790 
  225.0000     2.5200    90.0980    10.5990     9.7640    12.2790    24.2000     1.9560 
  225.1250     2.4970    90.0980    10.5990     9.7640    12.2960    24.1880     1.9130 
  225.2500     2.4710    90.0980    10.5990     9.7640    12.5720    24.2080     1.8390 
  225.3750     2.4630    90.0980    10.5990     9.7640    12.1770    24.2130     1.7140 
  225.5000     2.4730    90.0980    10.5990     9.7640    11.7560    24.1340     1.7140 
  225.6250     2.4930    90.0980    10.5990     9.7640    11.8120    24.0550     1.7140 
  225.7500     2.5080    90.0980    10.5990     9.7640    11.4130    23.9830  -999.2500 
  225.8750     2.5050    90.0980    10.5990     9.7640    11.0100    23.8180  -999.2500 
  226.0000     2.4830    90.0980    10.5990     9.7640     9.8930    23.5140  -999.2500 
  226.1250     2.4510    90.0980    10.5990     9.7640     8.5050    23.2310  -999.2500 
  226.2500     2.4240    90.0980    10.5990     9.7640     7.7890    22.8950  -999.2500 
  226.3750     2.4160    90.0980    10.5990     9.7640     7.7590    22.4580  -999.2500 
  226.5000     2.4250    90.0980    10.5990     9.7640     7.9230    22.3980  -999.2500 
  226.6250     2.4420    90.0980    10.5990     9.7640     8.0110    22.6740  -999.2500 
  226.7500     2.4550    90.0980    10.5990     9.7640     7.9120    22.9640  -999.2500 
  226.8750     2.4530    90.0980    10.5990     9.7640     7.4870    23.0750  -999.2500 
  227.0000     2.4370    90.0980    10.5990     9.7640     7.2820    23.1720  -999.2500 
  227.1250     2.4110    90.0980    10.5990     9.7640     7.5760    23.2940  -999.2500 
  227.2500     2.3740    90.0980    10.5990     9.7640     7.9300    23.3600  -999.2500 
  227.3750     2.3260    90.0980    10.5990     9.7640     8.4430    23.1650  -999.2500 
  227.5000     2.2710    90.0980    10.5990     9.7640     8.6490    22.7220  -999.2500 
  227.6250     2.2140    90.0980    10.5990     9.7640     8.8250    22.3510  -999.2500 
  227.7500     2.1640    90.0980    10.5990     9.7640     9.0140    22.2180  -999.2500 
  227.8750     2.1230    90.0980    10.5990     9.7640     8.6830    22.3050  -999.2500 
  228.0000     2.0890    90.0980    10.5990     9.7640     7.9520    22.5490  -999.2500 
  228.1250     2.0610    90.0980    10.5990     9.7640     7.4260    22.9260  -999.2500 
  228.2500     2.0390    90.0980    10.5990     9.7640     7.6320    23.2960  -999.2500 
  228.3750     2.0240    90.0980    10.5990     9.7640     7.9490    23.4630  -999.2500 
  228.5000     2.0200    90.0980    10.5990     9.7640     8.0750    23.5050  -999.2500 
  228.6250     2.0230    90.0980    10.5990     9.7640     8.0870    23.5080  -999.2500 
  228.7500     2.0180    90.0980    10.5990     9.7640     8.0870    23.5080  -999.2500 
  228.8750  -999.2500    90.0980    10.5990     9.7640     8.0880    23.5080  -999.2500 
  229.0000  -999.2500  -999.2500  -999.2500  -999.2500  -999.2500  -999.2500  -999.2500 
