~V
VERS. 2.00: Ver 2.00
~W
STRT.M 50.0000:
STOP.M 229.0000:
STEP.M 0.1250:
NULL. -999.2500:
UWI. F11009:
~C
DEPT.M :
DEN.GM/CC :
GR.API :
RML.OHMM :
RI. :
RXO.OHMM :
CALI.CM :
SP.MV :
~A
# ...
  162.5000     2.1820    81.6070   614.3430   534.9400    91.6630    23.4870   -16.2850 
  162.6250     2.1640    84.5670   692.5900   600.5630    84.1930    21.3290   -15.6610 
  162.7500     2.1540    82.3270   752.8830   656.9150    85.4050    19.4770   -15.0400 
  162.8750     2.1560    78.9430   758.6240   675.7100    86.6770    18.4980   -14.4430 
  163.0000     2.1680    77.4730   687.1660   633.7350    93.9750    18.3010   -13.8830 
  163.1250     2.1850    78.7120   551.5160   529.6110    94.1320    18.5750   -13.4940 
  163.2500     2.2020    80.3180   412.8660   409.8570    84.5180    18.8980   -13.3050 
  163.3750     2.2160    80.0600   304.1940   306.7410    80.2900    19.0170   -13.3470 
  163.5000     2.2250    78.9000   233.1960   234.3650    81.0430    19.0390   -13.4680 
  163.6250     2.2270    79.7280   198.3010   195.2500    77.0970    19.1080   -13.5970 
  163.7500     2.2250    82.5380   184.1550   176.6190    73.7920    19.3180   -13.7700 
  163.8750     2.2180    82.8460   180.5000   171.1790    70.2460    19.6870   -13.9900 
  164.0000     2.2080    78.2920   176.1740   170.9570    65.7630    20.1070   -14.2920 
  164.1250     2.1980    74.7360   161.1550   165.4480    56.4230    20.4040   -14.5560 
  164.2500     2.1940    77.0230   136.5360   149.1880    54.9070    20.5740   -14.7320 
  164.3750     2.1990    81.8000   107.3460   123.5530    53.5570    20.5860   -14.8040 
  164.5000     2.2130    83.4130    80.0350    94.9360    52.1050    20.6280   -14.8450 
  164.6250     2.2270    83.5860    59.8660    71.3600    49.8710    20.9130   -14.8720 
  164.7500     2.2340    86.3780    46.4310    54.9640    46.9480    21.2610   -14.8730 
  164.8750     2.2360    89.4380    38.3410    44.7310    44.0250    21.4950   -14.8610 
  165.0000     2.2360    89.5860    33.6020    38.6130    40.3890    21.6220   -14.8070 
  165.1250     2.2410    88.7830    30.9450    35.0620    29.8700    21.7660   -14.7080 
  165.2500     2.2480    90.5520    29.3470    32.7150    30.4230    21.8930   -14.6470 
  165.3750     2.2550    93.4530    28.7820    31.3890    29.2240    21.8880   -14.6330 
  165.5000     2.2590    95.9640    29.5950    31.3160    28.5990    21.7870   -14.6440 
  165.6250     2.2600    94.9990    32.8030    33.4050    30.8500    21.6260   -14.6660 
  165.7500     2.2590    89.2560    38.8040    38.1410    35.2020    21.5070   -14.7260 
  165.8750     2.2550    82.4890    48.1190    46.2020    40.4510    21.4790   -14.8140 
  166.0000     2.2480    79.8640    60.9360    57.9380    45.6450    21.4760   -14.9020 
  166.1250     2.2390    81.9230    77.2170    73.3160    49.3080    21.4300   -15.0380 
  166.2500     2.2310    81.7440    95.0210    90.0620    51.0820    21.3280   -15.1850 
  166.3750     2.2270    79.8900   112.5430   106.0370    50.3520    21.2460   -15.3360 
  166.5000     2.2300    78.8580   128.0900   119.4120    48.7170    21.2240   -15.4490 
  166.6250     2.2420    78.5700   139.9320   128.6250    47.7920    21.2600   -15.5040 
  166.7500     2.2600    77.5870   148.0360   134.1980    47.2290    21.3280   -15.5120 
  166.8750     2.2740    76.7460   152.0620   136.2510    47.8210    21.4220   -15.4680 
  167.0000     2.2680    78.2190   151.7380   134.8550    49.0380    21.5460   -15.3980 
  167.1250     2.2300    79.4420   146.6540   129.9110    51.5990    21.7600   -15.3120 
  167.2500     2.1700    78.1160   138.6180   122.9420    57.5440    22.2150   -15.2290 
  167.3750     2.1100    75.9140   129.0150   115.1230    69.7510    22.9760   -15.1500 
  167.5000     2.0710    73.7280   119.0300   107.4080    71.9530    23.6960   -15.1220 
  167.6250     2.0700    71.9750   109.5820   100.4530    79.1420    23.8260   -15.1280 
  167.7500     2.0940    72.3780   101.1460    94.3810    79.9200    23.5840   -15.1410 
  167.8750     2.1280    77.4650    94.1500    89.4150    76.4190    23.2710   -15.1960 
  168.0000     2.1580    82.7360    88.8600    85.7960    72.8780    23.0350   -15.2910 
  168.1250     2.1730    82.1870    85.2120    83.6390    70.3730    22.9810   -15.3320 
  168.2500     2.1750    79.6970    81.8660    81.8790    65.1170    23.0120   -15.3260 
  168.3750     2.1730    78.5160    77.4130    79.1170    61.8510    23.0790   -15.2680 
  168.5000     2.1750    77.3920    70.6930    73.9180    61.2100    23.1210   -15.1530 
  168.6250     2.1900    74.4730    61.1850    65.2050    58.8960    23.1020   -15.0540 
  168.7500     2.2170    73.9390    50.5830    54.5750    50.1820    23.0550   -14.9580 
  168.8750     2.2540    77.0240    40.6550    43.9780    37.5000    22.9930   -14.8290 
  169.0000     2.2940    81.7360    32.9290    35.2450    27.9830    22.8920   -14.6820 
  169.1250     2.3270    85.7310    28.8630    29.9850    21.8140    22.6560   -14.6350 
  169.2500     2.3460    88.1600    28.2400    27.9950    18.2630    22.3950   -14.6630 
  169.3750     2.3450    88.7870    31.1040    29.3640    18.2450    22.3160   -14.7710 
  169.5000     2.3190    85.3610    37.3780    34.2890    23.1380    22.4790   -14.9270 
  169.6250     2.2630    78.1720    46.8780    43.2600    34.2150    22.8830   -15.1150 
  169.7500     2.1890    72.6320    57.3760    54.3920    47.1350    23.3820   -15.3480 
  169.8750     2.1190    73.2380    67.0710    65.1730    54.6280    23.8920   -15.6280 
  170.0000     2.0750    76.7870    74.4860    72.8330    51.9590    24.3480   -15.9450 
  170.1250     2.0790    77.2120    78.2330    75.2640    38.8850    24.3560   -16.2000 
  170.2500     2.1080    75.7380    79.2070    74.4160    25.0030    23.7660   -16.3920 
  170.3750     2.1300    76.0720    78.5630    72.4350    17.5410    22.9670   -16.5170 
  170.5000     2.1220    77.9370    77.4280    70.9450    16.0900    22.8760   -16.6120 
  170.6250     2.0840    78.1540    76.4220    70.6570    19.0000    23.6790   -16.6780 
  170.7500     2.0550    75.9970    75.8420    71.0460    23.4600    24.3500   -16.7280 
  170.8750     2.0650    73.6280    75.8760    71.6080    25.2510    24.0720   -16.7740 
  171.0000     2.1220    74.0250    76.4140    72.0700    20.1800    23.2370   -16.7810 
  171.1250     2.2060    77.2780    77.6830    72.6910    16.2400    22.5420   -16.7860 
  171.2500     2.2730    78.2850    80.1300    74.1800    15.3370    22.1740   -16.7750 
  171.3750     2.2900    76.3250    84.3280    77.3050    16.6360    22.1640   -16.8110 
  171.5000     2.2460    73.8230    90.5540    82.5600    20.2970    22.6470   -16.8760 
  171.6250     2.1520    71.5900    98.6590    90.0220    27.4800    23.7210   -16.8960 
  171.7500     2.0590    68.7910   107.0410    98.1720    38.5280    24.8120   -16.8320 
  171.8750     2.0080    67.9130   114.1340   105.4070    49.2620    25.3800   -16.7340 
  172.0000     2.0180    70.7850   118.6940   110.2970    41.8940    25.0030   -16.6620 
  172.1250     2.0840    72.7740   120.0350   111.8210    26.3730    23.9100   -16.6540 
  172.2500     2.1610    72.3730   119.6390   111.2600    17.7780    23.0770   -16.7000 
  172.3750     2.2240    71.6440   118.7650   109.9210    15.3850    22.6150   -16.7080 
  172.5000     2.2630    72.3780   118.0620   108.7160    15.5730    22.3630   -16.6930 
  172.6250     2.2790    74.7500   116.8810   107.4410    16.8860    22.2370   -16.7090 
  172.7500     2.2880    75.4270   114.0840   105.0670    18.1090    22.2250   -16.8130 
  172.8750     2.2930    73.4600   109.2970   101.0210    18.6680    22.2000   -16.9260 
  173.0000     2.2950    70.8850   103.4650    95.8180    19.1640    22.1030   -17.0520 
  173.1250     2.2950    69.7090    99.0480    91.4460    19.7860    22.1060   -17.2060 
  173.2500     2.2950    68.8830    97.9340    89.8750    19.8470    22.2680   -17.3760 
  173.3750     2.2960    67.0290   100.7100    91.9990    20.2050    22.3540   -17.5500 
  173.5000     2.2950    66.6630   106.3790    97.2060    22.6400    22.3100   -17.6550 
  173.6250     2.2870    67.6070   112.0010   103.0340    28.1800    22.1760   -17.7290 
