~V
VERS. 2.00: Ver 2.00
~W
STRT.M 53.0000:
STOP.M 279.0000:
STEP.M 0.1250:
NULL. -999.2500:
UWI. F11068:
~C
DEPT.M :
GR.API :
RML.OHMM :
RI. :
RXO.OHMM :
CALI.CM :
SP.MV :
DEN.GM/CC :
~A
# ...
  210.5000    62.8680    91.7290    93.7040    86.6930    25.0360   -23.9100     2.2400 
  210.6250    67.3540    90.0570    91.3450    85.4910    24.7820   -23.8880     2.2200 
  210.7500    69.6860    90.1860    90.9900    92.2230    24.4790   -23.8330     2.2110 
  210.8750    68.8950    91.6600    92.3680   103.7570    24.2960   -23.7910     2.2160 
  211.0000    65.7590    93.5910    94.6850   114.1200    24.3550   -23.8410     2.2290 
  211.1250    61.7800    94.3890    96.2000   118.4030    24.8270   -23.9300     2.2390 
  211.2500    58.8440    92.9570    95.3970   120.9580    25.4130   -24.0730     2.2430 
  211.3750    57.4230    88.9360    91.6660   120.8260    25.7940   -24.2200     2.2450 
  211.5000    58.8650    82.8320    85.4110   106.9110    25.8890   -24.3590     2.2480 
  211.6250    62.6080    75.7710    77.8190    84.2160    25.8890   -24.4320     2.2540 
  211.7500    65.0550    69.1580    70.5710    71.2280    25.8730   -24.4710     2.2600 
  211.8750    64.6740    63.6800    64.5080    71.7830    25.8050   -24.5750     2.2620 
  212.0000    62.5200    59.5640    59.9400    69.7160    25.6910   -24.7180     2.2620 
  212.1250    62.7280    56.7870    56.9180    59.9560    25.6480   -24.8170     2.2600 
  212.2500    64.8050    54.6520    54.7080    52.4900    25.6220   -24.8270     2.2620 
  212.3750    67.0110    52.6460    52.7230    55.2650    25.5910   -24.8010     2.2690 
  212.5000    67.9920    50.3900    50.4800    61.2980    25.5500   -24.7840     2.2820 
  212.6250    67.4200    47.7520    47.7280    56.5630    25.5080   -24.8720     2.2960 
  212.7500    67.2670    45.0640    44.7720    47.5240    25.4760   -25.0060     2.3040 
  212.8750    68.3150    42.7190    42.0210    42.5720    25.4620   -25.0900     2.3030 
  213.0000    70.8210    41.0670    39.8530    41.4860    25.4600   -25.1430     2.2930 
  213.1250    74.0810    40.4710    38.6740    41.1670    25.4660   -25.3020     2.2820 
  213.2500    75.9480    40.7920    38.4240    42.0050    25.4800   -25.5390     2.2740 
  213.3750    77.1840    41.9090    39.0130    45.1370    25.4910   -25.7820     2.2710 
  213.5000    77.0330    43.6610    40.2450    47.0000    25.4860   -25.9660     2.2750 
  213.6250    74.4280    45.9700    41.9710    48.9190    25.4770   -26.0680     2.2810 
  213.7500    71.3260    48.6470    43.9930    52.8490    25.4860   -26.1270     2.2880 
  213.8750    69.1900    51.5850    46.2290    54.9950    25.4870   -26.1590     2.2910 
  214.0000    67.5160    54.5980    48.5400    57.0530    25.4620   -26.0690     2.2890 
  214.1250    66.0180    57.2650    50.6060    65.4790    25.4270   -25.7310     2.2850 
  214.2500    65.4540    59.1490    52.1050    80.1340    25.3940   -25.2810     2.2910 
  214.3750    66.3890    59.8340    52.6940    88.5980    25.3770   -24.8030     2.3210 
  214.5000    67.7340    59.1290    52.0670    82.3720    25.3930   -24.3530     2.3810 
  214.6250    67.0700    57.2350    50.1340    70.9870    25.4790   -23.8170     2.4700 
  214.7500    65.1950    55.3290    47.9040    65.2540    25.4120   -23.2200     2.5690 
  214.8750    64.0740    54.4920    46.4980    63.3190    25.1770   -22.5220     2.6620 
  215.0000    65.1400    55.3830    46.8790    64.6790    24.9430   -21.8000     2.7400 
  215.1250    66.3550    57.4810    49.3690    68.8450    24.8200   -21.1180     2.7860 
  215.2500    66.3530    58.1200    51.6660    90.3930    24.7990   -20.4450     2.7940 
  215.3750    66.6040    54.6990    50.3520   109.2440    24.7720   -19.7530     2.7590 
  215.5000    66.9140    46.3360    43.0810    98.6600    24.6970   -19.0040     2.6910 
  215.6250    68.1310    34.9560    31.7880    56.5680    24.5030   -18.3720     2.6100 
  215.7500    74.4230    24.4910    21.7500    24.2090    24.1880   -17.8280     2.5430 
  215.8750    87.0010    16.6250    14.7890    11.5860    24.0240   -17.3990     2.5000 
  216.0000    99.6650    11.6050    10.6810     8.2710    24.2850   -17.0920     2.4770 
  216.1250   104.0580     9.3720     8.7710     8.3910    24.7230   -16.9500     2.4670 
  216.2500   103.8160     8.7710     7.9790     9.0030    24.9300   -16.8720     2.4610 
  216.3750   102.9990     9.0090     7.9100     9.3650    24.9750   -16.8310     2.4610 
  216.5000   101.6470     9.5150     8.2670     9.3360    24.9680   -16.7980     2.4700 
  216.6250    99.5550    10.0370     8.7930     9.5530    24.9790   -16.8030     2.4880 
  216.7500    98.0440    10.4080     9.2490    10.5500    25.0100   -16.8620     2.5070 
  216.8750    98.5330    10.5640     9.5270    11.3690    25.0140   -16.8980     2.5170 
  217.0000    99.8480    10.4860     9.5660    11.7350    25.0010   -16.8580     2.5120 
  217.1250   100.4490    10.1620     9.2970    11.0730    25.0000   -16.6780     2.4940 
  217.2500   100.4360     9.7080     8.8240    10.4550    25.0060   -16.4520     2.4770 
  217.3750    99.7710     9.2440     8.2800     9.4070    24.9730   -16.1980     2.4690 
  217.5000    99.5580     8.8970     7.8060     8.0770    24.8810   -15.9420     2.4730 
  217.6250   100.1940     8.7960     7.5380     7.6400    24.7850   -15.6030     2.4840 
  217.7500   100.6170     8.9300     7.4850     8.4610    24.7670   -15.1630     2.4980 
  217.8750    97.7830     9.2800     7.6380    10.2230    24.8320   -14.6730     2.5130 
  218.0000    91.5500     9.8310     7.9760    11.1470    24.8870   -14.1770     2.5360 
  218.1250    87.5290    10.6360     8.5520    10.5800    24.8830   -13.7410     2.5750 
  218.2500    86.9050    11.6550     9.3770    11.5780    24.8900   -13.3610     2.6210 
  218.3750    86.4230    12.7670    10.4190    13.4060    24.8960   -13.0270     2.6590 
  218.5000    84.5610    13.6790    11.4770    15.4900    24.9060   -12.7230     2.6710 
  218.6250    83.9370    13.8200    11.9870    18.2670    24.8170   -12.4170     2.6380 
  218.7500    85.8470    13.0020    11.5490    20.6920    24.5620   -12.1150     2.5800 
  218.8750    87.9550    11.3450    10.1650    16.1070    24.1460   -11.8130     2.5160 
  219.0000    88.0720     9.2920     8.3160     9.1670    23.8170   -11.5010     2.4680 
  219.1250    83.6240     7.4520     6.6350     6.2630    23.8440   -11.1990     2.4430 
  219.2500    77.4550     6.1220     5.3830     5.3060    23.9040   -10.9300     2.4290 
  219.3750    71.8600     5.3250     4.5730     4.7850    23.7770   -10.6750     2.4230 
  219.5000    68.9260     4.9630     4.1460     4.3640    23.4220   -10.4380     2.4290 
  219.6250    73.4890     4.9640     4.0660     4.1710    22.9640   -10.2710     2.4510 
  219.7500    81.1140     5.1920     4.2130     4.1750    22.7060   -10.2360     2.4790 
  219.8750    86.2620     5.5960     4.5450     4.3430    22.8050   -10.3700     2.4940 
  220.0000    86.3190     6.1130     5.0270     4.7910    23.0950   -10.6570     2.4730 
  220.1250    83.3380     6.6140     5.5820     5.6270    23.4580   -10.9550     2.3960 
  220.2500    81.3370     6.9410     6.0390     6.2920    23.8960   -11.2420     2.2770 
  220.3750    80.1700     6.9890     6.2380     6.3110    24.3950   -11.5380     2.1420 
  220.5000    80.7900     6.7460     6.1030     5.7930    24.8950   -11.8640     2.0260 
  220.6250    80.8180     6.2970     5.6820     5.2170    25.1010   -12.1580     1.9770 
  220.7500    77.6360     5.8470     5.2030     5.0600    24.8990   -12.3400     2.0010 
  220.8750    73.6610     5.5230     4.8050     4.9200    24.5590   -12.3470     2.0850 
  221.0000    73.5140     5.3900     4.5550     4.7140    24.2580   -12.1500     2.1980 
  221.1250    77.4580     5.4780     4.4890     4.7450    24.2350   -11.8280     2.2990 
  221.2500    79.7020     5.7150     4.5470     4.8060    24.2200   -11.3950     2.3670 
  221.3750    79.9470     6.0650     4.7000     5.0830    24.2870   -10.9080     2.4000 
  221.5000    81.4710     6.5180     4.9370     5.5350    24.3670   -10.3910     2.4070 
  221.6250    84.2310     7.1220     5.2990     6.1290    24.4740    -9.9330     2.3980 
