~V
VERS. 2.00: Ver 2.00
~W
STRT.M 52.0000:
STOP.M 235.0000:
STEP.M 0.1250:
NULL. -999.2500:
UWI. F11014:
~C
DEPT.M :
DEN.GM/CC :
GR.API :
RML.OHMM :
RI. :
RXO.OHMM :
CALI.CM :
SP.MV :
~A
# ...
  198.2500     2.2090    63.7010    90.9530    88.8140    97.3090    24.6380   -16.9090 
  198.3750     2.2140    65.7130    87.9900    86.9430    93.6850    24.6080   -17.1460 
  198.5000     2.2150    65.5710    83.4800    83.2940    81.2800    24.6080   -17.4020 
  198.6250     2.2070    65.4860    79.5000    79.7080    71.2500    24.6470   -17.6740 
  198.7500     2.1950    66.0250    77.5500    77.7030    65.6570    24.6830   -17.9530 
  198.8750     2.1840    65.2620    78.4770    78.2840    66.7950    24.7080   -18.2350 
  199.0000     2.1790    62.8220    81.5680    81.0110    79.3920    24.7350   -18.4940 
  199.1250     2.1800    61.1600    85.1100    84.4100    96.7900    24.7510   -18.6910 
  199.2500     2.1830    61.1180    87.3880    86.8580   102.4330    24.7370   -18.8310 
  199.3750     2.1850    61.2160    87.1570    87.0440    93.5240    24.7210   -18.9630 
  199.5000     2.1870    60.8340    84.8920    85.2340    82.1110    24.7130   -19.0430 
  199.6250     2.1890    61.5070    82.1240    82.7430    75.4680    24.6960   -19.0210 
  199.7500     2.1920    64.9660    80.3310    80.9330    80.4970    24.6770   -18.9690 
  199.8750     2.1950    69.4940    80.8560    81.0740    89.0230    24.6630   -18.9620 
  200.0000     2.1950    71.5520    84.2280    83.7070    88.2000    24.6530   -18.9610 
  200.1250     2.1940    69.8230    90.5930    89.0560    82.1610    24.6480   -18.9400 
  200.2500     2.1930    66.3670    99.9750    97.3220    88.6830    24.6450   -18.9740 
  200.3750     2.1920    63.6540   111.4940   107.9560   110.0090    24.6360   -19.0750 
  200.5000     2.1900    61.3200   122.0900   118.2640   138.6330    24.6360   -19.1770 
  200.6250     2.1860    59.1110   127.3860   124.1690   166.7520    24.6430   -19.3040 
  200.7500     2.1850    57.8860   124.2970   122.4980   182.0840    24.6530   -19.5020 
  200.8750     2.1920    58.8700   113.5520   113.0620   155.8770    24.6900   -19.7270 
  201.0000     2.2010    61.5320   100.5000   100.3140   107.0460    24.6860   -19.9070 
  201.1250     2.2040    63.6420    90.0670    89.1770    75.9850    24.5890   -20.0450 
  201.2500     2.1980    63.6600    84.1850    82.1110    68.5530    24.4590   -20.1780 
  201.3750     2.1860    61.8210    83.1640    79.9390    77.6480    24.3780   -20.2690 
  201.5000     2.1740    60.5470    85.6060    81.5260    86.0900    24.3300   -20.2910 
  201.6250     2.1630    60.7580    89.6080    85.0530    82.8790    24.2470   -20.2530 
  201.7500     2.1510    61.3870    93.6330    88.9470    74.1710    24.0880   -20.1640 
  201.8750     2.1380    61.4650    96.5320    91.8890    69.2220    23.9770   -20.0460 
  202.0000     2.1340    60.7400    98.2430    93.5600    70.4220    23.9710   -19.9220 
  202.1250     2.1450    59.8380    99.2920    94.3670    72.2000    24.0730   -19.8060 
  202.2500     2.1690    59.5020   100.0280    94.7550    70.4910    24.2350   -19.7080 
  202.3750     2.1920    60.3740   100.5940    95.0120    68.0150    24.3970   -19.6130 
  202.5000     2.2040    62.0380   101.2350    95.3660    66.1310    24.5870   -19.5460 
  202.6250     2.2080    63.1200   102.3050    96.0210    64.7240    24.8010   -19.5740 
  202.7500     2.2120    62.8730   103.9480    97.0190    66.4230    24.9540   -19.6730 
  202.8750     2.2190    61.4700   105.9590    98.1830    78.3410    24.9550   -19.7280 
  203.0000     2.2300    60.9720   107.9510    99.2960   105.3090    24.7600   -19.7570 
  203.1250     2.2520    62.8790   109.7080   100.3140   123.6080    24.4880   -19.8710 
  203.2500     2.2860    65.8990   111.2880   101.3440   112.4330    24.3740   -20.0060 
  203.3750     2.3060    65.8670   112.9330   102.5030    94.4990    24.5220   -20.0840 
  203.5000     2.2900    62.2910   114.7860   103.7310    91.7160    24.7480   -20.1940 
  203.6250     2.2470    59.4950   116.7600   104.8650   100.7840    24.8900   -20.3600 
  203.7500     2.2100    60.1620   118.5830   105.7870   113.0340    24.9370   -20.5110 
  203.8750     2.1930    62.9130   119.5770   106.2760   120.4400    24.9240   -20.6350 
  204.0000     2.1850    64.8530   118.9840   105.9740   117.0100    24.9230   -20.7810 
  204.1250     2.1770    64.6230   116.6970   104.7200   108.3260    24.9500   -20.9570 
  204.2500     2.1710    62.6440   113.8100   103.0160   105.6510    24.9730   -21.1480 
  204.3750     2.1740    61.4960   112.8910   102.4580   108.7100    24.9810   -21.3420 
  204.5000     2.1900    63.2900   116.0460   104.7050   109.7410    24.9730   -21.5290 
  204.6250     2.2210    66.6540   122.9780   109.8660   106.4680    24.9110   -21.7160 
  204.7500     2.2800    67.9980   128.9350   114.6030   111.0840    24.7210   -21.8980 
  204.8750     2.3790    65.1710   122.0370   109.6610   140.4420    24.5120   -22.0830 
  205.0000     2.4960    60.1780    97.9130    90.2690   161.6520    24.4060   -22.3000 
  205.1250     2.5780    56.3160    66.5090    63.0110   124.2180    24.3710   -22.5070 
  205.2500     2.5880    54.3140    39.9140    38.3990    58.5530    24.3310   -22.6670 
  205.3750     2.5320    53.0110    23.2630    22.4960    20.9510    24.2710   -22.8530 
  205.5000     2.4540    51.6280    14.1400    14.0220     9.9090    24.2760   -23.0930 
  205.6250     2.3900    49.8290     9.7360     9.7340     7.2390    24.3850   -23.3010 
  205.7500     2.3550    48.1030     8.0150     7.7050     6.8920    24.5400   -23.4640 
  205.8750     2.3510    48.3260     7.5060     6.9120     6.8710    24.6550   -23.6660 
  206.0000     2.3590    49.9150     7.5250     6.7470     6.8300    24.7550   -23.9020 
  206.1250     2.3640    50.2640     7.6550     6.8340     6.8230    24.8580   -24.1060 
  206.2500     2.3610    49.0720     7.7120     6.9780     6.7750    24.9000   -24.2730 
  206.3750     2.3530    48.9000     7.6510     7.0830     6.7240    24.8470   -24.4340 
  206.5000     2.3450    49.9520     7.5580     7.1640     6.9510    24.7270   -24.5580 
  206.6250     2.3410    49.7650     7.5680     7.3040     7.4110    24.6280   -24.6140 
  206.7500     2.3420    48.0280     7.8120     7.5960     7.5680    24.5840   -24.6220 
  206.8750     2.3490    47.0130     8.3880     8.1260     8.1140    24.5920   -24.6000 
  207.0000     2.3560    46.2180     9.2170     8.8420     9.8380    24.6030   -24.5290 
  207.1250     2.3600    43.3990    10.0560     9.5560    12.0160    24.6050   -24.3980 
  207.2500     2.3620    40.0270    10.6150    10.0150    12.9930    24.6010   -24.2270 
  207.3750     2.3650    41.3220    10.6230     9.9740    12.4260    24.5720   -24.0330 
  207.5000     2.3690    47.3930    10.1120     9.4560    10.8020    24.5670   -23.8270 
  207.6250     2.3650    53.4840     9.3250     8.6780     9.0810    24.5730   -23.6190 
  207.7500     2.3500    56.4120     8.4960     7.8410     8.0920    24.5000   -23.4220 
  207.8750     2.3380    55.7540     7.7870     7.0940     7.8200    24.3560   -23.2360 
  208.0000     2.3400    53.5640     7.2270     6.4850     7.6970    24.2350   -23.0300 
  208.1250     2.3490    52.1680     6.7900     6.0110     7.1200    24.1530   -22.8020 
  208.2500     2.3520    52.2580     6.4720     5.6660     6.2580    24.0550   -22.5950 
  208.3750     2.3480    53.7530     6.3190     5.4760     5.6970    23.9100   -22.4320 
  208.5000     2.3490    56.9870     6.3630     5.4580     5.7040    23.8540   -22.2630 
  208.6250     2.3560    61.8360     6.5980     5.6100     6.1710    24.0500   -22.1040 
  208.7500     2.3610    67.1020     6.9850     5.9120     6.9320    24.4120   -22.0220 
  208.8750     2.3600    72.9150     7.4500     6.3150     7.9210    24.6430   -21.9970 
  209.0000     2.3630    78.3250     7.9030     6.7450     8.6370    24.7060   -21.9790 
  209.1250     2.3740    81.5460     8.2830     7.1350     8.8590    24.6920   -21.9840 
  209.2500     2.3880    82.1650     8.5620     7.4500     8.9050    24.6630   -22.0540 
  209.3750     2.3970    82.2690     8.7300     7.6640     9.1820    24.6420   -22.1330 
