~V
VERS. 2.00: Ver 2.00
~W
STRT.M 55.0000:
STOP.M 274.0000:
STEP.M 0.1250:
NULL. -999.2500:
UWI. F11049:
~C
DEPT.M :
SP.MV :
GR.API :
RML.OHMM :
RI. :
RXO.OHMM :
CALI.CM :
DEN.GM/CC :
~A
# ...
  167.5000   -20.3840    71.5960   116.9860   109.0830    98.7070    24.3570     2.2600 
  167.6250   -20.2520    70.9540   112.3730   105.3340    96.2940    24.4020     2.2710 
  167.7500   -20.1640    68.6220   106.8000   100.1900    92.6300    24.4220     2.2760 
  167.8750   -20.1160    65.0430   102.4100    95.6810    93.7440    24.4270     2.2700 
  168.0000   -20.0470    64.2020   100.6160    93.2430    92.7440    24.4270     2.2620 
  168.1250   -19.9670    68.2920   102.5570    94.0230    86.9090    24.4270     2.2610 
  168.2500   -19.9030    71.0980   107.2220    97.2770    84.8220    24.4270     2.2600 
  168.3750   -19.8660    69.3590   113.4140   102.0890    93.7650    24.4270     2.2510 
  168.5000   -19.8440    65.1640   119.6360   107.3190   118.4870    24.4270     2.2340 
  168.6250   -19.7630    63.3460   123.9390   111.5090   141.2820    24.4270     2.2260 
  168.7500   -19.6660    64.4220   125.3500   113.6630   128.9650    24.4270     2.2300 
  168.8750   -19.6150    65.2100   123.7070   113.3410   113.8340    24.4270     2.2370 
  169.0000   -19.5490    63.4030   119.9010   110.9400   111.0770    24.4270     2.2390 
  169.1250   -19.3630    59.4550   115.6000   107.6410   109.7240    24.4270     2.2370 
  169.2500   -19.1400    59.7070   112.2370   104.8720    98.8860    24.4270     2.2370 
  169.3750   -18.9940    65.5360   110.1630   103.1090    87.7520    24.4260     2.2420 
  169.5000   -18.9560    71.2350   109.0840   102.1840    83.8690    24.4260     2.2510 
  169.6250   -18.8850    69.9500   108.2210   101.4320   102.3040    24.4250     2.2580 
  169.7500   -18.7500    65.8370   106.5530    99.9580   114.1510    24.4260     2.2640 
  169.8750   -18.6840    65.4870   103.4190    97.1900   108.4800    24.4270     2.2710 
  170.0000   -18.7040    68.8900    98.7690    93.0490   100.4220    24.4270     2.2770 
  170.1250   -18.7220    70.9070    93.3760    88.0680    92.4220    24.4240     2.2820 
  170.2500   -18.7460    70.4290    88.7440    83.4690    84.0450    24.4230     2.2870 
  170.3750   -18.7510    70.3860    85.9870    80.2180    74.5760    24.4260     2.2890 
  170.5000   -18.7510    70.9130    85.8320    79.0500    70.7800    24.4280     2.2870 
  170.6250   -18.7400    68.0420    89.1040    80.8200    76.5060    24.4260     2.2800 
  170.7500   -18.6920    63.3940    95.2440    85.1440    86.9400    24.4250     2.2730 
  170.8750   -18.6080    61.9680   103.9410    91.8200    97.8630    24.4240     2.2620 
  171.0000   -18.5360    64.4350   114.7460   100.5080   109.8950    24.4170     2.2480 
  171.1250   -18.4820    66.6810   127.4340   111.0430   126.3800    24.3910     2.2330 
  171.2500   -18.3700    66.7850   141.4310   122.8480   143.3350    24.3610     2.2200 
  171.3750   -18.2310    65.7540   156.5700   135.7340   156.6000    24.3650     2.2130 
  171.5000   -18.1310    65.5220   172.4350   149.3380   169.4900    24.4020     2.2120 
  171.6250   -18.1370    65.7860   187.4490   162.4110   189.4100    24.4210     2.2190 
  171.7500   -18.1460    64.4890   199.0710   172.8840   204.0170    24.4220     2.2310 
  171.8750   -18.1320    62.8500   204.5550   178.4500   213.0770    24.4040     2.2400 
  172.0000   -18.1720    62.9550   202.1710   177.4290   216.3820    24.3730     2.2440 
  172.1250   -18.2900    64.3330   191.7010   169.2090   203.7020    24.3800     2.2440 
  172.2500   -18.4040    64.3140   177.8360   157.5950   182.2170    24.4050     2.2480 
  172.3750   -18.4860    63.3210   164.1850   145.6950   156.3650    24.4040     2.2540 
  172.5000   -18.5800    63.6080   153.4280   135.9530   134.0170    24.3690     2.2590 
  172.6250   -18.7260    65.0020   147.5980   130.3480   121.8290    24.3620     2.2590 
  172.7500   -18.8630    65.3350   145.5760   128.1940   121.4100    24.3850     2.2570 
  172.8750   -18.9680    65.0890   145.7230   128.2110   127.9240    24.4150     2.2570 
  173.0000   -19.0730    64.3700   145.7930   128.4870   138.7370    24.4190     2.2610 
  173.1250   -19.2290    62.2130   143.3040   126.7670   156.4200    24.3950     2.2670 
  173.2500   -19.3890    60.1380   138.4400   122.8910   167.6610    24.3660     2.2710 
  173.3750   -19.5030    59.4400   133.0800   118.2420   155.2740    24.3660     2.2760 
  173.5000   -19.5350    59.9860   129.9420   115.1120   125.5680    24.4010     2.2830 
  173.6250   -19.5740    60.3010   132.3240   116.5170   110.6860    24.4180     2.2860 
  173.7500   -19.6680    60.4780   140.4950   123.0190   115.4570    24.4090     2.2810 
  173.8750   -19.7080    61.5760   153.6770   134.2160   135.0080    24.3740     2.2700 
  174.0000   -19.6800    63.0930   169.0570   147.9660   166.3830    24.3570     2.2570 
  174.1250   -19.6660    63.9220   180.2840   159.2420   195.5990    24.3770     2.2520 
  174.2500   -19.6820    62.9700   182.1780   163.3470   203.6390    24.4060     2.2550 
  174.3750   -19.6750    60.4330   173.3980   158.4130   188.2990    24.4020     2.2600 
  174.5000   -19.6230    58.9560   156.8340   145.9900   148.0630    24.3650     2.2640 
  174.6250   -19.5370    60.0860   136.8200   129.1880   106.6880    24.3600     2.2650 
  174.7500   -19.4910    62.0530   117.0570   111.6830    77.5960    24.3850     2.2680 
  174.8750   -19.4630    63.7450    98.9670    95.1270    64.0800    24.4150     2.2790 
  175.0000   -19.3530    65.2390    83.5570    80.7250    58.4460    24.4180     2.2970 
  175.1250   -19.1800    66.8010    72.3190    70.0040    56.2090    24.3910     2.3160 
  175.2500   -19.0900    67.3900    65.1940    62.9810    49.2590    24.3610     2.3280 
  175.3750   -19.1140    65.6840    62.2610    59.7530    47.6090    24.3650     2.3290 
  175.5000   -19.1380    63.3800    63.2270    60.1440    53.0120    24.4020     2.3130 
  175.6250   -19.0900    63.7700    67.7470    64.0530    61.2450    24.4080     2.2840 
  175.7500   -19.0970    65.4810    74.0600    69.9060    67.9300    24.3760     2.2570 
  175.8750   -19.1820    65.2430    81.1480    76.6050    74.0070    24.3200     2.2410 
  176.0000   -19.2830    63.2180    88.6670    83.5460    87.8000    24.2500     2.2330 
  176.1250   -19.4170    64.0510    96.9850    90.9390    99.3520    24.2280     2.2340 
  176.2500   -19.5540    66.9720   104.9900    98.0670    84.8330    24.2160     2.2390 
  176.3750   -19.6630    69.3620   109.2260   102.0720    63.8390    24.2390     2.2440 
  176.5000   -19.7690    71.8630   105.3140    99.0610    76.6750    24.3190     2.2420 
  176.6250   -19.8900    73.8360    91.5340    87.0440   110.7710    24.3790     2.2410 
  176.7500   -19.9910    73.9870    75.4610    72.2980   102.9550    24.4160     2.2530 
  176.8750   -20.1020    73.5540    63.3500    60.3140    60.5250    24.4190     2.2740 
  177.0000   -20.2130    73.1910    58.6040    54.2970    36.0640    24.4170     2.2870 
  177.1250   -20.2160    70.9510    63.2510    56.3470    43.4260    24.4260     2.2770 
  177.2500   -20.1640    67.6360    74.9680    64.8650    88.0600    24.4770     2.2590 
  177.3750   -20.1530    66.8560    91.4470    78.3490   146.5080    24.5130     2.2510 
  177.5000   -20.1930    68.9310   108.0800    93.3120   153.9000    24.5280     2.2580 
  177.6250   -20.1550    68.4280   116.8430   102.9590   128.7400    24.5290     2.2690 
  177.7500   -20.0430    64.9520   116.1170   104.6410   112.6750    24.5190     2.2720 
  177.8750   -19.9450    62.4770   109.7020   100.5920   103.8890    24.5100     2.2680 
  178.0000   -19.8740    63.1990   102.6500    94.9010    99.9790    24.5120     2.2630 
  178.1250   -19.7730    64.9400    98.0590    90.4950    98.3550    24.5280     2.2630 
  178.2500   -19.6630    65.5720    96.1130    87.9490    89.9390    24.5300     2.2660 
  178.3750   -19.5670    66.7060    96.7660    87.3200    82.0970    24.5180     2.2700 
  178.5000   -19.5010    67.7610    99.6750    88.4000    82.5210    24.5150     2.2730 
  178.6250   -19.4590    66.8480   103.9250    90.6130    91.8330    24.5270     2.2750 
