~V
VERS. 2.00: Ver 2.00
~W
STRT.M 55.0000:
STOP.M 280.0000:
STEP.M 0.1250:
NULL. -999.2500:
UWI. F11032:
~C
DEPT.M :
DEN.GM/CC :
GR.API :
RML.OHMM :
RI. :
RXO.OHMM :
CALI.CM :
SP.MV :
~A
# ...
  156.2500     2.2400    76.6680     9.0870     7.4590     8.8650    24.5180   -12.5190 
  156.3750     2.2410    77.8780     9.0700     7.4860     7.8930    24.5180   -12.4760 
  156.5000     2.2450    78.4830     9.0490     7.5500     7.3260    24.5180   -12.4540 
  156.6250     2.2520    77.0770     9.1930     7.7400     8.1380    24.5180   -12.4550 
  156.7500     2.2580    75.1250     9.4950     8.0210     9.2230    24.5190   -12.4770 
  156.8750     2.2610    74.6310     9.8490     8.3000     9.8120    24.5220   -12.5040 
  157.0000     2.2570    74.4400    10.0980     8.4610    10.0330    24.5380   -12.5130 
  157.1250     2.2470    75.1790    10.0770     8.4000    10.1490    24.5860   -12.5260 
  157.2500     2.2340    77.6650     9.8320     8.2280    10.7780    24.5930   -12.5210 
  157.3750     2.2230    79.1380     9.4910     8.0930    11.0740    24.5950   -12.4880 
  157.5000     2.2170    77.3670     9.1990     8.0940    10.6660    24.5890   -12.4860 
  157.6250     2.2180    73.6590     9.0670     8.2550    10.1560    24.5410   -12.4840 
  157.7500     2.2250    70.9820     9.0750     8.4830    10.7580    24.3930   -12.4480 
  157.8750     2.2330    69.4440     9.1710     8.6940    11.0470    24.2940   -12.4450 
  158.0000     2.2390    69.5220     9.2740     8.8230     9.0430    24.2650   -12.4900 
  158.1250     2.2410    71.6060     9.2950     8.8670     8.9400    24.2100   -12.5480 
  158.2500     2.2400    71.3350     9.2310     8.8490    10.1430    24.2020   -12.6510 
  158.3750     2.2380    68.9870     9.0950     8.6930    10.3120    24.2010   -12.7720 
  158.5000     2.2340    69.1160     8.8510     8.2960     9.1070    24.2090   -12.8420 
  158.6250     2.2310    73.3290     8.4190     7.5960     7.5800    24.2430   -12.9270 
  158.7500     2.2280    76.7180     7.7540     6.7430     6.4460    24.4530   -13.0640 
  158.8750     2.2270    77.1660     6.7800     5.8960     5.2060    24.7880   -13.2010 
  159.0000     2.2230    77.6720     5.9730     5.1940     4.2020    24.9200   -13.3340 
  159.1250     2.2120    80.0940     5.4390     4.7290     3.8790    25.0700   -13.5170 
  159.2500     2.1920    81.2560     5.1220     4.4540     3.8660    25.4050   -13.6990 
  159.3750     2.1680    79.6720     4.9930     4.3420     3.9330    25.7470   -13.8870 
  159.5000     2.1470    79.3750     5.0300     4.3740     3.9460    25.5880   -14.1130 
  159.6250     2.1420    82.1660     5.2310     4.5490     4.1030    25.0880   -14.3920 
  159.7500     2.1530    83.5390     5.5880     4.8590     4.5860    24.8020   -14.6890 
  159.8750     2.1760    82.0970     6.1430     5.3420     5.3370    24.6240   -14.9630 
  160.0000     2.2020    78.5470     6.9430     6.0370     6.3110    24.5950   -15.2470 
  160.1250     2.2220    74.4060     8.1060     7.0490     8.1310    24.5950   -15.5440 
  160.2500     2.2300    72.0410     9.6720     8.4100    10.3660    24.5970   -15.8070 
  160.3750     2.2290    71.8510    11.7790    10.2430    10.8160    24.6040   -16.0800 
  160.5000     2.2190    71.9320    14.6530    12.7410    11.0690    24.6510   -16.3980 
  160.6250     2.2040    70.4720    19.8360    16.3420    16.8100    24.6620   -16.6450 
  160.7500     2.1850    69.6720    28.9150    21.1370    24.3650    24.6700   -16.8150 
  160.8750     2.1670    70.3890    37.0330    27.2310    30.8190    24.6640   -16.9990 
  161.0000     2.1510    71.0810    46.4610    34.4920    35.3380    24.6620   -17.1650 
  161.1250     2.1390    69.6690    56.4190    42.3650    39.9360    24.6610   -17.2590 
  161.2500     2.1310    65.4330    65.6010    49.8000    44.3530    24.6610   -17.3900 
  161.3750     2.1280    59.5090    73.0540    56.0440    48.6550    24.6620   -17.5250 
  161.5000     2.1280    55.9590    78.1290    60.5720    51.6940    24.6700   -17.5960 
  161.6250     2.1320    57.0850    80.1450    62.7890    53.1450    24.6710   -17.6770 
  161.7500     2.1370    60.7850    79.9340    63.2230    54.5960    24.6670   -17.8210 
  161.8750     2.1420    63.2650    78.2180    62.3650    56.3590    24.6630   -17.9610 
  162.0000     2.1450    61.0840    75.7320    60.7830    56.4380    24.6680   -18.0640 
  162.1250     2.1450    59.6970    72.9270    58.9370    53.8530    24.6620   -18.1550 
  162.2500     2.1440    61.9390    69.9160    57.0640    52.7500    24.6610   -18.2520 
  162.3750     2.1430    63.7950    66.5730    55.1130    52.8270    24.6620   -18.3360 
  162.5000     2.1450    61.9670    62.8390    52.9840    52.7320    24.6700   -18.3860 
  162.6250     2.1510    58.7710    58.9970    50.7320    50.6770    24.7290   -18.4310 
  162.7500     2.1560    58.5060    55.6720    48.6780    47.2200    24.8690   -18.4120 
  162.8750     2.1600    59.3950    53.3190    47.1220    43.6560    25.0030   -18.2920 
  163.0000     2.1600    60.0190    51.9800    46.2070    40.2880    25.0300   -18.1510 
  163.1250     2.1580    59.5120    50.8010    45.5140    37.9380    24.8840   -17.9740 
  163.2500     2.1580    58.8610    47.9670    43.6290    37.6170    24.5040   -17.6770 
  163.3750     2.1610    58.7790    42.0120    39.0390    37.3910    24.0850   -17.3630 
  163.5000     2.1680    60.0420    33.1270    31.5370    35.0560    23.8480   -17.0930 
  163.6250     2.1790    64.3210    23.8290    23.2090    28.9970    23.7670   -16.8180 
  163.7500     2.1940    70.2710    16.6260    16.5090    19.4190    23.6110   -16.5890 
  163.8750     2.2140    74.6440    12.1270    12.0420    11.2560    23.4270   -16.4880 
  164.0000     2.2360    75.6310     9.9880     9.5170     7.3180    23.2660   -16.4690 
  164.1250     2.2560    75.0960     9.7770     8.6090     6.9790    23.2030   -16.5170 
  164.2500     2.2680    75.5270    10.6270     8.7090     9.1950    23.1880   -16.6750 
  164.3750     2.2720    76.6830    12.2120     9.6370    12.6280    23.1890   -16.8930 
  164.5000     2.2700    77.0290    14.3660    11.2550    14.0480    23.1990   -17.1320 
  164.6250     2.2650    75.6650    17.0340    13.4820    12.0060    23.2000   -17.3800 
  164.7500     2.2570    73.8790    19.9370    16.0760    13.1770    23.1960   -17.6130 
  164.8750     2.2480    72.0630    22.6940    18.8680    16.3410    23.1920   -17.8050 
  165.0000     2.2390    69.6280    24.6230    21.4250    19.0790    23.1920   -17.9290 
  165.1250     2.2310    69.2420    24.4580    22.4760    20.0360    23.2040   -18.0160 
  165.2500     2.2280    72.6080    22.1560    21.3070    20.0650    23.2230   -18.0630 
  165.3750     2.2300    77.0180    18.4920    18.2790    18.0140    23.2420   -18.0180 
  165.5000     2.2350    79.4250    14.6910    14.6160    13.6180    23.2460   -17.9330 
  165.6250     2.2420    79.8580    11.7990    11.5040     9.0130    23.2460   -17.9010 
  165.7500     2.2460    80.4770     9.9100     9.2210     6.5980    23.2460   -17.8530 
  165.8750     2.2480    81.9670     8.8210     7.6870     5.8660    23.2460   -17.8010 
  166.0000     2.2480    83.2920     8.1900     6.7350     5.6590    23.2460   -17.8280 
  166.1250     2.2490    82.9110     7.7180     6.2680     5.3920    23.2460   -17.8790 
  166.2500     2.2520    79.7460     7.3370     6.1180     5.2310    23.2460   -17.9120 
  166.3750     2.2580    75.3470     7.2600     6.2720     5.2550    23.2460   -18.0140 
  166.5000     2.2620    72.2440     7.8180     6.7940     5.4730    23.2500   -18.1430 
  166.6250     2.2620    71.3930     9.4920     7.9290     6.3620    23.2760   -18.1850 
  166.7500     2.2560    70.2830    12.2220     9.7420     8.3430    23.3390   -18.2360 
  166.8750     2.2450    69.4690    15.7600    12.2380    12.3100    23.4030   -18.2920 
  167.0000     2.2330    69.3010    19.4760    15.1360    16.9450    23.5470   -18.2930 
  167.1250     2.2210    68.8300    22.2070    17.6050    20.2620    23.7370   -18.2870 
  167.2500     2.2110    67.2570    23.3570    18.8800    20.3760    23.9880   -18.3320 
  167.3750     2.2050    65.2960    23.0570    18.8170    18.9100    24.1680   -18.3540 
