~V
VERS. 2.00: Ver 2.00
~W
STRT.M 58.0000:
STOP.M 277.0000:
STEP.M 0.1250:
NULL. -999.2500:
UWI. F11038:
~C
DEPT.M :
GR.API :
RML.OHMM :
RI. :
RXO.OHMM :
CALI.CM :
DEN.GM/CC :
SP.MV :
~A
# ...
  204.2500    95.8090    17.2330    15.4150    19.2070    24.7500     2.4990   -20.6910 
  204.3750    97.9880    15.9500    14.0430    19.6660    24.7410     2.5090   -20.3570 
  204.5000    97.7960    14.2080    12.2590    13.8110    24.7620     2.4980   -20.1400 
  204.6250    97.9720    12.6440    10.6790     9.5300    24.8190     2.4750   -20.2340 
  204.7500    99.9340    11.6590     9.5810     8.5220    24.9030     2.4540   -20.7530 
  204.8750   103.0240    11.3530     9.0250     9.2670    24.9640     2.4430   -21.6110 
  205.0000   105.0790    11.6190     8.9680     9.8270    24.9800     2.4420   -22.6350 
  205.1250   105.5900    12.2270     9.3310    10.1190    24.9630     2.4460   -23.6270 
  205.2500   103.4500    12.8800     9.8710    11.5150    24.9460     2.4490   -24.3920 
  205.3750    99.1040    13.5610    10.5040    13.6150    24.8830     2.4540   -24.9280 
  205.5000    96.4860    14.4960    11.3060    13.5940    24.7840     2.4690   -25.1120 
  205.6250    96.0660    16.2450    12.6150    13.1720    24.7870     2.5050   -24.7920 
  205.7500    93.7740    18.9940    14.6550    15.8600    24.8620     2.5540   -24.0710 
  205.8750    89.8650    22.5010    17.5040    22.3080    24.9190     2.6010   -23.0580 
  206.0000    87.1310    25.7920    20.7030    30.4770    24.8960     2.6340   -21.9810 
  206.1250    87.1600    26.8410    22.3660    35.3170    24.8270     2.6520   -21.0930 
  206.2500    87.1960    24.8950    21.0000    29.7750    24.7270     2.6610   -20.4800 
  206.3750    85.4350    20.4890    17.0920    22.0240    24.6130     2.6590   -20.1500 
  206.5000    81.7000    15.1960    12.5560    15.0890    24.4430     2.6360   -20.0690 
  206.6250    78.4560    10.8290     9.0430     8.9100    24.1910     2.5800   -20.2710 
  206.7500    77.1800     7.9230     6.7140     5.3470    23.8800     2.5050   -20.6330 
  206.8750    76.8960     6.3280     5.3590     4.2860    23.7170     2.4320   -21.0430 
  207.0000    77.2810     5.6810     4.7240     4.1740    23.6860     2.3770   -21.4360 
  207.1250    81.4570     5.6890     4.6650     4.2880    23.6720     2.3530   -21.7440 
  207.2500    89.1690     5.9640     4.9110     4.4860    23.5370     2.3480   -22.0590 
  207.3750    95.3130     6.3200     5.3000     4.6690    23.3620     2.3490   -22.3340 
  207.5000    95.5800     6.6390     5.6910     5.0190    23.4500     2.3430   -22.5320 
  207.6250    93.7210     6.8510     5.9840     5.3130    23.9840     2.3220   -22.6390 
  207.7500    94.7470     6.9800     6.1800     5.3690    24.5910     2.2970   -22.6320 
  207.8750    96.9160     7.0540     6.2970     5.2090    24.9270     2.2860   -22.5970 
  208.0000    95.5340     7.1050     6.3660     5.3910    24.9760     2.3010   -22.5320 
  208.1250    91.3480     7.1570     6.4020     5.7320    24.9390     2.3380   -22.3910 
  208.2500    87.9450     7.2090     6.4030     6.1870    24.8490     2.3680   -22.0200 
  208.3750    85.7890     7.2520     6.3580     6.5130    24.7810     2.3720   -21.3230 
  208.5000    85.4330     7.2750     6.2620     6.4970    24.7800     2.3510   -20.3470 
  208.6250    86.8010     7.2780     6.1310     6.1920    24.8280     2.3260   -19.0540 
  208.7500    88.9820     7.2810     6.0060     5.9700    24.8890     2.3190   -17.5930 
  208.8750    89.6230     7.2990     5.9160     6.1320    24.9770     2.3310   -15.9900 
  209.0000    88.4870     7.3460     5.8770     6.2790    25.0090     2.3490   -14.3260 
  209.1250    88.1850     7.4480     5.9090     6.4750    24.9710     2.3600   -12.7000 
  209.2500    91.4620     7.6260     6.0180     6.6020    24.9450     2.3620   -11.2270 
  209.3750    98.0510     7.9110     6.2220     7.0070    24.9210     2.3590   -10.0070 
  209.5000   103.2080     8.3160     6.5320     7.4310    24.9360     2.3570    -9.0820 
  209.6250   102.6530     8.8410     6.9490     7.6770    24.9240     2.3590    -8.4710 
  209.7500    98.5330     9.4060     7.4140     8.4220    24.9230     2.3630    -8.1320 
  209.8750    93.9320     9.9380     7.8590     8.8790    24.9010     2.3660    -8.0070 
  210.0000    92.6660    10.3670     8.2120     9.0210    24.8480     2.3680    -8.0580 
  210.1250    94.6430    10.6250     8.3840     8.9930    24.8440     2.3670    -8.2570 
  210.2500    97.9770    10.7310     8.3860     8.8970    24.8340     2.3660    -8.5110 
  210.3750    99.5140    10.7020     8.2400     8.8750    24.8730     2.3670    -8.8440 
  210.5000    96.0430    10.5410     7.9770     8.6490    24.9200     2.3690    -9.1470 
  210.6250    91.0320    10.2220     7.6110     8.1900    24.9140     2.3730    -9.3770 
  210.7500    89.7850     9.8000     7.1910     7.8140    24.8730     2.3770    -9.5190 
  210.8750    92.4770     9.4140     6.8030     7.7500    24.8770     2.3830    -9.6080 
  211.0000    94.7560     9.3400     6.6050     7.5380    24.8340     2.3890    -9.6910 
  211.1250    95.7670    10.1850     6.9100     7.4730    24.8070     2.3910    -9.7430 
  211.2500    94.3070    12.4110     7.9740     8.1870    24.8310     2.3810    -9.8470 
  211.3750    88.8590    16.5810    10.2390    11.5750    24.9080     2.3550    -9.9600 
  211.5000    82.0310    23.1500    14.3020    19.6610    24.9660     2.3140   -10.1580 
  211.6250    78.2320    32.3080    21.0880    40.2000    25.0310     2.2700   -10.4670 
  211.7500    76.5890    42.1650    29.6650    56.6310    25.0950     2.2350   -10.8420 
  211.8750    74.6280    50.5000    37.9500    59.9110    25.1390     2.2150   -11.2740 
  212.0000    73.1140    55.6350    43.5870    52.4640    25.1750     2.2080   -11.7330 
  212.1250    74.6860    57.3420    45.7920    48.3750    25.1840     2.2110   -12.2110 
  212.2500    76.2880    58.0590    46.8360    49.5450    25.1940     2.2160   -12.6660 
  212.3750    76.3320    59.3790    48.1580    50.3180    25.1920     2.2220   -13.0490 
  212.5000    73.2710    61.8510    50.3180    51.1820    25.1820     2.2280   -13.3730 
  212.6250    70.0930    65.0380    53.1390    59.5260    25.1840     2.2340   -13.6190 
  212.7500    70.4150    67.8180    55.7740    67.3030    25.1550     2.2420   -13.8270 
  212.8750    74.1710    69.4250    57.5400    69.1650    25.1030     2.2500   -14.0580 
  213.0000    80.0920    69.5570    58.0880    68.7560    25.0820     2.2560   -14.2480 
  213.1250    82.9220    68.3660    57.4230    65.0660    25.0950     2.2570   -14.4030 
  213.2500    80.6490    66.8170    56.3340    59.4010    25.1130     2.2520   -14.4940 
  213.3750    76.3840    65.5990    55.4620    53.2970    25.1170     2.2430   -14.5850 
  213.5000    74.2020    65.1720    55.2620    53.9250    25.1360     2.2330   -14.6240 
  213.6250    75.6350    65.9190    56.0560    56.0810    25.1610     2.2280   -14.6770 
  213.7500    76.4720    67.7650    57.7590    60.2140    25.1860     2.2270   -14.7180 
  213.8750    75.6490    70.7520    60.4550    63.1590    25.1910     2.2290   -14.7000 
  214.0000    74.6170    74.7370    64.1220    62.0800    25.1960     2.2280   -14.7020 
  214.1250    74.0930    79.0940    68.3110    62.9400    25.1980     2.2240   -14.7580 
  214.2500    73.3920    82.6130    71.9190    65.9150    25.2150     2.2180   -14.8640 
  214.3750    72.0400    84.2940    74.0260    79.3530    25.2490     2.2140   -15.0080 
  214.5000    70.1200    83.6920    74.1520    86.0770    25.2300     2.2160   -15.2070 
  214.6250    68.9750    81.0580    72.3470    64.5750    25.0730     2.2200   -15.4290 
  214.7500    67.9880    77.9660    69.9670    46.6950    24.8920     2.2240   -15.6870 
  214.8750    68.7470    75.5710    68.1090    43.5480    24.7810     2.2240   -15.9640 
  215.0000    72.3270    74.5700    67.5080    51.8140    24.7960     2.2210   -16.2510 
  215.1250    75.0730    75.2550    68.5670    54.1030    24.8420     2.2170   -16.5250 
  215.2500    73.3350    76.8500    70.6350    56.7330    24.8780     2.2140   -16.8050 
  215.3750    70.1830    78.6630    73.0040    62.5780    24.9520     2.2110   -17.1050 
