~V
VERS. 2.00: Ver 2.00
~W
STRT.M 50.0000:
STOP.M 278.0000:
STEP.M 0.1250:
NULL. -999.2500:
UWI. F11029:
~C
DEPT.M :
SP.MV :
DEN.GM/CC :
GR.API :
RML.OHMM :
RI. :
RXO.OHMM :
CALI.CM :
~A
# ...
   61.2500    95.2550     2.1900    61.4100     0.1730     0.3330     0.5300    25.7290 
   61.3750    95.7540     2.2020    58.8200     0.1830     0.3340     0.9230    25.7210 
   61.5000    96.1270     2.1880    57.4650     0.2060     0.3430     1.1860    25.7110 
   61.6250    96.0820     2.1530    59.7780     0.2390     0.3530     0.7120    25.7070 
   61.7500    95.6660     2.1140    59.8270     0.2780     0.3570     1.0470    25.7090 
   61.8750    94.9740     2.0840    56.8500     0.3220     0.3510     2.3330    25.7080 
   62.0000    94.0690     2.0680    55.8010     0.3750     0.3370     2.2100    25.6940 
   62.1250    92.8720     2.0720    56.9460     0.4390     0.3210     2.2990    25.6810 
   62.2500    91.4440     2.0890    57.2450     0.4930     0.3050     0.8300    25.6900 
   62.3750    89.9680     2.1160    56.6480     0.4940     0.2850     0.4700    25.6970 
   62.5000    88.6920     2.1510    55.1770     0.3960     0.2560     0.5270    25.6820 
   62.6250    87.5360     2.2040    51.0010     0.1920     0.2130     0.8450    25.6690 
   62.7500    86.0890     2.2860    45.4020    -0.0170     0.1660     0.7720    25.6410 
   62.8750    84.1370     2.3970    42.8270    -0.1580     0.1230     0.5550    25.6160 
   63.0000    81.5940     2.5080    42.8230    -0.2070     0.0910     0.4290    25.6180 
   63.1250    77.7770     2.5510    42.9930    -0.1670     0.0820     0.8820    25.6570 
   63.2500    72.1580     2.4920    45.4640    -0.0450     0.1200     2.2820    26.0160 
   63.3750    64.6670     2.3380    51.8700     0.2140     0.2570     3.6890    27.1630 
   63.5000    55.9170     2.1410    59.2330     0.7210     0.5720     4.9730    29.4250 
   63.6250    46.5900     1.9790    62.3450     1.6350     1.2110     5.4200    31.3730 
   63.7500    37.3400     1.8820    62.8820     2.7730     2.1370     5.6730    33.0920 
   63.8750    28.4900     1.8480    63.2190     3.8300     3.1730     5.6750    33.9410 
   64.0000    20.2290     1.8580    63.6630     4.5730     4.0930     5.1230    33.5060 
   64.1250    13.3340     1.9040    65.7700     5.0390     4.8260     4.8860    31.4550 
   64.2500     8.2950     1.9690    69.7290     5.5330     5.5240     5.6340    29.2900 
   64.3750     5.0560     2.0410    73.7850     6.1740     6.2570     7.2960    27.6120 
   64.5000     2.9310     2.1070    74.4690     6.8770     6.9840     8.7340    26.4310 
   64.6250     1.3650     2.1500    70.1060     7.3650     7.5490     8.7950    25.7480 
   64.7500     0.1250     2.1730    65.5600     7.4660     7.8210     8.9900    25.5460 
   64.8750    -0.8200     2.1820    64.4690     7.1670     7.7260     9.3060    25.6880 
   65.0000    -1.5070     2.1860    68.8270     6.5950     7.3030     8.9630    25.9960 
   65.1250    -1.9750     2.1930    79.2460     5.9540     6.6810     7.4470    26.3170 
   65.2500    -2.3420     2.2070    92.0950     5.4240     6.0690     6.2430    26.4300 
   65.3750    -2.6800     2.2230   102.4820     5.0860     5.5810     5.5040    26.2410 
   65.5000    -3.0570     2.2390   106.1950     4.9520     5.2770     5.4040    25.9150 
   65.6250    -3.4060     2.2480   103.4350     5.0160     5.1980     5.9060    25.7470 
   65.7500    -3.8190     2.2500    96.8810     5.2260     5.3170     6.8340    25.7200 
   65.8750    -4.3750     2.2480    89.0260     5.5990     5.6640     7.5040    25.8090 
   66.0000    -5.0760     2.2520    83.4690     6.1820     6.2850     7.6900    25.9940 
   66.1250    -5.9060     2.2820    82.0360     7.0480     7.2220     8.0460    26.1120 
   66.2500    -6.8600     2.3340    80.2990     8.0850     8.3000    10.5040    26.0660 
   66.3750    -7.9910     2.3900    75.6110     9.0690     9.2570    17.9590    25.8730 
   66.5000    -9.2920     2.4240    69.5610     9.6850     9.7760    24.4830    25.6360 
   66.6250   -10.7000     2.4080    65.7310     9.6260     9.5880    17.6830    25.5220 
   66.7500   -12.1050     2.3550    64.1580     9.1080     8.9850    11.0180    25.5260 
   66.8750   -13.5280     2.2840    63.1730     8.4320     8.2750     9.0890    25.6670 
   67.0000   -15.0000     2.2200    61.7380     7.8730     7.6920     9.2770    25.9100 
   67.1250   -16.4420     2.1810    60.9210     7.5970     7.3740     9.7770    26.0930 
   67.2500   -17.7140     2.1630    60.7070     7.5090     7.2450     9.7360    26.1070 
   67.3750   -18.6950     2.1610    61.6520     7.4880     7.2050     9.4630    26.0960 
   67.5000   -19.4000     2.1660    64.6630     7.4430     7.1750     9.3120    26.1100 
   67.6250   -19.8950     2.1700    67.9290     7.3660     7.1460     9.3280    26.1460 
   67.7500   -20.3110     2.1710    67.4560     7.3350     7.1480     9.3550    26.2310 
   67.8750   -20.6370     2.1730    63.4850     7.4050     7.1910     9.4140    26.3100 
   68.0000   -20.7910     2.1800    60.6280     7.5540     7.2530     9.4590    26.3020 
   68.1250   -20.7730     2.1930    61.7340     7.6630     7.2770     9.5220    26.1780 
   68.2500   -20.7180     2.2040    64.3760     7.6450     7.2310     9.4930    26.0840 
   68.3750   -20.7110     2.2080    66.7470     7.5220     7.1180     9.2820    26.0090 
   68.5000   -20.7410     2.2040    67.5050     7.3910     6.9740     9.0910    25.8710 
   68.6250   -20.7600     2.1940    67.6030     7.3570     6.8560     8.9750    25.6550 
   68.7500   -20.7220     2.1820    69.8020     7.4020     6.8060     9.0270    25.4730 
   68.8750   -20.6370     2.1750    73.5210     7.4510     6.8230     9.1530    25.3780 
   69.0000   -20.5070     2.1780    74.8450     7.4230     6.8480     9.2580    25.3610 
   69.1250   -20.2600     2.1970    73.6660     7.2720     6.7750     9.3740    25.3990 
   69.2500   -19.8440     2.2320    74.1840     7.0580     6.5800     9.6230    25.4740 
   69.3750   -19.1570     2.2800    77.9140     6.8380     6.3090     9.1880    25.5900 
   69.5000   -18.2230     2.3370    82.7200     6.6520     6.0560     7.7650    25.7450 
   69.6250   -17.1730     2.3950    86.5480     6.5370     5.9490     6.2930    25.8430 
   69.7500   -16.0970     2.4380    88.6760     6.4990     6.0250     6.7960    25.7970 
   69.8750   -15.0640     2.4560    89.5630     6.5570     6.2570     8.0740    25.6450 
   70.0000   -14.1610     2.4450    90.0990     6.7270     6.5530     8.9370    25.4660 
   70.1250   -13.4540     2.4090    90.3360     6.9870     6.7520     9.0180    25.4160 
   70.2500   -12.8700     2.3680    89.9200     7.1860     6.7550     9.0540    25.5420 
   70.3750   -12.4390     2.3300    89.7360     7.1890     6.5600     8.2550    25.8120 
   70.5000   -12.1180     2.2990    91.3850     6.9710     6.2500     6.6100    26.1780 
   70.6250   -11.7970     2.2730    96.4720     6.6420     5.9480     5.7720    26.4250 
   70.7500   -11.4720     2.2530   101.4930     6.3520     5.7010     5.5450    26.5030 
   70.8750   -11.0940     2.2430   101.5280     6.1300     5.4900     5.5630    26.4830 
   71.0000   -10.6470     2.2460    97.9810     5.9510     5.2880     5.5030    26.3980 
   71.1250   -10.2200     2.2650    97.2730     5.7860     5.0760     5.3260    26.2640 
   71.2500    -9.8920     2.2920    99.1450     5.6350     4.8680     5.1680    26.0800 
   71.3750    -9.7110     2.3200   100.2450     5.5300     4.7000     5.1100    25.8910 
   71.5000    -9.7020     2.3430   100.4870     5.5190     4.6140     5.2600    25.7450 
   71.6250    -9.9020     2.3540    99.4260     5.6630     4.6570     5.8190    25.6100 
   71.7500   -10.3340     2.3510    94.9400     5.9360     4.8170     6.6010    25.4700 
   71.8750   -10.9900     2.3380    87.8660     6.2930     5.0800     6.9220    25.3640 
   72.0000   -11.8300     2.3170    81.7550     6.6660     5.4090     7.2780    25.3210 
   72.1250   -12.7850     2.2910    78.3990     6.9640     5.7260     7.9330    25.3330 
   72.2500   -13.7060     2.2660    75.7210     7.1510     5.9680     8.6940    25.3420 
   72.3750   -14.4650     2.2450    73.0120     7.2300     6.1140     9.0170    25.3440 
