~V
VERS. 2.00: Ver 2.00
~W
STRT.M 50.0000:
STOP.M 275.0000:
STEP.M 0.1250:
NULL. -999.2500:
UWI. F11033:
~C
DEPT.M :
DEN.GM/CC :
GR.API :
RML.OHMM :
RI. :
RXO.OHMM :
CALI.CM :
SP.MV :
~A
   50.0000     1.9270    43.2190     5.9450     1.0450     1.2790    25.7200  -999.2500 
   50.1250     1.9180    43.9120     5.6250     1.0440     1.2830    25.7090  -999.2500 
   50.2500     1.9060    43.6640     5.3850     1.0340     1.3200    25.6850  -999.2500 
   50.3750     1.8940    43.5370     5.2670     1.0200     1.3360    25.6610  -999.2500 
   50.5000     1.8840    44.5860     5.2440     1.0070     1.3000    25.6480  -999.2500 
   50.6250     1.8780    44.8880     5.2480     0.9990     1.2430    25.6460  -999.2500 
   50.7500     1.8790    44.1040     5.2270     0.9960     1.2000    25.6450  -999.2500 
   50.8750     1.8840    43.3980     5.1870     0.9980     1.1780    25.6450  -999.2500 
   51.0000     1.8900    44.5870     5.1440     1.0040     1.1740    25.6450  -999.2500 
   51.1250     1.8900    47.7180     5.0780     1.0140     1.1450    25.6450  -999.2500 
   51.2500     1.8850    49.1980     4.9740     1.0220     1.1130    25.6450  -999.2500 
   51.3750     1.8820    47.3930     4.8560     1.0210     1.1030    25.6450  -999.2500 
   51.5000     1.8830    44.0260     4.7680     1.0100     1.0970    25.6450  -999.2500 
   51.6250     1.8910    42.6750     4.7520     0.9920     1.0640    25.6450  -999.2500 
   51.7500     1.9040    42.8090     4.7870     0.9750     1.0320    25.6450    48.1440 
   51.8750     1.9130    42.3480     4.8350     0.9620     1.0240    25.6450    48.1440 
   52.0000     1.9170    40.8920     4.8520     0.9530     1.0310    25.6450    47.9860 
   52.1250     1.9150    39.2010     4.8100     0.9430     1.0650    25.6450    47.8000 
   52.2500     1.9100    38.2420     4.7320     0.9260     1.1270    25.6450    47.6350 
   52.3750     1.8980    38.2500     4.6350     0.9050     1.1870    25.6450    47.4650 
   52.5000     1.8840    39.3500     4.5340     0.8820     1.2370    25.6450    47.2590 
   52.6250     1.8870    40.6800     4.4340     0.8660     1.2840    25.6450    47.0610 
   52.7500     1.9100    41.3440     4.3170     0.8560     1.3280    25.6450    46.9420 
   52.8750     1.9420    41.3770     4.1720     0.8520     1.3560    25.6450    46.8690 
   53.0000     1.9770    41.8350     4.0190     0.8450     1.3430    25.6450    46.8320 
   53.1250     2.0210    43.0320     3.9070     0.8300     1.2870    25.6450    46.8050 
   53.2500     2.0830    42.2270     3.8650     0.8100     1.2750    25.6450    46.7860 
   53.3750     2.1690    38.6760     3.8980     0.7900     1.2540    25.6370    46.7450 
   53.5000     2.2740    34.3730     3.9790     0.7740     1.1420    25.6070    46.7040 
   53.6250     2.3750    32.7580     4.0390     0.7650     0.8780    25.5280    46.7220 
   53.7500     2.4530    33.9630     4.0200     0.7580     0.6340    25.4340    46.7130 
   53.8750     2.5090    36.4890     3.9060     0.7480     0.5220    25.3710    46.6670 
   54.0000     2.5500    39.6940     3.7180     0.7350     0.5100    25.3420    46.5450 
   54.1250     2.5800    43.8980     3.5200     0.7220     0.5000    25.2680    46.3420 
   54.2500     2.6000    49.7730     3.3850     0.7110     0.4850    25.0430    46.1240 
   54.3750     2.6100    54.9610     3.3540     0.7050     0.4900    24.6460    45.8830 
   54.5000     2.6140    55.0550     3.4410     0.7050     0.5170    24.2250    45.5930 
   54.6250     2.6110    51.1490     3.6320     0.7070     0.5260    24.0170    45.2060 
   54.7500     2.5980    49.4660     3.8330     0.7060     0.5070    23.9630    44.7390 
   54.8750     2.5750    50.2240     3.9570     0.7010     0.4760    23.9750    44.1940 
   55.0000     2.5440    50.3410     3.9440     0.6920     0.4950    24.0250    43.6280 
   55.1250     2.5210    50.1260     3.7940     0.6830     0.5740    24.0850    43.0600 
   55.2500     2.5150    51.1020     3.6050     0.6760     0.6350    24.1340    42.3220 
   55.3750     2.5180    51.1400     3.4190     0.6740     0.5930    24.1300    41.4780 
   55.5000     2.5240    50.3390     3.2350     0.6760     0.4980    24.1100    40.6370 
   55.6250     2.5330    52.0600     3.0440     0.6870     0.4530    24.0900    39.8150 
   55.7500     2.5370    53.3060     2.8630     0.7060     0.4240    24.0660    38.9950 
   55.8750     2.5300    51.5690     2.7180     0.7290     0.4010    24.0480    38.2120 
   56.0000     2.5100    48.7340     2.6190     0.7520     0.3880    24.0640    37.4880 
   56.1250     2.4810    47.6050     2.5590     0.7620     0.3990    24.1720    36.7460 
   56.2500     2.4450    46.3800     2.5200     0.7580     0.4580    24.4140    36.0470 
   56.3750     2.4100    44.2800     2.4920     0.7430     0.6020    24.7830    35.3940 
   56.5000     2.3950    42.8400     2.4530     0.7230     0.8310    25.1040    34.7780 
   56.6250     2.4110    42.0680     2.3570     0.7050     1.0350    25.2270    34.1550 
   56.7500     2.4390    41.5760     2.2000     0.6930     1.0200    25.2270    33.5020 
   56.8750     2.4680    41.6430     2.0250     0.6900     0.8130    25.1780    32.7900 
   57.0000     2.4950    42.2040     1.9010     0.6990     0.6020    25.0950    32.0010 
   57.1250     2.5180    42.2300     1.8910     0.7220     0.5360    24.9630    31.1860 
   57.2500     2.5280    42.3250     1.9710     0.7550     0.6710    24.7980    30.3770 
   57.3750     2.5220    44.7010     2.0950     0.7930     0.9330    24.6000    29.5590 
   57.5000     2.4990    49.3770     2.2100     0.8280     1.1600    24.4300    28.7350 
   57.6250     2.4550    52.9170     2.2610     0.8470     1.2430    24.3480    27.8400 
   57.7500     2.3980    55.0520     2.2460     0.8460     1.2130    24.3380    26.8430 
   57.8750     2.3380    56.9820     2.1810     0.8280     1.1650    24.3800    25.7740 
   58.0000     2.2840    59.2040     2.0920     0.8000     1.1060    24.4850    24.6460 
   58.1250     2.2460    59.6740     2.0230     0.7780     1.0010    24.7600    23.4360 
   58.2500     2.2190    58.3160     2.0010     0.7690     0.9610    25.1390    22.1830 
   58.3750     2.2010    56.2440     2.0230     0.7710     1.0410    25.4660    20.9620 
   58.5000     2.1890    54.3460     2.0530     0.7800     1.1150    25.6180    19.7020 
   58.6250     2.1910    52.4760     2.0520     0.7910     1.0780    25.6340    18.3850 
   58.7500     2.1980    49.6720     2.0280     0.8010     0.9790    25.6030    17.1780 
   58.8750     2.1930    45.3750     1.9960     0.8070     0.8410    25.5530    16.0400 
   59.0000     2.1640    41.1640     1.9560     0.8080     0.7100    25.4670    14.8680 
   59.1250     2.1280    40.0230     1.8830     0.8050     0.6460    25.3380    13.6430 
   59.2500     2.1230    43.0680     1.7710     0.8020     0.5990    25.1970    12.3750 
   59.3750     2.1580    48.0840     1.6430     0.7950     0.5350    25.0830    10.9010 
   59.5000     2.2220    50.5500     1.5400     0.7680     0.5040    24.9420     9.3080 
   59.6250     2.2930    49.7080     1.4320     0.6920     0.6070    24.7460     7.6630 
   59.7500     2.3530    50.0300     1.2370     0.5820     0.8880    24.5340     5.8650 
   59.8750     2.3970    51.4960     0.9820     0.4780     1.2590    24.3150     3.9440 
   60.0000     2.4180    50.0780     0.7650     0.4120     1.5390    24.1220     1.9100 
   60.1250     2.3710    45.5430     0.6560     0.3930     1.6380    24.0610    -0.2270 
   60.2500     2.2320    44.7690     0.6410     0.4080     1.6800    24.1390    -2.4380 
   60.3750     2.0510    48.8880     0.7240     0.4780     1.9590    24.5250    -4.6810 
   60.5000     1.9230    52.9360     0.9330     0.6510     2.9250    25.5630    -6.9700 
   60.6250     1.9070    53.3440     1.3780     1.0720     4.6280    27.1210    -9.1430 
   60.7500     1.9660    54.1290     2.2960     1.8520     5.8240    27.7040   -11.1510 
   60.8750     2.0530    60.4830     3.5740     3.0290     5.9580    26.6210   -13.0400 
   61.0000     2.1270    71.3890     4.6900     4.3780     5.6570    24.9520   -14.6790 
   61.1250     2.1680    80.0790     5.2010     5.4180     5.4420    24.1420   -16.0320 
