~V
VERS. 2.00: Ver 2.00
~W
STRT.M 50.0000:
STOP.M 283.0000:
STEP.M 0.1250:
NULL. -999.2500:
UWI. F11066:
~C
DEPT.M :
GR.API :
RML.OHMM :
RI. :
RXO.OHMM :
CALI.CM :
DEN.GM/CC :
SP.MV :
~A
# ...
  185.0000    55.8300    76.8040    69.3190    53.0120    24.4940     2.2370    -6.5560 
  185.1250    54.3230    86.9500    78.5360    73.4770    24.7360     2.2220    -6.5520 
  185.2500    55.2580    94.6640    86.0440    95.6090    24.9320     2.2190    -6.5360 
  185.3750    58.0640    97.4120    89.3350    99.7320    25.0330     2.2210    -6.4780 
  185.5000    61.8890    94.8990    87.7940    90.9650    25.0500     2.2230    -6.3990 
  185.6250    63.3010    88.7800    82.4710    84.5890    25.0500     2.2220    -6.2880 
  185.7500    62.1250    82.2590    76.3030    81.3110    25.0530     2.2220    -6.1990 
  185.8750    59.4840    76.9680    70.9310    76.2410    25.0150     2.2250    -6.1320 
  186.0000    59.4950    74.0430    67.4560    65.7670    24.8990     2.2290    -6.0900 
  186.1250    64.1910    75.3940    67.5200    63.0860    24.7980     2.2250    -6.0520 
  186.2500    66.6140    81.3810    71.5060    62.0710    24.7900     2.2120    -6.0150 
  186.3750    64.0250    91.9470    79.4210    71.3850    24.8420     2.1990    -6.0000 
  186.5000    60.9580   105.5920   100.0690    83.8530    24.8970     2.1950    -6.0190 
  186.6250    63.4470   117.9940   111.2350    87.3630    24.9610     2.2020    -6.0550 
  186.7500    65.7440   124.1400   117.3540    86.4500    25.0000     2.2130    -6.1090 
  186.8750    64.8010   122.1150   116.4210    87.7370    24.9660     2.2260    -6.1720 
  187.0000    65.2580   114.3350   109.9420    90.6090    24.9600     2.2380    -6.2530 
  187.1250    68.6100   105.5050   101.6880    94.6890    25.0580     2.2430    -6.3650 
  187.2500    68.3570    98.7620    94.9110    86.9110    25.1380     2.2430    -6.5070 
  187.3750    63.3200    94.6740    90.4850    81.5900    25.1480     2.2400    -6.6590 
  187.5000    59.6910    92.8060    88.2270    78.3050    25.0670     2.2360    -6.7980 
  187.6250    63.8530    92.1450    87.3220    77.4870    24.9880     2.2330    -6.9500 
  187.7500    70.0690    91.0240    86.1620    77.3340    24.9950     2.2320    -7.0920 
  187.8750    71.5570    88.5470    83.8210    78.1940    25.0520     2.2340    -7.2210 
  188.0000    67.5610    84.8650    80.3150    80.1170    25.0850     2.2360    -7.3310 
  188.1250    65.5930    81.4090    76.8230    80.3130    25.0900     2.2310    -7.3820 
  188.2500    68.8200    79.6790    74.7460    75.2150    25.1070     2.2130    -7.4120 
  188.3750    71.1720    80.3370    74.8120    73.3130    25.1210     2.1860    -7.4230 
  188.5000    68.2770    83.1710    77.0670    72.8570    24.9940     2.1580    -7.4190 
  188.6250    63.5980    86.8780    80.6930    75.0420    25.0240     2.1440    -7.3720 
  188.7500    61.5360    89.2480    83.6360    76.8060    24.9520     2.1500    -7.3130 
  188.8750    62.7870    89.0990    84.5240    75.6440    24.8540     2.1730    -7.2360 
  189.0000    65.7540    86.7940    83.1880    73.8030    24.7440     2.2020    -7.1530 
  189.1250    68.3220    84.2060    80.9010    74.1630    24.6230     2.2220    -7.0910 
  189.2500    67.0040    82.9840    79.4380    77.3210    24.5790     2.2260    -7.0220 
  189.3750    61.9100    83.0170    79.0940    80.3220    24.5650     2.2190    -6.9680 
  189.5000    56.6150    82.7120    78.7260    81.1120    24.5730     2.2120    -6.9410 
  189.6250    54.3450    79.4250    75.9710    79.2020    24.6250     2.2050    -6.9380 
  189.7500    55.3100    73.0480    70.4040    67.0630    24.8130     2.2010    -6.9330 
  189.8750    59.4220    65.1830    63.2260    56.5760    25.1930     2.2100    -6.9500 
  190.0000    65.6830    58.1130    56.4230    47.8950    25.2950     2.2360    -6.9430 
  190.1250    69.9690    54.0500    52.0720    46.6100    25.2860     2.2660    -6.9240 
  190.2500    70.0030    53.0270    50.4210    44.7440    24.9420     2.2840    -6.9140 
  190.3750    67.4430    54.5670    51.2130    45.1750    24.9420     2.2880    -6.8940 
  190.5000    65.2910    57.7750    53.7940    47.4250    25.1050     2.2850    -6.8720 
  190.6250    66.4280    61.7150    57.3990    52.1920    25.0580     2.2800    -6.8300 
  190.7500    69.6430    65.8220    61.3000    55.7730    24.7620     2.2730    -6.7880 
  190.8750    71.2420    70.5270    65.6290    61.3120    24.5820     2.2640    -6.7130 
  191.0000    69.5110    76.5970    70.9140    69.7220    24.5170     2.2520    -6.6540 
  191.1250    66.4540    84.1750    77.3300    85.1840    24.5770     2.2390    -6.6080 
  191.2500    64.5640    90.9120    83.1060   109.2310    24.7730     2.2300    -6.5640 
  191.3750    62.9090    93.4420    85.5400   107.8540    25.0380     2.2230    -6.5380 
  191.5000    61.9310    89.0790    82.2670    74.5730    25.1980     2.2230    -6.5100 
  191.6250    65.3410    77.8690    72.7990    60.0730    25.2300     2.2330    -6.5200 
  191.7500    70.6580    65.2780    61.5300    48.8730    25.2160     2.2520    -6.5600 
  191.8750    72.6510    54.8700    51.6910    47.0520    25.2120     2.2730    -6.6690 
  192.0000    68.6840    48.1360    44.9280    42.1920    25.2150     2.2870    -6.8110 
  192.1250    63.5360    45.4640    41.8360    36.2720    25.2060     2.2880    -7.0150 
  192.2500    62.4480    45.4150    41.2060    35.9400    25.2020     2.2800    -7.2330 
  192.3750    63.9890    47.1870    42.3410    37.9740    25.2030     2.2670    -7.4610 
  192.5000    64.4210    50.0620    44.6050    41.9270    25.2090     2.2560    -7.6980 
  192.6250    63.2390    53.6010    47.5940    46.4280    25.2060     2.2520    -7.9350 
  192.7500    64.4480    57.5920    51.0260    48.1140    25.2120     2.2540    -8.1510 
  192.8750    67.2010    62.2180    54.9900    47.9830    25.2140     2.2550    -8.3300 
  193.0000    68.2280    67.6730    59.5920    48.8450    25.2060     2.2560    -8.5060 
  193.1250    66.4580    73.9900    64.7750    52.6760    25.2100     2.2540    -8.6390 
  193.2500    63.5220    80.3850    69.9110    63.9340    25.2150     2.2510    -8.7540 
  193.3750    59.9420    85.7000    74.1000    70.4670    25.2120     2.2440    -8.8510 
  193.5000    56.7740    88.6420    76.3280    71.8550    25.2150     2.2370    -8.9350 
  193.6250    57.9570    88.2040    75.7760    69.8340    25.2440     2.2290    -9.0000 
  193.7500    62.3620    85.7640    73.5330    68.3930    25.2740     2.2210    -9.0490 
  193.8750    66.8400    82.6520    70.6830    64.7840    25.2610     2.2190    -9.0850 
  194.0000    69.3570    79.9210    68.1110    61.9390    25.2440     2.2200    -9.0720 
  194.1250    69.0890    78.1910    66.3770    60.4720    25.2180     2.2220    -9.0520 
  194.2500    66.8290    77.0690    65.2360    59.9320    25.2070     2.2220    -9.0420 
  194.3750    65.7630    76.0330    64.3340    56.6390    25.2100     2.2250    -9.0370 
  194.5000    65.4320    74.6810    63.3770    53.5220    25.2350     2.2310    -9.0130 
  194.6250    64.1510    72.7130    62.1040    49.6360    25.2360     2.2350    -8.9890 
  194.7500    62.7830    70.2770    60.4970    49.7530    25.2290     2.2350    -8.9830 
  194.8750    62.6590    67.6690    58.7110    53.4220    25.2220     2.2330    -8.9820 
  195.0000    63.5450    65.1830    56.9780    56.6670    25.2260     2.2330    -9.0150 
  195.1250    64.0550    62.8550    55.3970    54.0060    25.2020     2.2380    -9.0350 
  195.2500    64.2640    60.5060    53.8470    51.1210    25.1780     2.2460    -9.0400 
  195.3750    63.7760    58.1010    52.2820    49.3410    25.1830     2.2510    -9.0360 
  195.5000    64.2480    55.7060    50.7430    50.9560    25.1800     2.2520    -9.0350 
  195.6250    66.7660    53.4260    49.3330    52.3690    25.1640     2.2540    -9.0220 
  195.7500    66.4410    51.2790    48.0790    49.7530    25.1570     2.2590    -8.9720 
  195.8750    64.0410    49.2090    46.9080    46.4340    25.1480     2.2630    -8.9000 
  196.0000    64.2730    47.1130    45.6730    44.9480    25.1510     2.2630    -8.7870 
  196.1250    67.3150    44.8940    44.2170    42.6730    25.1680     2.2640    -8.6720 
