~V
VERS. 2.00: Ver 2.00
~W
STRT.M 55.0000:
STOP.M 229.0000:
STEP.M 0.1250:
NULL. -999.2500:
UWI. F11013:
~C
DEPT.M :
DEN.GM/CC :
GR.API :
RML.OHMM :
RI. :
RXO.OHMM :
CALI.CM :
SP.MV :
~A
# ...
  156.2500     2.2790    61.8140    70.0850    63.4040    65.9230    24.4650   -12.7530 
  156.3750     2.2900    69.6020    63.2260    57.1030    72.4580    24.4600   -12.7420 
  156.5000     2.3110    73.9990    53.2230    47.9940    78.7140    24.4720   -12.7250 
  156.6250     2.3370    73.6310    42.5170    38.3970    79.5280    24.4740   -12.7080 
  156.7500     2.3610    72.2770    33.3920    30.3440    68.2130    24.4580   -12.7160 
  156.8750     2.3680    72.6960    27.5400    25.1720    45.3370    24.4260   -12.7060 
  157.0000     2.3620    77.0500    24.6540    22.4230    28.2630    24.3990   -12.7090 
  157.1250     2.3500    81.3030    24.5770    21.8790    21.4450    24.3690   -12.7070 
  157.2500     2.3370    80.1130    27.1240    23.4590    18.4790    24.3550   -12.7030 
  157.3750     2.3230    75.8080    32.0670    27.4090    20.8910    24.3760   -12.6760 
  157.5000     2.3100    73.1980    37.6280    32.6830    35.8650    24.4250   -12.6690 
  157.6250     2.3100    72.5440    41.6270    37.4430    63.3320    24.4650   -12.6650 
  157.7500     2.3270    70.7890    41.8770    39.1150    76.9480    24.4770   -12.6470 
  157.8750     2.3560    70.3500    37.4380    36.0470    50.8910    24.4570   -12.6480 
  158.0000     2.3800    73.8590    31.3700    31.0650    30.7840    24.4060   -12.6430 
  158.1250     2.3900    79.3710    26.0840    26.4840    22.2180    24.3290   -12.6340 
  158.2500     2.3870    83.5850    22.7730    23.4030    19.0450    24.2090   -12.6090 
  158.3750     2.3770    82.3250    21.6980    22.1390    18.1100    24.0100   -12.5830 
  158.5000     2.3660    82.0780    21.8150    21.9660    17.9460    23.7830   -12.5720 
  158.6250     2.3570    86.4860    22.3440    22.2970    17.8920    23.7120   -12.5980 
  158.7500     2.3510    90.0310    22.5930    22.5020    19.2860    23.8580   -12.6450 
  158.8750     2.3550    85.4550    22.0590    22.0220    23.6270    24.0720   -12.6950 
  159.0000     2.3670    79.6470    20.9980    21.0070    25.6960    24.0670   -12.7550 
  159.1250     2.3820    79.5750    19.8870    19.8610    21.4830    23.8780   -12.8280 
  159.2500     2.3920    84.5870    19.2710    19.0530    15.9160    23.7150   -12.9430 
  159.3750     2.3890    87.9520    19.8550    19.1350    16.4320    23.6590   -13.1060 
  159.5000     2.3770    87.5260    21.9280    20.3260    21.6480    23.6290   -13.2760 
  159.6250     2.3570    84.5520    25.9350    22.9730    28.2820    23.5990   -13.4490 
  159.7500     2.3270    80.5880    32.3980    27.5390    30.2670    23.5800   -13.6140 
  159.8750     2.2960    75.9700    42.3710    35.1330    34.3690    23.5720   -13.7860 
  160.0000     2.2720    70.3060    55.5060    45.8390    48.9590    23.5760   -13.9610 
  160.1250     2.2610    64.5050    71.0400    59.2910    78.1140    23.5900   -14.1410 
  160.2500     2.2620    60.2530    86.8670    73.6880   106.8560    23.6200   -14.3210 
  160.3750     2.2670    59.6580    98.7750    85.1230   112.8720    23.6760   -14.4830 
  160.5000     2.2720    64.1980   104.9400    91.5180   106.9730    23.7420   -14.6230 
  160.6250     2.2730    70.0070   106.2980    93.3530   105.1570    23.8060   -14.7310 
  160.7500     2.2710    71.8300   105.4900    92.7830   104.4660    23.8500   -14.8210 
  160.8750     2.2690    67.6940   104.8120    91.9600   101.1600    23.8450   -14.8980 
  161.0000     2.2670    63.6190   104.4120    91.4650    98.4390    23.8350   -14.9670 
  161.1250     2.2670    62.6110   103.0410    90.4510   100.0960    23.9200   -15.0080 
  161.2500     2.2660    64.3040    99.3950    87.8190   101.1040    24.1530   -15.0210 
  161.3750     2.2680    66.6790    92.7050    82.7240    93.3690    24.4460   -15.0210 
  161.5000     2.2740    67.9280    84.3980    76.0920    79.8530    24.6540   -15.0060 
  161.6250     2.2810    67.6850    75.9510    69.0520    65.7000    24.7560   -14.9900 
  161.7500     2.2850    66.6480    68.8230    62.8710    54.8060    24.7850   -14.9960 
  161.8750     2.2860    65.8230    64.5150    58.9110    61.5860    24.7820   -14.9780 
  162.0000     2.2860    66.3760    63.0270    57.2950    60.1330    24.7800   -14.9650 
  162.1250     2.2860    69.7000    64.3360    58.0890    54.7460    24.8130   -14.9620 
  162.2500     2.2840    73.9110    68.2270    61.2410    51.1770    24.8550   -14.9590 
  162.3750     2.2810    75.0520    74.3960    66.6890    61.1450    24.8600   -14.9400 
  162.5000     2.2790    73.3920    81.4660    73.2480    78.5550    24.7740   -14.9520 
  162.6250     2.2760    70.3080    88.3540    79.8910    85.7850    24.6290   -14.9460 
  162.7500     2.2700    66.6660    94.1830    85.7040    83.7030    24.4980   -14.9580 
  162.8750     2.2640    63.8210    98.3650    89.9630    90.3560    24.4270   -14.9650 
  163.0000     2.2600    64.1160   101.5060    93.0790   100.4880    24.4070   -14.9540 
  163.1250     2.2580    66.2530   104.2240    95.5930   100.1570    24.4020   -14.9250 
  163.2500     2.2570    65.7220   106.8870    97.9010    98.2910    24.3990   -14.8960 
  163.3750     2.2580    63.2850   109.3640    99.9600   104.5140    24.3810   -14.8550 
  163.5000     2.2600    62.8310   111.2750   101.5230   113.8460    24.3250   -14.7860 
  163.6250     2.2620    63.5200   112.1230   102.2350   117.2750    24.2060   -14.7030 
  163.7500     2.2620    62.4520   111.3600   101.6740   115.1840    24.0490   -14.5720 
  163.8750     2.2620    60.2840   108.4290    99.2940   111.4710    23.8920   -14.4420 
  164.0000     2.2630    60.8370   104.2740    95.7430   103.3670    23.7840   -14.3000 
  164.1250     2.2660    63.8480   100.0960    91.9730    95.4340    23.7400   -14.1480 
  164.2500     2.2710    67.1980    97.1370    89.0680    90.8490    23.7320   -13.9790 
  164.3750     2.2740    68.4860    96.6410    88.2010    90.5860    23.7440   -13.7800 
  164.5000     2.2750    66.4990    98.3700    89.3330    89.6270    23.7760   -13.5910 
  164.6250     2.2740    64.4680   101.7680    92.1060    90.6770    23.8190   -13.4200 
  164.7500     2.2730    64.8600   105.8560    95.7460    95.5320    23.8470   -13.2700 
  164.8750     2.2720    66.5450   109.2940    99.1380    98.0750    23.8200   -13.1160 
  165.0000     2.2720    65.9680   111.3260   101.4870    98.6430    23.7610   -12.9830 
  165.1250     2.2730    63.5970   111.8340   102.5660   100.2270    23.7090   -12.8590 
  165.2500     2.2710    62.4620   111.1080   102.5270   103.1710    23.6730   -12.7380 
  165.3750     2.2670    63.9030   109.4390   101.5700   114.8390    23.6730   -12.6530 
  165.5000     2.2620    66.5080   107.2310   100.0890   117.4430    23.6900   -12.5670 
  165.6250     2.2600    68.5540   104.5110    98.1440   114.3570    23.6920   -12.4950 
  165.7500     2.2600    68.4140   101.1400    95.6260   102.1930    23.6710   -12.4080 
  165.8750     2.2610    67.2360    96.9190    92.3120    89.4140    23.6570   -12.3110 
  166.0000     2.2640    66.3610    92.2380    88.5100    91.3480    23.6580   -12.2150 
  166.1250     2.2670    65.5280    90.5390    84.6580    92.2690    23.6760   -12.1330 
  166.2500     2.2730    65.3000    87.7860    81.2830    76.1130    23.7130   -12.0770 
  166.3750     2.2790    67.6690    85.3900    79.0650    60.9680    23.7760   -12.0280 
  166.5000     2.2800    70.7080    84.2500    78.0090    54.6800    23.8930   -11.9580 
  166.6250     2.2770    71.0710    83.9570    77.7380    57.3490    24.0320   -11.9010 
  166.7500     2.2720    67.6340    83.6520    77.4550    63.2900    24.1200   -11.9300 
  166.8750     2.2710    63.8410    82.2530    76.1600    66.9820    24.1610   -12.0080 
  167.0000     2.2710    62.8560    79.7260    73.8200    65.0400    24.1700   -12.0850 
  167.1250     2.2730    65.4220    76.6720    70.9930    61.0220    24.1550   -12.1900 
  167.2500     2.2750    69.5770    74.0570    68.5710    53.9470    24.1090   -12.3140 
  167.3750     2.2750    70.5790    73.0320    67.6220    47.3810    24.0340   -12.4950 
