~V
VERS. 2.00: Ver 2.00
~W
STRT.M 50.0000:
STOP.M 283.0000:
STEP.M 0.1250:
NULL. -999.2500:
UWI. F11066:
~C
DEPT.M :
GR.API :
RML.OHMM :
RI. :
RXO.OHMM :
CALI.CM :
DEN.GM/CC :
SP.MV :
~A
# ...
  151.2500    47.9880    20.0030    18.6560    20.6160    25.0110     2.4990    -3.5120 
  151.3750    46.7960    20.4320    19.0110    20.8590    25.2140     2.5080    -3.5870 
  151.5000    44.9900    20.9420    19.5280    21.4180    25.4540     2.5260    -3.6440 
  151.6250    44.8500    21.1890    19.9160    21.4560    25.4020     2.5490    -3.7110 
  151.7500    46.3610    21.0230    19.9740    22.3900    25.2460     2.5600    -3.7760 
  151.8750    48.9280    20.4620    19.6560    22.9670    25.1130     2.5530    -3.8450 
  152.0000    52.0970    19.6610    19.0430    21.7530    25.0530     2.5400    -3.9020 
  152.1250    54.8190    18.8860    18.3210    19.8540    24.8320     2.5280    -3.9390 
  152.2500    55.8040    18.3770    17.7410    18.5700    24.6670     2.5200    -3.9400 
  152.3750    55.1310    18.2400    17.4460    19.2340    24.6860     2.5160    -3.9080 
  152.5000    53.6390    18.4670    17.4870    20.5180    24.8540     2.5140    -3.8920 
  152.6250    53.8050    18.9980    17.8700    20.4260    24.9720     2.5100    -3.8360 
  152.7500    56.9420    19.6340    18.4360    21.1490    24.9560     2.5040    -3.7930 
  152.8750    60.6430    20.2370    19.0560    22.9680    24.9600     2.5020    -3.7350 
  153.0000    62.2720    20.7200    19.6110    24.0740    24.9190     2.5090    -3.6680 
  153.1250    61.3890    21.0410    20.0000    23.9960    24.8830     2.5260    -3.6110 
  153.2500    58.9310    21.2510    20.2320    24.4980    24.9550     2.5420    -3.5660 
  153.3750    56.1200    21.3820    20.3390    24.8310    25.1740     2.5480    -3.5430 
  153.5000    54.3320    21.4490    20.3650    24.4170    25.4940     2.5460    -3.5000 
  153.6250    55.7060    21.3710    20.2860    24.0790    25.5750     2.5410    -3.5350 
  153.7500    57.3090    21.0270    20.0060    23.9260    25.5340     2.5370    -3.5620 
  153.8750    58.2810    20.3030    19.4050    23.4530    25.1490     2.5350    -3.6020 
  154.0000    60.3160    19.2000    18.4550    22.5240    24.8970     2.5320    -3.6730 
  154.1250    62.4880    17.8970    17.2860    20.9280    24.8430     2.5290    -3.7660 
  154.2500    62.9360    16.7510    16.2060    19.0480    25.0280     2.5280    -3.8600 
  154.3750    62.3740    16.0130    15.4310    17.5880    25.3080     2.5320    -3.9310 
  154.5000    62.7660    15.7940    15.0680    16.7470    25.1250     2.5390    -4.0100 
  154.6250    63.7890    16.0860    15.1470    17.1220    24.8010     2.5430    -4.0320 
  154.7500    63.0140    16.5690    15.4450    18.0590    24.7140     2.5410    -4.0790 
  154.8750    61.5970    16.9710    15.7570    19.2590    24.8820     2.5300    -4.1160 
  155.0000    61.1390    17.0900    15.8970    20.2300    25.0980     2.5150    -4.1350 
  155.1250    60.2630    16.8670    15.7630    19.1160    25.1620     2.5040    -4.1470 
  155.2500    58.5140    16.5260    15.4920    17.9480    25.2200     2.5010    -4.1750 
  155.3750    57.4210    16.2390    15.2140    16.9700    25.3370     2.5010    -4.2490 
  155.5000    58.0150    16.0850    15.0140    16.5090    25.5480     2.4970    -4.3200 
  155.6250    57.3640    16.0460    14.9120    17.2660    25.3890     2.4930    -4.4380 
  155.7500    54.0340    16.0320    14.8470    18.0920    25.2460     2.4960    -4.5350 
  155.8750    51.6640    16.0260    14.7890    18.1720    25.4700     2.5010    -4.6360 
  156.0000    53.3960    16.0720    14.7590    17.4160    25.8170     2.5040    -4.7610 
  156.1250    57.1410    16.2540    14.8200    16.5670    25.2380     2.5030    -4.8950 
  156.2500    57.9960    16.5130    14.9390    16.6100    24.9370     2.5010    -5.0130 
  156.3750    55.4050    16.6950    15.0010    17.7190    24.8670     2.5000    -5.1030 
  156.5000    52.8420    16.6160    14.8540    19.5030    24.9240     2.5010    -5.1970 
  156.6250    52.9370    16.1150    14.3620    19.6260    24.8700     2.5050    -5.2770 
  156.7500    53.4490    15.3360    13.6520    18.3090    24.7240     2.5110    -5.3380 
  156.8750    52.0630    14.5020    12.9100    16.1400    24.6530     2.5210    -5.3910 
  157.0000    49.6060    13.8750    12.3380    14.8810    24.6850     2.5320    -5.3940 
  157.1250    50.8570    13.7570    12.1620    15.2700    24.7520     2.5360    -5.3640 
  157.2500    55.1400    14.2010    12.4180    15.9880    24.8220     2.5350    -5.3220 
  157.3750    59.4990    15.2090    13.1190    16.1160    24.9410     2.5320    -5.2840 
  157.5000    63.6860    16.5900    14.1630    16.1590    25.2460     2.5310    -5.2560 
  157.6250    67.4700    17.6670    15.0850    18.9800    25.3510     2.5340    -5.2140 
  157.7500    69.9530    17.5530    15.1280    22.2250    25.2070     2.5350    -5.1870 
  157.8750    70.3870    15.7680    13.8080    23.4470    24.9940     2.5260    -5.1640 
  158.0000    70.3160    12.6770    11.3650    20.5040    25.0840     2.4960    -5.1670 
  158.1250    73.5830     9.4020     8.4920    12.1600    25.3770     2.4360    -5.1850 
  158.2500    80.5850     6.8660     6.6770     6.8130    25.2010     2.3680    -5.2070 
  158.3750    87.6380     5.2600     5.2400     4.6010    25.0580     2.3150    -5.2470 
  158.5000    91.8810     4.4370     4.3710     4.2500    25.0910     2.2890    -5.2600 
  158.6250    93.1570     4.2100     3.9850     4.2740    25.1900     2.2820    -5.2640 
  158.7500    94.0550     4.2490     3.8590     4.2150    25.3100     2.2760    -5.2490 
  158.8750    93.6070     4.3820     3.8760     4.2000    25.2950     2.2740    -5.2340 
  159.0000    90.8160     4.4860     3.9390     4.3820    25.2940     2.2820    -5.2200 
  159.1250    87.6810     4.5010     3.9850     4.7650    25.0820     2.3000    -5.1830 
  159.2500    85.6960     4.4690     4.0030     4.9400    24.9900     2.3150    -5.1600 
  159.3750    83.8410     4.4350     4.0040     5.0240    24.9780     2.3250    -5.1040 
  159.5000    81.7340     4.4260     4.0020     5.0200    25.0480     2.3290    -5.0630 
  159.6250    81.9320     4.4470     4.0040     5.0260    25.3970     2.3270    -4.9920 
  159.7500    86.0980     4.4820     4.0100     5.0630    25.7160     2.3190    -4.9270 
  159.8750    93.0170     4.5270     4.0200     5.1220    25.4960     2.3070    -4.8390 
  160.0000    99.4840     4.5820     4.0350     5.2050    25.1720     2.2940    -4.7540 
  160.1250   101.6480     4.6450     4.0550     5.3740    25.0080     2.2830    -4.6860 
  160.2500   100.6420     4.7050     4.0710     5.5060    24.9960     2.2820    -4.6140 
  160.3750    98.6070     4.7450     4.0770     5.6210    24.9930     2.2970    -4.5710 
  160.5000    95.8440     4.7530     4.0660     5.7180    24.9960     2.3240    -4.5420 
  160.6250    92.4480     4.7170     4.0240     5.7880    25.1620     2.3520    -4.5720 
  160.7500    92.4050     4.6450     3.9520     5.7730    25.5730     2.3740    -4.6100 
  160.8750    98.6860     4.5390     3.8490     5.8280    26.0220     2.3880    -4.6770 
  161.0000   107.2470     4.3990     3.7240     5.6240    25.8460     2.3910    -4.7400 
  161.1250   110.8930     4.2310     3.5940     4.6890    25.8210     2.3850    -4.7770 
  161.2500   109.4710     4.0630     3.4740     4.1740    25.7360     2.3760    -4.7960 
  161.3750   105.0660     3.9160     3.3700     4.0900    25.4250     2.3640    -4.7830 
  161.5000   101.7700     3.8050     3.2830     4.3160    25.3200     2.3500    -4.7420 
  161.6250   103.9190     3.7330     3.2210     4.5270    25.3580     2.3400    -4.6650 
  161.7500   110.2180     3.6800     3.1780     4.3550    25.1150     2.3340    -4.6150 
  161.8750   114.9780     3.6400     3.1550     4.1540    24.9900     2.3300    -4.5690 
  162.0000   112.6140     3.6110     3.1450     4.0970    24.9550     2.3220    -4.5300 
  162.1250   105.1480     3.6030     3.1380     4.0920    24.9610     2.3080    -4.5230 
  162.2500    98.8000     3.6110     3.1270     4.0420    24.9810     2.2910    -4.5370 
  162.3750    99.5440     3.6200     3.1110     3.9220    25.0210     2.2770    -4.5700 
