~V
VERS. 2.00: Ver 2.00
~W
STRT.M 52.0000:
STOP.M 282.0000:
STEP.M 0.1250:
NULL. -999.2500:
UWI. F11052:
~C
DEPT.M :
SP.MV :
GR.API :
RML.OHMM :
RI. :
RXO.OHMM :
CALI.CM :
DEN.GM/CC :
~A
# ...
  232.0000   -12.1650    84.1350     8.9570     8.5490     8.4010    25.3720     2.5080 
  232.1250   -11.8040    83.6360     8.8510     8.2390     8.4380    25.3690     2.5040 
  232.2500   -11.5450    85.6110     9.0040     8.3700     8.3820    25.3590     2.5080 
  232.3750   -11.4250    88.7780     9.1550     8.6440     8.3140    25.3490     2.5120 
  232.5000   -11.3260    91.5650     9.1870     8.8640     8.2800    25.3540     2.5140 
  232.6250   -11.3330    93.8410     9.0830     8.9560     8.1770    25.3420     2.5090 
  232.7500   -11.4280    95.1310     8.9250     8.9790     8.1750    25.3190     2.5000 
  232.8750   -11.5240    96.4880     8.7710     8.9740     8.1990    25.3070     2.4890 
  233.0000   -11.6720   100.7480     8.6610     8.9680     8.1560    25.3050     2.4800 
  233.1250   -11.8900   110.1520     8.6240     8.9700     8.1630    25.3200     2.4770 
  233.2500   -12.0880   119.6310     8.6450     8.9740     8.2570    25.3590     2.4750 
  233.3750   -12.2990   124.1860     8.7120     8.9740     8.2730    25.4050     2.4720 
  233.5000   -12.5100   123.8500     8.8070     8.9740     8.2780    25.4230     2.4650 
  233.6250   -12.6610   117.5650     8.9150     8.9800     8.3920    25.4130     2.4570 
  233.7500   -12.8180   109.8230     9.0150     8.9890     8.4850    25.4100     2.4530 
  233.8750   -12.9850   105.9100     9.0880     8.9830     8.5080    25.4350     2.4530 
  234.0000   -13.0090   107.5100     9.1300     8.9400     8.5990    25.4720     2.4560 
  234.1250   -12.8940   109.4610     9.1670     8.8490     8.6870    25.4790     2.4550 
  234.2500   -12.7660   106.4160     9.2650     8.7630     8.6440    25.4890     2.4510 
  234.3750   -12.5920   102.8410     9.4950     8.7570     8.5210    25.4840     2.4480 
  234.5000   -12.3930   102.0180     9.9000     8.8960     8.5490    25.4820     2.4520 
  234.6250   -12.1970   103.0550    10.4520     9.2140     9.0270    25.4480     2.4610 
  234.7500   -12.0260   104.5550    10.9790     9.5840    10.1090    25.3970     2.4690 
  234.8750   -11.8500   104.8250    11.3410     9.8400    11.5070    25.3720     2.4690 
  235.0000   -11.6900   104.4990    11.5190     9.8730    12.0520    25.3630     2.4580 
  235.1250   -11.6420   103.7360    11.8100     9.7960    11.7210    25.3420     2.4400 
  235.2500   -11.6100   103.6110    12.8070    10.0050    11.0820    25.3060     2.4240 
  235.3750   -11.5960   103.1040    15.2800    11.0060    10.7180    25.2680     2.4140 
  235.5000   -11.6900   100.4990    20.1570    13.5830    12.5740    25.2140     2.4060 
  235.6250   -11.8580    94.5880    29.2600    19.7170    22.7210    25.1960     2.3870 
  235.7500   -12.0290    85.6170    42.7980    30.7480    53.6640    25.2310     2.3540 
  235.8750   -12.2420    76.3290    59.4940    47.2190   111.3410    25.3370     2.3100 
  236.0000   -12.4670    70.2470    74.8700    65.7460   147.2540    25.3990     2.2670 
  236.1250   -12.6610    68.5990    81.0800    75.7670   121.5370    25.3880     2.2400 
  236.2500   -12.8550    70.5160    77.4270    73.6170    95.8760    25.3760     2.2310 
  236.3750   -12.9850    73.5450    68.0470    64.4100    78.8310    25.3650     2.2320 
  236.5000   -13.0280    75.3680    58.8050    54.9460    55.0910    25.3460     2.2340 
  236.6250   -13.0520    74.0580    54.1190    49.5280    37.9860    25.3090     2.2250 
  236.7500   -13.0220    72.4940    53.6900    48.1520    37.0060    25.2630     2.2110 
  236.8750   -12.9400    72.4900    56.4970    50.2100    48.9190    25.2160     2.1970 
  237.0000   -12.9350    72.6430    61.1160    54.6660    59.5560    25.2310     2.1910 
  237.1250   -12.9620    71.6750    65.4960    59.8480    79.6460    25.2530     2.1930 
  237.2500   -12.9510    70.7630    67.7370    63.4630    78.8290    25.2440     2.1980 
  237.3750   -13.0280    70.1110    66.9430    64.1110    65.6990    25.2220     2.2040 
  237.5000   -13.1820    69.8920    63.2890    61.6360    55.7080    25.2040     2.2130 
  237.6250   -13.2820    70.4730    57.6210    56.7080    52.7800    25.2430     2.2260 
  237.7500   -13.3670    72.3790    51.5070    50.9170    50.6600    25.3100     2.2420 
  237.8750   -13.4930    74.7850    45.7910    45.1760    44.3430    25.3500     2.2570 
  238.0000   -13.5580    77.0120    41.0280    40.1700    34.8670    25.3400     2.2670 
  238.1250   -13.5610    79.7180    37.7620    36.5110    29.8270    25.2680     2.2710 
  238.2500   -13.6660    82.2610    35.8650    34.1220    28.0870    25.1620     2.2720 
  238.3750   -13.7520    83.1950    35.2920    32.9670    28.6130    25.0540     2.2710 
  238.5000   -13.7240    80.9640    36.0160    33.0220    31.3280    25.0230     2.2700 
  238.6250   -13.7520    76.7150    38.3750    34.6160    33.1380    25.1040     2.2670 
  238.7500   -13.8140    74.8750    42.3420    37.8140    33.9690    25.2280     2.2630 
  238.8750   -13.8430    76.1140    48.0040    42.8590    35.4950    25.2900     2.2580 
  239.0000   -13.9460    76.9100    55.0590    49.6840    43.5550    25.3020     2.2540 
  239.1250   -14.0990    73.0090    62.3350    57.4770    63.0400    25.3020     2.2530 
  239.2500   -14.1650    67.9900    67.8530    64.1350    81.5680    25.3070     2.2540 
  239.3750   -14.2270    67.0430    70.0370    67.6790    80.8540    25.3330     2.2560 
  239.5000   -14.3040    70.2990    68.3810    67.0690    67.9290    25.3520     2.2580 
  239.6250   -14.3690    72.6220    63.5770    62.6520    55.4540    25.3420     2.2590 
  239.7500   -14.4890    71.5490    58.0720    57.0640    53.3670    25.3140     2.2590 
  239.8750   -14.5810    70.6680    53.3110    51.8890    50.5770    25.2970     2.2610 
  240.0000   -14.5500    72.5240    50.0590    48.0250    44.8810    25.2770     2.2640 
  240.1250   -14.5410    75.7910    48.8420    46.1180    39.7660    25.2510     2.2660 
  240.2500   -14.6120    76.4750    49.3280    45.9140    38.7990    25.2370     2.2630 
  240.3750   -14.6510    74.8980    51.2940    47.3310    40.9050    25.2180     2.2560 
  240.5000   -14.7110    73.8220    54.5930    50.2410    44.4780    25.1830     2.2460 
  240.6250   -14.7630    75.2820    60.0690    54.5730    50.0650    25.1310     2.2420 
  240.7500   -14.7230    75.6350    67.3540    59.7390    54.3490    25.0080     2.2450 
  240.8750   -14.6460    73.1750    75.2340    65.4800    56.7100    24.7660     2.2580 
  241.0000   -14.6060    69.6500    82.4260    71.6430    57.9160    24.5490     2.2800 
  241.1250   -14.4860    66.9220    88.3700    77.8740    64.9470    24.5130     2.3130 
  241.2500   -14.1930    65.0340    93.1060    83.2530    75.7490    24.6200     2.3500 
  241.3750   -13.8820    64.2730    95.7980    86.6470    94.4260    24.6970     2.3780 
  241.5000   -13.5580    64.4890    95.9910    87.3130   112.4540    24.7530     2.3840 
  241.6250   -13.1130    64.7950    94.1600    85.3980   108.8760    24.7010     2.3610 
  241.7500   -12.7260    64.6160    92.2320    82.9730    79.9870    24.4650     2.3220 
  241.8750   -12.4410    64.4880    91.6350    81.6410    59.8660    24.1420     2.2810 
  242.0000   -12.1280    64.0930    93.1420    82.4320    49.2240    23.8590     2.2460 
  242.1250   -11.8860    65.6160    96.7890    85.8070    46.4720    23.6370     2.2180 
  242.2500   -11.7180    67.5850   101.0500    90.3870    47.6890    23.5660     2.1930 
  242.3750   -11.5310    67.7170   104.6800    94.7490    53.4510    23.7950     2.1770 
  242.5000   -11.4000    67.5500   107.0730    97.8510    61.5380    24.1910     2.1810 
  242.6250   -11.3540    71.7520   108.7590    99.7800    73.8850    24.5410     2.2100 
  242.7500   -11.3050    76.9760   111.3010   102.2080    84.4540    24.7820     2.2480 
  242.8750   -11.2790    77.6490   115.7080   106.4770    86.7300    24.7730     2.2790 
  243.0000   -11.2770    73.2150   121.9940   113.0170    85.7960    24.5860     2.2980 
  243.1250   -11.2340    68.4900   128.7340   120.9070    95.3450    24.4820     2.3080 
