~V
VERS. 2.00: Ver 2.00
~W
STRT.M 58.0000:
STOP.M 277.0000:
STEP.M 0.1250:
NULL. -999.2500:
UWI. F11038:
~C
DEPT.M :
GR.API :
RML.OHMM :
RI. :
RXO.OHMM :
CALI.CM :
DEN.GM/CC :
SP.MV :
~A
# ...
  260.5000    67.8330     9.9010     8.2660    14.2770    24.4160     2.4460     0.8030 
  260.6250    68.4270    10.0820     8.4590    14.0760    24.4690     2.4430     1.0480 
  260.7500    69.1170    10.1900     8.5950    13.0750    24.5360     2.4400     1.2470 
  260.8750    69.2680    10.1680     8.6270    12.0450    24.5650     2.4370     1.3880 
  261.0000    70.2180     9.9990     8.5310    11.2900    24.5280     2.4340     1.4510 
  261.1250    72.6500     9.7130     8.3190     9.9240    24.4860     2.4310     1.4590 
  261.2500    73.9380     9.4130     8.0720     8.7220    24.5270     2.4250     1.4670 
  261.3750    73.0300     9.1730     7.8580     7.9460    24.5950     2.4130     1.4950 
  261.5000    70.6600     9.0380     7.7240     7.8990    24.6420     2.3960     1.5100 
  261.6250    69.2250     9.0270     7.7070     8.5170    24.6720     2.3800     1.5020 
  261.7500    70.2550     9.0970     7.7760     9.3630    24.6940     2.3710     1.5060 
  261.8750    72.7080     9.2140     7.9020     9.8040    24.6750     2.3730     1.5740 
  262.0000    73.8230     9.3520     8.0540     9.5070    24.6280     2.3860     1.7240 
  262.1250    72.3100     9.4850     8.2040     9.3180    24.5870     2.4070     1.9210 
  262.2500    71.0400     9.5950     8.3350     9.4000    24.6490     2.4280     2.0990 
  262.3750    71.3930     9.6690     8.4340     9.1190    24.7020     2.4460     2.2440 
  262.5000    71.7330     9.6970     8.4960     9.1690    24.7160     2.4580     2.3520 
  262.6250    73.0400     9.6660     8.5090     9.3080    24.7010     2.4610     2.4950 
  262.7500    75.1170     9.5920     8.4800     9.4660    24.7060     2.4600     2.6470 
  262.8750    75.1380     9.4950     8.4170     9.1250    24.7110     2.4570     2.7460 
  263.0000    72.7570     9.3940     8.3280     8.6820    24.7110     2.4530     2.7610 
  263.1250    73.1210     9.3080     8.2300     8.2100    24.7200     2.4480     2.7300 
  263.2500    76.3620     9.2330     8.1390     7.9720    24.7050     2.4400     2.7480 
  263.3750    77.2710     9.1600     8.0630     8.0310    24.6730     2.4320     2.8190 
  263.5000    74.1540     9.0820     8.0040     8.3480    24.6250     2.4270     2.9230 
  263.6250    71.0350     8.9970     7.9600     8.3860    24.6040     2.4260     2.9880 
  263.7500    69.8300     8.9160     7.9200     8.4490    24.6280     2.4270     3.0070 
  263.8750    69.9170     8.8460     7.8820     8.5780    24.6940     2.4280     2.9830 
  264.0000    70.5980     8.7920     7.8410     8.6830    24.7300     2.4270     2.9230 
  264.1250    72.0050     8.7520     7.7950     8.7070    24.7150     2.4250     2.8690 
  264.2500    73.8060     8.7130     7.7400     8.4580    24.6840     2.4220     2.7930 
  264.3750    75.3500     8.6630     7.6690     8.1740    24.6680     2.4160     2.6830 
  264.5000    76.8130     8.5910     7.5750     8.1320    24.6580     2.4050     2.5010 
  264.6250    78.7090     8.4850     7.4570     8.0340    24.6080     2.3920     2.2630 
  264.7500    77.3170     8.3580     7.3300     7.7960    24.5930     2.3830     2.0380 
  264.8750    70.2670     8.2260     7.2120     7.6010    24.7220     2.3830     1.8950 
  265.0000    61.9550     8.1070     7.1190     7.6980    24.8180     2.3900     1.8340 
  265.1250    62.0040     8.0290     7.0680     8.2110    24.7840     2.4010     1.7950 
  265.2500    66.3520     8.0090     7.0640     8.9550    24.7370     2.4080     1.7620 
  265.3750    68.4200     8.0720     7.1230     9.0030    24.7110     2.4080     1.7250 
  265.5000    68.6830     8.2380     7.2600     8.6350    24.7120     2.4010     1.7360 
  265.6250    70.9420     8.5260     7.4920     8.4830    24.7270     2.3940     1.8520 
  265.7500    74.1450     8.8840     7.7850     9.0120    24.7260     2.3940     1.9960 
  265.8750    74.9070     9.2510     8.0940    10.1900    24.7170     2.4030     2.1160 
  266.0000    73.5300     9.5550     8.3600    11.7330    24.7280     2.4190     2.2290 
  266.1250    71.8820     9.7150     8.5160    12.0090    24.7380     2.4390     2.3330 
  266.2500    70.6090     9.7490     8.5670    11.5230    24.7450     2.4560     2.4330 
  266.3750    69.7110     9.6960     8.5470    11.4060    24.7560     2.4720     2.5430 
  266.5000    69.2530     9.6130     8.5000    11.8830    24.7800     2.4860     2.6570 
  266.6250    68.6370     9.5390     8.4560    12.7130    24.7850     2.4950     2.7380 
  266.7500    66.9730     9.4680     8.4160    13.4650    24.7780     2.4940     2.7740 
  266.8750    65.4830     9.3830     8.3640    13.7810    24.7820     2.4820     2.7660 
  267.0000    65.8360     9.2790     8.2930    13.2110    24.7800     2.4630     2.7090 
  267.1250    65.8360     9.1910     8.2280    11.8900    24.7570     2.4430     2.6370 
  267.2500    65.8360     9.1640     8.2130    10.3080    24.7400     2.4290     2.5690 
  267.3750    65.8360     9.2150     8.2680     9.0870    24.7240     2.4220     2.4670 
  267.5000    65.8360     9.3180     8.3750     8.4570    24.7050     2.4190     2.3200 
  267.6250    65.8360     9.3950     8.4670     8.2110    24.7110     2.4160     2.1580 
  267.7500    65.8360     9.3660     8.4690     8.3400    24.7250     2.4120     2.0440 
  267.8750    65.8360     9.1990     8.3430     8.5190    24.7420     2.4090     1.9990 
  268.0000    65.8360     8.9190     8.1040     8.3910    24.7770     2.4070     2.0410 
  268.1250    65.8360     8.6100     7.8160     8.0250    24.7590     2.4080     2.1420 
  268.2500    65.8360     8.3730     7.5610     7.8720    24.7510     2.4090     2.2490 
  268.3750    65.8360     8.2530     7.3840     7.8580    24.7560     2.4100     2.3900 
  268.5000    65.8360     8.2430     7.2960     7.7770    24.7740     2.4090     2.5920 
  268.6250    65.8360     8.2960     7.2860     7.7440    24.7730     2.4030     2.8120 
  268.7500    65.8360     8.3440     7.3060     7.7340    24.7830     2.3940     3.0260 
  268.8750    65.8360     8.3630     7.3290     7.6470    24.7950     2.3830     3.1630 
  269.0000    65.8360     8.3620     7.3430     7.4130    24.7900     2.3730     3.1750 
  269.1250    65.8360     8.3610     7.3480     7.1970    24.7580     2.3700     3.0980 
  269.2500    65.8360     8.3720     7.3500     7.1230    24.7340     2.3710     3.0520 
  269.3750    65.8360     8.3860     7.3470     7.1960    24.7110     2.3750     3.0310 
  269.5000    65.8360     8.3970     7.3380     7.3150    24.7060     2.3800     3.0130 
  269.6250    65.8360     8.4090     7.3280     7.5530    24.7260     2.3840     2.9680 
  269.7500    65.8360     8.4400     7.3290     7.7770    24.7330     2.3870     2.8710 
  269.8750    65.8360     8.4960     7.3440     7.9000    24.7270     2.3920     2.8170 
  270.0000    65.8360     8.5690     7.3710     8.1250    24.7300     2.3960     2.8510 
  270.1250    65.8360     8.6350     7.4010     8.6280    24.7300     2.3990     2.9320 
  270.2500    65.8360     8.6810     7.4250     9.1710    24.7320     2.4000     2.9580 
  270.3750    65.8360     8.7120     7.4440     9.4820    24.7330     2.4010     2.9360 
  270.5000    65.8360     8.7410     7.4620     9.8560    24.7220     2.4040     2.8450 
  270.6250    65.8360     8.7810     7.4810    10.5430    24.7000     2.4090     2.7660 
  270.7500    65.8360     8.8290     7.4970    11.0350    24.6990     2.4140     2.7190 
  270.8750    65.8360     8.8720     7.5050    10.3580    24.6990     2.4160     2.6520 
  271.0000    65.8360     8.8980     7.5000     9.5790    24.7070     2.4150     2.5860 
  271.1250    65.8360     8.9030     7.4820     9.0180    24.7260     2.4120     2.4880 
  271.2500    65.8360     8.8970     7.4620     8.8510    24.7350     2.4120     2.3680 
  271.3750    65.8360     8.8920     7.4510     9.0040    24.7350     2.4140     2.2580 
  271.5000    65.8360     8.8990     7.4620     9.2470    24.7280     2.4170     2.1710 
  271.6250    65.8360     8.9320     7.5060     9.5260    24.7390     2.4160     2.1060 
