~V
VERS. 2.00: Ver 2.00
~W
STRT.M 59.0000:
STOP.M 217.0000:
STEP.M 0.1250:
NULL. -999.2500:
UWI. F11019:
~C
DEPT.M :
DEN.GM/CC :
GR.API :
RML.OHMM :
RI. :
RXO.OHMM :
CALI.CM :
SP.MV :
~A
# ...
   70.2500     2.1230    74.7390     7.7510     7.3500     6.6590    18.3700   -34.6580 
   70.3750     2.1150    74.9610     7.7590     7.2960     6.6320    18.2500   -34.5250 
   70.5000     2.1000    75.0370     7.7570     7.2330     6.7010    18.0500   -34.3930 
   70.6250     2.0790    75.0250     7.7960     7.2010     6.8510    17.8660   -34.2400 
   70.7500     2.0550    73.7460     7.8960     7.2240     7.1400    17.7080   -34.0330 
   70.8750     2.0350    71.3800     8.0440     7.3030     7.6100    17.6490   -33.7610 
   71.0000     2.0220    69.4310     8.1960     7.4140     8.3870    17.7210   -33.4470 
   71.1250     2.0180    68.8310     8.2840     7.5090     9.3400    17.9310   -33.0270 
   71.2500     2.0220    68.0800     8.2860     7.5480    10.0800    18.1630   -32.5400 
   71.3750     2.0310    66.3990     8.2100     7.5150     9.9770    18.3620   -32.0540 
   71.5000     2.0430    64.4310     8.0940     7.4220     8.8880    18.5120   -31.5850 
   71.6250     2.0550    63.5260     7.9940     7.3020     8.1050    18.5960   -31.2120 
   71.7500     2.0650    63.7970     7.9400     7.1950     7.8450    18.6400   -30.9900 
   71.8750     2.0710    65.0190     7.9280     7.1160     7.7930    18.6520   -30.9430 
   72.0000     2.0720    67.2260     7.9290     7.0630     7.7040    18.5910   -31.0120 
   72.1250     2.0700    70.7800     7.9030     7.0250     7.5730    18.4580   -31.1480 
   72.2500     2.0700    74.2920     7.8410     6.9880     7.4860    18.3290   -31.3290 
   72.3750     2.0720    75.4450     7.7550     6.9530     7.4860    18.2560   -31.5700 
   72.5000     2.0770    72.7620     7.6740     6.9280     7.5190    18.2440   -31.8360 
   72.6250     2.0830    68.7250     7.6220     6.9190     7.5160    18.2080   -32.0650 
   72.7500     2.0880    67.3060     7.5920     6.9200     7.4730    18.1300   -32.1780 
   72.8750     2.0920    68.5580     7.5710     6.9220     7.3980    18.0140   -32.1210 
   73.0000     2.0930    70.7400     7.5440     6.9140     7.3000    17.8950   -31.9090 
   73.1250     2.0940    72.2440     7.5080     6.8950     7.1550    17.8710   -31.5540 
   73.2500     2.0980    73.0320     7.4780     6.8700     7.0120    17.9090   -31.0730 
   73.3750     2.1050    73.7060     7.4580     6.8420     6.8900    18.0620   -30.4690 
   73.5000     2.1170    74.9720     7.4290     6.7970     6.7800    18.4310   -29.7980 
   73.6250     2.1360    76.8010     7.3330     6.6930     6.7510    19.0900   -29.1290 
   73.7500     2.1570    78.3880     7.1320     6.5070     6.8080    20.0390   -28.4850 
   73.8750     2.1780    79.9180     6.8110     6.2290     6.8780    21.1440   -27.9010 
   74.0000     2.1930    81.5530     6.3920     5.8740     6.7340    22.1650   -27.4240 
   74.1250     2.1970    83.6040     5.9400     5.4880     6.1480    22.8840   -27.0410 
   74.2500     2.1910    86.6490     5.5520     5.1410     5.6290    23.2040   -26.7400 
   74.3750     2.1780    90.3350     5.3030     4.8940     5.3020    23.2790   -26.4900 
   74.5000     2.1630    92.5610     5.2500     4.7970     5.1250    22.9770   -26.2330 
   74.6250     2.1480    91.7100     5.4590     4.9150     5.0390    22.1380   -25.9330 
   74.7500     2.1350    89.2240     5.8630     5.2110     5.2080    20.8250   -25.5560 
   74.8750     2.1250    85.3910     6.3800     5.6350     5.6110    19.3440   -25.0880 
   75.0000     2.1190    80.7260     6.8870     6.0950     6.1080    18.3560   -24.5800 
   75.1250     2.1150    78.3180     7.1960     6.4450     6.4780    18.1520   -24.1570 
   75.2500     2.1130    79.5670     7.2220     6.5920     6.5960    18.1530   -23.7830 
   75.3750     2.1110    82.0840     6.9650     6.5010     6.5350    18.1390   -23.4140 
   75.5000     2.1090    82.8610     6.5290     6.2230     6.3900    18.0540   -23.0540 
   75.6250     2.1100    82.3250     6.1220     5.8910     6.1990    17.9240   -22.7290 
   75.7500     2.1150    82.7010     5.9340     5.6790     6.0120    18.0120   -22.4710 
   75.8750     2.1230    83.5830     6.0610     5.6950     5.8820    18.2890   -22.2680 
   76.0000     2.1370    83.6090     6.5020     5.9780     6.0230    18.6320   -22.0410 
   76.1250     2.1590    82.7360     7.1460     6.4900     6.6600    18.9940   -21.7130 
   76.2500     2.1880    81.9120     7.7190     7.0130     7.4780    19.4800   -21.3540 
   76.3750     2.2220    82.2660     7.9900     7.3380     8.0190    20.4050   -21.0140 
   76.5000     2.2540    84.7050     7.8120     7.2990     8.0700    21.4770   -20.7350 
   76.6250     2.2750    89.2000     7.1450     6.8010     7.2260    22.4990   -20.4980 
   76.7500     2.2830    94.0930     6.2700     6.0580     6.0220    23.2720   -20.2710 
   76.8750     2.2820    98.3990     5.4030     5.2650     5.0310    23.5910   -20.1080 
   77.0000     2.2780   101.7700     4.6860     4.5720     4.5050    23.6820   -20.0880 
   77.1250     2.2770   103.7730     4.2310     4.0900     4.2320    23.6790   -20.2320 
   77.2500     2.2790   105.0370     4.1030     3.8500     3.7020    23.6520   -20.4600 
   77.3750     2.2840   105.4840     4.5240     3.9910     3.2280    23.6140   -20.7670 
   77.5000     2.2990   102.7230     5.8670     4.8120     4.0720    23.5510   -21.1070 
   77.6250     2.3340    93.9360     8.7660     6.9570     9.0510    23.4420   -21.5390 
   77.7500     2.3860    81.7250    12.9750    10.4540    18.9850    23.2870   -22.1360 
   77.8750     2.4450    69.7260    17.7640    14.9060    32.7430    23.0930   -22.8470 
   78.0000     2.4940    61.1280    21.7820    19.2360    46.1060    22.8970   -23.5610 
   78.1250     2.5010    57.4740    22.9240    21.4230    49.3930    22.8840   -24.1810 
   78.2500     2.4570    57.0010    20.9300    20.6250    41.2320    22.9810   -24.7300 
   78.3750     2.3720    58.0720    16.8950    17.4170    28.5560    23.1180   -25.2570 
   78.5000     2.2700    59.2440    12.7460    13.5350    17.7680    23.2270   -25.7770 
   78.6250     2.1810    59.7540     9.9570    10.5680    11.6250    23.0630   -26.1780 
   78.7500     2.1150    60.7080     8.3170     8.6200     8.9920    22.3390   -26.4390 
   78.8750     2.0730    63.4160     7.4100     7.4170     7.6780    21.0020   -26.5950 
   79.0000     2.0500    67.8560     6.9030     6.6850     6.7590    19.4990   -26.6560 
   79.1250     2.0370    72.5930     6.6470     6.2860     6.0340    18.6240   -26.6550 
   79.2500     2.0240    76.3520     6.5660     6.0900     5.5260    18.5510   -26.6440 
   79.3750     2.0090    77.3260     6.6830     6.0820     5.3220    18.8160   -26.6010 
   79.5000     1.9930    73.8120     7.0040     6.2590     5.5290    18.7360   -26.5400 
   79.6250     1.9770    67.1660     7.4830     6.6140     5.9810    18.1240   -26.5770 
   79.7500     1.9640    62.2670     7.9740     7.0400     6.3720    17.5400   -26.7330 
   79.8750     1.9520    61.1950     8.3720     7.4420     6.5840    17.1310   -26.9710 
   80.0000     1.9430    62.6260     8.6190     7.7380     6.7410    16.9030   -27.2540 
   80.1250     1.9380    64.3410     8.7020     7.8630     6.9590    16.8260   -27.5860 
   80.2500     1.9350    65.4390     8.7030     7.8620     7.2110    16.8440   -27.9350 
   80.3750     1.9350    65.8150     8.6750     7.7850     7.4170    17.0140   -28.3490 
   80.5000     1.9360    65.8050     8.6500     7.6860     7.4860    17.2880   -28.8480 
   80.6250     1.9380    66.6650     8.6490     7.6090     7.4150    17.5340   -29.3380 
   80.7500     1.9380    68.6070     8.6830     7.5760     7.3010    17.6480   -29.7240 
   80.8750     1.9370    70.2900     8.7600     7.5890     7.1900    17.6310   -29.9860 
   81.0000     1.9350    70.5350     8.8800     7.6390     7.0910    17.4500   -30.1840 
   81.1250     1.9320    69.2930     9.0210     7.7110     7.0000    17.1330   -30.2910 
   81.2500     1.9290    67.4690     9.1420     7.7770     6.9100    16.6850   -30.2430 
   81.3750     1.9250    66.1770     9.2090     7.8200     6.8130    16.2470   -29.9880 
