~V
VERS. 2.00: Ver 2.00
~W
STRT.M 65.0000:
STOP.M 225.0000:
STEP.M 0.1250:
NULL. -999.2500:
UWI. F11012:
~C
DEPT.M :
SP.MV :
GR.API :
RML.OHMM :
RI. :
RXO.OHMM :
CALI.CM :
DEN.GM/CC :
~A
# ...
   87.5000   -16.2790    62.9640     8.1260     7.0220     7.1690    22.3790     2.2100 
   87.6250   -15.8240    63.9560     7.8220     6.7910     7.0380    22.3190     2.2250 
   87.7500   -15.3530    64.5200     7.4160     6.4520     6.9070    22.2950     2.2450 
   87.8750   -14.8850    66.8940     6.9680     6.0600     6.5570    22.3600     2.2630 
   88.0000   -14.4680    72.5610     6.5420     5.6650     5.9670    22.5710     2.2760 
   88.1250   -14.1290    78.6770     6.1850     5.3140     5.4740    22.8990     2.2830 
   88.2500   -13.9070    81.7510     5.9210     5.0450     5.4380    23.1900     2.2880 
   88.3750   -13.7890    83.3960     5.7130     4.8420     5.3810    23.3960     2.2910 
   88.5000   -13.7620    85.9280     5.5580     4.7010     5.2290    23.4890     2.2900 
   88.6250   -13.8150    89.4030     5.4870     4.6340     5.1120    23.4770     2.2830 
   88.7500   -13.9570    90.4750     5.5960     4.6890     4.9690    23.2590     2.2750 
   88.8750   -14.1970    89.8000     5.9330     4.8950     4.7970    22.9310     2.2700 
   89.0000   -14.5020    87.7250     6.5170     5.2820     4.9690    22.4710     2.2630 
   89.1250   -14.8120    83.1470     7.2930     5.8370     5.8530    21.9500     2.2500 
   89.2500   -15.1330    77.7510     8.1010     6.4890     6.4810    21.3840     2.2300 
   89.3750   -15.4790    74.0370     8.7400     7.0830     6.7900    21.0780     2.2110 
   89.5000   -15.8330    70.1950     9.1080     7.5070     6.9170    20.9530     2.1980 
   89.6250   -16.1690    64.1610     9.2160     7.7180     7.0870    20.8920     2.1930 
   89.7500   -16.4340    60.4660     9.1860     7.7520     7.1530    20.8430     2.1920 
   89.8750   -16.6190    62.1510     9.1920     7.7430     7.1800    20.8110     2.1910 
   90.0000   -16.7450    68.0690     9.2900     7.7550     7.2320    20.7770     2.1900 
   90.1250   -16.8310    73.1790     9.4670     7.8060     7.2540    20.7300     2.1930 
   90.2500   -16.8780    73.6650     9.6660     7.8880     7.3980    20.7420     2.2010 
   90.3750   -16.9090    71.3530     9.8350     7.9750     7.5980    20.8110     2.2120 
   90.5000   -16.9440    68.1120     9.9500     8.0490     7.7180    20.9080     2.2180 
   90.6250   -16.9980    64.5810    10.0090     8.0950     7.6690    20.9430     2.2180 
   90.7500   -17.0540    62.3850    10.0110     8.1010     7.5240    20.8970     2.2160 
   90.8750   -17.1000    64.6860     9.9690     8.0770     7.4430    20.8350     2.2160 
   91.0000   -17.1470    69.6070     9.8840     8.0360     7.4000    20.7790     2.2170 
   91.1250   -17.2270    71.8700     9.7690     7.9890     7.2730    20.7380     2.2180 
   91.2500   -17.3050    67.2790     9.6400     7.9360     7.1540    20.7130     2.2160 
   91.3750   -17.3320    60.8130     9.5110     7.8700     7.2200    20.7190     2.2100 
   91.5000   -17.3080    57.1480     9.3850     7.7840     7.4060    20.7320     2.2040 
   91.6250   -17.2480    57.8000     9.2680     7.6790     7.6230    20.7220     2.1970 
   91.7500   -17.1480    57.4780     9.1690     7.5730     7.6360    20.7950     2.1900 
   91.8750   -17.0290    54.7810     9.0960     7.4900     7.5530    20.8330     2.1850 
   92.0000   -16.9060    55.2600     9.0530     7.4440     7.4670    20.8700     2.1820 
   92.1250   -16.7680    59.9240     9.0440     7.4350     7.5820    20.9280     2.1830 
   92.2500   -16.6300    63.4960     9.0690     7.4550     7.7140    21.0270     2.1870 
   92.3750   -16.5130    64.1260     9.1080     7.4740     7.6680    21.1560     2.1940 
   92.5000   -16.4420    65.0260     9.1400     7.4720     7.3250    21.2510     2.2010 
   92.6250   -16.4350    67.4340     9.1490     7.4400     7.0550    21.2830     2.2060 
   92.7500   -16.5070    68.1900     9.1210     7.3830     7.1070    21.2210     2.2120 
   92.8750   -16.6070    67.9810     9.0790     7.3200     7.3720    21.1750     2.2160 
   93.0000   -16.6880    68.3370     9.0500     7.2690     7.4430    21.2790     2.2190 
   93.1250   -16.7300    67.9320     9.0600     7.2480     7.3320    21.5690     2.2200 
   93.2500   -16.7320    63.9200     9.1120     7.2650     7.2350    21.7130     2.2210 
   93.3750   -16.7070    60.1290     9.1730     7.3000     7.2950    21.7380     2.2220 
   93.5000   -16.5950    60.4220     9.2080     7.3300     7.3400    21.7280     2.2250 
   93.6250   -16.3790    63.6120     9.1880     7.3290     7.3520    21.7550     2.2290 
   93.7500   -16.1170    66.4520     9.1000     7.2800     7.4440    21.7980     2.2330 
   93.8750   -15.8640    67.6600     8.9860     7.1990     7.5150    21.8240     2.2360 
   94.0000   -15.6160    68.0010     8.8680     7.1040     7.5280    21.8300     2.2380 
   94.1250   -15.3620    67.4140     8.7450     7.0060     7.4610    21.8180     2.2390 
   94.2500   -15.1350    66.8490     8.5910     6.8930     7.3340    21.7890     2.2380 
   94.3750   -14.9480    67.5640     8.3990     6.7590     7.2580    21.7640     2.2370 
   94.5000   -14.8070    69.9670     8.1850     6.6100     7.2000    21.7970     2.2380 
   94.6250   -14.7110    74.3340     7.9840     6.4720     7.0020    21.8990     2.2410 
   94.7500   -14.6310    77.4190     7.8640     6.4120     6.6400    22.0300     2.2440 
   94.8750   -14.5540    77.0730     7.8630     6.4670     6.5940    22.1420     2.2430 
   95.0000   -14.4770    74.4720     7.9880     6.6410     6.7950    22.2030     2.2400 
   95.1250   -14.3970    71.1560     8.2140     6.8960     6.9220    22.2860     2.2390 
   95.2500   -14.2860    67.0270     8.4820     7.1530     6.9480    22.4620     2.2440 
   95.3750   -14.1380    64.5330     8.7060     7.3310     6.8910    22.5820     2.2490 
   95.5000   -13.9820    64.7970     8.8410     7.4010     6.7020    22.5670     2.2470 
   95.6250   -13.8190    65.5140     8.8840     7.3770     6.5630    22.5590     2.2430 
   95.7500   -13.6170    65.0480     8.8380     7.2890     6.6160    22.5580     2.2420 
   95.8750   -13.3720    64.7060     8.7110     7.1540     6.6050    22.5450     2.2450 
   96.0000   -13.0950    65.2850     8.4780     6.9550     6.4420    22.5090     2.2420 
   96.1250   -12.7960    65.5790     8.1190     6.6720     6.1160    22.5230     2.2340 
   96.2500   -12.4550    67.9070     7.6370     6.3000     5.9240    22.5880     2.2260 
   96.3750   -12.0620    74.9910     7.1300     5.9030     5.8590    22.8270     2.2280 
   96.5000   -11.6320    84.2460     6.6910     5.5450     5.5140    23.2700     2.2430 
   96.6250   -11.1810    91.8490     6.3930     5.2780     4.9630    23.7500     2.2670 
   96.7500   -10.7400    95.8090     6.2900     5.1510     4.9300    23.9280     2.2890 
   96.8750   -10.3250    96.9840     6.3180     5.1380     5.3390    23.8490     2.3000 
   97.0000    -9.9470    95.1480     6.4150     5.2020     5.7560    23.7370     2.3010 
   97.1250    -9.6150    91.5800     6.5130     5.2910     6.0640    23.6460     2.3020 
   97.2500    -9.3600    88.7100     6.5430     5.3400     5.9960    23.5780     2.3080 
   97.3750    -9.1920    89.9720     6.4940     5.3260     5.7520    23.5380     2.3170 
   97.5000    -9.0940    94.9900     6.3860     5.2620     5.3440    23.5600     2.3250 
   97.6250    -9.0500   100.6120     6.2550     5.1880     4.9720    23.5620     2.3310 
   97.7500    -9.0690   102.5050     6.1430     5.1460     4.8350    23.4740     2.3390 
   97.8750    -9.1340   102.3270     6.0690     5.1440     5.0000    23.3040     2.3450 
   98.0000    -9.2350   103.8530     6.0500     5.1800     5.4060    23.1110     2.3450 
   98.1250    -9.3820   107.5250     6.1080     5.2470     5.7440    23.0270     2.3340 
   98.2500    -9.6060   109.9990     6.2680     5.3510     5.9310    23.1640     2.3090 
   98.3750    -9.8690   107.3280     6.4940     5.4770     5.7490    23.1970     2.2790 
   98.5000   -10.1820   100.9460     6.7180     5.5960     5.7370    23.0960     2.2470 
   98.6250   -10.5200    94.7790     6.8510     5.6590     6.0640    22.9020     2.2160 
