~V
VERS. 2.00: Ver 2.00
~W
STRT.M 50.0000:
STOP.M 229.0000:
STEP.M 0.1250:
NULL. -999.2500:
UWI. F11009:
~C
DEPT.M :
DEN.GM/CC :
GR.API :
RML.OHMM :
RI. :
RXO.OHMM :
CALI.CM :
SP.MV :
~A
# ...
  185.0000     2.2620    99.4690     7.9890     6.2630     7.5770    24.6020   -19.6420 
  185.1250     2.2380    96.1830     8.2280     6.4390     7.6740    24.8220   -20.5740 
  185.2500     2.2370    91.9690     8.4920     6.6430     7.8250    24.8280   -21.3230 
  185.3750     2.2540    91.8760     8.7420     6.8460     8.1400    24.7260   -21.8280 
  185.5000     2.2770    96.0550     8.9360     7.0120     8.5690    24.6620   -22.0750 
  185.6250     2.2960    98.6580     9.0350     7.0940     8.9480    24.7150   -22.0760 
  185.7500     2.3120    98.2200     9.0690     7.1020     8.6800    24.7700   -21.9050 
  185.8750     2.3280    97.8320     9.0900     7.0770     8.3830    24.7080   -21.6110 
  186.0000     2.3490    98.1730     9.1690     7.0800     8.3020    24.6130   -21.2570 
  186.1250     2.3740    97.0890     9.3900     7.1930     8.4680    24.5770   -20.9070 
  186.2500     2.3990    95.0210     9.7490     7.4280     8.9060    24.5780   -20.5220 
  186.3750     2.4220    93.5920    10.2100     7.7730     9.7380    24.5350   -20.0710 
  186.5000     2.4390    92.0880    10.6980     8.1830    11.0230    24.4820   -19.5160 
  186.6250     2.4500    90.2700    11.0890     8.5800    12.4450    24.4100   -18.8210 
  186.7500     2.4610    90.6270    11.2760     8.8700    12.9990    24.3780   -18.0140 
  186.8750     2.4730    93.1430    11.1740     8.9620    12.5030    24.3660   -17.1020 
  187.0000     2.4830    94.7430    10.7380     8.7880    11.8800    24.3710   -16.1590 
  187.1250     2.4820    95.3470     9.9690     8.2940    11.8330    24.3740   -15.1750 
  187.2500     2.4630    98.3650     9.0620     7.6190    10.9830    24.3710   -14.2230 
  187.3750     2.4270   103.2670     8.1990     6.9020     9.2640    24.3730   -13.3220 
  187.5000     2.3810   104.9620     7.5440     6.2890     7.5690    24.3830   -12.5440 
  187.6250     2.3430   101.4450     7.2540     5.9330     6.5280    24.3630   -11.9500 
  187.7500     2.3270    98.2860     7.2700     5.8360     6.2760    24.2620   -11.5160 
  187.8750     2.3330    98.2570     7.5020     5.9650     6.5970    24.1040   -11.2050 
  188.0000     2.3440    99.4580     7.8160     6.2320     7.0560    24.0220   -10.8780 
  188.1250     2.3360    98.0640     8.0470     6.5110     7.4090    23.9830   -10.4410 
  188.2500     2.3000    94.7560     8.1150     6.6860     7.6600    23.7600    -9.9010 
  188.3750     2.2510    90.2800     8.0150     6.7120     7.6820    23.3590    -9.2850 
  188.5000     2.2080    83.7160     7.7880     6.5940     7.4770    23.0620    -8.5840 
  188.6250     2.1940    75.9400     7.4900     6.3670     7.0750    22.9810    -7.7920 
  188.7500     2.2020    69.6310     7.1870     6.1040     6.6440    22.9530    -6.9270 
  188.8750     2.2200    67.0900     6.9100     5.8420     6.2520    22.9320    -6.0440 
  189.0000     2.2390    66.7230     6.6800     5.6070     5.9410    22.8860    -5.2390 
  189.1250     2.2550    67.5680     6.5060     5.4190     5.6690    22.8210    -4.6110 
  189.2500     2.2670    70.3930     6.3710     5.2750     5.4890    22.7510    -4.1700 
  189.3750     2.2730    76.4710     6.2600     5.1690     5.4890    22.6950    -3.9050 
  189.5000     2.2720    85.0900     6.1630     5.0940     5.6090    22.7220    -3.7810 
  189.6250     2.2660    91.3660     6.0800     5.0420     5.7720    22.8010    -3.7590 
  189.7500     2.2630    94.5550     6.0120     5.0050     5.7120    22.8810    -3.8280 
  189.8750     2.2670    97.5610     5.9660     4.9830     5.5490    22.8460    -3.9820 
  190.0000     2.2790   101.9520     5.9500     4.9770     5.4040    22.6260    -4.2330 
  190.1250     2.2970   103.8400     5.9740     4.9910     5.3250    22.3220    -4.6330 
  190.2500     2.3110   102.1670     6.0250     5.0180     5.3120    22.3060    -5.1170 
  190.3750     2.3180    99.7080     6.0880     5.0490     5.3420    22.5220    -5.6810 
  190.5000     2.3150    98.4610     6.1410     5.0740     5.4270    22.8210    -6.2830 
  190.6250     2.3000    97.5970     6.1610     5.0800     5.5210    23.2280    -6.9000 
  190.7500     2.2790    96.8740     6.1540     5.0690     5.7040    23.6680    -7.4490 
  190.8750     2.2570    97.4220     6.1410     5.0520     5.8630    23.8960    -7.8940 
  191.0000     2.2460    97.7810     6.1540     5.0500     5.9200    24.0330    -8.2060 
  191.1250     2.2590    95.2370     6.2410     5.1000     5.9190    24.1530    -8.3130 
  191.2500     2.2910    90.5810     6.4180     5.2230     6.0160    24.2420    -8.2980 
  191.3750     2.3330    87.9750     6.6830     5.4260     6.3710    24.2250    -8.1400 
  191.5000     2.3710    88.8730     7.0020     5.6950     6.9560    24.1470    -7.8730 
  191.6250     2.3960    91.1840     7.3040     5.9800     7.6120    24.0760    -7.5370 
  191.7500     2.4070    91.8730     7.5200     6.2160     7.8620    23.9610    -7.2230 
  191.8750     2.4070    91.7640     7.6190     6.3620     8.0330    23.7930    -6.9650 
  192.0000     2.3950    92.6200     7.6120     6.4120     8.3650    23.6870    -6.7790 
  192.1250     2.3740    93.1970     7.5540     6.3920     8.2760    23.7380    -6.7510 
  192.2500     2.3540    95.2570     7.5230     6.3690     7.8660    23.6390    -6.7950 
  192.3750     2.3440    98.1650     7.5590     6.3880     7.4410    23.4130    -6.9190 
  192.5000     2.3470    98.8300     7.6730     6.4730     7.5070    23.3290    -7.1130 
  192.6250     2.3600    96.0010     7.8500     6.6320     7.9790    23.3940    -7.3420 
  192.7500     2.3700    93.5740     8.0430     6.8300     7.9380    23.4580    -7.5650 
  192.8750     2.3710    92.9440     8.2210     7.0360     7.7540    23.4360    -7.7600 
  193.0000     2.3620    90.7260     8.3610     7.2220     7.7860    23.3530    -7.9240 
  193.1250     2.3520    87.7910     8.4390     7.3600     8.0500    23.2530    -7.9770 
  193.2500     2.3460    89.3950     8.4610     7.4470     8.3270    23.3710    -7.9580 
  193.3750     2.3460    93.9040     8.4390     7.4830     8.6300    23.6440    -7.8830 
  193.5000     2.3500    96.3140     8.3940     7.4850     8.6700    23.9200    -7.7850 
  193.6250     2.3550    93.0440     8.3650     7.4820     8.5520    24.0920    -7.6630 
  193.7500     2.3590    89.6550     8.3760     7.5010     8.3410    24.1370    -7.5370 
  193.8750     2.3590    89.6510     8.4320     7.5540     8.2340    24.0820    -7.4770 
  194.0000     2.3580    91.1330     8.5300     7.6390     8.3010    23.8670    -7.5090 
  194.1250     2.3580    92.5040     8.6670     7.7600     8.7020    23.4200    -7.6220 
  194.2500     2.3630    93.6730     8.8410     7.9170     9.3910    23.1090    -7.7730 
  194.3750     2.3760    94.8860     9.0540     8.1180    10.0620    23.2540    -7.9330 
  194.5000     2.3960    94.3390     9.3020     8.3650    10.3560    23.7290    -8.0240 
  194.6250     2.4170    91.0560     9.5580     8.6480    10.5030    23.9900    -8.0730 
  194.7500     2.4330    88.2420     9.7890     8.9330    10.8910    23.9320    -8.1150 
  194.8750     2.4360    86.0640     9.9820     9.2010    11.2660    23.8240    -8.0960 
  195.0000     2.4260    85.4930    10.1650     9.4580    11.7530    23.8140    -7.9420 
  195.1250     2.4060    88.9790    10.4260     9.7590    11.2210    23.6590    -7.6880 
  195.2500     2.3850    92.4830    10.8270    10.1660    11.3580    23.2970    -7.4140 
  195.3750     2.3670    91.1750    11.3700    10.7050    12.1520    22.8880    -7.1600 
  195.5000     2.3550    85.6990    11.9640    11.3250    12.4420    22.5370    -6.9740 
  195.6250     2.3480    83.2630    12.3880    11.8500    13.6820    22.3940    -6.8110 
  195.7500     2.3440    84.7030    12.4770    12.0890    14.1420    22.6640    -6.6380 
  195.8750     2.3430    85.3780    12.1690    11.9370    13.9020    23.0360    -6.4980 
  196.0000     2.3450    85.9540    11.5290    11.4160    12.9070    23.1070    -6.4530 
  196.1250     2.3520    91.3190    10.7540    10.6670    11.2750    22.9840    -6.4750 
