~V
VERS. 2.00: Ver 2.00
~W
STRT.M 62.0000:
STOP.M 236.0000:
STEP.M 0.1250:
NULL. -999.2500:
UWI. F11006:
~C
DEPT.M :
GR.API :
RML.OHMM :
RI. :
RXO.OHMM :
CALI.CM :
SP.MV :
DEN.GM/CC :
~A
# ...
  174.5000    56.5310   234.5510   240.4470   730.5380    24.1640   -12.9490     2.7440 
  174.6250    53.4910   180.7640   188.8480   322.9290    24.3130   -12.6500     2.7420 
  174.7500    50.9500   136.7390   141.9970   134.6410    24.3890   -12.3690     2.7290 
  174.8750    51.3260   107.6140   109.1820    74.4740    24.4290   -12.0940     2.7150 
  175.0000    52.8630    88.2290    88.1400    69.9330    24.4230   -11.8410     2.7050 
  175.1250    53.1920    72.1770    72.4300    86.4490    24.3130   -11.6320     2.6930 
  175.2500    53.4140    55.8830    56.7200    91.0190    24.1930   -11.5110     2.6800 
  175.3750    54.7020    39.9190    40.9160    80.3330    24.1120   -11.4130     2.6660 
  175.5000    58.4490    26.1830    26.9480    56.1140    24.0060   -11.2640     2.6490 
  175.6250    63.6960    16.8150    17.1980    28.2510    23.8830   -11.0880     2.6190 
  175.7500    66.8530    10.9920    11.0650     6.3890    23.7140   -10.8990     2.5650 
  175.8750    66.2670     7.6190     7.5760     4.2280    23.6410   -10.6620     2.4920 
  176.0000    62.3450     5.7480     5.7440     3.9180    23.6560   -10.3670     2.4170 
  176.1250    58.2820     5.0030     4.9800     4.0470    23.5850   -10.0180     2.3680 
  176.2500    56.2820     4.8740     4.7160     4.1750    23.5890    -9.6550     2.3500 
  176.3750    56.0220     5.0220     4.7490     4.2450    23.8250    -9.3410     2.3550 
  176.5000    55.3360     5.2210     4.9400     4.3220    24.3320    -9.1430     2.3700 
  176.6250    55.0950     5.4170     5.1880     4.5280    24.7240    -9.1040     2.3870 
  176.7500    56.6170     5.5770     5.4140     4.7550    24.8310    -9.1560     2.4040 
  176.8750    58.3330     5.6870     5.5830     4.9150    24.7120    -9.2550     2.4150 
  177.0000    59.0040     5.7380     5.6740     5.0220    24.9370    -9.3860     2.4130 
  177.1250    60.0040     5.7170     5.6620     4.9360    25.5540    -9.5400     2.3850 
  177.2500    60.5250     5.6530     5.5700     4.9000    25.8800    -9.7000     2.3360 
  177.3750    59.1480     5.5840     5.4280     4.9100    26.0560    -9.8750     2.2740 
  177.5000    58.9740     5.5560     5.2880     4.8940    26.3830   -10.0720     2.2140 
  177.6250    64.5820     5.6240     5.2200     4.9580    26.1870   -10.2610     2.1720 
  177.7500    69.7100     5.7840     5.2460     5.2190    25.3310   -10.4890     2.1550 
  177.8750    69.1390     6.0120     5.3580     5.7340    24.6940   -10.7540     2.1680 
  178.0000    66.1320     6.2570     5.5120     6.3140    24.4890   -11.0080     2.2050 
  178.1250    65.5140     6.4370     5.6350     6.5870    24.5060   -11.2210     2.2530 
  178.2500    63.8500     6.5080     5.6740     6.3210    24.6540   -11.4180     2.2940 
  178.3750    60.3390     6.4620     5.6120     5.5860    25.0090   -11.6000     2.3180 
  178.5000    59.8240     6.3260     5.4660     5.0920    25.5240   -11.7510     2.3250 
  178.6250    64.1700     6.1530     5.2770     5.0130    25.7340   -11.8230     2.3230 
  178.7500    65.7980     6.0030     5.1020     4.8470    25.5860   -11.7990     2.3220 
  178.8750    62.1720     5.9070     4.9710     4.6510    25.2150   -11.7030     2.3280 
  179.0000    58.0970     5.8820     4.9030     4.5620    24.8180   -11.6160     2.3380 
  179.1250    58.1620     5.9410     4.9100     4.5790    24.4840   -11.6390     2.3420 
  179.2500    58.9630     6.0590     4.9720     4.6810    24.4400   -11.7770     2.3380 
  179.3750    58.5280     6.2130     5.0690     4.9840    24.6150   -11.9720     2.3300 
  179.5000    58.8490     6.3750     5.1820     5.3910    24.8110   -12.2060     2.3220 
  179.6250    59.3230     6.5200     5.2920     5.4560    24.7810   -12.4530     2.3130 
  179.7500    60.3180     6.6470     5.3930     5.4480    24.8880   -12.7510     2.3040 
  179.8750    63.1540     6.7620     5.4880     5.3900    25.2040   -13.1350     2.2960 
  180.0000    67.7570     6.8680     5.5740     5.3730    25.4630   -13.6290     2.2970 
  180.1250    74.1760     6.9620     5.6450     5.4970    25.1510   -14.2760     2.3120 
  180.2500    84.5760     7.0460     5.7010     5.7200    24.4900   -15.0710     2.3330 
  180.3750    97.3660     7.1310     5.7460     5.6800    23.7740   -16.0480     2.3500 
  180.5000   105.9940     7.2330     5.7940     5.4310    23.1620   -17.2110     2.3560 
  180.6250   106.5950     7.3630     5.8610     5.3980    22.9230   -18.5750     2.3520 
  180.7500   105.9350     7.5040     5.9450     5.6890    23.0540   -20.0370     2.3470 
  180.8750   105.6820     7.6270     6.0290     6.2770    23.5230   -21.5630     2.3460 
  181.0000   104.6180     7.7040     6.0910     6.9500    24.2140   -23.0620     2.3470 
  181.1250   106.2480     7.7230     6.1120     7.0050    24.6280   -24.4240     2.3450 
  181.2500   113.5130     7.7180     6.1060     6.7030    24.7310   -25.6480     2.3370 
  181.3750   120.9410     7.7320     6.0980     6.5440    24.7770   -26.7380     2.3260 
  181.5000   121.5410     7.8020     6.1170     6.6860    24.8190   -27.6770     2.3190 
  181.6250   115.0590     7.9530     6.1910     7.0220    24.9060   -28.4390     2.3250 
  181.7500   108.3930     8.1490     6.3110     6.9970    24.9340   -29.0800     2.3420 
  181.8750   103.6090     8.3450     6.4530     7.2090    24.9100   -29.6630     2.3660 
  182.0000   100.8890     8.4930     6.5860     7.5770    24.8030   -30.2340     2.3900 
  182.1250   101.5620     8.5530     6.6710     8.0940    24.7410   -30.7900     2.4060 
  182.2500   103.9980     8.5470     6.7010     8.2440    24.7180   -31.2940     2.4080 
  182.3750   106.7860     8.5070     6.6860     8.1700    24.7270   -31.6980     2.3970 
  182.5000   108.8730     8.4760     6.6510     7.8150    24.7290   -31.9900     2.3750 
  182.6250   108.8030     8.5130     6.6440     7.6490    24.7070   -32.1880     2.3510 
  182.7500   108.1930     8.6560     6.7060     7.8150    24.6620   -32.3070     2.3370 
  182.8750   107.5040     8.9270     6.8700     8.0680    24.6010   -32.2760     2.3370 
  183.0000   105.3000     9.3190     7.1460     8.2950    24.5200   -32.1110     2.3550 
  183.1250   101.5890     9.7860     7.5210     8.6380    24.5020   -31.8050     2.3920 
  183.2500   101.3680    10.2250     7.9130     9.4560    24.4940   -31.3550     2.4330 
  183.3750   105.0040    10.5480     8.2460    10.9510    24.4910   -30.7660     2.4680 
  183.5000   109.0200    10.6820     8.4490    12.1590    24.5080   -29.9970     2.4840 
  183.6250   108.4640    10.5400     8.4320    10.2320    24.5340   -28.9860     2.4800 
  183.7500   106.4100    10.1520     8.2010     9.3330    24.5610   -27.7950     2.4660 
  183.8750   107.2660     9.5420     7.7660     9.1640    24.5650   -26.4890     2.4520 
  184.0000   111.0970     8.7790     7.1730     8.9840    24.5870   -25.1070     2.4410 
  184.1250   113.7720     7.9910     6.5150     7.7270    24.6770   -23.7100     2.4280 
  184.2500   111.5400     7.3430     5.9250     6.3490    24.7700   -22.3570     2.4130 
  184.3750   106.4140     6.9530     5.5030     5.2260    24.8050   -21.1160     2.3990 
  184.5000   102.1550     6.8770     5.3140     4.4980    24.7630   -20.0630     2.3910 
  184.6250   101.0600     7.1160     5.4040     5.1860    24.7820   -19.3210     2.3930 
  184.7500   100.9430     7.4900     5.6690     6.3460    24.8360   -18.8070     2.3960 
  184.8750    98.9320     7.8360     5.9970     7.2540    24.8230   -18.3980     2.3940 
  185.0000    93.8790     8.0190     6.2660     7.5250    24.8560   -17.9610     2.3860 
  185.1250    86.9510     7.9410     6.3530     6.8860    24.7920   -17.3870     2.3760 
  185.2500    78.8310     7.6820     6.2680     6.1080    24.6370   -16.7020     2.3670 
  185.3750    69.3700     7.3300     6.0580     5.7660    24.5660   -15.9580     2.3580 
  185.5000    62.8220     6.9610     5.7890     5.6680    24.6770   -15.1990     2.3520 
  185.6250    64.2170     6.6290     5.5160     5.3170    24.7360   -14.5840     2.3520 
