~V
VERS. 2.00: Ver 2.00
~W
STRT.M 55.0000:
STOP.M 276.0000:
STEP.M 0.1250:
NULL. -999.2500:
UWI. F11046:
~C
DEPT.M :
GR.API :
RML.OHMM :
RI. :
RXO.OHMM :
CALI.CM :
DEN.GM/CC :
SP.MV :
~A
# ...
  111.2500    76.5630     7.8890     6.8880    11.2180    25.2620     2.1910   -25.4250 
  111.3750    72.1900     7.8510     6.8490    10.6930    25.1030     2.2040   -25.6540 
  111.5000    69.2570     8.0400     6.9510    10.6010    24.8470     2.2080   -25.7330 
  111.6250    71.1690     8.4990     7.3020    11.0440    24.7810     2.2070   -25.4890 
  111.7500    70.5690     9.0380     7.8300    11.4190    24.9370     2.2180   -24.9400 
  111.8750    65.8780     9.4190     8.3630    11.5130    25.1240     2.2510   -23.9870 
  112.0000    63.8920     9.4120     8.6460    12.2680    25.1920     2.3070   -22.6630 
  112.1250    70.4550     8.8550     8.4050    13.3740    25.1220     2.3600   -20.9540 
  112.2500    80.5930     7.9830     7.7660    12.1310    25.0230     2.3840   -19.0890 
  112.3750    89.7750     7.0560     6.9620     8.1750    24.9400     2.3700   -17.1650 
  112.5000    96.9240     6.2940     6.2250     6.0030    24.8710     2.3330   -15.1680 
  112.6250   100.9270     5.8200     5.7030     5.7870    24.8150     2.3030   -13.3170 
  112.7500   103.0260     5.5220     5.3500     5.9300    24.7760     2.2970   -11.6280 
  112.8750   105.5590     5.2810     5.0930     5.5220    24.7350     2.3150   -10.3320 
  113.0000   108.5860     5.0020     4.8470     4.9900    24.7030     2.3430    -9.4550 
  113.1250   110.0520     4.6620     4.5510     4.5990    24.7090     2.3680    -8.9090 
  113.2500   110.9870     4.3620     4.2430     4.4170    24.7100     2.3880    -8.4910 
  113.3750   112.1490     4.2220     4.0190     4.3480    24.6710     2.4010    -8.1230 
  113.5000   113.4590     4.3470     3.9730     4.2650    24.6090     2.4070    -7.9230 
  113.6250   113.0420     4.8400     4.2190     4.4770    24.6330     2.4000    -7.9580 
  113.7500   109.1410     5.6090     4.7320     5.1490    24.7310     2.3770    -8.3840 
  113.8750   100.1200     6.5390     5.4600     6.6610    24.8440     2.3410    -9.1350 
  114.0000    88.0750     7.4590     6.2820     8.5700    24.8590     2.3000   -10.2300 
  114.1250    79.6380     8.1560     6.9820     9.3330    24.6000     2.2640   -11.7550 
  114.2500    77.9530     8.6040     7.4510     8.7680    24.2150     2.2370   -13.5440 
  114.3750    79.8160     8.8840     7.7340     8.5370    23.8950     2.2200   -15.5590 
  114.5000    80.9420     9.1290     7.9550     9.6200    23.8460     2.2130   -17.6580 
  114.6250    79.1340     9.4410     8.2220    10.6840    24.2010     2.2150   -19.7130 
  114.7500    76.3000     9.7710     8.5260    11.0240    24.7000     2.2210   -21.6160 
  114.8750    72.9280    10.0080     8.7750    10.9190    24.9740     2.2270   -23.2490 
  115.0000    70.2460    10.0530     8.8570    10.7730    25.0200     2.2290   -24.5610 
  115.1250    70.8140     9.8600     8.6930    10.5250    24.9480     2.2250   -25.5300 
  115.2500    72.8540     9.5570     8.3930    10.3590    24.8750     2.2180   -26.2430 
  115.3750    73.0530     9.2580     8.0660    10.2280    24.8210     2.2110   -26.7220 
  115.5000    71.3320     9.0410     7.7900    10.0330    24.7920     2.2050   -27.0450 
  115.6250    68.6620     8.9490     7.6180     9.8480    24.7840     2.1990   -27.3840 
  115.7500    66.7020     8.9320     7.5290     9.8980    24.8220     2.1920   -27.6530 
  115.8750    65.7640     8.9440     7.4860    10.1000    24.8850     2.1840   -27.9490 
  116.0000    65.8220     8.9480     7.4520    10.3010    24.9730     2.1770   -28.2780 
  116.1250    66.9510     8.9280     7.4070    10.3650    25.0500     2.1740   -28.5650 
  116.2500    68.8290     8.9010     7.3590    10.2830    25.0930     2.1710   -28.8920 
  116.3750    70.4460     8.8900     7.3240     9.9670    25.0580     2.1690   -29.2320 
  116.5000    68.9970     8.9070     7.3200     9.8980    25.0380     2.1640   -29.6210 
  116.6250    66.5150     8.9590     7.3520    10.3320    25.0820     2.1580   -29.8880 
  116.7500    67.0310     9.0230     7.4030    10.6510    25.1100     2.1540   -30.1150 
  116.8750    69.1180     9.0760     7.4520    10.7200    25.1140     2.1540   -30.2470 
  117.0000    68.7640     9.0940     7.4780    10.5500    25.0980     2.1570   -30.2740 
  117.1250    66.3350     9.0410     7.4460    10.4260    25.0750     2.1600   -30.2180 
  117.2500    66.3640     8.9170     7.3490    10.4830    25.0620     2.1620   -29.9570 
  117.3750    68.5820     8.7270     7.1880    10.5160    25.0380     2.1660   -29.4710 
  117.5000    71.5180     8.4970     6.9790    10.0350    24.9740     2.1730   -28.7600 
  117.6250    74.3710     8.2760     6.7620     9.4010    24.8640     2.1860   -27.9550 
  117.7500    76.0740     8.1200     6.5890     8.7750    24.7720     2.1980   -27.2470 
  117.8750    76.7430     8.0710     6.5010     8.5670    24.7060     2.2060   -26.7040 
  118.0000    76.4240     8.1430     6.5220     8.7020    24.6750     2.2060   -26.3500 
  118.1250    75.3030     8.3280     6.6660     9.1410    24.6680     2.1970   -26.2760 
  118.2500    73.9460     8.5570     6.8810     9.7630    24.6690     2.1830   -26.4110 
  118.3750    71.8550     8.7880     7.1200    10.3010    24.6700     2.1690   -26.7510 
  118.5000    68.9710     8.9970     7.3470    10.5490    24.6710     2.1550   -27.2040 
  118.6250    67.0020     9.1630     7.5430    10.3360    24.6560     2.1440   -27.6570 
  118.7500    67.9890     9.2640     7.6980    10.0380    24.6030     2.1380   -27.8170 
  118.8750    69.9010     9.2380     7.7710     9.8380    24.5010     2.1410   -27.5290 
  119.0000    70.4840     9.0160     7.6960     9.8890    24.3490     2.1570   -26.7220 
  119.1250    71.1190     8.5300     7.3840     9.8040    24.1280     2.1860   -25.1400 
  119.2500    74.2120     7.8810     6.8960     9.0790    23.9270     2.2200   -23.1510 
  119.3750    79.3010     7.1940     6.3280     7.7060    23.8860     2.2490   -20.9300 
  119.5000    83.5220     6.6020     5.8010     6.4820    23.9040     2.2670   -18.6900 
  119.6250    84.1600     6.2280     5.4310     5.9900    23.9870     2.2720   -16.5410 
  119.7500    84.4520     6.0430     5.2250     5.9480    24.1550     2.2740   -14.5150 
  119.8750    88.2100     5.9920     5.1570     6.1740    24.3950     2.2790   -12.7130 
  120.0000    94.5050     6.0010     5.1800     6.4270    24.6310     2.2900   -11.1880 
  120.1250    96.8340     6.0000     5.2340     6.3360    24.7500     2.3040   -10.2120 
  120.2500    94.3530     5.9530     5.2660     5.9820    24.8150     2.3200    -9.5250 
  120.3750    90.3150     5.8500     5.2520     5.6840    24.8350     2.3340    -8.9760 
  120.5000    89.2750     5.6950     5.1810     5.6220    24.8320     2.3460    -8.4420 
  120.6250    93.0310     5.4970     5.0450     5.5930    24.8700     2.3540    -7.8470 
  120.7500    96.2080     5.2900     4.8750     5.3650    24.9390     2.3550    -7.3460 
  120.8750    97.7910     5.1110     4.7030     5.0580    24.9620     2.3490    -6.9470 
  121.0000    98.6050     4.9900     4.5620     4.7760    24.9270     2.3370    -6.6840 
  121.1250    99.3360     4.9390     4.4820     4.8070    24.8820     2.3280    -6.5700 
  121.2500    99.3540     4.9090     4.4370     5.0070    24.8500     2.3280    -6.5710 
  121.3750    98.6030     4.8490     4.3830     5.0250    24.7990     2.3420    -6.7100 
  121.5000    98.0040     4.7340     4.2820     4.9990    24.7290     2.3670    -6.9400 
  121.6250    96.4870     4.6040     4.1420     4.9590    24.6680     2.3900    -7.3860 
  121.7500    95.1030     4.5650     4.0400     4.7480    24.5860     2.3980    -8.0820 
  121.8750    95.3420     4.7190     4.0620     4.5250    24.4570     2.3800    -9.1210 
  122.0000    94.8030     5.1330     4.2790     4.8850    24.3460     2.3350   -10.5540 
  122.1250    88.3660     5.8220     4.7600     6.0390    24.3890     2.2710   -12.1310 
  122.2500    78.5830     6.6180     5.4200     7.6640    24.4640     2.2140   -13.7610 
  122.3750    70.4660     7.3460     6.1380     8.7170    24.5040     2.1790   -15.3270 
