~V
VERS. 2.00: Ver 2.00
~W
STRT.M 59.0000:
STOP.M 225.0000:
STEP.M 0.1250:
NULL. -999.2500:
UWI. F11010:
~C
DEPT.M :
GR.API :
RML.OHMM :
RI. :
RXO.OHMM :
CALI.CM :
SP.MV :
DEN.GM/CC :
~A
   59.0000  -999.2500  -999.2500  -999.2500  -999.2500  -999.2500   168.5240  -999.2500 
   59.1250  -999.2500  -999.2500  -999.2500  -999.2500  -999.2500   169.0240     2.0980 
   59.2500  -999.2500  -999.2500  -999.2500  -999.2500  -999.2500   169.6370     2.0980 
   59.3750  -999.2500  -999.2500  -999.2500  -999.2500  -999.2500   170.2610     2.0870 
   59.5000    46.4730     8.8560     1.0840     1.7910    25.6760   170.9080     2.0700 
   59.6250    46.4730     8.8560     1.0840     1.7910    25.6760   171.5890     2.0570 
   59.7500    47.0620     8.5860     1.0820     1.7070    25.6780   172.2240     2.0470 
   59.8750    46.6230     8.3290     1.0720     1.6750    25.6740   172.7460     2.0400 
   60.0000    45.9920     8.1070     1.0590     1.6640    25.6600   173.1020     2.0370 
   60.1250    45.6260     7.9170     1.0510     1.6180    25.6340   173.3110     2.0430 
   60.2500    45.0520     7.7340     1.0500     1.5920    25.6220   173.4610     2.0600 
   60.3750    44.8380     7.5480     1.0570     1.6200    25.6190   173.5720     2.0820 
   60.5000    46.3970     7.3670     1.0680     1.6720    25.6190   173.6380     2.0990 
   60.6250    49.3390     7.2110     1.0810     1.7300    25.6370   173.6720     2.0990 
   60.7500    52.6980     7.0870     1.0910     1.8200    25.6800   173.7060     2.0880 
   60.8750    55.1190     6.9900     1.0950     1.9440    25.7250   173.6960     2.0750 
   61.0000    54.0460     6.8950     1.0920     2.0550    25.7460   173.6240     2.0680 
   61.1250    51.1180     6.7640     1.0850     2.0910    25.7450   173.4860     2.0710 
   61.2500    49.6080     6.5930     1.0740     2.0550    25.7470   173.3140     2.0770 
   61.3750    49.3600     6.4000     1.0620     2.0520    25.7610   173.1480     2.0800 
   61.5000    49.6370     6.2180     1.0510     2.1770    25.7930   173.0040     2.0780 
   61.6250    50.4740     6.0870     1.0460     2.2830    25.8090   172.9060     2.0730 
   61.7500    52.7470     6.0050     1.0440     2.3660    25.8150   172.7850     2.0720 
   61.8750    55.1390     5.9590     1.0420     2.4350    25.8150   172.5370     2.0800 
   62.0000    56.2150     5.9240     1.0360     2.4520    25.8150   171.9920     2.1080 
   62.1250    56.5740     5.8790     1.0260     2.3290    25.8150   170.8510     2.1680 
   62.2500    56.5500     5.8150     1.0130     2.1780    25.8150   168.9320     2.2500 
   62.3750    55.3740     5.7240     1.0000     2.1730    25.8180   166.2010     2.3370 
   62.5000    52.8790     5.6030     0.9890     2.2960    25.8300   162.8230     2.4040 
   62.6250    53.4740     5.4500     0.9820     2.4030    25.8480   158.7540     2.4340 
   62.7500    59.3560     5.2860     0.9790     2.3550    25.8520   154.1820     2.4370 
   62.8750    66.7050     5.1280     0.9810     2.3210    25.8620   149.3420     2.4260 
   63.0000    70.3860     4.9890     0.9860     2.3030    25.8720   144.4780     2.4140 
   63.1250    70.0320     4.8680     0.9900     2.3580    25.8750   139.8700     2.4090 
   63.2500    68.3140     4.7570     0.9900     2.3760    25.8730   135.7820     2.4140 
   63.3750    65.8890     4.6650     0.9860     2.3140    25.8750   132.2230     2.4250 
   63.5000    62.7100     4.6080     0.9780     2.2720    25.8750   128.9870     2.4360 
   63.6250    58.3040     4.6110     0.9650     2.5400    25.8760   126.1130     2.4320 
   63.7500    53.4120     4.6680     0.9470     3.0050    25.8790   123.5530     2.4090 
   63.8750    49.2570     4.7460     0.9200     3.1440    25.8820   121.1990     2.3700 
   64.0000    48.8240     4.7390     0.8700     2.5100    25.8760   118.9430     2.3290 
   64.1250    53.1550     4.4010     0.7660     1.8490    25.8510   116.6420     2.3040 
   64.2500    57.8680     3.6600     0.6070     1.6000    25.8260   114.1690     2.3050 
   64.3750    61.2400     2.6260     0.4190     1.7050    25.8240   111.3960     2.3370 
   64.5000    63.2140     1.5700     0.2490     2.0030    25.8300   108.1670     2.3980 
   64.6250    62.2180     0.8090     0.1390     2.2670    25.7840   104.0260     2.4690 
   64.7500    58.9520     0.3880     0.0800     1.7230    25.5970    98.7760     2.5170 
   64.8750    56.6390     0.2670     0.0640     1.1990    25.3440    92.1980     2.5200 
   65.0000    61.2960     0.4120     0.0960     1.4600    25.1100    84.2580     2.4720 
   65.1250    73.9900     0.9090     0.2300     2.6660    24.8370    75.1620     2.3930 
   65.2500    87.7780     1.8060     0.5350     4.6190    24.6760    65.5990     2.3190 
   65.3750    97.8870     3.1100     1.1070     6.0530    24.5740    56.0170     2.2690 
   65.5000   104.1840     4.5720     1.9930     6.4320    24.5770    46.7970     2.2460 
   65.6250   108.9960     5.6200     3.0440     5.8560    24.7450    38.4710     2.2430 
   65.7500   113.2440     6.0290     3.9340     5.6820    24.9120    31.2440     2.2440 
   65.8750   115.3250     5.9850     4.5590     5.8110    24.9070    25.3500     2.2470 
   66.0000   115.9270     5.8440     4.9910     6.0420    24.7000    20.9360     2.2520 
   66.1250   117.2000     5.8350     5.3130     6.2780    24.4100    18.0290     2.2600 
   66.2500   117.4470     5.9090     5.5580     6.3930    24.1850    16.0020     2.2700 
   66.3750   115.4830     5.9820     5.7110     6.3260    24.1490    14.5270     2.2820 
   66.5000   112.5280     6.0130     5.7770     6.0130    24.3940    13.4120     2.2960 
   66.6250   110.3830     6.0200     5.7850     5.9380    24.7450    12.5320     2.3070 
   66.7500   110.3390     6.0630     5.8030     5.8860    24.9130    11.7400     2.3070 
   66.8750   111.9640     6.1900     5.8780     5.8750    24.9260    10.9580     2.2940 
   67.0000   112.5630     6.4250     6.0340     5.8790    24.9000    10.1140     2.2700 
   67.1250   107.2060     6.7720     6.2830     6.2460    24.8950     9.1330     2.2520 
   67.2500    97.6780     7.1740     6.5890     6.9550    24.9240     8.0860     2.2540 
   67.3750    89.8330     7.5790     6.9160     7.6140    25.0150     7.1180     2.2780 
   67.5000    86.4960     7.9340     7.2170     7.7340    25.1500     6.3000     2.3120 
   67.6250    88.1560     8.1620     7.4060     7.5020    25.2120     5.6880     2.3340 
   67.7500    89.2730     8.2390     7.4460     7.6190    25.1680     5.2650     2.3320 
   67.8750    86.6020     8.1600     7.3320     7.9490    25.0950     5.0230     2.3090 
   68.0000    83.6600     7.9640     7.1090     7.3150    25.0610     4.9480     2.2790 
   68.1250    85.5650     7.7390     6.8750     6.5810    25.0340     5.0020     2.2570 
   68.2500    90.2550     7.5860     6.7210     6.1930    24.9540     5.0330     2.2470 
   68.3750    93.1400     7.5560     6.6840     6.3990    24.8080     4.9030     2.2440 
   68.5000    91.6610     7.6440     6.7570     6.9640    24.6530     4.6090     2.2460 
   68.6250    88.1490     7.7900     6.8980     7.0730    24.5600     4.2330     2.2450 
   68.7500    87.9650     7.8980     7.0290     6.9460    24.5140     3.8770     2.2420 
   68.8750    91.7660     7.9240     7.1070     6.5920    24.4940     3.5850     2.2350 
   69.0000    95.1690     7.8760     7.1270     6.2530    24.5240     3.3880     2.2290 
   69.1250    95.3660     7.8020     7.1080     6.1650    24.6000     3.3220     2.2290 
   69.2500    93.8030     7.7520     7.0760     6.0740    24.6300     3.3650     2.2340 
   69.3750    91.3980     7.7370     7.0390     6.1530    24.6140     3.5150     2.2430 
   69.5000    91.0020     7.7410     6.9900     6.4140    24.5870     3.7010     2.2530 
   69.6250    92.5090     7.7180     6.9090     6.4030    24.6010     3.8640     2.2610 
   69.7500    93.2550     7.6350     6.7780     6.3880    24.6490     3.9790     2.2690 
   69.8750    93.1350     7.4650     6.5780     6.3570    24.7090     4.0590     2.2800 
   70.0000    93.7960     7.2010     6.3010     6.2170    24.7430     4.1060     2.2910 
   70.1250    95.1360     6.8680     5.9590     6.4220    24.7180     4.0830     2.2980 
