~V
VERS. 2.00: Ver 2.00
~W
STRT.M 57.0000:
STOP.M 226.0000:
STEP.M 0.1250:
NULL. -999.2500:
UWI. F11011:
~C
DEPT.M :
GR.API :
RML.OHMM :
RI. :
RXO.OHMM :
CALI.CM :
SP.MV :
DEN.GM/CC :
~A
# ...
   79.5000    81.9040     9.5700     7.7440     7.6220    22.8960   -35.9240     2.2030 
   79.6250    75.5390     9.6330     7.7720     7.4870    22.8640   -35.7630     2.2090 
   79.7500    76.3370     9.4710     7.7200     7.3320    22.8630   -35.3710     2.2140 
   79.8750    81.7890     9.0960     7.6080     7.1680    22.8840   -34.7460     2.2160 
   80.0000    85.0740     8.6150     7.4750     7.0680    22.8850   -33.8940     2.2160 
   80.1250    82.9380     8.2330     7.3720     7.0500    22.8340   -32.9520     2.2120 
   80.2500    79.5350     8.0730     7.3310     7.1550    22.7440   -32.0910     2.2070 
   80.3750    77.6860     8.1420     7.3510     7.3020    22.6750   -31.2900     2.2030 
   80.5000    77.2990     8.3490     7.4100     7.4030    22.6390   -30.5130     2.2010 
   80.6250    76.2090     8.5650     7.4760     7.4510    22.6450   -29.7970     2.2030 
   80.7500    73.8360     8.7210     7.5270     7.5030    22.6530   -29.1350     2.2070 
   80.8750    72.7440     8.8190     7.5500     7.5410    22.6550   -28.5420     2.2100 
   81.0000    73.9770     8.8680     7.5220     7.4570    22.6630   -28.0280     2.2120 
   81.1250    76.3170     8.8270     7.3960     7.4940    22.6950   -27.4050     2.2160 
   81.2500    80.1730     8.6590     7.1580     7.4800    22.7570   -26.6230     2.2220 
   81.3750    84.5950     8.3330     6.8140     7.2190    22.8350   -25.7730     2.2300 
   81.5000    87.4050     7.8690     6.4160     6.6570    22.9360   -24.9360     2.2400 
   81.6250    86.5920     7.3860     6.0750     6.1280    23.0450   -24.2370     2.2480 
   81.7500    84.4560     7.0900     5.8820     5.7580    23.1030   -23.8650     2.2520 
   81.8750    82.1120     7.1550     5.8860     5.4960    23.0790   -23.7990     2.2510 
   82.0000    78.5400     7.6600     6.1000     5.7210    23.0430   -23.9540     2.2420 
   82.1250    74.6440     8.5350     6.5050     6.1980    22.9960   -24.3410     2.2250 
   82.2500    73.2890     9.3880     6.9630     6.8760    22.9130   -24.8540     2.2050 
   82.3750    74.2790     9.8720     7.3430     7.0950    22.8660   -25.4060     2.1870 
   82.5000    73.6090     9.7870     7.5130     7.0160    22.9060   -25.9310     2.1760 
   82.6250    69.1080     9.1570     7.3600     7.1690    22.9790   -26.3560     2.1730 
   82.7500    68.1680     8.4240     7.0340     7.2800    23.0390   -26.5440     2.1770 
   82.8750    72.5050     7.9890     6.7600     7.1840    23.0040   -26.5050     2.1940 
   83.0000    77.1810     8.1950     6.7780     6.9080    22.8670   -26.3270     2.2380 
   83.1250    78.0680     9.3790     7.3580     7.3110    22.9060   -26.0200     2.3220 
   83.2500    78.4010    11.2900     8.4830     9.7010    23.1350   -25.6870     2.4310 
   83.3750    79.1130    13.4840    10.0150    17.4400    23.4280   -25.4190     2.5280 
   83.5000    78.5690    15.2640    11.5240    29.7530    23.5940   -25.2390     2.5750 
   83.6250    78.6120    15.7270    12.1830    28.3290    23.4750   -25.1400     2.5410 
   83.7500    79.4250    14.9370    11.8110    17.2040    23.2110   -25.0880     2.4570 
   83.8750    80.1850    13.3980    10.7790    11.0840    22.9580   -25.0690     2.3590 
   84.0000    81.2720    11.8030     9.6350     9.0700    22.7940   -25.0940     2.2810 
   84.1250    82.4570    10.7420     8.7870     8.9850    22.7310   -25.1390     2.2400 
   84.2500    81.3250    10.2070     8.2670     8.8620    22.7240   -25.1530     2.2220 
   84.3750    76.1700    10.0220     8.0050     8.5380    22.7420   -25.1340     2.2150 
   84.5000    70.2600     9.9810     7.9070     8.0070    22.7400   -25.0550     2.2130 
   84.6250    69.3390     9.9370     7.9050     7.8880    22.6980   -24.9520     2.2140 
   84.7500    72.0780     9.8440     7.9230     8.1660    22.6230   -25.0080     2.2170 
   84.8750    75.8980     9.7140     7.9150     8.6950    22.5180   -25.2330     2.2210 
   85.0000    77.9540     9.5800     7.8510     9.0550    22.4510   -25.5160     2.2220 
   85.1250    76.5020     9.5040     7.7370     9.0520    22.5140   -25.8800     2.2200 
   85.2500    73.6990     9.5330     7.6300     8.7530    22.6710   -26.3600     2.2150 
   85.3750    72.7080     9.6800     7.5630     8.2210    22.8310   -26.9630     2.2100 
   85.5000    72.1940     9.9010     7.5380     7.7170    22.9650   -27.6520     2.2040 
   85.6250    68.0010    10.0760     7.5320     7.6100    23.1220   -28.3600     2.1960 
   85.7500    62.8110    10.1180     7.5200     7.6260    23.2460   -28.9340     2.1860 
   85.8750    62.1830    10.0070     7.5010     7.5270    23.2870   -29.3240     2.1760 
   86.0000    65.7830     9.7690     7.4800     7.4610    23.2480   -29.6030     2.1670 
   86.1250    67.6410     9.4410     7.4570     7.7140    23.1160   -29.7610     2.1630 
   86.2500    67.5600     9.0950     7.4440     7.9220    22.9510   -29.7810     2.1640 
   86.3750    68.8890     8.8060     7.4700     7.9390    22.8350   -29.6820     2.1700 
   86.5000    71.9680     8.6630     7.5800     8.1690    22.7480   -29.4910     2.1840 
   86.6250    74.1640     8.7850     7.8140     8.1850    22.6760   -29.2500     2.2080 
   86.7500    73.8480     9.1180     8.1090     8.1770    22.5860   -29.0460     2.2360 
   86.8750    71.5200     9.5130     8.3620     8.6630    22.5270   -28.8510     2.2590 
   87.0000    68.2200     9.7490     8.4660     9.3860    22.5700   -28.6540     2.2700 
   87.1250    65.1480     9.5990     8.3580     8.6080    22.7750   -28.3570     2.2650 
   87.2500    63.3430     9.1470     8.1320     7.4720    23.0170   -27.8360     2.2520 
   87.3750    64.3090     8.5540     7.8560     6.9280    23.1990   -27.0340     2.2400 
   87.5000    65.4560     7.9890     7.5490     7.0040    23.2960   -25.9510     2.2360 
   87.6250    66.3190     7.5460     7.1760     7.2310    23.3930   -24.4400     2.2410 
   87.7500    70.9950     7.1540     6.7140     7.0850    23.6070   -22.5700     2.2470 
   87.8750    81.0470     6.7170     6.1690     6.2080    23.8780   -20.5510     2.2430 
   88.0000    91.7870     6.1850     5.5890     4.9720    24.1450   -18.5420     2.2250 
   88.1250    95.6980     5.5940     5.0720     4.5170    24.3460   -16.7190     2.1990 
   88.2500    96.2440     5.0870     4.6990     4.3890    24.3890   -15.2160     2.1810 
   88.3750    97.2370     4.8220     4.5240     4.2780    24.2810   -14.1240     2.1790 
   88.5000    96.8590     4.9240     4.5630     4.3390    24.1000   -13.4530     2.1920 
   88.6250    91.7140     5.4600     4.7970     4.8780    23.9250   -13.3360     2.2120 
   88.7500    86.2960     6.1820     5.1090     5.8050    23.7800   -13.7230     2.2280 
   88.8750    85.2310     6.8290     5.4130     6.4270    23.7330   -14.4570     2.2390 
   89.0000    86.9080     7.1930     5.6600     5.8780    23.7850   -15.3780     2.2450 
   89.1250    88.2260     7.2200     5.8450     5.6530    23.8810   -16.4420     2.2500 
   89.2500    89.1820     7.1810     6.0420     5.9100    23.9230   -17.4670     2.2560 
   89.3750    90.2950     7.3410     6.3420     6.4980    23.9520   -18.3440     2.2610 
   89.5000    90.6260     7.8840     6.8400     6.8820    24.0310   -19.0820     2.2650 
   89.6250    89.5070     8.9090     7.6430     7.0360    24.2340   -19.6070     2.2630 
   89.7500    86.0030    10.2100     8.6780     7.4400    24.4380   -19.9430     2.2530 
   89.8750    81.2510    11.5560     9.8150     8.3300    24.4540   -20.1750     2.2380 
   90.0000    78.5890    12.6530    10.8260     9.1290    24.2020   -20.3090     2.2210 
   90.1250    80.4080    13.1180    11.3410     8.9280    23.8020   -20.4020     2.2060 
   90.2500    81.0220    12.9730    11.2860     8.2640    23.4860   -20.5660     2.1960 
   90.3750    78.6570    12.4100    10.7880     7.9360    23.3370   -20.7630     2.1890 
   90.5000    76.5570    11.7410    10.1070     7.8880    23.2990   -20.9810     2.1880 
   90.6250    77.6240    11.2580     9.5210     7.9230    23.2990   -21.3250     2.1910 
