~V
VERS. 2.00: Ver 2.00
~W
STRT.M 40.0000:
STOP.M 275.0000:
STEP.M 0.1250:
NULL. -999.2500:
UWI. F11027:
~C
DEPT.M :
DEN.GM/CC :
GR.API :
RML.OHMM :
RI. :
RXO.OHMM :
CALI.CM :
SP.MV :
~A
# ...
  141.2500     2.5330    54.5710    18.0300    16.2720    11.0240    25.6080    -1.7700 
  141.3750     2.5420    57.5760    17.8230    15.7570    10.8310    25.6290    -2.0250 
  141.5000     2.5520    58.9540    18.1250    15.7250    12.4360    25.6220    -2.3190 
  141.6250     2.5600    57.0380    18.8550    16.1940    13.4900    25.5910    -2.6380 
  141.7500     2.5650    54.5390    19.6300    16.8660    13.6840    25.5900    -2.9270 
  141.8750     2.5660    52.8650    20.0970    17.4100    14.7980    25.5830    -3.1560 
  142.0000     2.5620    51.6280    19.9870    17.4840    19.3430    25.5190    -3.3870 
  142.1250     2.5530    51.2330    19.1810    16.8430    18.4420    25.4490    -3.6940 
  142.2500     2.5410    51.6560    18.0770    15.8150    15.8480    25.4440    -3.9520 
  142.3750     2.5290    51.6140    17.0700    14.7820    13.9520    25.4660    -4.0450 
  142.5000     2.5200    50.9720    16.4900    14.0800    14.3620    25.4940    -4.0280 
  142.6250     2.5180    52.2570    16.5820    13.9890    15.2210    25.4670    -3.9640 
  142.7500     2.5200    54.7340    17.1680    14.4150    14.6580    25.3680    -3.9490 
  142.8750     2.5230    56.0780    18.0540    15.2200    13.6530    25.2280    -3.9930 
  143.0000     2.5230    55.5780    19.0170    16.2070    13.7230    25.1850    -3.9790 
  143.1250     2.5150    55.7240    19.7700    17.1550    13.7040    25.2800    -3.9550 
  143.2500     2.4980    57.6870    20.0420    17.8210    15.6770    25.3520    -3.9980 
  143.3750     2.4740    60.2100    19.5370    17.8600    23.3830    25.3920    -4.0770 
  143.5000     2.4460    61.2200    18.0600    16.8720    32.7680    25.3930    -4.2110 
  143.6250     2.4220    58.7220    15.6030    14.6260    33.1130    25.1540    -4.4340 
  143.7500     2.4050    58.0060    12.8250    11.8920    24.4080    24.6340    -4.6780 
  143.8750     2.3970    63.9160    10.2810     9.3420    18.4270    24.1170    -4.8540 
  144.0000     2.3960    75.3070     8.3590     7.3710    19.9250    23.5770    -5.0050 
  144.1250     2.4000    84.7470     7.2810     6.1540    27.3380    23.0340    -5.1240 
  144.2500     2.4070    89.6330     6.7560     5.4680    31.0620    22.7970    -5.2150 
  144.3750     2.4150    92.6440     6.5360     5.1720    31.9500    22.8860    -5.3800 
  144.5000     2.4220    93.1550     6.4170     5.1090    31.8060    23.0320    -5.5970 
  144.6250     2.4240    91.1020     6.3010     5.1160    33.5440    23.1930    -5.7330 
  144.7500     2.4190    91.2420     6.2040     5.0820    37.0300    23.2670    -5.7890 
  144.8750     2.4080    95.4100     6.1410     5.0140    41.4350    23.2900    -5.8500 
  145.0000     2.3940    98.4830     6.1000     4.9610    48.6430    23.2610    -5.9510 
  145.1250     2.3830    95.6540     6.0640     4.9670    71.0290    23.1800    -6.0810 
  145.2500     2.3810    92.1560     6.0240     5.0130   112.3000    23.0790    -6.2470 
  145.3750     2.3860    90.6820     5.9850     5.0570   111.9080    22.9350    -6.4000 
  145.5000     2.3970    90.6690     5.9570     5.0700    59.6630    22.7610    -6.5000 
  145.6250     2.4090    90.4300     5.9460     5.0540    34.8150    22.5980    -6.5660 
  145.7500     2.4190    90.0050     5.9280     5.0400    18.5930    22.4820    -6.6280 
  145.8750     2.4250    90.1930     5.8970     5.0310     9.5190    22.4040    -6.7180 
  146.0000     2.4260    92.1050     5.8680     5.0050     5.0010    22.3750    -6.7930 
  146.1250     2.4220    96.5300     5.8320     4.9320     3.5210    22.4350    -6.7000 
  146.2500     2.4130    99.5440     5.7620     4.8340     2.7660    22.4880    -6.4610 
  146.3750     2.4020    99.6880     5.6660     4.7580     2.5280    22.4420    -6.2030 
  146.5000     2.3900    97.7100     5.5830     4.7470     2.7520    22.3240    -5.9750 
  146.6250     2.3810    95.7920     5.5410     4.8120     3.7450    22.1950    -5.7860 
  146.7500     2.3760    96.5580     5.5420     4.9020     8.1510    22.0760    -5.5850 
  146.8750     2.3740    99.4480     5.6110     4.9770    26.3130    21.9400    -5.3380 
  147.0000     2.3740   102.3120     5.7380     5.0140    91.3760    21.8430    -5.1330 
  147.1250     2.3730   102.9590     5.8620     5.0100   215.3840    21.8100    -5.0870 
  147.2500     2.3660   101.2620     5.9500     4.9870   141.6820    21.8340    -5.0990 
  147.3750     2.3520    98.2920     6.0310     4.9490    62.2630    21.8880    -5.1120 
  147.5000     2.3330    95.6450     6.1320     4.9060    27.2500    21.9210    -5.1390 
  147.6250     2.3160    95.0550     6.2520     4.8910    29.3360    21.9030    -5.1410 
  147.7500     2.3060    93.4000     6.3740     4.9290    65.5640    21.8260    -5.1330 
  147.8750     2.3020    89.9360     6.4980     5.0230   206.3620    21.7210    -5.2030 
  148.0000     2.3010    87.3440     6.6260     5.1620   793.0300    21.6590    -5.3280 
  148.1250     2.3000    86.3320     6.7350     5.3340  6510.3920    21.6970    -5.5050 
  148.2500     2.2980    86.1280     6.8330     5.5290 16164.9130    21.7680    -5.7560 
  148.3750     2.2960    87.8730     6.9540     5.7550 16164.9130    21.7950    -6.0150 
  148.5000     2.2950    90.3640     7.1120     6.0250 16164.9130    21.7970    -6.2560 
  148.6250     2.2950    88.5700     7.2840     6.3260 11946.1480    21.7230    -6.5090 
  148.7500     2.2960    83.3560     7.4610     6.5980  5481.2420    21.5470    -6.7380 
  148.8750     2.2990    80.7570     7.6450     6.7910  2283.6900    21.2860    -6.8300 
  149.0000     2.3010    83.4580     7.7820     6.8700  1652.7020    20.9210    -6.7140 
  149.1250     2.3000    89.5090     7.7470     6.8120  2809.0420    20.4780    -6.4410 
  149.2500     2.2970    93.5540     7.6490     6.6760  2888.7750    20.0880    -6.0700 
  149.3750     2.2980    93.9020     7.6790     6.5260  1686.0640    19.7770    -5.6530 
  149.5000     2.3070    91.2810     7.9280     6.4480   822.7020    19.4960    -5.2250 
  149.6250     2.3250    88.9160     8.6190     6.6070   571.6230    19.2210    -4.8970 
  149.7500     2.3380    87.9650     9.9220     7.1280   475.5940    18.9670    -4.7090 
  149.8750     2.3320    87.0670    11.9340     8.1660   415.6550    18.7510    -4.6170 
  150.0000     2.2990    84.6810    14.5440     9.8590   303.6830    18.5960    -4.6570 
  150.1250     2.2430    79.9990    17.5400    12.3450   185.7200    18.5260    -4.7610 
  150.2500     2.1890    74.7450    20.4980    15.2080   127.7670    18.5650    -4.9100 
  150.3750     2.1570    71.8760    22.9660    17.8860   110.5970    18.6180    -5.1330 
  150.5000     2.1560    72.3270    24.7200    19.8810   117.5450    18.5980    -5.3950 
  150.6250     2.1830    75.0580    25.9210    21.0780   160.5210    18.5030    -5.5510 
  150.7500     2.2140    77.5830    27.1180    22.0410   249.0350    18.4000    -5.6370 
  150.8750     2.2390    78.9550    28.5630    23.1170   342.8070    18.3390    -5.6950 
  151.0000     2.2540    77.8430    30.3730    24.3980   339.4720    18.3190    -5.8110 
  151.1250     2.2660    74.5010    32.5050    25.9460   289.9170    18.2820    -6.0130 
  151.2500     2.2810    74.2100    35.0260    28.1860   256.4830    18.2790    -6.2590 
  151.3750     2.2960    78.3360    39.8240    32.5950   219.4950    18.3240    -6.4960 
  151.5000     2.3000    82.3680    51.5480    42.4860   177.1500    18.3630    -6.7630 
  151.6250     2.2770    79.8540    82.5930    67.3260   147.3970    18.4140    -7.1530 
  151.7500     2.2260    75.9340   142.4560   116.9820   138.4140    18.5290    -7.6230 
  151.8750     2.1590    74.5390   230.3050   202.0690   181.8320    18.7090    -8.1390 
  152.0000     2.0980    74.0170   317.1980   307.5660   498.1380    18.9490    -8.5880 
  152.1250     2.0670    71.6140   344.4980   340.4120  5204.8360    19.2390    -8.9480 
  152.2500     2.0690    70.2630   306.0680   283.0340 16164.9130    19.6220    -9.2590 
  152.3750     2.0910    72.2860   234.2940   204.2450 10539.0000    20.0180    -9.4790 
