~V
VERS. 2.00: Ver 2.00
~W
STRT.M 59.0000:
STOP.M 291.0000:
STEP.M 0.1250:
NULL. -999.2500:
UWI. F11077:
~C
DEPT.M :
DEN.GM/CC :
GR.API :
RML.OHMM :
RI. :
RXO.OHMM :
CALI.CM :
SP.MV :
~A
# ...
  284.0000     2.3630    67.5130     5.5880     6.0690     8.0110    24.9210     4.6810 
  284.1250     2.3430    67.5130     5.9250     6.4840     8.2820    24.9680     4.7600 
  284.2500     2.3130    67.5130     6.2520     6.8910     8.4260    25.0630     4.9350 
  284.3750     2.2850    67.5130     6.7440     7.5050     8.2220    25.1990     5.1660 
  284.5000     2.2710    67.5130     6.9190     7.7280     6.9410    25.2000     5.4530 
  284.6250     2.2780    67.5130     6.9860     7.8150     5.5160    25.1620     5.7740 
  284.7500     2.3030    67.5130     6.9990     7.8300     4.8160    25.1660     6.1140 
  284.8750     2.3350    67.5130     7.0000     7.8300     5.0830    25.2050     6.4210 
  285.0000     2.3650    67.5130     7.0070     7.8370     6.2360    25.2300     6.6210 
  285.1250     2.3820    67.5130     7.0130     7.8450     7.6040    25.2820     6.6750 
  285.2500     2.3860    67.5130     7.0160     7.8510     7.9970    25.3530     6.6150 
  285.3750     2.3840    67.5130     7.0170     7.8540     7.2270    25.3680     6.5030 
  285.5000     2.3840    67.5130     7.0170     7.8540     6.3330    25.3080     6.3700 
  285.6250     2.3920    67.5130     7.0170     7.8540     5.7580    25.2600     6.2210 
  285.7500     2.4060    67.5130     7.0170     7.8540     6.0370    25.3040     6.0670 
  285.8750     2.4160    67.5130     7.0170     7.8540     7.4500    25.4010     5.9090 
  286.0000     2.4170    67.5130     7.0170     7.8540     9.6060    25.4930     5.7430 
  286.1250     2.4090    67.5130     7.0170     7.8540    11.3050    25.5280     5.6110 
  286.2500     2.4010    67.5130     7.0170     7.8540    12.2160    25.5340     5.5350 
  286.3750     2.4020    67.5130     7.0170     7.8540    13.0890    25.6170     5.4930 
  286.5000     2.4120    67.5130     7.0170     7.8540    15.0540    25.7540     5.4690 
  286.6250     2.4250    67.5130     7.0170     7.8540    16.6340    25.8060     5.4650 
  286.7500     2.4330    67.5130     7.0170     7.8540    15.5460    25.7410     5.4450 
  286.8750     2.4300    67.5130     7.0170     7.8540    12.6100    25.6120     5.3760 
  287.0000     2.4140    67.5130     7.0170     7.8540    10.0730    25.5000     5.2940 
  287.1250     2.3890    67.5130     7.0170     7.8540     7.7090    25.4180     5.2180 
  287.2500     2.3620    67.5130     7.0170     7.8540     6.1950    25.2630     5.1280 
  287.3750     2.3390    67.5130     7.0170     7.8540     5.9860    25.0770     5.0350 
  287.5000     2.3250    67.5130     7.0170     7.8540     6.2410    24.9930     4.9760 
  287.6250     2.3230    67.5130     7.0170     7.8540     6.2530    25.0250     4.9450 
  287.7500     2.3290    67.5130     7.0170     7.8540     6.2630    25.0730     4.9290 
  287.8750     2.3410    67.5130     7.0170     7.8540     6.4810    25.1060     4.9360 
  288.0000     2.3530    67.5130     7.0170     7.8540     6.6340    25.1370     4.9520 
  288.1250     2.3580    67.5130     7.0170     7.8540     6.4610    25.1600     4.9640 
  288.2500     2.3580    67.5130     7.0170     7.8540     6.1850    25.1540     4.5980 
  288.3750     2.3560    67.5130     7.0170     7.8540     6.1430    25.1760  -999.2500 
  288.5000     2.3550    67.5130     7.0170     7.8540     6.1580    25.2920  -999.2500 
  288.6250     2.3620    67.5130     7.0170     7.8540     6.0580    25.4330  -999.2500 
  288.7500     2.3760    67.5130     7.0170     7.8540     6.0400    25.4670  -999.2500 
  288.8750     2.3840    67.5130     7.0170     7.8540     6.2660    25.3090  -999.2500 
  289.0000     2.3630    67.5130     7.0170     7.8540     6.5560    24.9070  -999.2500 
  289.1250     2.2880    67.5130     7.0170     7.8540     6.5410    23.9730  -999.2500 
  289.2500     2.1520    67.5130     7.0170     7.8540     5.9240    22.2390  -999.2500 
  289.3750     1.9860    67.5130     7.0170     7.8540     5.2270    20.3630  -999.2500 
  289.5000     1.8270    67.5130     7.0170     7.8540     4.9350    19.3760  -999.2500 
  289.6250     1.7130    67.5130     7.0170     7.8540     4.8720    19.0820  -999.2500 
  289.7500     1.6530    67.5130     7.0170     7.8540     4.8700    19.0400  -999.2500 
  289.8750     1.6310    67.5130     7.0170     7.8540     4.8690    19.0220  -999.2500 
  290.0000     1.6250    67.1450     6.6510     7.4880     4.5030    18.6470  -999.2500 
  290.1250     1.6170  -999.2500  -999.2500  -999.2500  -999.2500  -999.2500  -999.2500 
  290.2500     1.6080  -999.2500  -999.2500  -999.2500  -999.2500  -999.2500  -999.2500 
  290.3750     1.6040  -999.2500  -999.2500  -999.2500  -999.2500  -999.2500  -999.2500 
  290.5000  -999.2500  -999.2500  -999.2500  -999.2500  -999.2500  -999.2500  -999.2500 
  290.6250  -999.2500  -999.2500  -999.2500  -999.2500  -999.2500  -999.2500  -999.2500 
  290.7500  -999.2500  -999.2500  -999.2500  -999.2500  -999.2500  -999.2500  -999.2500 
  290.8750  -999.2500  -999.2500  -999.2500  -999.2500  -999.2500  -999.2500  -999.2500 
  291.0000  -999.2500  -999.2500  -999.2500  -999.2500  -999.2500  -999.2500  -999.2500 
