~V
VERS. 2.00: Ver 2.00
~W
STRT.M 47.0000:
STOP.M 270.0000:
STEP.M 0.1250:
NULL. -999.2500:
UWI. F11075:
~C
DEPT.M :
GR.API :
RML.OHMM :
RI. :
RXO.OHMM :
CALI.CM :
DEN.GM/CC :
SP.MV :
~A
# ...
  159.5000    55.2520    26.2960    25.1340    28.5520    25.4080     2.6120   -12.0760 
  159.6250    56.2610    25.2180    24.2810    27.3710    25.3850     2.6190   -12.1620 
  159.7500    55.4790    24.0940    23.3830    25.4950    25.3710     2.6030   -12.2880 
  159.8750    54.0460    23.0310    22.3840    24.2540    25.3400     2.5640   -12.4660 
  160.0000    52.6560    22.0630    21.3560    23.1460    25.2380     2.5210   -12.6330 
  160.1250    52.1750    21.3070    20.4350    22.2380    25.0690     2.4850   -12.7940 
  160.2500    53.9220    20.8620    19.7700    21.1790    24.9270     2.4630   -12.9410 
  160.3750    59.0910    20.8030    19.4860    19.8600    24.8800     2.4570   -13.0910 
  160.5000    62.6510    20.9660    19.4560    19.2380    24.8920     2.4630   -13.2160 
  160.6250    62.9390    21.1640    19.5320    20.1560    24.9580     2.4750   -13.2960 
  160.7500    62.1710    21.1880    19.5360    21.4520    25.0760     2.4880   -13.3440 
  160.8750    64.1820    20.8350    19.3020    20.7790    25.2340     2.4930   -13.3440 
  161.0000    67.7900    20.1980    18.8680    19.7360    25.3440     2.4890   -13.3080 
  161.1250    69.4910    19.4700    18.3670    18.4080    25.3830     2.4790   -13.2270 
  161.2500    68.3230    18.8960    17.9970    17.4280    25.3830     2.4730   -13.1100 
  161.3750    66.3400    18.7370    17.9930    18.1260    25.3800     2.4750   -12.9510 
  161.5000    64.6320    18.9750    18.3520    19.2890    25.3880     2.4850   -12.7960 
  161.6250    62.6610    19.5060    18.9680    20.5290    25.4250     2.4970   -12.6290 
  161.7500    61.0470    20.1510    19.6390    22.2110    25.5120     2.5060   -12.4300 
  161.8750    61.7020    20.7060    20.1080    24.2630    25.5700     2.5090   -12.2260 
  162.0000    63.8650    21.0880    20.3230    23.2830    25.5890     2.5090   -12.0420 
  162.1250    65.8110    21.3080    20.3460    20.9510    25.5870     2.5120   -11.8950 
  162.2500    66.4350    21.3890    20.2540    19.7750    25.5830     2.5210   -11.7780 
  162.3750    66.1740    21.2950    20.0680    20.4780    25.5800     2.5330   -11.6830 
  162.5000    65.8420    21.0280    19.7940    22.7250    25.5810     2.5420   -11.5880 
  162.6250    65.2690    20.6350    19.4650    23.8710    25.5890     2.5420   -11.5210 
  162.7500    63.7500    20.2640    19.1980    22.4080    25.6020     2.5340   -11.5010 
  162.8750    64.2330    20.2030    19.2280    20.4050    25.6030     2.5280   -11.4910 
  163.0000    66.7610    20.5960    19.6730    20.7020    25.5840     2.5320   -11.4970 
  163.1250    67.6880    21.4590    20.5500    23.6570    25.5410     2.5460   -11.4970 
  163.2500    66.1120    22.6340    21.7270    27.8930    25.5030     2.5640   -11.5080 
  163.3750    65.2000    23.7450    22.8910    28.4650    25.4750     2.5780   -11.5250 
  163.5000    65.4430    24.3850    23.6060    28.3130    25.4480     2.5830   -11.5560 
  163.6250    63.1830    24.3330    23.5670    27.2690    25.4260     2.5800   -11.5930 
  163.7500    58.1480    23.6160    22.7830    27.4630    25.3990     2.5700   -11.6260 
  163.8750    55.9610    22.4750    21.5420    28.1370    25.3820     2.5530   -11.6680 
  164.0000    57.9750    21.3780    20.3510    25.5430    25.3740     2.5340   -11.7110 
  164.1250    60.7960    20.6430    19.5420    20.7080    25.3690     2.5170   -11.7530 
  164.2500    61.2090    20.4810    19.3410    19.2170    25.3580     2.5110   -11.7950 
  164.3750    60.1700    21.0060    19.8760    21.5520    25.3460     2.5230   -11.8590 
  164.5000    60.0130    21.8730    20.8020    24.4640    25.3680     2.5440   -11.9420 
  164.6250    58.8210    22.6740    21.7230    29.0570    25.4170     2.5660   -12.0410 
  164.7500    56.1120    22.9780    22.1680    34.3170    25.4530     2.5760   -12.1620 
  164.8750    55.7130    22.4210    21.6520    31.0010    25.4380     2.5660   -12.3080 
  165.0000    57.7860    21.2800    20.4510    23.5100    25.4060     2.5410   -12.4770 
  165.1250    59.6810    19.9290    19.0210    18.8120    25.3730     2.5120   -12.6620 
  165.2500    59.6110    18.7360    17.7760    17.6860    25.3770     2.4890   -12.8660 
  165.3750    58.3660    18.0010    17.0320    17.7210    25.4260     2.4840   -13.1020 
  165.5000    57.5920    17.6970    16.7580    17.1680    25.3940     2.4940   -13.3460 
  165.6250    57.6360    17.7300    16.8350    17.5020    25.3230     2.5100   -13.5730 
  165.7500    58.0230    17.9440    17.0710    19.2360    25.2760     2.5240   -13.7670 
  165.8750    58.8480    18.1740    17.2680    22.0490    25.2630     2.5240   -13.9450 
  166.0000    61.1040    18.3230    17.3340    22.2320    25.2600     2.5040   -14.1190 
  166.1250    65.6090    18.3960    17.2880    19.0770    25.2910     2.4650   -14.2980 
  166.2500    70.8370    18.4480    17.1890    17.2820    25.3250     2.4160   -14.4560 
  166.3750    73.9030    18.5660    17.1240    17.9980    25.3110     2.3760   -14.5550 
  166.5000    74.9070    18.7680    17.1420    19.2650    25.1860     2.3580   -14.6140 
  166.6250    75.1650    19.0010    17.2230    19.6210    25.0220     2.3640   -14.6400 
  166.7500    75.7780    19.1510    17.2860    19.3290    24.8630     2.3880   -14.6400 
  166.8750    75.8560    19.0430    17.1780    18.3710    24.8100     2.4150   -14.5890 
  167.0000    75.3440    18.6710    16.8660    18.8020    24.8500     2.4340   -14.4710 
  167.1250    75.7620    18.1330    16.4100    19.2410    24.8850     2.4430   -14.2890 
  167.2500    76.7770    17.6210    15.9350    17.4450    24.9120     2.4420   -14.0620 
  167.3750    76.4220    17.4710    15.6650    15.3730    24.9970     2.4380   -13.8070 
  167.5000    74.9510    17.7570    15.7450    15.3760    25.1300     2.4380   -13.5420 
  167.6250    73.4430    18.4480    16.2770    17.7230    25.2660     2.4460   -13.2930 
  167.7500    73.2050    19.6260    17.3440    20.6270    25.4330     2.4610   -13.0510 
  167.8750    74.5720    21.5500    19.0870    24.0250    25.5360     2.4800   -12.8320 
  168.0000    76.5340    23.8310    21.2550    26.5050    25.5760     2.5000   -12.6310 
  168.1250    77.5070    25.6690    23.3520    28.2220    25.5840     2.5180   -12.4730 
  168.2500    77.7180    26.1790    24.5600    31.3030    25.5910     2.5320   -12.3710 
  168.3750    78.2000    24.6860    23.8810    37.5280    25.5800     2.5350   -12.3230 
  168.5000    78.4400    21.9260    21.7220    38.1970    25.5590     2.5270   -12.3200 
  168.6250    77.9900    18.8070    18.9200    28.5980    25.5480     2.5160   -12.3270 
  168.7500    76.8970    16.1690    16.3490    17.5620    25.5370     2.5070   -12.3860 
  168.8750    75.8100    14.6410    14.6470    13.4950    25.5140     2.5060   -12.5030 
  169.0000    73.4880    14.0620    13.7600    14.2030    25.4870     2.5090   -12.6900 
  169.1250    72.4420    14.1750    13.5250    15.5900    25.4670     2.5090   -12.9270 
  169.2500    75.8260    14.5950    13.6570    15.2600    25.4350     2.5020   -13.2000 
  169.3750    80.3880    14.8340    13.7460    13.9090    25.3740     2.4840   -13.5090 
  169.5000    80.3720    14.6100    13.4790    12.9000    25.2570     2.4560   -13.8410 
  169.6250    78.5960    13.8890    12.8220    12.4620    25.1120     2.4200   -14.2050 
  169.7500    79.1720    12.8140    11.9180    12.3620    25.0060     2.3810   -14.5700 
  169.8750    80.5000    11.6250    10.9480    11.4400    24.9240     2.3450   -14.9070 
  170.0000    80.1270    10.6110    10.0910    10.3560    24.8670     2.3150   -15.1850 
  170.1250    80.5750    10.0030     9.5130    10.1220    24.8440     2.2960   -15.3700 
  170.2500    80.9000    10.0100     9.4100    10.3720    24.8510     2.2960   -15.4490 
  170.3750    78.9630    10.8600    10.0290    10.7720    24.8970     2.3380   -15.3890 
  170.5000    76.8140    12.2360    11.1700    11.7490    24.9850     2.4150   -15.2080 
  170.6250    74.7930    13.5520    12.3980    15.1730    25.1050     2.5070   -14.9060 
