~V
VERS. 2.00: Ver 2.00
~W
STRT.M 47.0000:
STOP.M 270.0000:
STEP.M 0.1250:
NULL. -999.2500:
UWI. F11075:
~C
DEPT.M :
GR.API :
RML.OHMM :
RI. :
RXO.OHMM :
CALI.CM :
DEN.GM/CC :
SP.MV :
~A
# ...
  193.2500    69.3630    70.8070    66.1070    54.2900    25.4080     2.2660   -17.8400 
  193.3750    69.3500    77.9870    72.8600    66.5770    25.3640     2.2610   -17.8770 
  193.5000    68.8190    85.8200    80.3050    78.4150    25.3490     2.2510   -17.8880 
  193.6250    69.0090    93.4090    87.6850    86.7250    25.3800     2.2410   -17.8830 
  193.7500    70.5610    99.3870    93.6200    92.0100    25.3730     2.2320   -17.8550 
  193.8750    70.0510   101.9010    96.1080    93.0520    25.2890     2.2270   -17.8240 
  194.0000    65.9250   101.1480    95.2750    89.8820    25.2220     2.2270   -17.7970 
  194.1250    61.3620    97.9310    91.9540    84.4870    25.2000     2.2320   -17.7750 
  194.2500    61.0190    93.5720    87.4400    77.1990    25.1980     2.2420   -17.7390 
  194.3750    66.5840    89.6380    83.2390    69.3500    25.1920     2.2510   -17.7110 
  194.5000    73.5000    87.1760    80.4680    64.3370    25.1880     2.2560   -17.6950 
  194.6250    77.2930    86.6620    79.6130    64.0690    25.1940     2.2530   -17.6680 
  194.7500    75.5840    88.1510    80.7030    63.7210    25.2250     2.2470   -17.6440 
  194.8750    71.6220    91.5500    83.6830    69.5340    25.3190     2.2390   -17.6530 
  195.0000    70.2640    95.9180    87.7190    78.4950    25.4490     2.2330   -17.6740 
  195.1250    70.4090   100.5130    92.1810    87.4560    25.5710     2.2280   -17.6880 
  195.2500    69.8220   104.5310    96.3760    91.4990    25.6200     2.2250   -17.7030 
  195.3750    67.1570   106.8470    99.3000    92.6970    25.6000     2.2250   -17.7000 
  195.5000    64.6450   107.0750   100.3980    98.9610    25.5840     2.2270   -17.7030 
  195.6250    64.6550   105.1950    99.4050   101.9460    25.5830     2.2330   -17.7290 
  195.7500    67.0600   101.8410    96.7680    96.1750    25.5930     2.2410   -17.7700 
  195.8750    67.9330    98.2760    93.6520    82.9590    25.6050     2.2490   -17.8010 
  196.0000    66.5440    95.7390    91.3430    73.9740    25.6230     2.2550   -17.8250 
  196.1250    65.6000    94.6680    90.3790    74.1370    25.6350     2.2590   -17.8380 
  196.2500    66.2240    94.6860    90.5890    79.4830    25.6380     2.2590   -17.8430 
  196.3750    68.2390    94.4680    90.8060    85.0990    25.6360     2.2530   -17.8550 
  196.5000    71.0060    92.6980    89.4420    85.9390    25.6330     2.2450   -17.8550 
  196.6250    73.4660    89.0650    85.8560    81.2440    25.6250     2.2370   -17.8600 
  196.7500    74.6960    84.4400    80.7930    73.9010    25.6050     2.2360   -17.8510 
  196.8750    74.3490    81.0110    76.4740    66.2950    25.5630     2.2410   -17.8570 
  197.0000    72.9400    80.7380    75.0550    58.4100    25.5230     2.2470   -17.8590 
  197.1250    70.1490    84.9710    78.0570    56.2140    25.4970     2.2490   -17.8720 
  197.2500    66.1610    94.1980    86.2420    66.0990    25.4890     2.2460   -17.8960 
  197.3750    63.9960   107.8670    99.4570    88.3290    25.4900     2.2400   -17.9250 
  197.5000    64.4040   122.1370   113.8190   110.6480    25.4900     2.2380   -17.9690 
  197.6250    65.0620   133.3800   125.3220   122.2320    25.4840     2.2420   -17.9970 
  197.7500    64.0020   139.1100   131.0710   119.4850    25.4770     2.2480   -18.0430 
  197.8750    61.9750   138.5940   130.6120   101.2750    25.4740     2.2520   -18.0740 
  198.0000    61.5560   134.9070   127.7110    85.4860    25.4740     2.2480   -18.1020 
  198.1250    62.3310   129.6710   124.0810    84.5510    25.4610     2.2370   -18.1180 
  198.2500    61.5510   123.3420   119.6460   100.4750    25.4220     2.2230   -18.1240 
  198.3750    60.9370   115.6640   113.3360   106.6530    25.3430     2.2140   -18.1260 
  198.5000    61.9610   107.3420   105.7120    94.7860    25.2960     2.2140   -18.1130 
  198.6250    63.5980    99.4170    98.0200    75.7260    25.2290     2.2240   -18.0950 
  198.7500    65.2230    92.8460    91.4500    62.8460    25.1020     2.2370   -18.0590 
  198.8750    65.8620    88.2030    86.7710    67.3980    25.0930     2.2480   -18.0090 
  199.0000    65.1790    84.6550    83.2730    81.7140    25.2180     2.2530   -17.9560 
  199.1250    63.4430    81.4410    80.1180    89.7950    25.4100     2.2540   -17.8980 
  199.2500    62.8130    78.1790    76.7590    81.9720    25.5800     2.2530   -17.8320 
  199.3750    65.2170    75.4800    73.6510    71.2720    25.6600     2.2500   -17.7440 
  199.5000    67.0880    74.6040    72.1130    61.3360    25.6790     2.2440   -17.6490 
  199.6250    66.7020    76.9520    73.5790    55.0860    25.6790     2.2340   -17.5650 
  199.7500    64.1350    83.7580    79.3080    53.0280    25.6850     2.2200   -17.5030 
  199.8750    60.6290    96.7670    91.0970    73.8390    25.6980     2.2060   -17.4540 
  200.0000    58.4990   114.8230   107.9470   104.3530    25.7060     2.1940   -17.4040 
  200.1250    57.1500   135.8890   127.9550   133.3230    25.7070     2.1870   -17.3550 
  200.2500    55.8800   156.0750   147.2920   145.6100    25.7030     2.1870   -17.2990 
  200.3750    56.4600   169.3730   159.8100   144.9910    25.6990     2.1910   -17.2420 
  200.5000    59.0420   174.2780   163.8100   144.5090    25.6930     2.1980   -17.1960 
  200.6250    62.0310   172.3080   160.8750   145.2030    25.6910     2.2080   -17.1620 
  200.7500    64.1410   167.1500   154.8420   143.1950    25.6920     2.2180   -17.1160 
  200.8750    65.0740   163.0160   149.9310   133.7340    25.6910     2.2260   -17.0370 
  201.0000    65.6140   162.0530   148.2070   124.7760    25.6890     2.2280   -16.9510 
  201.1250    66.1650   164.7560   150.2090   124.2220    25.6910     2.2240   -16.8710 
  201.2500    66.6850   170.6750   155.6090   133.2840    25.6950     2.2140   -16.8240 
  201.3750    65.2700   178.4730   163.3230   145.7670    25.7000     2.2020   -16.8110 
  201.5000    63.0280   185.1640   170.6310   158.9050    25.7050     2.1930   -16.7950 
  201.6250    61.9680   187.8250   174.7720   163.3650    25.7050     2.1870   -16.7560 
  201.7500    61.9570   184.2460   173.1020   159.7110    25.7010     2.1890   -16.7000 
  201.8750    61.0970   173.6150   163.7770   155.5110    25.7010     2.1990   -16.6490 
  202.0000    59.5300   160.1470   150.5860   152.5080    25.6960     2.2130   -16.5970 
  202.1250    58.3820   147.8250   137.5680   143.8600    25.6760     2.2270   -16.5680 
  202.2500    58.2420   140.0060   128.2600   122.2320    25.6330     2.2330   -16.5320 
  202.3750    58.4090   140.0250   126.1630    99.1350    25.5970     2.2280   -16.4930 
  202.5000    58.1550   147.5620   131.2810    97.8780    25.5830     2.2170   -16.4620 
  202.6250    57.9600   162.2070   143.2910   122.6790    25.5850     2.2050   -16.4310 
  202.7500    57.6600   182.1380   160.5890   151.3410    25.5860     2.1970   -16.3930 
  202.8750    57.1310   203.0770   179.5140   157.5660    25.5680     2.1940   -16.3690 
  203.0000    55.7130   219.1690   194.5230   152.7680    25.5180     2.1940   -16.3750 
  203.1250    53.5540   226.7110   201.9750   149.9140    25.4520     2.1960   -16.3700 
  203.2500    52.6870   224.8640   201.0910   151.2020    25.4170     2.2000   -16.3350 
  203.3750    55.0010   214.3000   192.6860   148.4880    25.4170     2.2070   -16.2470 
  203.5000    57.5980   198.8550   179.8530   143.7520    25.4280     2.2170   -16.1520 
  203.6250    57.5660   180.5310   163.8610   139.8280    25.4370     2.2300   -16.0630 
  203.7500    56.7740   161.4070   146.4320   139.5690    25.4380     2.2430   -15.9910 
  203.8750    56.7650   144.2550   130.3140   130.8090    25.4020     2.2480   -15.8980 
  204.0000    56.8470   130.6470   117.4090   114.3600    25.3470     2.2430   -15.7650 
  204.1250    57.9420   121.1670   108.4760    93.9400    25.2770     2.2320   -15.6150 
  204.2500    61.6110   115.5060   103.4270    72.5970    25.2110     2.2240   -15.4940 
  204.3750    65.8480   112.8390   101.6980    66.5180    25.1590     2.2300   -15.4080 
