~V
VERS. 2.00: Ver 2.00
~W
STRT.M 59.0000:
STOP.M 225.0000:
STEP.M 0.1250:
NULL. -999.2500:
UWI. F11010:
~C
DEPT.M :
GR.API :
RML.OHMM :
RI. :
RXO.OHMM :
CALI.CM :
SP.MV :
DEN.GM/CC :
~A
# ...
  205.2500    81.6710    12.0930    11.5560    10.9600    24.9440   -10.9900     2.3560 
  205.3750    88.4460    11.0360    10.5570     9.6990    25.0130   -10.7480     2.3510 
  205.5000    89.6780    10.3920     9.9280     9.4940    25.0420   -10.4900     2.3530 
  205.6250    86.6820    10.1460     9.6630     9.3320    24.9690   -10.2360     2.3540 
  205.7500    83.4450    10.0490     9.5480     8.5870    24.8280   -10.0230     2.3550 
  205.8750    80.9240     9.9590     9.4470     7.6750    24.5680    -9.8650     2.3580 
  206.0000    78.7660     9.8200     9.2810     6.9180    24.1930    -9.7780     2.3660 
  206.1250    76.9300     9.6470     9.0430     6.8110    23.9640    -9.7430     2.3770 
  206.2500    75.2350     9.4980     8.7970     6.9880    23.8070    -9.7390     2.3910 
  206.3750    73.1830     9.4030     8.5890     7.1600    23.5950    -9.7750     2.4030 
  206.5000    72.7360     9.3640     8.4410     7.1650    23.1570    -9.8310     2.4090 
  206.6250    72.3850     9.3920     8.3690     7.3560    22.6260    -9.8450     2.4060 
  206.7500    69.7880     9.4950     8.3700     7.4400    22.4680    -9.8110     2.3950 
  206.8750    68.6680     9.7160     8.4660     7.6630    22.5870    -9.7620     2.3780 
  207.0000    71.5840    10.0980     8.6910     8.2980    22.5140    -9.7200     2.3560 
  207.1250    74.1460    10.6700     9.0920     9.4140    22.2550    -9.7080     2.3310 
  207.2500    72.7390    11.3260     9.6060    11.6510    22.2690    -9.7100     2.3070 
  207.3750    70.6910    11.9330    10.1280    14.1610    22.8770    -9.6920     2.2920 
  207.5000    71.9270    12.3480    10.5230    14.5410    23.7600    -9.7000     2.2960 
  207.6250    75.2750    12.4250    10.6300    14.4140    24.2410    -9.7870     2.3250 
  207.7500    76.9800    12.2350    10.4740    12.3830    24.3020    -9.8830     2.3640 
  207.8750    75.5980    11.8930    10.1420     9.6400    24.1420    -9.9250     2.3990 
  208.0000    72.6520    11.5610     9.7830     8.9210    23.9890    -9.8830     2.4190 
  208.1250    69.8960    11.4370     9.5830    10.5890    23.9680    -9.8010     2.4260 
  208.2500    67.1480    11.5890     9.6200    12.0360    24.0980    -9.7160     2.4320 
  208.3750    65.9010    12.0290     9.9190    12.3760    24.3620    -9.6120     2.4410 
  208.5000    68.1570    12.7100    10.4500    12.7190    24.7190    -9.4910     2.4510 
  208.6250    72.2400    13.5340    11.1520    13.1750    25.0500    -9.3540     2.4570 
  208.7500    72.8380    14.3020    11.8680    11.6320    25.2760    -9.2000     2.4610 
  208.8750    70.1170    14.8380    12.4460    10.9520    25.3210    -9.0810     2.4670 
  209.0000    69.9120    14.9930    12.7340    10.5700    25.2110    -8.9820     2.4790 
  209.1250    76.0220    14.6430    12.5710     9.9920    25.0500    -8.9030     2.4910 
  209.2500    81.2110    13.9720    12.0700     9.1160    24.8850    -8.8120     2.4970 
  209.3750    81.0110    13.1850    11.4050     8.6970    24.8100    -8.7400     2.4910 
  209.5000    76.4220    12.5070    10.7820     8.7160    24.8840    -8.6550     2.4780 
  209.6250    72.9050    12.1530    10.4010     9.2430    25.0230    -8.5560     2.4710 
  209.7500    74.3700    12.1050    10.2880    10.6040    25.1710    -8.4890     2.4750 
  209.8750    78.9130    12.2820    10.4080    12.3600    25.2330    -8.4270     2.4820 
  210.0000    81.7790    12.5470    10.6740    13.2340    25.0820    -8.3680     2.4820 
  210.1250    80.2380    12.7420    10.9440    13.5990    24.8570    -8.2450     2.4650 
  210.2500    78.9120    12.8090    11.1210    13.8590    24.9350    -8.0900     2.4420 
  210.3750    78.0750    12.7780    11.2040    12.7290    25.1400    -7.9790     2.4270 
  210.5000    75.8600    12.7320    11.2470    11.8300    25.2160    -7.9040     2.4300 
  210.6250    73.9860    12.7750    11.3300    11.5560    25.1260    -7.8110     2.4450 
  210.7500    75.2870    12.9470    11.5000    12.1000    25.1110    -7.6950     2.4590 
  210.8750    76.8800    13.2330    11.7670    12.7100    25.1360    -7.5790     2.4700 
  211.0000    76.6570    13.5690    12.0940    13.4830    25.1630    -7.4860     2.4800 
  211.1250    77.1430    13.8220    12.3750    12.7150    25.1800    -7.3780     2.4920 
  211.2500    77.4560    13.8790    12.4960    11.6080    25.1240    -7.2610     2.5000 
  211.3750    75.1280    13.6820    12.3820    11.0020    24.9250    -7.0890     2.4950 
  211.5000    71.2610    13.2570    12.0300    10.9520    24.7460    -6.8790     2.4760 
  211.6250    70.8590    12.7240    11.5370    10.4780    24.6630    -6.6440     2.4510 
  211.7500    74.2920    12.2760    11.0930     9.4610    24.6230    -6.3890     2.4300 
  211.8750    78.0320    12.0360    10.8150     8.6700    24.5870    -6.1290     2.4190 
  212.0000    79.8980    12.0470    10.7590     8.6080    24.5780    -5.8140     2.4190 
  212.1250    78.7600    12.3030    10.9460     9.3000    24.6310    -5.4990     2.4310 
  212.2500    76.4950    12.6770    11.2700    10.0360    24.7610    -5.2430     2.4500 
  212.3750    73.3980    13.0910    11.6520    10.3100    24.9300    -5.0210     2.4710 
  212.5000    68.4450    13.5030    12.0340    10.3560    25.0370    -4.8350     2.4870 
  212.6250    65.3150    13.9110    12.4010    10.4470    25.0560    -4.6960     2.4960 
  212.7500    67.7290    14.3410    12.7730    10.2980    24.9890    -4.5930     2.5010 
  212.8750    73.3030    14.8070    13.1740    10.4970    24.9030    -4.5050     2.5030 
  213.0000    76.7820    15.3010    13.6110    11.5880    24.9370    -4.4560     2.5000 
  213.1250    75.3570    15.7810    14.0560    12.9100    25.1550    -4.4840     2.4880 
  213.2500    73.7180    16.2040    14.4620    13.0160    25.3170    -4.5180     2.4650 
  213.3750    74.1440    16.5520    14.8020    13.2690    25.3960    -4.5470     2.4390 
  213.5000    75.1420    16.8310    15.0770    14.7150    25.3850    -4.5800     2.4210 
  213.6250    73.8350    17.0610    15.3040    18.0790    25.2010    -4.6390     2.4240 
  213.7500    71.1580    17.2690    15.5140    21.7070    25.0640    -4.7110     2.4420 
  213.8750    71.5980    17.4540    15.7080    21.5110    24.9940    -4.7780     2.4660 
  214.0000    75.3230    17.5960    15.8640    17.6370    24.9250    -4.8220     2.4830 
  214.1250    77.0990    17.6590    15.9460    18.1180    24.8810    -4.7950     2.4830 
  214.2500    73.9670    17.6500    15.9570    21.4030    24.8610    -4.7400     2.4730 
  214.3750    70.2910    17.5940    15.9190    22.6040    24.8010    -4.7040     2.4660 
  214.5000    70.0240    17.5360    15.8700    22.7590    24.8680    -4.6450     2.4690 
  214.6250    73.2240    17.5450    15.8780    22.2140    24.9790    -4.5690     2.4860 
  214.7500    76.3980    17.6510    15.9830    22.3330    25.0130    -4.4590     2.5070 
  214.8750    77.4670    17.8440    16.1890    20.5400    24.9780    -4.3400     2.5230 
  215.0000    77.4670    18.0710    16.4500    22.0540    24.9180    -4.2400     2.5320 
  215.1250    77.4670    18.2350    16.6740    35.6020    24.9250    -4.2130     2.5340 
  215.2500    77.4670    18.2730    16.7900    54.1880    24.8750    -4.1880     2.5330 
  215.3750    77.4670    18.1640    16.7610    54.4850    24.8610    -4.1390     2.5270 
  215.5000    77.4670    17.9370    16.5960    34.8030    24.9430    -4.0710     2.5150 
  215.6250    77.4670    17.6590    16.3510    21.6820    24.9780    -3.9550     2.4950 
  215.7500    77.4670    17.4110    16.1140    19.1220    24.8550    -3.8780     2.4750 
  215.8750    77.4670    17.2190    15.9210    23.7110    24.5850    -3.8060     2.4630 
  216.0000    77.4670    17.0710    15.7710    33.5820    24.4210    -3.7240     2.4610 
  216.1250    77.4670    16.9390    15.6450    26.8260    24.3220    -3.6100     2.4690 
  216.2500    77.4670    16.8020    15.5200    22.0330    24.2310    -3.4890     2.4820 
  216.3750    77.4670    16.6680    15.3950    18.2880    24.1550    -3.3730     2.4960 
