~V
VERS. 2.00: Ver 2.00
~W
STRT.M 59.0000:
STOP.M 217.0000:
STEP.M 0.1250:
NULL. -999.2500:
UWI. F11019:
~C
DEPT.M :
DEN.GM/CC :
GR.API :
RML.OHMM :
RI. :
RXO.OHMM :
CALI.CM :
SP.MV :
~A
# ...
  137.7500     2.4840    43.7620    24.9470    23.0500    21.7920    24.0310   -20.8520 
  137.8750     2.4780    43.2010    24.5150    22.6910    21.3240    24.0050   -20.8660 
  138.0000     2.4740    42.4320    23.9020    22.1560    20.5470    23.9480   -20.8460 
  138.1250     2.4730    41.6200    23.2350    21.5770    19.9770    23.9100   -20.8140 
  138.2500     2.4740    41.6110    22.6050    21.0430    19.4570    23.9290   -20.7910 
  138.3750     2.4750    42.3700    22.0340    20.5500    19.0910    24.0140   -20.7730 
  138.5000     2.4770    43.4360    21.4980    20.0480    18.8320    24.0620   -20.6510 
  138.6250     2.4760    45.0280    20.9250    19.4400    18.4610    24.0750   -20.4930 
  138.7500     2.4750    47.5560    20.2570    18.7020    17.7350    24.0700   -20.3550 
  138.8750     2.4720    50.6330    19.4980    17.8740    16.7330    24.0650   -20.2750 
  139.0000     2.4690    53.4540    18.7440    17.0630    15.7260    24.1050   -20.2720 
  139.1250     2.4680    55.6470    18.2190    16.4660    14.9100    24.1140   -20.2530 
  139.2500     2.4690    57.1500    18.0480    16.1790    14.5450    24.1280   -20.1410 
  139.3750     2.4730    57.8200    18.2420    16.2160    14.6850    24.1420   -19.9430 
  139.5000     2.4760    57.2760    18.6620    16.4870    15.2580    24.1120   -19.7600 
  139.6250     2.4730    56.2590    19.0090    16.7770    16.2140    24.0990   -19.5940 
  139.7500     2.4640    56.2010    19.0120    16.8360    16.8180    24.0980   -19.4270 
  139.8750     2.4490    57.5140    18.5630    16.5210    16.5900    24.1170   -19.1510 
  140.0000     2.4290    59.8260    17.7260    15.8330    15.7170    24.1310   -18.6610 
  140.1250     2.4100    62.2930    16.7170    14.9040    14.3310    24.0960   -18.0590 
  140.2500     2.3950    63.7750    15.8260    14.0040    12.8380    24.0890   -17.4930 
  140.3750     2.3870    63.4740    15.2090    13.3000    11.6690    24.0530   -17.0360 
  140.5000     2.3900    61.4810    14.9160    12.8680    11.2930    23.9800   -16.6050 
  140.6250     2.4010    59.1080    14.9470    12.7390    11.4350    23.8660   -16.1550 
  140.7500     2.4160    57.3370    15.1700    12.8070    11.8140    23.8780   -15.7560 
  140.8750     2.4270    56.5760    15.5100    13.0100    12.4000    24.0080   -15.4730 
  141.0000     2.4300    57.3460    15.8970    13.2940    13.0670    24.1340   -15.3780 
  141.1250     2.4230    59.7540    16.2430    13.6000    13.3060    24.2520   -15.4100 
  141.2500     2.4090    62.8140    16.4330    13.8340    13.2610    24.3290   -15.4020 
  141.3750     2.3900    65.4600    16.3270    13.8760    13.1960    24.2680   -15.2580 
  141.5000     2.3690    67.1390    15.7830    13.5900    13.1010    24.0970   -15.1100 
  141.6250     2.3490    68.5360    14.6630    12.8130    12.3740    23.8520   -15.0240 
  141.7500     2.3280    71.4510    13.1510    11.6550    10.8910    23.5920   -14.9300 
  141.8750     2.3060    76.1710    11.4600    10.2660     8.9320    23.4310   -14.8120 
  142.0000     2.2830    80.9530     9.8100     8.8390     7.0050    23.3840   -14.6640 
  142.1250     2.2610    83.7490     8.4240     7.5760     5.6720    23.5400   -14.5120 
  142.2500     2.2420    85.7610     7.3140     6.5460     4.9060    23.8010   -14.3900 
  142.3750     2.2270    87.9430     6.4490     5.7580     4.5210    23.9350   -14.3640 
  142.5000     2.2190    90.5760     5.8080     5.1850     4.2920    24.0060   -14.3350 
  142.6250     2.2190    93.6920     5.3880     4.8110     4.1050    23.9380   -14.2140 
  142.7500     2.2240    97.2810     5.1100     4.5620     4.0150    23.7980   -14.0110 
  142.8750     2.2350   100.8020     4.9370     4.4080     4.0130    23.6360   -13.7580 
  143.0000     2.2460   103.2260     4.8400     4.3220     4.0020    23.5710   -13.4990 
  143.1250     2.2570   104.2180     4.8020     4.2870     3.8970    23.6160   -13.1980 
  143.2500     2.2660   104.6180     4.7950     4.2810     3.7580    23.5990   -12.8920 
  143.3750     2.2730   104.9430     4.8100     4.2950     3.6050    23.5650   -12.6310 
  143.5000     2.2790   105.0410     4.8450     4.3250     3.4900    23.6320   -12.4980 
  143.6250     2.2820   104.0950     4.8930     4.3690     3.4750    23.7340   -12.5360 
  143.7500     2.2830   102.2440     4.9430     4.4130     3.5700    23.8340   -12.7090 
  143.8750     2.2790   100.5090     4.9790     4.4460     3.7100    23.8540   -12.9860 
  144.0000     2.2700    99.9300     4.9920     4.4590     3.8410    23.8630   -13.3460 
  144.1250     2.2560   100.6280     4.9710     4.4430     3.9130    23.8130   -13.8590 
  144.2500     2.2420   101.3800     4.9250     4.4060     3.9310    23.8630   -14.4360 
  144.3750     2.2290   100.6850     4.8670     4.3590     3.9270    24.1860   -14.9670 
  144.5000     2.2180    98.0120     4.8110     4.3130     3.9470    24.5010   -15.4400 
  144.6250     2.2110    95.0980     4.7710     4.2830     4.0280    24.4800   -15.9020 
  144.7500     2.2070    93.9000     4.7590     4.2710     4.1610    24.4040   -16.2090 
  144.8750     2.2060    95.1690     4.7710     4.2760     4.3190    24.3770   -16.2960 
  145.0000     2.2080    98.4990     4.7890     4.2850     4.3910    24.4560   -16.2220 
  145.1250     2.2130   101.7420     4.7860     4.2850     4.2710    24.6070   -15.9560 
  145.2500     2.2180   102.3440     4.7290     4.2680     4.0390    24.6520   -15.6600 
  145.3750     2.2250   100.5710     4.6690     4.2360     3.8140    24.2220   -15.4600 
  145.5000     2.2360    98.4110     4.6140     4.1950     3.7030    23.4680   -15.3490 
  145.6250     2.2510    96.4850     4.5720     4.1570     3.7150    22.9680   -15.2990 
  145.7500     2.2640    94.5660     4.5540     4.1310     3.7710    22.6400   -15.4070 
  145.8750     2.2700    93.2630     4.5690     4.1220     3.8260    22.5650   -15.7300 
  146.0000     2.2700    93.6660     4.6230     4.1280     3.8800    22.8090   -16.1300 
  146.1250     2.2650    96.6680     4.7090     4.1450     3.9780    23.4390   -16.5410 
  146.2500     2.2610   100.4900     4.7960     4.1650     4.1480    24.1270   -16.8810 
  146.3750     2.2610   103.0450     4.8600     4.1840     4.3200    24.5290   -17.1440 
  146.5000     2.2640   104.0710     4.8880     4.2010     4.4080    24.6090   -17.3330 
  146.6250     2.2700   104.6760     4.8800     4.2150     4.3810    24.4960   -17.4320 
  146.7500     2.2760   104.2220     4.8580     4.2290     4.3550    24.3110   -17.5190 
  146.8750     2.2820   101.2970     4.8270     4.2420     4.3860    24.1650   -17.5560 
  147.0000     2.2880    97.0180     4.7900     4.2510     4.4210    24.1140   -17.5530 
  147.1250     2.2940    95.1010     4.7390     4.2490     4.3700    24.1660   -17.5730 
  147.2500     2.2980    95.2350     4.6790     4.2360     4.2770    24.2290   -17.6470 
  147.3750     2.3020    95.5710     4.6210     4.2150     4.1840    24.2950   -17.6900 
  147.5000     2.3050    95.5420     4.5780     4.1940     4.1410    24.2710   -17.6630 
  147.6250     2.3060    96.7850     4.5680     4.1840     4.1610    24.2490   -17.6080 
  147.7500     2.3040    99.0280     4.5900     4.1860     4.2320    24.2230   -17.5130 
  147.8750     2.3010    99.6600     4.6360     4.1950     4.2830    24.1210   -17.4420 
  148.0000     2.2990    96.8260     4.6890     4.2030     4.2950    24.0710   -17.4190 
  148.1250     2.2990    91.6020     4.7210     4.1980     4.3160    24.0420   -17.4260 
  148.2500     2.2990    88.4180     4.7240     4.1810     4.3700    24.1490   -17.3670 
  148.3750     2.2980    89.1670     4.7060     4.1580     4.4210    24.3780   -17.2300 
  148.5000     2.2970    92.1070     4.6880     4.1400     4.4090    24.5990   -17.0530 
  148.6250     2.2960    94.1370     4.6930     4.1420     4.3630    24.4350   -16.7630 
  148.7500     2.2980    94.5970     4.7240     4.1670     4.3480    24.0290   -16.3940 
  148.8750     2.3020    94.1670     4.7670     4.2090     4.4320    23.7720   -15.9970 
