~V
VERS. 2.00: Ver 2.00
~W
STRT.M 50.0000:
STOP.M 220.0000:
STEP.M 0.1250:
NULL. -999.2500:
UWI. F11004:
~C
DEPT.M :
SP.MV :
GR.API :
RML.OHMM :
RI. :
RXO.OHMM :
CALI.CM :
DEN.GM/CC :
~A
# ...
  117.5000   -14.9230    75.7160     7.1680     6.1890     6.4270    23.9300     2.2650 
  117.6250   -14.5520    83.6450     6.4250     5.5760     4.8800    23.9570     2.2890 
  117.7500   -14.2680    90.4440     5.9580     5.1280     4.0080    24.0010     2.2920 
  117.8750   -14.0700    92.3280     5.8360     4.9210     4.1030    23.9780     2.2760 
  118.0000   -13.9490    89.5520     6.0230     4.9850     4.6420    23.8650     2.2600 
  118.1250   -13.8460    83.5660     6.3320     5.2110     4.8920    23.8130     2.2570 
  118.2500   -13.7710    77.6640     6.6700     5.5250     4.9490    23.9120     2.2620 
  118.3750   -13.7270    77.2360     7.0050     5.8750     5.0040    24.0990     2.2680 
  118.5000   -13.7310    79.8690     7.3540     6.2380     5.2650    24.1300     2.2760 
  118.6250   -13.7020    78.2290     7.7000     6.5870     6.0000    23.9060     2.2820 
  118.7500   -13.5580    73.5920     7.9530     6.8530     7.1630    23.5850     2.2700 
  118.8750   -13.2920    71.3840     7.9820     6.9360     7.8950    23.4650     2.2440 
  119.0000   -12.9610    74.6570     7.6670     6.7310     6.9700    23.7480     2.2300 
  119.1250   -12.6420    78.8390     7.1520     6.3500     5.5650    24.1740     2.2360 
  119.2500   -12.3590    81.3140     6.6370     5.9360     4.7400    24.4730     2.2470 
  119.3750   -12.1130    82.5050     6.3290     5.6380     4.6710    24.5590     2.2500 
  119.5000   -11.9050    84.1060     6.3950     5.5850     5.1930    24.5320     2.2500 
  119.6250   -11.7620    83.1830     6.7380     5.7440     5.8180    24.5440     2.2550 
  119.7500   -11.7050    77.8690     7.1930     6.0410     6.4120    24.6240     2.2600 
  119.8750   -11.7030    73.6960     7.5430     6.3350     6.8200    24.6960     2.2600 
  120.0000   -11.7780    77.6890     7.5430     6.4300     6.6080    24.6590     2.2590 
  120.1250   -11.9160    83.4630     7.2180     6.2850     5.9690    24.5250     2.2680 
  120.2500   -12.0460    84.3080     6.7360     5.9870     5.3280    24.4000     2.2900 
  120.3750   -12.1230    82.5410     6.3830     5.7230     5.0010    24.3990     2.3160 
  120.5000   -12.1700    84.7840     6.5870     5.7810     5.1280    24.5350     2.3310 
  120.6250   -12.2200    88.0500     7.4980     6.3020     5.7130    24.7270     2.3380 
  120.7500   -12.2660    86.4150     9.1020     7.3560     7.1560    24.8550     2.3520 
  120.8750   -12.3360    79.2790    11.1150     8.8660     9.8160    24.7100     2.3730 
  121.0000   -12.3980    73.0130    12.7440    10.3750    12.9830    24.2030     2.3730 
  121.1250   -12.4420    72.6030    13.1610    11.0940    13.1970    23.7000     2.3330 
  121.2500   -12.4860    76.3290    12.1080    10.6190    10.1070    23.4590     2.2810 
  121.3750   -12.4870    82.1230    10.1180     9.2730     7.3280    23.4150     2.2510 
  121.5000   -12.3960    88.4530     8.1700     7.8120     6.3170    23.3630     2.2560 
  121.6250   -12.2950    92.2770     6.8230     6.7180     5.8990    23.3010     2.2730 
  121.7500   -12.2260    92.6880     6.1060     6.0600     5.3350    23.2700     2.2870 
  121.8750   -12.1320    92.8880     5.8360     5.7510     4.6650    23.2570     2.2920 
  122.0000   -12.0130    94.6770     5.7970     5.6630     4.3650    23.2200     2.2920 
  122.1250   -11.9300    95.3310     5.7970     5.6420     4.3540    23.2070     2.2890 
  122.2500   -11.8890    92.2320     5.7840     5.6320     4.3580    23.3570     2.2870 
  122.3750   -11.8930    88.6100     5.7430     5.6080     4.2200    23.6500     2.2870 
  122.5000   -11.9600    88.7440     5.6700     5.5620     4.0880    23.7790     2.2910 
  122.6250   -12.0270    92.4950     5.5940     5.5130     4.0660    23.6440     2.2990 
  122.7500   -12.1080    97.5350     5.5620     5.4950     4.0600    23.4710     2.3100 
  122.8750   -12.2280    99.8540     5.6250     5.5420     4.0860    23.4670     2.3170 
  123.0000   -12.3470    98.9080     5.8040     5.6660     4.3120    23.5740     2.3130 
  123.1250   -12.4200    96.4970     6.0080     5.8050     4.8600    23.7400     2.3020 
  123.2500   -12.4930    94.2920     6.1400     5.8880     5.5290    24.0390     2.2900 
  123.3750   -12.6050    94.1120     6.1500     5.8750     5.8690    24.3700     2.2800 
  123.5000   -12.7390    94.2450     6.1260     5.8120     5.5910    24.4230     2.2730 
  123.6250   -12.8580    93.2690     6.3090     5.8600     5.3210    24.2490     2.2660 
  123.7500   -12.9770    89.1580     6.9480     6.1970     5.5800    24.1560     2.2520 
  123.8750   -13.1720    83.2420     8.2300     6.9830     6.7500    24.3110     2.2270 
  124.0000   -13.4750    78.1140    10.2950     8.4140     8.5020    24.5840     2.1970 
  124.1250   -13.7970    73.5700    12.8050    10.3550     9.6620    24.7600     2.1740 
  124.2500   -14.0960    69.9400    15.3380    12.5570    12.9620    24.8260     2.1610 
  124.3750   -14.4100    67.2850    17.4020    14.6000    15.0550    24.8500     2.1570 
  124.5000   -14.7280    68.3270    18.5290    15.9710    15.3030    24.8800     2.1600 
  124.6250   -15.0350    71.8320    18.9360    16.6900    15.2270    24.9250     2.1640 
  124.7500   -15.2820    73.7050    18.9210    16.9370    18.3120    24.9500     2.1670 
  124.8750   -15.4340    73.0600    18.7390    16.9040    19.6880    24.9250     2.1670 
  125.0000   -15.5240    72.2270    18.5170    16.6980    18.8770    24.8750     2.1660 
  125.1250   -15.6070    72.7600    18.3120    16.4350    17.1160    24.8490     2.1650 
  125.2500   -15.6540    72.1230    18.1680    16.1880    16.0150    24.8550     2.1630 
  125.3750   -15.6400    69.6210    18.1120    16.0060    16.3870    24.8670     2.1600 
  125.5000   -15.6080    68.8870    18.1430    15.9210    17.4470    24.8680     2.1580 
  125.6250   -15.5730    69.9780    18.1880    15.9080    18.0580    24.8720     2.1590 
  125.7500   -15.5240    69.9010    18.1840    15.9370    18.2530    24.8770     2.1610 
  125.8750   -15.4560    68.8380    18.1160    15.9810    18.1500    24.8740     2.1620 
  126.0000   -15.3830    67.8140    18.0370    16.0340    17.7290    24.8330     2.1620 
  126.1250   -15.3030    67.4390    18.0140    16.1020    17.4230    24.7630     2.1620 
  126.2500   -15.2240    67.8490    18.0480    16.1800    17.5920    24.6940     2.1620 
  126.3750   -15.1070    69.0350    18.0880    16.2430    18.0040    24.6800     2.1620 
  126.5000   -14.9480    71.0310    18.0340    16.2320    17.9630    24.7740     2.1610 
  126.6250   -14.7680    72.6570    17.8510    16.1250    17.4560    24.9070     2.1620 
  126.7500   -14.5560    74.0580    17.5540    15.9290    17.0940    24.9930     2.1640 
  126.8750   -14.2760    73.9220    17.1910    15.6770    17.0110    25.0090     2.1650 
  127.0000   -13.9160    69.9960    16.8460    15.4280    16.8730    25.0190     2.1670 
  127.1250   -13.5100    66.1800    16.6410    15.2740    16.7750    25.0560     2.1760 
  127.2500   -13.0620    65.3280    16.6580    15.2920    16.8620    25.0350     2.1970 
  127.3750   -12.5780    65.9840    16.8850    15.4920    16.7490    24.8580     2.2320 
  127.5000   -12.0130    66.3060    17.2000    15.8010    16.3710    24.5350     2.2920 
  127.6250   -11.4330    66.3010    17.4230    16.0640    17.1670    24.2260     2.3730 
  127.7500   -10.8940    65.2000    17.4630    16.1780    19.4030    24.0420     2.4570 
  127.8750   -10.3920    62.4260    17.3380    16.1210    21.0110    24.0100     2.5110 
  128.0000    -9.9220    62.2710    17.2120    15.9890    20.1120    24.1040     2.5190 
  128.1250    -9.5310    65.3430    17.2470    15.9280    18.9450    24.2500     2.5180 
  128.2500    -9.2270    66.2720    17.4320    15.9660    18.8680    24.3800     2.5200 
  128.3750    -8.9690    63.5480    17.6230    16.0220    19.0210    24.4610     2.5210 
  128.5000    -8.7870    62.0120    17.5840    15.9430    17.9450    24.5030     2.5190 
  128.6250    -8.6450    63.0590    17.2510    15.6670    16.4890    24.5390     2.5220 
