~V
VERS. 2.00: Ver 2.00
~W
STRT.M 53.0000:
STOP.M 257.0000:
STEP.M 0.1250:
NULL. -999.2500:
UWI. F11022:
~C
DEPT.M :
GR.API :
RML.OHMM :
RI. :
RXO.OHMM :
CALI.CM :
SP.MV :
DEN.GM/CC :
~A
# ...
  210.5000    78.2350     9.6340     7.8120     9.6860    24.8430   -25.5740     2.2940 
  210.6250    77.3600    11.2140     9.0210    12.7600    24.9920   -25.5780     2.2820 
  210.7500    74.3720    12.6520    10.2330    15.6580    25.0690   -25.7170     2.2790 
  210.8750    71.7660    13.6560    11.2020    17.1840    25.1030   -25.9570     2.2850 
  211.0000    72.1970    14.1150    11.7780    17.4560    25.1130   -26.1230     2.2940 
  211.1250    76.2050    14.2310    12.0280    17.6850    25.1130   -26.1060     2.2930 
  211.2500    79.3400    14.5260    12.3170    17.8060    25.1130   -26.0310     2.2780 
  211.3750    79.5800    15.3730    12.9240    17.5720    25.1130   -26.0070     2.2560 
  211.5000    79.8410    16.9820    14.0510    19.1260    25.1130   -26.0680     2.2370 
  211.6250    80.6980    19.3640    15.8300    25.7130    25.1130   -26.1440     2.2220 
  211.7500    80.0350    21.8890    17.9130    34.8860    25.1130   -26.1080     2.2110 
  211.8750    77.5560    23.8670    19.8260    39.6190    25.1130   -26.0710     2.2070 
  212.0000    73.9960    24.7700    21.0940    41.1570    25.1130   -26.1110     2.2130 
  212.1250    71.2380    24.4290    21.4300    40.2170    25.1130   -26.1780     2.2310 
  212.2500    69.7060    23.5950    21.2720    36.9930    25.1130   -26.1750     2.2550 
  212.3750    70.4160    22.8420    21.0400    32.2490    25.1130   -26.0990     2.2760 
  212.5000    72.4060    22.4400    20.9930    33.0110    25.1130   -26.0680     2.2860 
  212.6250    74.1250    22.3490    21.1590    31.0300    25.1130   -26.1120     2.2820 
  212.7500    74.7570    22.3430    21.3870    27.6870    25.1130   -26.1290     2.2740 
  212.8750    73.6910    22.3160    21.5870    25.6780    25.1100   -26.0960     2.2680 
  213.0000    71.7690    22.1910    21.6750    24.0890    25.0970   -26.0990     2.2620 
  213.1250    70.3160    21.8670    21.5280    23.7310    25.0720   -26.1820     2.2560 
  213.2500    69.4960    21.3130    21.1070    25.2380    25.0690   -26.2540     2.2530 
  213.3750    69.3300    20.4000    20.2950    28.2330    25.0900   -26.2760     2.2550 
  213.5000    71.3630    18.9900    18.9600    26.5380    25.1080   -26.2270     2.2640 
  213.6250    75.1420    17.1270    17.1490    20.4440    25.1130   -26.2630     2.2790 
  213.7500    76.3620    15.3310    15.3740    17.6630    25.1080   -26.4130     2.2920 
  213.8750    75.4620    14.1530    14.1230    15.9390    25.0960   -26.4800     2.2980 
  214.0000    74.4940    14.1220    13.8010    13.5930    25.0820   -26.4220     2.2950 
  214.1250    72.8340    16.0460    15.0240    12.5880    25.0800   -26.3810     2.2860 
  214.2500    69.1220    20.0530    18.0350    15.8980    25.0930   -26.4920     2.2720 
  214.3750    64.8480    26.2190    23.1920    30.3340    25.1180   -26.6590     2.2550 
  214.5000    61.5840    33.8930    30.3270    54.0780    25.1320   -26.7460     2.2470 
  214.6250    60.5760    40.4110    37.4660    60.4330    25.1050   -26.6780     2.2570 
  214.7500    62.3980    42.5310    41.0870    49.6170    25.0870   -26.6360     2.2720 
  214.8750    65.2100    39.5560    39.6940    43.2850    25.0660   -26.7170     2.2790 
  215.0000    66.3430    33.9400    35.0450    39.2240    25.0230   -26.7760     2.2770 
  215.1250    65.7780    29.0540    30.3250    32.4680    24.9700   -26.7520     2.2730 
  215.2500    65.5810    26.2710    27.2610    26.4270    24.9660   -26.7300     2.2710 
  215.3750    66.3190    25.7990    26.1890    27.6390    25.0200   -26.7500     2.2720 
  215.5000    66.6000    27.5920    27.1670    33.5240    25.0840   -26.7940     2.2730 
  215.6250    65.6110    31.3000    30.8710    43.8030    25.1140   -26.8070     2.2700 
  215.7500    64.2340    35.3560    36.9190    60.5720    25.1460   -26.7550     2.2580 
  215.8750    63.5520    40.7120    41.9740    71.5530    25.2000   -26.7120     2.2370 
  216.0000    62.9140    45.1650    45.4630    70.6570    25.2420   -26.8000     2.2150 
  216.1250    62.1070    47.5370    46.5350    78.9690    25.2440   -26.8720     2.2030 
  216.2500    62.3230    48.4430    46.2870    66.3120    25.2180   -26.7940     2.2000 
  216.3750    63.6960    48.5280    45.5240    56.7170    25.1880   -26.6480     2.1980 
  216.5000    64.1760    48.0480    44.4640    56.1050    25.1610   -26.5990     2.1910 
  216.6250    62.4740    46.5540    42.6110    57.3110    25.1070   -26.7290     2.1840 
  216.7500    60.8440    43.8240    39.7320    51.6970    25.0360   -26.8680     2.1830 
  216.8750    62.3700    39.9710    35.9900    41.7960    24.9640   -26.8830     2.1890 
  217.0000    67.3570    35.5800    31.9510    36.4240    24.9090   -26.7700     2.1970 
  217.1250    72.4000    31.5500    28.4310    32.5420    24.8970   -26.8020     2.2010 
  217.2500    74.7700    28.4180    25.8420    29.9210    24.8860   -26.9650     2.2040 
  217.3750    74.9640    26.4270    24.3910    26.1700    24.8900   -27.0920     2.2110 
  217.5000    74.1490    25.7170    24.2270    22.5300    24.9570   -27.0930     2.2190 
  217.6250    71.2130    26.7180    25.8220    24.0000    25.0670   -27.0030     2.2220 
  217.7500    67.5880    29.5150    29.2600    28.5990    25.1530   -26.9930     2.2190 
  217.8750    64.5850    34.5510    34.9040    35.7940    25.2030   -27.1010     2.2120 
  218.0000    62.4400    42.2580    43.0010    44.6620    25.2410   -27.2030     2.2000 
  218.1250    61.4380    52.9300    53.5760    62.5850    25.2960   -27.1470     2.1790 
  218.2500    61.0900    64.7850    64.8600    83.9190    25.3810   -27.1270     2.1550 
  218.3750    60.5330    75.7060    74.8170    95.0910    25.4510   -27.2310     2.1350 
  218.5000    58.7980    83.7100    81.6610    96.2240    25.4700   -27.3500     2.1240 
  218.6250    57.3020    87.4360    84.4230    96.1700    25.4570   -27.3830     2.1180 
  218.7500    58.0460    88.3750    84.8690    98.6200    25.4550   -27.3680     2.1140 
  218.8750    59.2090    87.7800    84.2230    99.0620    25.4950   -27.3850     2.1080 
  219.0000    58.6900    86.5420    83.1480    96.5280    25.5740   -27.4470     2.0990 
  219.1250    57.3340    85.1110    81.8660    93.5280    25.6120   -27.4930     2.0910 
  219.2500    56.8650    83.8080    80.6170    91.2800    25.5100   -27.5020     2.0910 
  219.3750    56.8920    82.8220    79.5590    88.9950    25.3030   -27.5210     2.1020 
  219.5000    55.9880    82.1100    78.5890    84.1570    25.1520   -27.6120     2.1210 
  219.6250    54.4930    81.1110    77.0540    82.5880    25.0920   -27.7600     2.1380 
  219.7500    53.8320    79.1140    74.3840    85.1790    25.0570   -27.7950     2.1490 
  219.8750    53.6600    75.8260    70.4890    86.1540    25.0140   -27.6750     2.1530 
  220.0000    54.0360    71.6170    65.9270    80.7540    24.9340   -27.6240     2.1590 
  220.1250    55.1890    67.5760    61.8870    68.9550    24.7940   -27.7850     2.1690 
  220.2500    56.4490    64.8150    59.3140    59.3480    24.6480   -27.8440     2.1780 
  220.3750    57.3540    63.9010    58.6020    55.7000    24.5240   -27.7340     2.1800 
  220.5000    59.6010    64.8340    59.5980    54.7980    24.4080   -27.6240     2.1720 
  220.6250    63.5120    67.1900    61.7540    56.5710    24.3430   -27.6470     2.1580 
  220.7500    66.4350    69.8000    63.9650    61.3730    24.4430   -27.7430     2.1430 
  220.8750    65.5530    71.9200    65.6310    67.5720    24.6700   -27.8210     2.1320 
  221.0000    62.9050    73.3100    66.6840    69.3580    24.8990   -27.7950     2.1270 
  221.1250    61.4520    74.4810    67.7770    71.7450    25.0040   -27.7560     2.1260 
  221.2500    61.2890    76.4090    69.7940    74.7420    25.0090   -27.7860     2.1310 
  221.3750    60.9440    79.7680    73.2910    77.9670    24.8690   -27.8170     2.1460 
  221.5000    60.6200    84.8520    78.4750    84.0060    24.6680   -27.7770     2.1700 
  221.6250    60.8750    91.5030    85.1450    94.6700    24.6240   -27.6950     2.1910 
