~V
VERS. 2.00: Ver 2.00
~W
STRT.M 62.0000:
STOP.M 218.0000:
STEP.M 0.1250:
NULL. -999.2500:
UWI. F11008:
~C
DEPT.M :
DEN.GM/CC :
GR.API :
RML.OHMM :
RI. :
RXO.OHMM :
CALI.CM :
SP.MV :
~A
   62.0000     2.0160    58.4490     2.2450     0.1760    -0.2600    25.7590    78.6920 
   62.1250     1.9910    56.9360     2.1320     0.1740    -0.2560    25.7530    77.5660 
   62.2500     1.9720    55.4030     2.0110     0.1710    -0.2500    25.7680    76.4180 
   62.3750     1.9610    55.6530     1.8820     0.1700    -0.2520    25.7900    75.3070 
   62.5000     1.9610    58.2380     1.7500     0.1710    -0.2560    25.8030    74.2910 
   62.6250     1.9700    59.7410     1.6100     0.1720    -0.2550    25.7950    73.3220 
   62.7500     1.9860    59.5290     1.4380     0.1710    -0.2370    25.7700    72.2950 
   62.8750     2.0070    59.1210     1.2080     0.1620    -0.2020    25.7440    71.1860 
   63.0000     2.0450    58.7230     0.9140     0.1450    -0.1620    25.7330    69.9700 
   63.1250     2.1280    57.0560     0.5960     0.1230    -0.1270    25.7330    68.4680 
   63.2500     2.2620    55.7030     0.3180     0.1030    -0.0430    25.7330    66.5030 
   63.3750     2.4250    57.0880     0.1180     0.0900     0.1480    25.7290    63.8690 
   63.5000     2.5650    61.1740     0.0050     0.0870     0.4020    25.6970    60.4300 
   63.6250     2.6120    66.0330    -0.0180     0.1010     0.9240    25.5770    56.0320 
   63.7500     2.5610    70.1590     0.0390     0.1430     1.9640    25.3750    50.8960 
   63.8750     2.4460    72.9230     0.2150     0.2450     4.3120    25.1360    45.0420 
   64.0000     2.3210    75.2930     0.5820     0.4640     6.7350    24.8590    38.5610 
   64.1250     2.2410    79.0200     1.2750     0.9380     8.4050    24.4960    31.7600 
   64.2500     2.2130    81.2030     2.2410     1.7180     8.7970    24.1840    25.0910 
   64.3750     2.2290    81.6740     3.3120     2.7520     9.2260    24.0610    18.9110 
   64.5000     2.2680    84.7340     4.2170     3.8210    10.2740    24.2300    13.4940 
   64.6250     2.3060    93.8510     4.6540     4.5570    11.3480    24.7120     9.1420 
   64.7500     2.3260   102.5920     4.6980     4.8590     9.4170    25.3000     5.6630 
   64.8750     2.3220   104.8670     4.5330     4.8270     6.3530    25.8510     3.0400 
   65.0000     2.2980   102.8160     4.3560     4.6480     5.0330    26.2440     1.2870 
   65.1250     2.2700   101.7000     4.2910     4.4890     5.1580    26.3250     0.3490 
   65.2500     2.2490   104.0220     4.3250     4.4260     5.6140    26.2520    -0.1170 
   65.3750     2.2360   108.5340     4.4290     4.4810     5.6620    26.2240    -0.4040 
   65.5000     2.2340   110.2470     4.5870     4.6540     5.0780    26.2800    -0.7510 
   65.6250     2.2410   107.6810     4.7890     4.9320     4.9590    26.2850    -1.2410 
   65.7500     2.2580   103.7590     4.9890     5.2340     5.4300    26.0850    -1.7400 
   65.8750     2.2810   100.9740     5.1270     5.4660     6.2630    25.7570    -2.1250 
   66.0000     2.3060   100.4430     5.1480     5.5370     7.0070    25.5470    -2.3810 
   66.1250     2.3170   103.7180     5.0090     5.3650     5.9400    25.7870    -2.5180 
   66.2500     2.3080   110.9840     4.7810     5.0380     4.8130    26.4850    -2.5610 
   66.3750     2.2770   118.3000     4.5380     4.6580     4.1110    27.4640    -2.4800 
   66.5000     2.2350   123.1060     4.3440     4.3320     3.8150    28.2780    -2.2350 
   66.6250     2.2040   125.1880     4.2490     4.1430     3.8120    28.5050    -1.8300 
   66.7500     2.1980   125.2810     4.2400     4.0750     3.9660    28.3310    -1.4290 
   66.8750     2.2180   123.5050     4.3100     4.1070     4.1530    27.9260    -1.1650 
   67.0000     2.2520   119.7470     4.4590     4.2220     4.3380    27.3810    -1.0630 
   67.1250     2.2850   117.0770     4.7000     4.4340     4.5180    26.9290    -1.1970 
   67.2500     2.3130   116.1800     5.0120     4.7250     4.7100    26.6370    -1.5820 
   67.3750     2.3340   112.7430     5.3690     5.0700     4.7940    26.3670    -2.1990 
   67.5000     2.3500   105.2050     5.7360     5.4340     5.6570    25.9840    -3.0590 
   67.6250     2.3570    98.0830     6.0780     5.7770     7.6850    25.6820    -4.1300 
   67.7500     2.3600    95.0570     6.3940     6.0960     8.8470    25.3990    -5.2560 
   67.8750     2.3620    93.1380     6.7020     6.4070     7.6960    25.2560    -6.4830 
   68.0000     2.3620    89.4600     7.0130     6.7230     7.5610    25.2480    -7.9230 
   68.1250     2.3500    85.9010     7.3050     7.0330    10.5090    25.1900    -9.5660 
   68.2500     2.3190    80.6190     7.5310     7.2850    12.0280    24.9960   -11.2980 
   68.3750     2.2710    72.1020     7.6520     7.4260     9.6730    24.8390   -13.0390 
   68.5000     2.2210    63.9420     7.6570     7.4260     7.6270    24.8080   -14.6860 
   68.6250     2.1860    63.6300     7.5700     7.2940     7.2930    24.7270   -16.2010 
   68.7500     2.1700    70.1710     7.4620     7.1160     7.5480    24.4320   -17.6920 
   68.8750     2.1680    77.8840     7.3640     6.9530     7.7600    24.1190   -19.0860 
   69.0000     2.1700    81.3300     7.2810     6.8220     7.7370    23.9280   -20.2700 
   69.1250     2.1720    78.1720     7.2040     6.7010     7.7660    23.8530   -21.1830 
   69.2500     2.1730    73.4950     7.1540     6.5700     7.8300    23.8350   -21.8970 
   69.3750     2.1730    71.7950     7.2140     6.4710     7.9660    23.8380   -22.3960 
   69.5000     2.1770    73.3860     7.5300     6.5150     7.9740    23.8190   -22.6750 
   69.6250     2.2000    76.1260     8.3830     6.9500     8.0900    23.7580   -22.7550 
   69.7500     2.2540    77.1910     9.8350     7.9110     8.4970    23.8550   -22.6840 
   69.8750     2.3420    75.5290    11.8010     9.4490    10.1760    24.1830   -22.5270 
   70.0000     2.4480    72.0240    13.8780    11.3510    15.6610    24.6920   -22.3760 
   70.1250     2.5220    71.7450    15.2000    12.9160    30.3680    25.0550   -22.3700 
   70.2500     2.5340    74.5420    15.2670    13.4590    39.9840    25.0960   -22.5070 
   70.3750     2.4790    76.3650    14.0940    12.7900    28.1140    24.7270   -22.8050 
   70.5000     2.3820    75.0720    12.2140    11.2930    13.7310    24.1180   -23.2730 
   70.6250     2.2850    75.2560    10.4260     9.6820     9.7830    23.7510   -23.8900 
   70.7500     2.2160    79.0530     9.1800     8.4570     9.1030    23.6370   -24.5730 
   70.8750     2.1790    82.9920     8.4950     7.7030     9.3430    23.6140   -25.2750 
   71.0000     2.1650    82.1560     8.2030     7.3270     9.4310    23.5850   -25.9530 
   71.1250     2.1640    76.4070     8.1210     7.2050     9.3250    23.5680   -26.5200 
   71.2500     2.1690    72.8870     8.0890     7.1630     9.2260    23.5600   -26.9170 
   71.3750     2.1770    74.8350     8.0640     7.1390     9.1330    23.5610   -27.1400 
   71.5000     2.1850    79.2810     8.0390     7.1110     9.0020    23.5720   -27.2220 
   71.6250     2.1920    80.5290     8.0150     7.0790     9.2180    23.5980   -27.1800 
   71.7500     2.1960    77.6660     7.9870     7.0390     9.3630    23.6430   -27.0730 
   71.8750     2.1970    74.0270     7.9430     6.9840     9.4470    23.7170   -26.9060 
   72.0000     2.1980    72.2440     7.8690     6.9040     9.4880    23.8350   -26.6550 
   72.1250     2.2000    74.2380     7.7530     6.7900     9.4030    23.9890   -26.3040 
   72.2500     2.2020    77.9780     7.6130     6.6590     9.0800    24.1290   -25.9220 
   72.3750     2.2050    80.6050     7.4750     6.5300     8.9990    24.2250   -25.5640 
   72.5000     2.2080    81.2930     7.3720     6.4280     9.2060    24.2240   -25.2690 
   72.6250     2.2100    81.1920     7.3400     6.3900     9.2480    24.1580   -25.0140 
   72.7500     2.2120    78.6960     7.3820     6.4270     9.2640    24.1450   -24.7290 
   72.8750     2.2140    73.6670     7.4940     6.5440     9.3310    24.0950   -24.4210 
   73.0000     2.2210    69.4680     7.6650     6.7340     9.4120    24.0310   -24.1100 
   73.1250     2.2320    71.0500     7.8710     6.9800     9.5610    24.0160   -23.6870 
