~V
VERS. 2.00: Ver 2.00
~W
STRT.M 55.0000:
STOP.M 283.0000:
STEP.M 0.1250:
NULL. -999.2500:
UWI. F11062:
~C
DEPT.M :
SP.MV :
GR.API :
RML.OHMM :
RI. :
RXO.OHMM :
CALI.CM :
DEN.GM/CC :
~A
# ...
  156.2500    -3.8070    51.5460    20.9140    20.1610    16.6510    22.7240     2.5370 
  156.3750    -3.8110    48.7720    21.2950    20.5660    16.6250    22.6940     2.5410 
  156.5000    -3.8360    48.3190    21.6400    20.9560    17.3860    22.6890     2.5410 
  156.6250    -3.8560    49.6200    21.8190    21.2020    18.4520    22.6940     2.5380 
  156.7500    -3.8690    51.2230    21.7870    21.2500    19.1980    22.6800     2.5340 
  156.8750    -3.8860    53.7130    21.5530    21.0870    18.7850    22.6710     2.5320 
  157.0000    -3.9010    56.5710    21.1760    20.7590    18.0380    22.6720     2.5300 
  157.1250    -3.9430    58.3870    20.7310    20.3350    17.6150    22.6730     2.5230 
  157.2500    -4.0030    57.6300    20.2820    19.8900    17.4520    22.6480     2.5070 
  157.3750    -4.0500    56.1230    19.8460    19.4510    17.3730    22.5990     2.4830 
  157.5000    -4.0810    55.9840    19.4360    19.0320    17.4980    22.6080     2.4550 
  157.6250    -4.1170    57.3980    19.0950    18.6600    17.5970    22.7200     2.4310 
  157.7500    -4.1440    58.7270    18.8720    18.3730    17.2560    22.8750     2.4150 
  157.8750    -4.1570    60.2860    18.8230    18.2240    16.4830    22.9160     2.4090 
  158.0000    -4.1640    62.2500    18.9720    18.2490    15.7550    22.7840     2.4120 
  158.1250    -4.1680    65.3150    19.2970    18.4580    15.7170    22.3290     2.4210 
  158.2500    -4.1420    66.7870    19.6540    18.7370    15.6210    21.6230     2.4270 
  158.3750    -4.1240    64.3700    19.9110    18.9690    15.9120    20.8560     2.4280 
  158.5000    -4.1190    59.8200    19.9530    19.0390    16.2610    20.2360     2.4220 
  158.6250    -4.1180    55.1530    19.6900    18.8360    15.7620    19.7940     2.4140 
  158.7500    -4.1300    51.1920    19.2210    18.4210    14.4950    19.5060     2.4070 
  158.8750    -4.1500    48.8550    18.6660    17.8900    13.8070    19.3800     2.4060 
  159.0000    -4.1830    50.5570    18.1390    17.3490    13.6640    19.3950     2.4100 
  159.1250    -4.1870    54.2310    17.7200    16.8850    13.1180    19.5390     2.4160 
  159.2500    -4.2160    53.7850    17.3800    16.4950    12.7060    19.8190     2.4230 
  159.3750    -4.2530    50.4970    17.0730    16.1520    12.6760    20.2390     2.4290 
  159.5000    -4.2780    49.2330    16.7660    15.8270    12.7500    20.7470     2.4350 
  159.6250    -4.2900    50.5390    16.4640    15.5200    12.3540    21.3130     2.4400 
  159.7500    -4.2980    51.8760    16.1970    15.2520    11.4470    21.8750     2.4420 
  159.8750    -4.3110    53.0980    15.9780    15.0320    11.2840    22.4290     2.4430 
  160.0000    -4.3180    54.3670    15.7920    14.8470    11.8700    22.9210     2.4450 
  160.1250    -4.3360    53.9600    15.6150    14.6760    12.9430    23.1790     2.4490 
  160.2500    -4.3380    52.3140    15.4400    14.5090    13.6810    23.2760     2.4570 
  160.3750    -4.3130    52.1930    15.2810    14.3550    13.8400    23.2950     2.4690 
  160.5000    -4.2970    52.4270    15.1680    14.2350    13.2110    23.2970     2.4820 
  160.6250    -4.3170    50.6080    15.1400    14.1740    12.9940    23.2980     2.4960 
  160.7500    -4.3240    48.6000    15.1700    14.1560    13.7480    23.3040     2.5070 
  160.8750    -4.3170    48.1160    15.2080    14.1370    14.6440    23.3210     2.5120 
  161.0000    -4.3130    48.2730    15.1950    14.0670    14.8830    23.3510     2.5130 
  161.1250    -4.3170    46.2510    15.0820    13.9010    14.4370    23.3970     2.5120 
  161.2500    -4.3300    42.8470    14.8830    13.6570    14.0390    23.4550     2.5130 
  161.3750    -4.3660    40.7930    14.6150    13.3620    13.4130    23.5110     2.5170 
  161.5000    -4.3900    41.7730    14.2950    13.0400    12.5300    23.5390     2.5190 
  161.6250    -4.3910    44.9740    13.9260    12.7050    12.2710    23.5410     2.5160 
  161.7500    -4.4130    47.6150    13.5450    12.3780    12.5430    23.5380     2.5070 
  161.8750    -4.4630    49.5370    13.2160    12.0990    12.3850    23.5350     2.4980 
  162.0000    -4.5400    51.7670    13.0440    11.9430    11.6530    23.5250     2.4920 
  162.1250    -4.5990    54.5370    13.1930    12.0410    11.1970    23.4940     2.4960 
  162.2500    -4.6850    56.4300    13.6560    12.4010    11.4620    23.4460     2.5060 
  162.3750    -4.7710    54.9900    14.3220    12.9580    12.3690    23.3980     2.5140 
  162.5000    -4.8670    51.3120    14.9280    13.5180    13.7530    23.3690     2.5150 
  162.6250    -4.9650    51.8140    14.9980    13.6960    14.7530    23.3580     2.5010 
  162.7500    -5.0670    57.3630    14.3150    13.2580    15.7490    23.3540     2.4770 
  162.8750    -5.1590    64.2400    12.9000    12.1640    15.4340    23.3520     2.4500 
  163.0000    -5.2490    68.5990    11.0800    10.6560    13.5090    23.3440     2.4280 
  163.1250    -5.4020    70.5570     9.4220     9.2080    10.5700    23.3280     2.4180 
  163.2500    -5.5650    71.1500     8.3210     8.1800     7.8520    23.3180     2.4150 
  163.3750    -5.7550    69.3580     7.8890     7.6880     6.4910    23.3360     2.4120 
  163.5000    -5.9720    66.8390     8.0370     7.6990     6.5150    23.3830     2.4060 
  163.6250    -6.1960    66.7270     8.5690     8.1050     7.5130    23.4370     2.3990 
  163.7500    -6.4040    68.7810     9.1280     8.6090     8.5390    23.4680     2.3940 
  163.8750    -6.6080    70.9890     9.4810     8.9860     8.9530    23.4800     2.3930 
  164.0000    -6.7870    70.6490     9.4880     9.0660     8.7540    23.4810     2.3900 
  164.1250    -6.9460    70.3330     9.1060     8.7510     8.5820    23.4780     2.3770 
  164.2500    -7.0790    73.3100     8.5560     8.2230     8.2110    23.4810     2.3590 
  164.3750    -7.2080    77.2190     8.0310     7.6640     7.6280    23.4960     2.3460 
  164.5000    -7.3280    77.7100     7.7170     7.2400     7.0040    23.5250     2.3450 
  164.6250    -7.4780    76.5150     7.8690     7.1570     6.6610    23.5910     2.3590 
  164.7500    -7.6720    79.6230     8.5990     7.5050     6.7020    23.7160     2.3790 
  164.8750    -7.8970    83.7500    10.0340     8.3930     7.3490    23.8830     2.3980 
  165.0000    -8.1490    82.1870    12.2250     9.9010     8.8120    24.0420     2.4080 
  165.1250    -8.4160    76.5040    15.1460    12.1170    11.4750    24.1810     2.4080 
  165.2500    -8.7160    72.7390    18.3370    14.7520    15.4410    24.2870     2.4040 
  165.3750    -8.9970    71.8900    21.3510    17.4810    20.8840    24.3400     2.3970 
  165.5000    -9.2640    70.0900    23.7640    19.9110    26.0390    24.3560     2.3910 
  165.6250    -9.5100    67.3550    25.2120    21.5920    27.7730    24.3600     2.3850 
  165.7500    -9.7110    66.6310    25.9290    22.5700    26.9800    24.3720     2.3760 
  165.8750    -9.8980    67.5590    26.1540    22.9970    26.0940    24.3960     2.3650 
  166.0000   -10.0730    68.0780    26.0620    23.0470    26.2110    24.4130     2.3530 
  166.1250   -10.2110    66.0800    25.6200    22.7490    28.6960    24.4170     2.3450 
  166.2500   -10.3280    65.2670    24.8260    22.1580    28.0250    24.4150     2.3420 
  166.3750   -10.4400    68.7260    23.7470    21.3370    25.1700    24.4110     2.3420 
  166.5000   -10.5580    73.4860    22.6110    20.4620    22.4440    24.4050     2.3400 
  166.6250   -10.6680    73.8330    21.8010    19.8330    21.9440    24.3820     2.3340 
  166.7500   -10.7860    70.7460    21.4610    19.5910    21.5820    24.3370     2.3260 
  166.8750   -10.8860    70.6300    21.5120    19.7060    21.3900    24.2580     2.3190 
  167.0000   -10.9710    72.8670    21.6750    19.9770    21.2070    24.1250     2.3180 
  167.1250   -11.0690    69.0500    21.5180    20.0390    20.5030    23.8980     2.3240 
  167.2500   -11.1800    64.1110    20.8570    19.6630    19.4290    23.5420     2.3330 
  167.3750   -11.2820    64.8620    19.7330    18.8160    17.9050    23.1560     2.3410 
