~V
VERS. 2.00: Ver 2.00
~W
STRT.M 53.0000:
STOP.M 279.0000:
STEP.M 0.1250:
NULL. -999.2500:
UWI. F11057:
~C
DEPT.M :
GR.API :
RML.OHMM :
RI. :
RXO.OHMM :
CALI.CM :
DEN.GM/CC :
SP.MV :
~A
# ...
   64.2500    86.2870    11.9200     8.1760     9.1710    23.8420     2.1610   -21.9690 
   64.3750    85.9090    11.4880     8.0750     9.1080    23.7930     2.1540   -22.7240 
   64.5000    86.3300    10.5320     7.5790     8.9260    23.7870     2.1500   -23.3850 
   64.6250    84.7340     9.6740     7.0410     8.8000    23.7850     2.1470   -23.8800 
   64.7500    83.2270     9.2560     6.7240     8.9240    23.7830     2.1420   -24.1670 
   64.8750    82.3330     9.2560     6.6650     9.1950    23.7830     2.1380   -24.2660 
   65.0000    82.6670     9.4760     6.7760     9.4030    23.7860     2.1350   -24.2040 
   65.1250    85.6230     9.6860     6.9290     9.4670    23.7870     2.1360   -23.9830 
   65.2500    89.8000     9.7990     7.0390     9.4880    23.7870     2.1420   -23.5970 
   65.3750    92.4410     9.8340     7.0930     9.5100    23.7870     2.1570   -23.0230 
   65.5000    93.7290     9.8130     7.0950     9.6610    23.7870     2.1850   -22.2640 
   65.6250    99.1540     9.6820     7.0130     9.7930    23.7850     2.2230   -21.3500 
   65.7500   107.9460     9.4000     6.8270     9.6070    23.7850     2.2600   -20.4000 
   65.8750   114.8980     8.9590     6.5280     8.9630    23.7860     2.2880   -19.4630 
   66.0000   117.4590     8.4280     6.1550     7.9230    23.7860     2.3010   -18.5780 
   66.1250   117.3350     7.9640     5.7960     7.2930    23.7840     2.2990   -17.8120 
   66.2500   117.6210     7.6830     5.5310     7.0160    23.8010     2.2930   -17.1990 
   66.3750   117.5870     7.6190     5.3970     6.9110    23.8740     2.2900   -16.7550 
   66.5000   118.2470     7.7430     5.3930     6.9890    24.0640     2.2910   -16.5040 
   66.6250   121.7400     8.0200     5.5110     7.0910    24.2940     2.2890   -16.4810 
   66.7500   123.4580     8.3850     5.7040     7.4610    24.4740     2.2850   -16.6170 
   66.8750   119.4220     8.8240     5.9570     8.2030    24.4830     2.2810   -16.8860 
   67.0000   112.5100     9.3020     6.2430     9.4340    24.3280     2.2730   -17.2250 
   67.1250   107.8950     9.7050     6.4910    10.0420    24.1900     2.2540   -17.5570 
   67.2500   104.0650     9.9210     6.6310     9.7460    24.1390     2.2400   -17.8480 
   67.3750   101.1010     9.9040     6.6310     9.7470    24.1400     2.2500   -18.0870 
   67.5000   103.9990     9.7180     6.5250     9.6410    24.1640     2.2880   -18.2810 
   67.6250   112.5090     9.6310     6.4560     9.0710    24.2290     2.3420   -18.4230 
   67.7500   117.1760    10.0530     6.6410     8.8740    24.3170     2.4010   -18.5350 
   67.8750   115.3250    11.5010     7.3740    10.2200    24.4090     2.4650   -18.6370 
   68.0000   108.3850    14.4780     9.0270    15.1420    24.4640     2.5260   -18.7700 
   68.1250    96.5100    19.3960    12.1150    27.1900    24.4800     2.5640   -19.0270 
   68.2500    82.9770    24.8500    16.0650    36.9530    24.4820     2.5620   -19.4330 
   68.3750    72.6490    28.0910    19.1700    40.1560    24.4690     2.5150   -19.9720 
   68.5000    69.1840    26.4000    19.1750    33.2030    24.3960     2.4260   -20.5900 
   68.6250    70.6460    20.4260    15.8070    21.2630    24.2120     2.3220   -21.2310 
   68.7500    73.7090    14.7100    12.0550    13.0020    24.0530     2.2370   -21.8390 
   68.8750    78.1210    10.9880     9.2570    10.6920    24.0580     2.1850   -22.3590 
   69.0000    83.0170     9.2310     7.5930    10.5010    24.1800     2.1630   -22.7450 
   69.1250    84.9900     8.9770     6.9130    10.9360    24.2930     2.1690   -22.9070 
   69.2500    84.3960     9.3530     6.7550    11.9240    24.3320     2.1980   -22.8890 
   69.3750    84.0360     9.8570     6.8440    13.3380    24.3400     2.2350   -22.7290 
   69.5000    84.7910    10.1340     6.9470    12.0510    24.3440     2.2510   -22.4590 
   69.6250    85.4220    10.1010     6.9600    10.6300    24.3450     2.2340   -22.1340 
   69.7500    86.1310    10.0140     6.9560     9.8990    24.3450     2.2160   -21.8160 
   69.8750    87.1440    10.0160     7.0000     9.7450    24.3410     2.2090   -21.5290 
   70.0000    87.6030    10.1220     7.1060     9.6890    24.3380     2.2040   -21.2880 
   70.1250    88.0000    10.2630     7.2470     9.6870    24.3380     2.1950   -21.0990 
   70.2500    89.7980    10.3520     7.3640     9.6530    24.3480     2.1850   -20.9380 
   70.3750    91.7170    10.3480     7.4180     9.6200    24.3820     2.1810   -20.7670 
   70.5000    91.3830    10.2520     7.3950     9.5930    24.4430     2.1830   -20.5570 
   70.6250    91.0200    10.0500     7.2860     9.7250    24.5110     2.1900   -20.2640 
   70.7500    91.9380     9.7340     7.0960     9.8940    24.5790     2.2020   -19.9040 
   70.8750    93.1500     9.2960     6.8200     9.6120    24.6910     2.2170   -19.5300 
   71.0000    96.2520     8.7920     6.4790     8.6260    24.8290     2.2370   -19.2150 
   71.1250   103.5000     8.4090     6.1710     7.4970    24.8830     2.2560   -19.0450 
   71.2500   109.3660     8.3440     6.0280     7.3010    24.8610     2.2650   -19.0410 
   71.3750   107.1260     8.7260     6.1570     7.6830    24.7450     2.2650   -19.2150 
   71.5000    98.5240     9.5590     6.5980     8.4660    24.5330     2.2620   -19.5270 
   71.6250    91.6620    10.6650     7.3090     9.4770    24.2620     2.2540   -19.9750 
   71.7500    87.1650    11.6270     8.0300    10.5750    24.0390     2.2330   -20.5100 
   71.8750    81.7960    12.1400     8.5350    11.4770    23.9060     2.2060   -21.0620 
   72.0000    77.8640    12.1180     8.6990    12.0340    23.8570     2.1920   -21.5720 
   72.1250    80.1600    11.7160     8.5480    11.8880    23.8540     2.2010   -21.9780 
   72.2500    84.3080    11.3160     8.3150    11.3810    23.8680     2.2160   -22.2770 
   72.3750    85.8210    11.1480     8.1580    11.0470    23.9160     2.2260   -22.4760 
   72.5000    85.4350    11.3470     8.1920    11.1360    24.0340     2.2270   -22.6410 
   72.6250    86.9560    12.0070     8.5180    13.5300    24.2760     2.2210   -22.8430 
   72.7500    88.9140    12.8950     9.0540    21.9210    24.5010     2.2140   -23.0960 
   72.8750    86.7620    13.6210     9.5950    33.9940    24.6000     2.2040   -23.4090 
   73.0000    79.9550    13.7180     9.8200    31.0630    24.6170     2.1880   -23.7770 
   73.1250    73.0960    12.9080     9.4510    16.9190    24.6170     2.1650   -24.2060 
   73.2500    71.0700    11.7380     8.7550    12.5820    24.6170     2.1480   -24.6680 
   73.3750    71.2580    10.7350     8.0640    11.6410    24.6170     2.1440   -25.1450 
   73.5000    69.6810    10.2030     7.6070    11.7050    24.6300     2.1490   -25.6030 
   73.6250    68.2140    10.1850     7.4750    11.6050    24.6710     2.1560   -26.0180 
   73.7500    69.4080    10.3600     7.5030    11.4480    24.7250     2.1620   -26.3840 
   73.8750    72.2150    10.5220     7.5600    11.1350    24.7540     2.1670   -26.7050 
   74.0000    73.3780    10.5980     7.5810    10.7290    24.7610     2.1690   -26.9890 
   74.1250    73.2110    10.6230     7.5800    10.5940    24.7610     2.1660   -27.2130 
   74.2500    74.6990    10.6660     7.6000    10.5780    24.7610     2.1590   -27.3920 
   74.3750    77.9370    10.7510     7.6580    10.6100    24.7610     2.1540   -27.5210 
   74.5000    79.2940    10.8660     7.7460    10.7030    24.7600     2.1540   -27.5940 
   74.6250    75.8700    10.9690     7.8320    10.9420    24.7590     2.1570   -27.5850 
   74.7500    71.9230    11.0340     7.8930    11.1020    24.7580     2.1570   -27.5120 
   74.8750    71.0820    11.0700     7.9320    11.3420    24.7600     2.1510   -27.3980 
   75.0000    73.1090    11.0990     7.9670    11.8320    24.7610     2.1350   -27.2470 
   75.1250    74.8090    11.1070     7.9920    11.7600    24.7590     2.1130   -27.0650 
   75.2500    75.3980    11.0540     7.9760    11.3960    24.7470     2.1010   -26.8840 
   75.3750    76.3430    10.9220     7.8970    11.0980    24.7180     2.1070   -26.7390 
