~V
VERS. 2.00: Ver 2.00
~W
STRT.M 59.0000:
STOP.M 291.0000:
STEP.M 0.1250:
NULL. -999.2500:
UWI. F11077:
~C
DEPT.M :
DEN.GM/CC :
GR.API :
RML.OHMM :
RI. :
RXO.OHMM :
CALI.CM :
SP.MV :
~A
# ...
  194.0000     2.3990    97.5440    13.0720    11.7110    11.6570    26.0940   -17.2390 
  194.1250     2.3960    97.0510    13.2110    11.8890    11.7300    26.0040   -17.6420 
  194.2500     2.3940    95.6640    13.3420    12.0580    11.9350    25.8410   -17.9960 
  194.3750     2.3940    95.4970    13.4410    12.1900    12.1660    25.6490   -18.2830 
  194.5000     2.3970    97.5090    13.4990    12.2730    12.3280    25.5240   -18.5160 
  194.6250     2.4050    98.4340    13.5270    12.3200    12.3310    25.4530   -18.7340 
  194.7500     2.4150    95.9050    13.5530    12.3580    12.1590    25.4120   -18.9330 
  194.8750     2.4230    94.0190    13.6170    12.4260    11.9650    25.3890   -19.1360 
  195.0000     2.4280    96.2060    13.7570    12.5570    12.1120    25.3790   -19.3740 
  195.1250     2.4280    99.2410    13.9980    12.7790    12.7540    25.3790   -19.6360 
  195.2500     2.4250    99.7670    14.3720    13.1280    13.5070    25.3740   -19.9210 
  195.3750     2.4200    97.9990    14.9250    13.6480    13.8210    25.3550   -20.2140 
  195.5000     2.4150    95.2760    15.7090    14.3880    13.9850    25.3340   -20.5030 
  195.6250     2.4110    91.6850    16.7820    15.4100    14.8080    25.3170   -20.7560 
  195.7500     2.4030    88.4560    18.1050    16.7270    16.2740    25.2950   -20.9520 
  195.8750     2.3920    87.6220    19.4480    18.1860    18.3870    25.2710   -21.0530 
  196.0000     2.3780    88.8410    20.4630    19.4710    20.7620    25.2610   -21.1070 
  196.1250     2.3650    90.9710    20.9470    20.3260    22.6600    25.2590   -21.1530 
  196.2500     2.3540    92.8360    20.9660    20.6970    23.2990    25.2570   -21.1750 
  196.3750     2.3460    93.7020    20.8350    20.7920    21.7940    25.2420   -21.1850 
  196.5000     2.3400    93.1610    20.8330    20.8750    18.8590    25.1980   -21.2130 
  196.6250     2.3360    90.9810    20.9180    20.9660    19.1690    25.1320   -21.2580 
  196.7500     2.3370    89.2520    20.7550    20.8210    22.0520    25.0740   -21.3240 
  196.8750     2.3450    89.7630    19.9840    20.1370    23.1470    25.0240   -21.4320 
  197.0000     2.3590    90.8800    18.6020    18.8900    20.7500    24.9650   -21.5330 
  197.1250     2.3750    90.5550    16.9260    17.3480    16.1480    24.9080   -21.6040 
  197.2500     2.3880    90.1430    15.5150    15.9920    13.4620    24.8730   -21.6920 
  197.3750     2.3950    90.8880    14.9050    15.2830    13.1190    24.8990   -21.8090 
  197.5000     2.3960    91.3430    15.3720    15.4860    13.7880    25.0470   -21.9200 
  197.6250     2.3890    91.2910    17.0960    16.8190    15.2420    25.3470   -22.0510 
  197.7500     2.3730    92.6240    20.2800    19.5820    17.6860    25.6940   -22.2170 
  197.8750     2.3490    93.9290    24.9380    23.9330    22.2550    25.9540   -22.4300 
  198.0000     2.3230    90.8740    30.6020    29.5260    30.4030    26.1180   -22.6860 
  198.1250     2.3030    83.8240    36.5670    35.6990    40.3080    26.2650   -22.9730 
  198.2500     2.2920    78.3500    41.7800    41.3390    47.3130    26.4210   -23.2590 
  198.3750     2.2870    79.0090    45.5330    45.5790    49.2830    26.5190   -23.5200 
  198.5000     2.2830    83.2290    48.1990    48.6010    47.4630    26.5700   -23.7540 
  198.6250     2.2780    85.3730    50.6910    51.2030    46.0630    26.5910   -23.9550 
  198.7500     2.2700    84.1440    54.0180    54.3780    47.9640    26.5720   -24.0920 
  198.8750     2.2640    82.0840    58.5900    58.6520    54.8150    26.5270   -24.1440 
  199.0000     2.2630    79.6580    63.8550    63.6700    66.4620    26.4590   -24.1520 
  199.1250     2.2660    76.2760    68.8460    68.6120    76.9940    26.4330   -24.1100 
  199.2500     2.2710    74.5180    72.4010    72.3990    79.4860    26.4290   -24.0500 
  199.3750     2.2760    76.1060    73.9750    74.4340    76.6600    26.4240   -23.9960 
  199.5000     2.2790    77.4390    74.1290    75.1100    73.9520    26.4070   -23.9490 
  199.6250     2.2820    76.5650    73.6450    75.1030    71.4370    26.3800   -23.9090 
  199.7500     2.2840    76.3940    73.1500    75.0290    68.6240    26.3430   -23.8880 
  199.8750     2.2830    78.2810    72.7010    75.0120    67.6210    26.2820   -23.8930 
  200.0000     2.2750    79.0770    71.7290    74.5480    69.4740    26.2160   -23.9160 
  200.1250     2.2610    77.1610    69.5580    72.9430    71.7410    26.1700   -23.9750 
  200.2500     2.2450    75.5670    65.8900    69.7790    68.8690    26.1190   -24.0690 
  200.3750     2.2320    76.4670    61.2170    65.4150    62.9110    26.0510   -24.1630 
  200.5000     2.2250    77.3480    56.5880    60.8670    54.7810    25.9800   -24.2610 
  200.6250     2.2250    76.8980    52.7770    56.9610    45.8940    25.8980   -24.3640 
  200.7500     2.2300    76.4350    50.2940    54.3140    43.0740    25.8100   -24.4720 
  200.8750     2.2370    76.6170    49.1520    53.0440    46.9760    25.7460   -24.5720 
  201.0000     2.2460    76.4790    48.8740    52.7230    48.4600    25.7170   -24.6720 
  201.1250     2.2540    76.2020    49.0630    52.9520    46.9970    25.7040   -24.7730 
  201.2500     2.2600    76.4830    49.3680    53.3480    46.1110    25.6930   -24.8350 
  201.3750     2.2640    76.9140    49.5850    53.6490    46.7430    25.6800   -24.8330 
  201.5000     2.2650    76.4980    49.7340    53.8320    47.1230    25.6690   -24.7840 
  201.6250     2.2650    75.4150    49.9810    54.0540    46.0640    25.6610   -24.6840 
  201.7500     2.2640    74.9670    50.5380    54.5440    44.0130    25.6740   -24.5750 
  201.8750     2.2640    75.7250    51.5300    55.4560    43.0160    25.7090   -24.4740 
  202.0000     2.2640    76.3620    52.9260    56.7800    43.2650    25.7420   -24.3330 
  202.1250     2.2650    75.8220    54.6190    58.4180    46.9020    25.7570   -24.1830 
  202.2500     2.2630    74.1400    56.3710    60.1250    52.7760    25.7890   -24.0440 
  202.3750     2.2600    71.7910    57.8980    61.6040    55.7490    25.8820   -23.9240 
  202.5000     2.2590    69.7020    59.0210    62.6580    55.7470    26.0120   -23.8530 
  202.6250     2.2590    69.0920    59.7000    63.2380    55.9520    26.1590   -23.8210 
  202.7500     2.2610    70.5380    60.0030    63.4140    58.2410    26.3290   -23.7550 
  202.8750     2.2650    72.9610    60.0740    63.3440    61.9510    26.5010   -23.6410 
  203.0000     2.2700    74.4920    60.0590    63.2020    63.1570    26.6340   -23.5340 
  203.1250     2.2800    74.3870    60.0490    63.0930    59.5430    26.7360   -23.4050 
  203.2500     2.2920    72.7050    60.1620    63.1380    52.4050    26.7240   -23.2740 
  203.3750     2.3010    70.6610    60.5050    63.4420    46.2800    26.6080   -23.1660 
  203.5000     2.3030    69.7330    61.0850    64.0080    42.9560    26.5670   -23.0490 
  203.6250     2.2960    69.6930    61.7900    64.7410    46.0110    26.5600   -22.9380 
  203.7500     2.2820    69.5770    62.2810    65.3260    55.3070    26.5620   -22.8610 
  203.8750     2.2700    69.3870    62.1380    65.3430    63.2930    26.5620   -22.8240 
  204.0000     2.2620    70.5940    61.2360    64.6170    65.6120    26.5660   -22.8060 
  204.1250     2.2610    73.5830    59.7320    63.2650    64.0930    26.5840   -22.7990 
  204.2500     2.2630    76.4460    57.9390    61.5720    60.0180    26.6450   -22.7630 
  204.3750     2.2650    77.2960    56.1480    59.8350    54.2740    26.8180   -22.6980 
  204.5000     2.2640    75.8770    54.4800    58.2100    51.9610    27.1590   -22.6240 
  204.6250     2.2600    73.0920    52.8800    56.6680    54.0740    27.4930   -22.5710 
  204.7500     2.2580    71.9370    51.2820    55.1530    55.6550    27.2320   -22.5100 
  204.8750     2.2580    75.5480    49.7180    53.6900    51.9600    26.3930   -22.4250 
  205.0000     2.2610    81.3990    48.2240    52.3120    49.2610    25.8190   -22.3200 
  205.1250     2.2670    83.7510    46.7310    50.9440    47.7850    25.5420   -22.1940 
