~V
VERS. 2.00: Ver 2.00
~W
STRT.M 62.0000:
STOP.M 273.0000:
STEP.M 0.1250:
NULL. -999.2500:
UWI. F11050:
~C
DEPT.M :
SP.MV :
GR.API :
RML.OHMM :
RI. :
RXO.OHMM :
CALI.CM :
DEN.GM/CC :
~A
# ...
  253.2500    -6.1730    60.3800     6.8700     4.7870     5.5140    25.1800     2.3950 
  253.3750    -6.1910    62.9260     6.8400     4.7640     5.4230    25.0350     2.3940 
  253.5000    -6.1930    63.6250     6.8330     4.7540     5.3000    25.1990     2.3900 
  253.6250    -6.2290    60.7360     6.8420     4.7500     5.2930    25.3770     2.3870 
  253.7500    -6.2500    57.7360     6.8470     4.7450     5.3960    25.3110     2.3820 
  253.8750    -6.2750    57.9210     6.8400     4.7400     5.4660    25.1970     2.3770 
  254.0000    -6.3120    61.6570     6.8290     4.7360     5.4780    25.1030     2.3710 
  254.1250    -6.3450    64.4020     6.8300     4.7350     5.4050    25.1600     2.3660 
  254.2500    -6.3870    63.6830     6.8450     4.7330     5.3590    25.1640     2.3610 
  254.3750    -6.4200    59.9590     6.8670     4.7280     5.3240    25.1600     2.3560 
  254.5000    -6.4310    55.5790     6.8860     4.7250     5.3110    25.2300     2.3520 
  254.6250    -6.4330    54.5490     6.8930     4.7290     5.3090    25.3990     2.3530 
  254.7500    -6.4630    55.5280     6.8980     4.7440     5.3000    25.4320     2.3590 
  254.8750    -6.5070    56.5680     6.9270     4.7710     5.2950    25.3840     2.3670 
  255.0000    -6.5750    58.5550     6.9970     4.8090     5.4170    25.2240     2.3780 
  255.1250    -6.6320    61.3620     7.1110     4.8610     5.5160    25.0630     2.3930 
  255.2500    -6.6950    60.6890     7.2360     4.9190     5.5510    24.9920     2.4040 
  255.3750    -6.7400    56.8180     7.3480     4.9800     5.4950    24.9390     2.4110 
  255.5000    -6.8340    54.0300     7.4310     5.0400     5.4540    24.9020     2.4120 
  255.6250    -6.9250    53.9270     7.4850     5.1010     5.3880    24.9590     2.4140 
  255.7500    -7.0120    54.5750     7.5350     5.1620     5.3880    25.1290     2.4190 
  255.8750    -7.0770    55.6900     7.5980     5.2180     5.4560    25.1550     2.4270 
  256.0000    -7.1060    57.9660     7.6820     5.2650     5.5950    24.9590     2.4360 
  256.1250    -7.1340    60.4500     7.7850     5.3100     5.9020    24.7410     2.4380 
  256.2500    -7.1250    61.6660     7.8930     5.3620     6.2960    24.6850     2.4340 
  256.3750    -7.1260    61.4600     7.9930     5.4250     6.6220    24.7730     2.4300 
  256.5000    -7.1020    59.5890     8.0740     5.4920     6.4150    24.8290     2.4270 
  256.6250    -7.0650    57.6470     8.1240     5.5450     6.1200    24.8370     2.4250 
  256.7500    -7.0190    58.6410     8.1370     5.5750     6.0590    24.8400     2.4210 
  256.8750    -6.9770    62.1600     8.1130     5.5860     6.1310    24.8390     2.4160 
  257.0000    -6.9470    64.5530     8.0610     5.5790     6.2690    24.8630     2.4120 
  257.1250    -6.9080    62.2640     7.9970     5.5580     6.2990    24.8530     2.4130 
  257.2500    -6.8720    61.0850     7.9470     5.5340     6.3290    24.8690     2.4160 
  257.3750    -6.8180    63.7540     7.9260     5.5220     6.7770    24.8670     2.4160 
  257.5000    -6.7360    66.3660     7.9460     5.5390     7.7440    24.9360     2.4150 
  257.6250    -6.6620    65.0920     8.0220     5.5970     9.0920    25.0650     2.4200 
  257.7500    -6.5850    63.5960     8.1370     5.6860     8.9670    25.1120     2.4290 
  257.8750    -6.4990    63.6940     8.2680     5.7860     8.5750    25.1510     2.4380 
  258.0000    -6.4220    63.1010     8.3820     5.8770     8.6420    25.2610     2.4430 
  258.1250    -6.3080    59.8830     8.4450     5.9380     8.9320    25.3390     2.4400 
  258.2500    -6.2190    57.9650     8.4510     5.9650     9.1400    25.3090     2.4310 
  258.3750    -6.1430    58.5690     8.4010     5.9560     9.0220    25.2410     2.4240 
  258.5000    -6.0950    59.8020     8.3070     5.9200     8.3450    25.1870     2.4210 
  258.6250    -6.0470    58.9220     8.1930     5.8750     7.7250    25.2200     2.4190 
  258.7500    -6.0020    58.3950     8.0980     5.8400     7.3220    25.2410     2.4160 
  258.8750    -5.9660    59.1520     8.0460     5.8200     7.1340    25.2350     2.4130 
  259.0000    -5.9270    59.3540     8.0370     5.8150     7.0010    25.1670     2.4130 
  259.1250    -5.9270    58.6680     8.0590     5.8210     6.8110    25.0290     2.4130 
  259.2500    -5.9170    58.9430     8.0910     5.8320     6.7510    24.9850     2.4140 
  259.3750    -5.9110    60.3120     8.1270     5.8460     6.7800    24.9590     2.4160 
  259.5000    -5.9060    60.8270     8.1610     5.8650     6.8050    24.9200     2.4190 
  259.6250    -5.9010    58.7480     8.1780     5.8910     6.5460    24.8630     2.4220 
  259.7500    -5.8890    55.9630     8.1800     5.9210     6.2420    24.8320     2.4220 
  259.8750    -5.8690    55.2460     8.1740     5.9530     6.1250    24.8770     2.4200 
  260.0000    -5.8420    56.4720     8.1730     5.9850     6.0490    24.9220     2.4180 
  260.1250    -5.8320    56.7950     8.1790     6.0050     5.9330    24.8660     2.4210 
  260.2500    -5.8220    56.4160     8.1860     6.0160     5.7850    24.7190     2.4280 
  260.3750    -5.8170    56.2410     8.2010     6.0330     5.6850    24.5500     2.4370 
  260.5000    -5.8080    56.1280     8.2470     6.0780     5.7200    24.4630     2.4480 
  260.6250    -5.7970    56.3540     8.3710     6.1860     5.7890    24.4270     2.4620 
  260.7500    -5.7730    56.9140     8.5740     6.3600     5.8640    24.5580     2.4720 
  260.8750    -5.7820    55.5680     8.8300     6.5770     6.0940    24.6960     2.4790 
  261.0000    -5.7620    53.1330     9.0730     6.7880     6.3910    24.8630     2.4840 
  261.1250    -5.7540    54.4430     9.1750     6.9030     6.5370    25.0890     2.4860 
  261.2500    -5.7460    57.8260     9.0830     6.8830     6.5730    25.1450     2.4820 
  261.3750    -5.7690    60.0050     8.8180     6.7360     6.5490    25.2050     2.4630 
  261.5000    -5.7960    60.3370     8.4630     6.5080     6.3690    25.5440     2.4270 
  261.6250    -5.7780    59.9630     8.1360     6.2700     6.1710    25.9000     2.3870 
  261.7500    -5.8130    59.1350     7.9090     6.0810     6.1230    25.8220     2.3580 
  261.8750    -5.7970    57.6170     7.7920     5.9610     6.4850    25.3730     2.3400 
  262.0000    -5.8050    56.9860     7.7660     5.9110     7.4130    25.0200     2.3350 
  262.1250    -5.8290    59.0320     7.8090     5.9240     7.0680    25.0390     2.3550 
  262.2500    -5.8250    61.7380     7.8790     5.9650     6.4960    25.0920     2.3930 
  262.3750    -5.7940    61.6790     7.9440     6.0150     6.2600    25.0080     2.4310 
  262.5000    -5.7960    59.2480     7.9800     6.0540     6.6970    24.8110     2.4510 
  262.6250    -5.7880    57.6440     7.9850     6.0670     7.4790    24.7470     2.4520 
  262.7500    -5.7300    57.7890     7.9690     6.0530     7.8010    24.8650     2.4490 
  262.8750    -5.7050    57.9390     7.9360     6.0190     7.0560    25.0110     2.4480 
  263.0000    -5.7380    57.3680     7.8930     5.9810     6.1960    25.0310     2.4490 
  263.1250    -5.7620    57.3680     7.8660     5.9750     6.0160    25.0260     2.4490 
  263.2500    -5.7760    57.3680     7.8780     6.0200     6.3140    25.0680     2.4460 
  263.3750    -5.7630    57.3680     7.9450     6.1180     6.9840    25.0300     2.4400 
  263.5000    -5.7230    57.3680     8.0730     6.2590     8.2100    24.9180     2.4350 
  263.6250    -5.7420    57.3680     8.2440     6.4250     9.9440    24.8340     2.4350 
  263.7500    -5.8000    57.3680     8.4110     6.5830     9.6160    24.8090     2.4390 
  263.8750    -5.8640    57.3680     8.5460     6.7160     8.2500    24.7850     2.4440 
  264.0000    -5.8540    57.3680     8.6410     6.8170     7.1190    24.8430     2.4470 
  264.1250    -5.8270    57.3680     8.6880     6.8820     6.5590    24.9860     2.4500 
  264.2500    -5.8890    57.3680     8.6940     6.9120     6.4790    24.9670     2.4550 
  264.3750    -6.0060    57.3680     8.6510     6.8990     6.6500    24.8020     2.4570 
