~V
VERS. 2.00: Ver 2.00
~W
STRT.M 49.0000:
STOP.M 284.0000:
STEP.M 0.1250:
NULL. -999.2500:
UWI. F11034:
~C
DEPT.M :
GR.API :
RML.OHMM :
RI. :
RXO.OHMM :
CALI.CM :
DEN.GM/CC :
SP.MV :
~A
# ...
  217.7500    57.2820   103.7870    99.7500    55.3280    24.1520     2.1840   -17.2480 
  217.8750    54.3120   103.3760    99.2630    57.5540    24.2050     2.1800   -17.1970 
  218.0000    51.7690   101.7590    97.7160    56.0110    24.0570     2.1960   -17.1530 
  218.1250    51.8060    98.7670    95.0020    51.9460    23.6730     2.2220   -17.0810 
  218.2500    51.9790    94.5930    91.2710    45.4070    23.1770     2.2450   -16.9760 
  218.3750    51.3160    89.9300    87.0830    38.0780    22.6630     2.2490   -16.8570 
  218.5000    51.3290    85.9600    83.4400    31.4750    21.9580     2.2320   -16.7640 
  218.6250    52.6280    83.4170    81.0350    26.8560    21.1570     2.2090   -16.7070 
  218.7500    55.1250    82.4320    80.0670    24.0550    20.4590     2.1910   -16.6660 
  218.8750    57.2760    82.6210    80.2780    23.5090    20.0550     2.1830   -16.6040 
  219.0000    57.4190    83.2080    81.0420    25.4030    19.9290     2.1830   -16.5290 
  219.1250    56.2990    83.3560    81.5620    28.6080    20.0310     2.1870   -16.4560 
  219.2500    56.4650    82.6150    81.3510    32.2080    20.4660     2.1950   -16.4190 
  219.3750    58.7850    80.9230    80.2700    35.7560    21.2440     2.2050   -16.4350 
  219.5000    60.8730    78.4680    78.4220    39.1990    22.1270     2.2130   -16.4720 
  219.6250    61.0410    75.6890    76.2070    43.5440    22.9590     2.2180   -16.4980 
  219.7500    59.1240    72.8590    73.8980    49.4520    23.6660     2.2180   -16.5020 
  219.8750    56.4650    70.2100    71.6180    55.5980    24.0800     2.2160   -16.4940 
  220.0000    56.8920    67.6490    69.4090    60.7810    24.1580     2.2170   -16.5120 
  220.1250    59.6260    65.3520    67.2500    64.6240    24.1400     2.2230   -16.5450 
  220.2500    62.1300    63.4110    65.1360    66.6670    24.1830     2.2310   -16.5500 
  220.3750    62.5190    61.2350    63.1160    66.8110    24.2580     2.2380   -16.5040 
  220.5000    60.7170    59.9240    61.3480    65.1570    24.2950     2.2390   -16.4430 
  220.6250    58.9430    58.8140    59.9390    61.4880    24.3460     2.2370   -16.3980 
  220.7500    57.2530    58.1320    58.9100    56.4960    24.4070     2.2420   -16.3740 
  220.8750    55.1190    57.5620    58.1620    52.5990    24.3720     2.2550   -16.3660 
  221.0000    52.6800    57.0650    57.4390    51.6760    24.2340     2.2720   -16.3370 
  221.1250    51.7550    56.3040    56.4990    53.3470    24.2370     2.2830   -16.2930 
  221.2500    52.8130    55.3500    55.3580    56.2100    24.3540     2.2790   -16.2770 
  221.3750    55.5150    54.6930    54.4010    58.1640    24.4450     2.2640   -16.2920 
  221.5000    59.7140    55.0430    54.6380    57.9580    24.4500     2.2470   -16.3380 
  221.6250    62.8350    57.8080    56.9950    57.4050    24.4420     2.2330   -16.3980 
  221.7500    62.6650    64.2310    62.2650    61.0940    24.5330     2.2240   -16.4640 
  221.8750    59.4330    74.2470    70.8880    71.7840    24.7650     2.2160   -16.5290 
  222.0000    56.9640    87.5920    82.9410    88.4490    24.9590     2.2110   -16.5900 
  222.1250    56.3810   102.5170    96.8120   104.9420    25.0730     2.2090   -16.6710 
  222.2500    56.1300   116.9570   110.4710   116.7290    25.1470     2.2110   -16.7740 
  222.3750    55.7390   128.8300   121.8230   124.1870    25.1980     2.2140   -16.8860 
  222.5000    55.6410   135.7690   128.5290   134.2850    25.2200     2.2150   -16.9710 
  222.6250    55.8760   137.5820   130.3400   142.9920    25.2290     2.2140   -17.0200 
  222.7500    56.1780   134.9890   127.8630   144.7900    25.2300     2.2160   -17.0530 
  222.8750    57.5520   129.5180   122.4380   139.3810    25.2360     2.2210   -17.1050 
  223.0000    58.9550   123.6320   116.2600   128.1700    25.2760     2.2300   -17.2020 
  223.1250    56.4160   119.8350   111.7700   118.4340    25.3160     2.2380   -17.3200 
  223.2500    51.5710   119.5560   110.5050   119.4150    25.3370     2.2410   -17.4120 
  223.3750    48.5550   122.8850   112.7980   133.9970    25.3630     2.2350   -17.4840 
  223.5000    48.2480   128.6590   117.8340   155.3050    25.4440     2.2240   -17.5620 
  223.6250    49.0050   134.3520   123.2870   162.6670    25.5630     2.2090   -17.6590 
  223.7500    51.0060   137.7520   127.0200   153.7480    25.5940     2.1960   -17.7850 
  223.8750    53.4950   137.4770   127.5600   145.6630    25.4450     2.1920   -17.9060 
  224.0000    53.5290   133.0850   124.1580   149.3690    25.2020     2.1980   -17.9800 
  224.1250    52.2040   126.4040   118.2390   163.2520    25.1100     2.2120   -18.0150 
  224.2500    51.3220   119.2080   111.4420   178.6660    25.1360     2.2270   -18.0540 
  224.3750    50.5050   112.5260   105.0610   178.2130    25.1830     2.2360   -18.1260 
  224.5000    49.0730   107.2830   100.1870   148.3090    25.2150     2.2350   -18.2140 
  224.6250    49.0840   103.3190    97.0300   122.9540    25.2590     2.2300   -18.2870 
  224.7500    50.9060   100.3620    95.3800   112.2580    25.3100     2.2270   -18.3130 
  224.8750    52.5560    99.2470    94.7620   110.8290    25.3640     2.2250   -18.3110 
  225.0000    52.2670    99.1200    94.5520   115.9920    25.4050     2.2250   -18.3160 
  225.1250    53.1050    99.2320    94.1830   121.1440    25.4350     2.2230   -18.3240 
  225.2500    57.2740    98.9870    93.4700   121.3490    25.4500     2.2180   -18.3340 
  225.3750    61.9480    98.5250    92.5740   119.2980    25.4530     2.2140   -18.3220 
  225.5000    61.3790    98.3180    91.8780   119.8090    25.4550     2.2130   -18.2620 
  225.6250    57.7290    98.5910    91.5950   123.9030    25.4530     2.2150   -18.1840 
  225.7500    56.8930    99.2220    91.6530   131.2080    25.4340     2.2210   -18.1130 
  225.8750    60.8930    99.7690    91.7030   136.8070    25.3790     2.2270   -18.0810 
  226.0000    64.6030    99.4010    91.0570   136.2080    25.3050     2.2320   -18.0940 
  226.1250    63.6520    97.6080    89.2440   127.9930    25.2580     2.2350   -18.1040 
  226.2500    59.9180    94.2660    86.1090   115.5150    25.2290     2.2370   -18.0920 
  226.3750    57.0830    89.7030    81.8780   102.4790    25.2010     2.2360   -18.0930 
  226.5000    57.0380    84.6330    77.1200    89.5100    25.1850     2.2340   -18.1360 
  226.6250    59.1990    79.8820    72.5780    76.9290    25.2160     2.2320   -18.2050 
  226.7500    61.6020    75.9370    68.7270    66.9060    25.2650     2.2300   -18.2730 
  226.8750    63.0560    72.9770    65.7810    61.2910    25.2910     2.2280   -18.2980 
  227.0000    62.8810    71.0800    63.8610    60.4230    25.2810     2.2260   -18.2790 
  227.1250    61.5620    69.9670    62.7290    63.0370    25.2410     2.2220   -18.2720 
  227.2500    59.3100    69.3650    62.1280    67.9360    25.2000     2.2180   -18.2980 
  227.3750    56.9910    69.0090    61.7980    73.2850    25.1790     2.2140   -18.3240 
  227.5000    56.2870    68.6400    61.4700    75.5350    25.1750     2.2090   -18.3280 
  227.6250    56.3150    68.0850    60.9690    72.1340    25.1760     2.2030   -18.3100 
  227.7500    57.0110    67.2520    60.2200    63.9160    25.1780     2.1970   -18.2740 
  227.8750    58.5570    66.0570    59.1750    55.7890    25.1760     2.1940   -18.2180 
  228.0000    60.0160    64.3590    57.7520    50.8180    25.1750     2.1960   -18.1410 
  228.1250    59.1550    62.1850    55.9980    48.5840    25.1940     2.2030   -18.0570 
  228.2500    57.2570    59.6240    54.0010    46.3530    25.2460     2.2120   -17.9140 
  228.3750    56.1320    56.8410    51.9020    40.5100    25.3080     2.2200   -17.6950 
  228.5000    55.9100    54.1310    49.9390    34.9100    25.3470     2.2230   -17.3940 
  228.6250    56.8850    51.7770    48.3210    32.5200    25.3600     2.2220   -17.0360 
  228.7500    59.6140    49.9340    47.1590    33.1830    25.3200     2.2190   -16.6480 
  228.8750    63.0250    48.5690    46.4180    35.4480    25.2270     2.2160   -16.2430 
