~V
VERS. 2.00: Ver 2.00
~W
STRT.M 52.0000:
STOP.M 235.0000:
STEP.M 0.1250:
NULL. -999.2500:
UWI. F11014:
~C
DEPT.M :
DEN.GM/CC :
GR.API :
RML.OHMM :
RI. :
RXO.OHMM :
CALI.CM :
SP.MV :
~A
# ...
  130.7500     2.2090    87.4010     8.2490     6.9560     7.5320    24.6990    -4.8930 
  130.8750     2.2280    88.6540     8.2190     6.9480     7.5220    24.6620    -4.7970 
  131.0000     2.2360    89.4100     8.2820     7.0050     7.6150    24.6450    -4.6750 
  131.1250     2.2360    88.7410     8.3190     7.0570     7.6570    24.6250    -4.5120 
  131.2500     2.2340    87.4130     8.1890     6.9980     7.6070    24.6180    -4.3210 
  131.3750     2.2340    85.4720     7.7940     6.7280     7.3720    24.6120    -4.1210 
  131.5000     2.2390    83.8420     7.2040     6.2770     6.8840    24.5720    -3.9200 
  131.6250     2.2530    84.7310     6.5880     5.7640     6.1670    24.4820    -3.7220 
  131.7500     2.2750    88.4390     6.0980     5.3130     5.6180    24.3550    -3.5250 
  131.8750     2.2980    91.5250     5.8390     5.0150     5.4620    24.2050    -3.3140 
  132.0000     2.3120    91.7740     5.7980     4.8780     5.5820    24.0840    -3.1230 
  132.1250     2.3140    91.0830     5.8890     4.8570     5.8720    24.0540    -2.9940 
  132.2500     2.3070    90.6530     6.0130     4.9010     6.2230    24.1020    -2.8990 
  132.3750     2.3030    89.8090     6.0780     4.9520     6.3640    24.1460    -2.7750 
  132.5000     2.3040    88.1540     6.0990     5.0020     6.3810    24.1550    -2.6500 
  132.6250     2.3120    85.2980     6.2250     5.1240     6.5680    24.1560    -2.6030 
  132.7500     2.3250    81.2020     6.6780     5.4530     6.7860    24.1700    -2.6180 
  132.8750     2.3440    77.1010     7.7710     6.2240     7.3930    24.1830    -2.6010 
  133.0000     2.3720    73.6520     9.6430     7.5950     9.2830    24.1880    -2.5250 
  133.1250     2.4130    69.6050    12.1850     9.5880    14.1350    24.1990    -2.4580 
  133.2500     2.4630    64.7440    15.0100    12.0180    20.4180    24.2240    -2.4300 
  133.3750     2.5020    62.1680    17.2960    14.2810    23.5780    24.2680    -2.4080 
  133.5000     2.5150    62.2850    18.4040    15.7070    22.3090    24.3300    -2.3730 
  133.6250     2.5050    61.2760    18.3600    16.0980    19.0270    24.4160    -2.3410 
  133.7500     2.4860    57.0000    17.7310    15.8020    15.9160    24.5050    -2.3270 
  133.8750     2.4740    52.8110    17.2690    15.4260    15.1120    24.5620    -2.3240 
  134.0000     2.4770    52.5440    17.3520    15.3840    16.7760    24.5940    -2.3200 
  134.1250     2.4920    55.1510    17.9210    15.7450    18.6990    24.6240    -2.3120 
  134.2500     2.5060    56.9000    18.7100    16.3660    19.6220    24.6410    -2.3060 
  134.3750     2.5110    56.4600    19.3520    16.9680    19.7980    24.6320    -2.3030 
  134.5000     2.5150    56.3880    19.6120    17.3110    19.4330    24.6250    -2.2950 
  134.6250     2.5210    59.4090    19.4860    17.3230    18.6060    24.6480    -2.2860 
  134.7500     2.5210    63.9360    19.1100    17.0820    17.8530    24.6960    -2.2800 
  134.8750     2.5100    65.3310    18.6330    16.7090    17.4610    24.7360    -2.2800 
  135.0000     2.4970    62.5740    18.1240    16.2860    17.3020    24.7460    -2.2830 
  135.1250     2.4930    58.5670    17.5800    15.8300    17.4720    24.7420    -2.2890 
  135.2500     2.4980    56.4110    17.0000    15.3470    17.7700    24.7120    -2.3090 
  135.3750     2.5070    57.5710    16.4550    14.8880    16.9910    24.6750    -2.3330 
  135.5000     2.5140    60.5290    16.0680    14.5430    15.5420    24.6550    -2.3380 
  135.6250     2.5190    62.9380    15.9460    14.4020    14.8110    24.6540    -2.3160 
  135.7500     2.5230    63.3580    16.1440    14.5240    15.1720    24.6610    -2.3000 
  135.8750     2.5260    62.0330    16.6740    14.9480    16.2580    24.6590    -2.3350 
  136.0000     2.5240    60.3390    17.4180    15.6050    17.3720    24.6410    -2.3620 
  136.1250     2.5170    58.9050    18.1730    16.3390    17.7000    24.6340    -2.3200 
  136.2500     2.5040    57.5720    18.7350    16.9670    17.6850    24.6760    -2.2680 
  136.3750     2.4900    55.4180    18.9060    17.2700    18.9630    24.7190    -2.2520 
  136.5000     2.4830    52.9530    18.6540    17.1680    20.5790    24.7200    -2.2320 
  136.6250     2.4780    51.8950    18.1020    16.7360    20.1120    24.7230    -2.1950 
  136.7500     2.4680    51.9380    17.4240    16.1260    17.8790    24.7500    -2.1600 
  136.8750     2.4530    50.7730    16.7970    15.5180    16.5030    24.7440    -2.1180 
  137.0000     2.4450    48.1680    16.3160    15.0320    15.9690    24.7410    -2.0770 
  137.1250     2.4480    46.3870    16.0120    14.7140    15.6010    24.7540    -2.0640 
  137.2500     2.4590    47.0170    15.8920    14.5750    15.5780    24.7240    -2.0650 
  137.3750     2.4730    48.5600    15.9670    14.6220    15.4300    24.6780    -2.0520 
  137.5000     2.4880    49.9330    16.2320    14.8470    15.0380    24.6540    -2.0430 
  137.6250     2.5000    51.6450    16.6740    15.2370    15.1640    24.6480    -2.0480 
  137.7500     2.5060    53.6730    17.2470    15.7610    15.9680    24.6370    -2.0550 
  137.8750     2.5030    54.4840    17.8240    16.3170    17.0180    24.6290    -2.0740 
  138.0000     2.4970    54.2910    18.2510    16.7600    17.9770    24.6340    -2.1130 
  138.1250     2.4940    55.0510    18.4120    16.9770    18.4970    24.6410    -2.1220 
  138.2500     2.4970    56.4200    18.2880    16.9330    18.1200    24.6490    -2.1010 
  138.3750     2.5030    56.5270    17.9740    16.6920    17.0180    24.6740    -2.1260 
  138.5000     2.5060    55.7340    17.6630    16.4070    16.1120    24.7250    -2.1650 
  138.6250     2.5010    54.7350    17.5290    16.2250    16.1090    24.7770    -2.1590 
  138.7500     2.4910    52.8180    17.6620    16.2360    17.0220    24.8100    -2.1200 
  138.8750     2.4830    50.8520    18.0870    16.4990    17.8980    24.8220    -2.1010 
  139.0000     2.4800    50.7360    18.7150    16.9770    18.3790    24.8370    -2.1240 
  139.1250     2.4820    52.4060    19.4200    17.5780    18.8530    24.8830    -2.1600 
  139.2500     2.4880    54.1300    20.1110    18.2100    19.6140    24.9300    -2.1880 
  139.3750     2.4950    54.3140    20.7320    18.7930    20.5970    24.9270    -2.2140 
  139.5000     2.4990    52.9770    21.2770    19.2960    21.2430    24.8550    -2.2420 
  139.6250     2.5030    51.3820    21.7650    19.7380    21.0720    24.7530    -2.2740 
  139.7500     2.5130    50.1460    22.2020    20.1370    20.7840    24.6790    -2.3120 
  139.8750     2.5270    48.2480    22.5360    20.4700    21.1490    24.6460    -2.3490 
  140.0000     2.5390    46.4440    22.6890    20.6750    21.6830    24.6470    -2.3750 
  140.1250     2.5460    46.7060    22.5870    20.6770    21.9320    24.6560    -2.3900 
  140.2500     2.5530    48.4160    22.1870    20.4200    21.8840    24.6510    -2.3830 
  140.3750     2.5650    48.6460    21.4930    19.8850    21.3800    24.6380    -2.3720 
  140.5000     2.5770    46.5160    20.6350    19.1670    20.4160    24.6450    -2.3740 
  140.6250     2.5820    44.4610    19.7790    18.4070    19.2940    24.6980    -2.3670 
  140.7500     2.5790    44.9220    19.0400    17.7140    18.3060    24.7560    -2.3460 
  140.8750     2.5670    47.6360    18.4830    17.1730    17.7750    24.7770    -2.3210 
  141.0000     2.5480    49.9740    18.0990    16.8010    17.8140    24.7860    -2.3000 
  141.1250     2.5290    50.3200    17.8500    16.5740    17.7110    24.7930    -2.2890 
  141.2500     2.5140    49.5120    17.7160    16.4640    17.2770    24.7750    -2.2750 
  141.3750     2.5050    48.9030    17.7090    16.4640    16.9090    24.7820    -2.2540 
  141.5000     2.5020    49.4680    17.8200    16.5610    16.8940    24.7990    -2.2670 
  141.6250     2.5060    51.5300    18.0090    16.7270    17.4000    24.7940    -2.3060 
  141.7500     2.5170    54.1090    18.2120    16.9100    18.0000    24.7580    -2.3060 
  141.8750     2.5340    55.6250    18.3310    17.0180    18.4690    24.7360    -2.2500 
