~V
VERS. 2.00: Ver 2.00
~W
STRT.M 55.0000:
STOP.M 277.0000:
STEP.M 0.1250:
NULL. -999.2500:
UWI. F11037:
~C
DEPT.M :
SP.MV :
GR.API :
RML.OHMM :
RI. :
RXO.OHMM :
CALI.CM :
DEN.GM/CC :
~A
# ...
  100.0000   -22.4560    68.5060     9.4530     8.2380    10.1380    23.9940     2.2010 
  100.1250   -23.1110    65.7010     9.1280     8.0260    10.3740    23.9940     2.2030 
  100.2500   -23.5170    66.0660     8.6950     7.7120    10.3700    23.9940     2.2090 
  100.3750   -23.5030    72.2230     8.1990     7.2820     9.7990    23.9950     2.2170 
  100.5000   -23.2960    78.3580     7.6730     6.7640     8.5720    24.0100     2.2260 
  100.6250   -22.8370    78.0370     7.1730     6.2590     7.9210    24.0650     2.2330 
  100.7500   -22.2250    75.0960     6.7800     5.8700     7.5080    24.1530     2.2380 
  100.8750   -21.6280    74.0020     6.5440     5.6470     7.3050    24.2160     2.2390 
  101.0000   -20.9610    74.3380     6.4700     5.5910     6.9760    24.2240     2.2360 
  101.1250   -20.3340    75.9960     6.5350     5.6720     7.8170    24.2140     2.2270 
  101.2500   -19.9560    77.7410     6.6650     5.8060     8.1940    24.2280     2.2170 
  101.3750   -19.9330    76.0430     6.8310     5.9590     8.3620    24.2530     2.2050 
  101.5000   -20.1900    71.1080     7.0440     6.1440     8.9390    24.2650     2.1940 
  101.6250   -20.6040    68.8430     7.3640     6.4320     9.2360    24.2640     2.1800 
  101.7500   -21.0860    70.3100     7.8130     6.8570     9.4030    24.2680     2.1670 
  101.8750   -21.4940    69.9010     8.3730     7.4120     9.6140    24.2880     2.1660 
  102.0000   -21.6770    65.3760     8.9580     8.0170    10.3520    24.3330     2.1920 
  102.1250   -21.5470    62.2820     9.3770     8.4690    12.9530    24.3250     2.2490 
  102.2500   -21.1860    63.4320     9.4960     8.6010    15.9010    24.2160     2.3070 
  102.3750   -20.7400    68.1710     9.2740     8.3560    14.3110    24.0510     2.3390 
  102.5000   -20.2270    72.8620     8.7940     7.8390    10.5340    23.9210     2.3270 
  102.6250   -19.6510    74.0700     8.2290     7.2560     8.6030    23.8500     2.2790 
  102.7500   -19.0690    72.7830     7.7570     6.7900     8.1090    23.7610     2.2300 
  102.8750   -18.5060    71.4730     7.4500     6.5040     7.8900    23.6360     2.1980 
  103.0000   -18.1100    71.4700     7.3080     6.3890     7.6610    23.5090     2.1860 
  103.1250   -17.9700    72.3450     7.2890     6.3950     7.6880    23.4420     2.1890 
  103.2500   -18.0170    73.4790     7.2980     6.4200     7.7160    23.4350     2.1940 
  103.3750   -18.0310    73.8530     7.2880     6.4120     7.7140    23.4820     2.1990 
  103.5000   -17.9360    73.1060     7.2470     6.3630     7.7320    23.5640     2.2020 
  103.6250   -17.9270    74.0930     7.1990     6.3060     7.8230    23.6390     2.2030 
  103.7500   -17.9110    77.0690     7.1800     6.2820     7.7880    23.6710     2.2030 
  103.8750   -17.9090    78.3090     7.2060     6.3090     7.7380    23.6790     2.2020 
  104.0000   -18.0420    76.8000     7.2670     6.3780     7.9170    23.6790     2.2000 
  104.1250   -17.9750    75.3600     7.3210     6.4480     8.0150    23.6790     2.1970 
  104.2500   -17.7680    75.0000     7.3170     6.4550     8.1090    23.6770     2.1930 
  104.3750   -17.6870    74.1600     7.2260     6.3660     8.2750    23.6780     2.1900 
  104.5000   -17.6620    73.9300     7.0540     6.1910     8.3720    23.7010     2.1870 
  104.6250   -17.6530    74.8180     6.8390     5.9690     8.2600    23.7390     2.1830 
  104.7500   -17.6710    75.9630     6.6600     5.7760     8.1050    23.7400     2.1770 
  104.8750   -17.6480    77.9110     6.6030     5.6920     8.1860    23.6890     2.1680 
  105.0000   -17.5870    79.6250     6.7780     5.8210     8.2370    23.6120     2.1600 
  105.1250   -17.6930    76.8270     7.4210     6.3720     7.9820    23.5320     2.1710 
  105.2500   -17.8420    70.1680     8.6740     7.4930     8.1190    23.4630     2.2160 
  105.3750   -17.8800    65.3250    10.6920     9.3740     9.6130    23.4590     2.3030 
  105.5000   -17.8300    64.9550    13.4100    12.0670    13.3820    23.5890     2.4190 
  105.6250   -17.7350    66.0050    16.1730    15.0920    19.6080    23.9650     2.5310 
  105.7500   -17.6960    67.8700    17.8510    17.0450    24.1650    24.3580     2.6040 
  105.8750   -17.8210    70.4650    17.7320    16.8440    23.0510    24.5830     2.6220 
  106.0000   -18.1410    72.6930    15.9360    14.7160    16.8420    24.4840     2.5850 
  106.1250   -18.5790    72.7310    13.3280    11.9660    11.4880    24.1280     2.5030 
  106.2500   -19.1500    70.8320    11.0020     9.7010     9.4420    23.8120     2.4040 
  106.3750   -19.9260    67.7140     9.3340     8.1540     8.8530    23.6720     2.3090 
  106.5000   -20.8620    64.4610     8.3350     7.2600     8.6660    23.6220     2.2340 
  106.6250   -21.7300    64.0830     7.9110     6.9150     8.4790    23.5930     2.1930 
  106.7500   -22.5090    65.4650     7.7590     6.8270     8.2190    23.5420     2.1760 
  106.8750   -23.0910    66.9640     7.7100     6.8160     7.8920    23.4360     2.1720 
  107.0000   -23.3020    69.7150     7.6530     6.7650     7.6420    23.2750     2.1730 
  107.1250   -23.2240    74.1390     7.5520     6.6490     7.4000    23.2920     2.1770 
  107.2500   -22.8730    78.7350     7.4540     6.5390     7.0730    23.5310     2.1840 
  107.3750   -22.3950    81.2800     7.3980     6.4850     6.8240    23.7950     2.1930 
  107.5000   -21.9640    81.2530     7.3820     6.4900     6.8100    23.9060     2.1980 
  107.6250   -21.4320    77.5320     7.3370     6.4800     7.4700    23.9120     2.1880 
  107.7500   -20.7310    72.5570     7.1720     6.3460     7.7150    24.0050     2.1650 
  107.8750   -19.8160    71.2390     6.8360     6.0220     7.8290    24.1700     2.1410 
  108.0000   -18.6830    75.5670     6.3550     5.5270     7.5960    24.3470     2.1350 
  108.1250   -17.5690    83.4870     5.8420     4.9940     6.6390    24.4610     2.1650 
  108.2500   -16.6530    90.7090     5.4520     4.5960     5.6050    24.5340     2.2200 
  108.3750   -15.8550    95.8630     5.2860     4.4250     5.2520    24.5680     2.2810 
  108.5000   -15.1470    96.5340     5.3890     4.5260     5.4780    24.5750     2.3250 
  108.6250   -14.7610    90.1350     5.7880     4.9270     6.3070    24.4790     2.3340 
  108.7500   -14.6860    82.3750     6.3470     5.4990     7.1540    24.2760     2.3160 
  108.8750   -14.9240    77.4370     6.9340     6.1040     7.8620    24.0780     2.2800 
  109.0000   -15.5510    75.4110     7.4210     6.5890     8.3070    23.9940     2.2400 
  109.1250   -16.3950    73.7320     7.6980     6.8380     8.5990    23.9910     2.2030 
  109.2500   -17.1920    72.4530     7.8120     6.9200     8.8690    23.9920     2.1750 
  109.3750   -17.8580    72.0000     7.8190     6.9110     8.7500    23.9930     2.1550 
  109.5000   -18.3720    71.0550     7.7700     6.8630     8.4290    23.9930     2.1450 
  109.6250   -18.6460    69.2720     7.6890     6.7840     8.4310    23.9920     2.1410 
  109.7500   -18.6180    68.3110     7.5980     6.6900     8.5790    23.9950     2.1430 
  109.8750   -18.2950    69.5050     7.5070     6.6040     8.5090    24.0270     2.1550 
  110.0000   -17.6120    74.1240     7.4060     6.5220     8.2630    24.1240     2.1830 
  110.1250   -16.6050    83.2970     7.2480     6.3920     7.9250    24.3080     2.2370 
  110.2500   -15.5390    92.8940     6.9940     6.1570     7.7420    24.4980     2.3070 
  110.3750   -14.3700    98.9600     6.6410     5.8050     7.3290    24.6750     2.3750 
  110.5000   -13.1170   100.5270     6.2350     5.3880     6.7810    24.7770     2.4220 
  110.6250   -11.9470   100.6620     5.8750     5.0240     5.8190    24.7850     2.4330 
  110.7500   -10.9130    99.6990     5.6290     4.7880     5.4350    24.7730     2.4190 
  110.8750   -10.0990    96.6240     5.5130     4.6910     5.4840    24.7530     2.3900 
  111.0000    -9.5690    92.2690     5.4940     4.6930     5.5660    24.6900     2.3570 
  111.1250    -9.3030    90.1900     5.5000     4.7240     6.1550    24.5570     2.3290 
