~V
VERS. 2.00: Ver 2.00
~W
STRT.M 52.0000:
STOP.M 278.0000:
STEP.M 0.1250:
NULL. -999.2500:
UWI. F11035:
~C
DEPT.M :
DEN.GM/CC :
GR.API :
RML.OHMM :
RI. :
RXO.OHMM :
CALI.CM :
SP.MV :
~A
# ...
  119.5000     2.2390    86.1950     5.4190     4.2760     6.6520    23.9530   -13.1790 
  119.6250     2.2360    89.8560     5.0580     4.1120     5.6450    24.0960   -13.3800 
  119.7500     2.2240    89.2310     4.9710     4.1060     5.1530    24.1340   -13.5880 
  119.8750     2.2060    85.0250     5.3260     4.3230     5.7810    23.9950   -13.8790 
  120.0000     2.1930    79.7410     6.1390     4.7760     7.5000    23.6940   -14.3200 
  120.1250     2.1900    75.5200     7.2270     5.4240     9.4910    23.3780   -14.9000 
  120.2500     2.1900    74.2090     8.1770     6.0770     9.6510    23.1220   -15.5480 
  120.3750     2.1850    73.9880     8.6980     6.5720     9.0920    22.9150   -16.2520 
  120.5000     2.1710    72.1110     8.6840     6.8250     8.6370    22.7930   -17.0120 
  120.6250     2.1570    69.6150     8.2140     6.8550     8.3920    22.7170   -17.7220 
  120.7500     2.1500    70.1350     7.6240     6.8150     8.3370    22.6480   -18.3200 
  120.8750     2.1530    72.3530     7.1280     6.7840     8.5180    22.5560   -18.7030 
  121.0000     2.1610    72.5520     6.8360     6.7750     8.6930    22.4460   -18.8380 
  121.1250     2.1680    71.2890     6.7340     6.7020     8.5320    22.4860   -18.7500 
  121.2500     2.1740    72.6230     6.6110     6.4530     8.2150    22.7140   -18.5340 
  121.3750     2.1810    75.2360     6.2970     5.9720     8.0130    23.0090   -18.2100 
  121.5000     2.1920    77.4380     5.7290     5.3110     7.7850    23.3160   -17.7940 
  121.6250     2.1990    79.6620     5.0210     4.6410     6.8490    23.6320   -17.2620 
  121.7500     2.1980    83.0040     4.4450     4.1380     5.4440    23.9840   -16.6840 
  121.8750     2.1880    85.2050     4.1950     3.8890     4.5890    24.1300   -16.1380 
  122.0000     2.1750    84.0510     4.3470     3.9150     4.6280    23.9560   -15.6850 
  122.1250     2.1690    80.4320     4.8700     4.2100     5.7740    23.4940   -15.3710 
  122.2500     2.1730    78.9420     5.5050     4.6330     6.8530    23.1540   -15.1600 
  122.3750     2.1810    80.4270     6.0640     5.0590     6.9810    23.1040   -15.0750 
  122.5000     2.1840    82.1000     6.4510     5.3920     6.5260    23.1820   -15.1330 
  122.6250     2.1790    79.5030     6.6980     5.6090     6.5040    23.1240   -15.3950 
  122.7500     2.1700    75.4330     6.9560     5.7930     7.1410    22.9820   -15.7720 
  122.8750     2.1600    73.1970     7.2910     5.9990     8.0590    22.9450   -16.2290 
  123.0000     2.1540    72.2730     7.6710     6.2370     8.3020    22.9990   -16.6850 
  123.1250     2.1520    70.4090     7.9780     6.4550     8.2350    23.0540   -17.0560 
  123.2500     2.1520    69.1220     8.1440     6.6010     8.3380    23.0660   -17.3560 
  123.3750     2.1510    70.5820     8.1650     6.6660     8.4080    23.0410   -17.6080 
  123.5000     2.1490    73.7450     8.0770     6.6830     8.5310    23.0000   -17.8080 
  123.6250     2.1490    74.6840     7.9240     6.7010     8.7320    22.9750   -17.9580 
  123.7500     2.1570    72.8370     7.7500     6.7510     8.9680    22.9560   -18.0730 
  123.8750     2.1750    69.8590     7.5700     6.8310     9.1960    22.9500   -18.1520 
  124.0000     2.1950    68.3590     7.3950     6.9170     9.1190    22.9410   -18.2270 
  124.1250     2.2050    69.4410     7.2410     6.9720     8.8600    22.9730   -18.3460 
  124.2500     2.2000    71.2780     7.1300     6.9820     8.6670    23.0390   -18.4860 
  124.3750     2.1820    71.5610     7.0970     6.9520     8.6370    23.0820   -18.6410 
  124.5000     2.1600    70.1700     7.1640     6.9020     8.6700    23.0600   -18.7890 
  124.6250     2.1430    67.7740     7.3320     6.8670     8.6840    22.9660   -18.9100 
  124.7500     2.1310    66.8500     7.5400     6.8610     8.5350    22.8550   -19.0390 
  124.8750     2.1250    68.2830     7.7300     6.8760     8.2430    22.7280   -19.1600 
  125.0000     2.1230    70.8580     7.8680     6.8870     8.1560    22.5930   -19.2520 
  125.1250     2.1290    73.1740     7.9580     6.8570     8.3870    22.4720   -19.2600 
  125.2500     2.1410    73.3990     8.0430     6.7730     8.4010    22.3910   -19.2000 
  125.3750     2.1520    70.3770     8.1350     6.6440     8.1350    22.3530   -19.0560 
  125.5000     2.1580    65.9940     8.2170     6.5080     8.1580    22.3760   -18.8550 
  125.6250     2.1530    66.2030     8.2720     6.4700     8.5990    22.4910   -18.6010 
  125.7500     2.1450    70.6270     8.3650     6.6210     8.5840    22.6650   -18.2650 
  125.8750     2.1500    72.8540     8.6310     7.0350     8.3410    22.8150   -17.8640 
  126.0000     2.1840    70.0430     9.2320     7.7550     8.7170    22.9310   -17.4010 
  126.1250     2.2600    66.0860    10.3090     8.8330    10.9900    23.0820   -16.8600 
  126.2500     2.3550    64.2790    11.6310    10.1320    14.9270    23.3240   -16.2530 
  126.3750     2.4430    63.1010    12.8480    11.4600    16.9700    23.5890   -15.6230 
  126.5000     2.5020    60.4790    13.5440    12.5090    16.7330    23.8670   -15.0120 
  126.6250     2.5180    56.9620    13.2560    12.7710    17.0030    24.1060   -14.4230 
  126.7500     2.5080    56.4290    12.1240    12.1720    17.4740    24.2080   -13.8830 
  126.8750     2.4860    59.8330    10.5380    10.9060    14.9810    24.1970   -13.4040 
  127.0000     2.4590    65.8620     9.0060     9.3630    10.7630    24.0950   -13.0030 
  127.1250     2.4270    74.0130     7.8880     7.9500     7.1760    23.9770   -12.7640 
  127.2500     2.3900    82.3520     7.1070     6.8500     5.9510    23.9390   -12.6830 
  127.3750     2.3510    86.9140     6.6050     6.1080     5.9370    23.8820   -12.7430 
  127.5000     2.3150    85.1340     6.3650     5.6960     6.2850    23.8230   -12.8370 
  127.6250     2.2880    81.0370     6.3000     5.5580     6.5480    23.8200   -12.9780 
  127.7500     2.2710    79.5440     6.2540     5.5290     6.5830    23.8570   -13.1400 
  127.8750     2.2580    80.6000     6.2330     5.5290     6.4890    23.9310   -13.3540 
  128.0000     2.2490    80.6970     6.3210     5.5640     6.5830    23.9860   -13.6050 
  128.1250     2.2450    78.0070     6.7300     5.7860     6.9690    23.9880   -13.8200 
  128.2500     2.2550    74.8660     7.6050     6.3430     7.6460    24.0240   -13.9480 
  128.3750     2.2870    72.1430     9.0970     7.4080     9.6510    24.1500   -13.9270 
  128.5000     2.3420    68.3830    11.2690     9.1480    15.4080    24.2300   -13.8180 
  128.6250     2.4110    63.0610    14.0220    11.7240    21.9700    24.1460   -13.6900 
  128.7500     2.4730    59.5220    16.7680    14.6800    24.2900    24.0420   -13.5520 
  128.8750     2.5110    57.7970    18.9550    17.3460    23.7260    23.9640   -13.3440 
  129.0000     2.5230    56.1440    20.2540    19.1010    24.7330    23.9240   -13.0480 
  129.1250     2.5220    55.3400    20.7010    19.7740    24.4620    24.0250   -12.7160 
  129.2500     2.5260    55.8350    20.8620    20.0440    22.6200    24.2040   -12.4520 
  129.3750     2.5390    56.6720    20.9250    20.2460    22.0970    24.3930   -12.3140 
  129.5000     2.5510    57.0120    20.6840    20.2610    24.6000    24.5190   -12.2850 
  129.6250     2.5410    58.1850    19.5570    19.4220    26.5520    24.5620   -12.2550 
  129.7500     2.5020    60.0140    17.5110    17.4850    25.5380    24.5520   -12.2420 
  129.8750     2.4380    61.5840    14.8740    14.7310    22.0990    24.5200   -12.2700 
  130.0000     2.3640    64.5510    12.2140    11.8480    16.4990    24.4910   -12.3670 
  130.1250     2.2970    69.6300    10.1570     9.6060    10.6580    24.2780   -12.5480 
  130.2500     2.2490    74.2340     8.8880     8.1900     8.3940    23.9200   -12.7730 
  130.3750     2.2280    77.2050     8.5010     7.6170     7.7260    23.6580   -12.9880 
  130.5000     2.2410    77.6670     9.0580     7.8710     8.0040    23.6430   -13.1480 
  130.6250     2.2920    74.1380    10.7020     9.0900     9.7310    23.8700   -13.2980 
