~V
VERS. 2.00: Ver 2.00
~W
STRT.M 50.0000:
STOP.M 275.0000:
STEP.M 0.1250:
NULL. -999.2500:
UWI. F11033:
~C
DEPT.M :
DEN.GM/CC :
GR.API :
RML.OHMM :
RI. :
RXO.OHMM :
CALI.CM :
SP.MV :
~A
# ...
  117.5000     2.3490    61.6500    13.7440    11.2890    10.3570    24.5730   -23.4190 
  117.6250     2.3620    62.3460    14.5350    11.9830    10.4670    24.5380   -23.1980 
  117.7500     2.3670    62.6350    15.1710    12.6470    11.7930    24.5660   -23.0320 
  117.8750     2.3610    64.7370    15.2340    12.9330    13.8730    24.6730   -22.9520 
  118.0000     2.3430    66.8290    14.3980    12.5110    14.5120    24.8400   -22.9740 
  118.1250     2.3170    69.2650    12.6450    11.2710    11.9050    24.9300   -23.0670 
  118.2500     2.2950    75.1660    10.6750     9.7470     8.8170    24.9520   -23.2090 
  118.3750     2.2830    82.2330     8.9900     8.3370     6.9700    24.9310   -23.3730 
  118.5000     2.2770    85.5320     7.8300     7.2530     6.2970    24.8770   -23.5470 
  118.6250     2.2690    84.4710     7.2380     6.5750     6.1940    24.8340   -23.7290 
  118.7500     2.2650    83.7560     6.9420     6.1550     6.0900    24.8170   -23.8980 
  118.8750     2.2700    83.0200     6.8190     5.9310     6.1590    24.8150   -24.0360 
  119.0000     2.2890    79.2060     6.9080     5.9180     6.3570    24.8150   -24.1270 
  119.1250     2.3220    73.8520     7.4820     6.2860     6.5260    24.8190   -24.1840 
  119.2500     2.3620    70.3640     8.6560     7.1070     7.0190    24.8390   -24.2220 
  119.3750     2.3980    69.6800    10.4230     8.4230     9.4000    24.8840   -24.2640 
  119.5000     2.4050    68.9950    12.4780    10.0900    15.4320    24.9340   -24.3160 
  119.6250     2.3590    65.8730    13.9080    11.5060    22.7700    24.9410   -24.3960 
  119.7500     2.2890    64.3900    13.9340    11.9620    22.9360    24.9090   -24.4900 
  119.8750     2.2330    65.8190    12.6090    11.3230    17.4360    24.8690   -24.5890 
  120.0000     2.2110    68.0940    10.7700    10.0980    11.6730    24.8780   -24.6830 
  120.1250     2.2150    68.4660     9.3950     8.9970     9.1200    24.9280   -24.7510 
  120.2500     2.2270    67.5580     8.7620     8.3540     8.2230    24.9830   -24.7770 
  120.3750     2.2380    67.5760     8.7730     8.1910     8.1290    24.9910   -24.7660 
  120.5000     2.2540    69.0090     9.1700     8.3850     8.5450    24.9520   -24.7250 
  120.6250     2.2740    69.2110     9.6150     8.7290     9.3870    24.9450   -24.6310 
  120.7500     2.2800    65.9250     9.8290     8.9760    10.1910    25.0030   -24.4810 
  120.8750     2.2570    61.6990     9.7270     9.0080    10.2220    25.1010   -24.3090 
  121.0000     2.2120    60.4490     9.3880     8.8230     8.5290    25.1970   -24.1390 
  121.1250     2.1800    62.4220     8.9940     8.5140     7.8210    25.1920   -23.9960 
  121.2500     2.1720    64.1430     8.7060     8.2320     7.9150    25.0860   -23.8950 
  121.3750     2.1770    63.8150     8.5820     8.0580     8.4280    24.9410   -23.8130 
  121.5000     2.1910    61.8710     8.6390     8.0340     8.7460    24.8550   -23.7430 
  121.6250     2.2170    60.4760     8.9190     8.2050     9.0850    24.8560   -23.6950 
  121.7500     2.2570    60.6020     9.4200     8.5600     9.5420    24.8120   -23.6720 
  121.8750     2.3070    61.1490    10.1610     9.1150    10.3690    24.7150   -23.6590 
  122.0000     2.3570    61.0970    11.1090     9.8580    11.4640    24.6590   -23.6510 
  122.1250     2.4000    60.2530    12.1940    10.7480    12.2600    24.7170   -23.6330 
  122.2500     2.4360    58.0270    13.3390    11.7070    13.6340    24.8220   -23.5990 
  122.3750     2.4670    54.3700    14.5780    12.7450    15.8270    24.8990   -23.5700 
  122.5000     2.4970    52.1150    16.0390    13.9470    16.7750    24.9140   -23.5470 
  122.6250     2.5260    53.0630    18.0020    15.5320    17.4670    24.9330   -23.5120 
  122.7500     2.5460    52.2450    20.5380    17.5950    22.3480    24.9760   -23.5020 
  122.8750     2.5510    47.2370    23.5540    20.1220    29.9810    24.9980   -23.5140 
  123.0000     2.5460    39.6570    26.6620    22.8750    35.4850    24.9640   -23.5350 
  123.1250     2.5410    35.9670    29.0180    25.2310    35.3220    24.9090   -23.5580 
  123.2500     2.5370    37.3260    30.0420    26.5980    33.3150    24.8850   -23.5840 
  123.3750     2.5290    40.3160    29.6540    26.7470    31.4080    24.9360   -23.6050 
  123.5000     2.5180    43.0540    28.3790    25.9860    28.4660    24.9950   -23.6210 
  123.6250     2.5150    45.8830    27.0210    24.9450    25.3770    25.0170   -23.6500 
  123.7500     2.5190    47.7690    26.0890    24.1430    23.7480    25.0320   -23.6630 
  123.8750     2.5180    46.3580    25.6640    23.7090    24.1870    25.0560   -23.6360 
  124.0000     2.5020    44.2360    25.6310    23.6000    25.0670    25.0860   -23.5530 
  124.1250     2.4690    45.0140    25.7540    23.6770    25.1780    25.1030   -23.4240 
  124.2500     2.4330    45.5330    25.7250    23.7000    24.7410    25.1210   -23.2600 
  124.3750     2.4100    44.0330    25.3670    23.5020    23.1710    25.1490   -23.0970 
  124.5000     2.4110    44.0440    24.6650    23.0170    21.5330    25.1660   -22.9250 
  124.6250     2.4380    47.4900    23.7670    22.3070    21.4870    25.1460   -22.7610 
  124.7500     2.4740    49.7140    22.9370    21.5840    22.1110    25.0870   -22.6290 
  124.8750     2.5030    48.7920    22.3300    21.0060    21.4260    25.0150   -22.5600 
  125.0000     2.5160    46.8820    22.0520    20.7020    20.3550    24.9860   -22.5770 
  125.1250     2.5100    46.1900    22.2120    20.8090    21.1790    25.0200   -22.6420 
  125.2500     2.4990    46.2480    22.7420    21.2750    21.0270    25.0760   -22.7200 
  125.3750     2.4950    45.6970    23.5680    22.0350    21.1350    25.1060   -22.7840 
  125.5000     2.5020    43.3590    24.5170    22.9450    22.7460    25.1260   -22.8450 
  125.6250     2.5140    41.3510    25.2760    23.7340    24.4210    25.1570   -22.8800 
  125.7500     2.5230    42.5030    25.6500    24.2080    24.5030    25.1720   -22.9000 
  125.8750     2.5280    45.0410    25.6050    24.3060    24.6780    25.1770   -22.9020 
  126.0000     2.5310    45.8220    25.2330    24.0830    24.1990    25.1780   -22.8760 
  126.1250     2.5320    45.2410    24.6600    23.6290    23.6400    25.1780   -22.8560 
  126.2500     2.5330    45.7360    24.0350    23.0950    24.1740    25.1780   -22.8580 
  126.3750     2.5350    46.8120    23.4020    22.5300    24.9640    25.1780   -22.8730 
  126.5000     2.5380    46.6110    22.7850    21.9480    25.0070    25.1780   -22.9000 
  126.6250     2.5410    45.3420    22.2450    21.3850    23.5440    25.1780   -22.9640 
  126.7500     2.5450    43.0540    21.8500    20.9150    22.1940    25.1790   -23.0380 
  126.8750     2.5520    40.4100    21.6660    20.6230    20.5340    25.1850   -23.0790 
  127.0000     2.5620    39.8270    21.7090    20.5560    20.0660    25.1950   -23.0770 
  127.1250     2.5720    42.5580    21.8980    20.6830    20.5710    25.2020   -23.0380 
  127.2500     2.5800    44.9660    22.0390    20.8290    21.2720    25.1850   -23.0040 
  127.3750     2.5810    44.9380    22.0070    20.8610    21.7160    25.1750   -22.9890 
  127.5000     2.5700    42.6910    21.7730    20.7260    20.4950    25.1720   -22.9610 
  127.6250     2.5500    40.5240    21.4260    20.4670    19.2920    25.1720   -22.8940 
  127.7500     2.5280    39.0700    21.1190    20.2040    18.1810    25.1730   -22.7940 
  127.8750     2.5060    38.8310    20.9160    19.9960    18.0690    25.1750   -22.6650 
  128.0000     2.4850    40.0050    20.8020    19.8480    19.1980    25.1790   -22.5400 
  128.1250     2.4740    41.2590    20.7250    19.7460    19.5250    25.1660   -22.4490 
  128.2500     2.4720    42.0500    20.6720    19.6910    18.7830    25.1340   -22.3420 
  128.3750     2.4770    42.5500    20.7000    19.7320    17.7170    25.0940   -22.2120 
  128.5000     2.4820    43.0260    20.8960    19.9360    17.8210    25.0610   -22.1010 
  128.6250     2.4870    44.3120    21.3370    20.3590    18.3580    25.0660   -22.0110 
