~V
VERS. 2.00: Ver 2.00
~W
STRT.M 55.0000:
STOP.M 249.0000:
STEP.M 0.1250:
NULL. -999.2500:
UWI. F11017:
~C
DEPT.M :
GR.API :
RML.OHMM :
RI. :
RXO.OHMM :
CALI.CM :
DEN.GM/CC :
SP.MV :
~A
# ...
  201.2500    55.0800     6.6060     5.6320     4.9420    25.1320     2.3540    -5.7630 
  201.3750    58.5150     6.7580     5.8190     4.9050    24.6730     2.3530    -5.3800 
  201.5000    65.6040     6.9400     6.0580     5.0490    24.1600     2.3580    -5.1860 
  201.6250    72.7290     7.1110     6.3020     5.2980    24.1120     2.3700    -5.1710 
  201.7500    76.1100     7.2490     6.5150     5.5030    24.1980     2.3830    -5.2590 
  201.8750    78.3820     7.3410     6.6750     5.5730    24.2520     2.3940    -5.4220 
  202.0000    79.3970     7.3710     6.7610     5.6350    24.2100     2.4040    -5.6290 
  202.1250    77.6520     7.3090     6.7420     5.7170    24.1410     2.4100    -5.8600 
  202.2500    74.7420     7.1690     6.6310     5.7730    24.1050     2.4140    -6.0960 
  202.3750    72.8030     6.9820     6.4520     5.7110    24.1110     2.4160    -6.3250 
  202.5000    71.8420     6.8050     6.2510     5.6320    24.1330     2.4150    -6.5480 
  202.6250    73.2120     6.7280     6.1050     5.5110    24.1570     2.4160    -6.7850 
  202.7500    79.4830     6.7770     6.0560     5.4540    24.1720     2.4200    -7.0460 
  202.8750    85.9970     6.9430     6.1120     5.5900    24.1820     2.4260    -7.3340 
  203.0000    86.9680     7.1880     6.2560     5.8860    24.1840     2.4340    -7.6420 
  203.1250    83.3230     7.5060     6.4870     6.4930    24.1960     2.4400    -7.9690 
  203.2500    81.0180     7.9360     6.8180     7.0210    24.2260     2.4390    -8.3090 
  203.3750    79.1730     8.6010     7.3280     7.4330    24.2480     2.4310    -8.6660 
  203.5000    76.4740     9.6760     8.1470     7.9700    24.2470     2.4160    -9.0310 
  203.6250    75.8120    11.5250     9.5710     9.3660    24.2370     2.3980    -9.3890 
  203.7500    75.8610    14.4540    11.7770    12.0630    24.2220     2.3810    -9.7420 
  203.8750    71.6560    18.8140    15.0360    16.3820    24.1960     2.3690   -10.0900 
  204.0000    64.1260    24.9620    19.6400    21.8180    24.1830     2.3620   -10.4310 
  204.1250    58.7430    33.4510    26.1900    27.5170    24.1990     2.3530   -10.7650 
  204.2500    55.9440    43.9690    34.6010    37.3880    24.2170     2.3380   -11.0850 
  204.3750    54.7740    55.4750    44.7910    50.4460    24.2290     2.3150   -11.3840 
  204.5000    56.5820    68.3150    56.3670    63.9100    24.2420     2.2890   -11.6600 
  204.6250    59.6340    81.6950    68.5440    79.9980    24.2700     2.2650   -11.9010 
  204.7500    60.1200    94.2280    79.9900    99.0310    24.3020     2.2470   -12.1200 
  204.8750    58.3740   104.4560    89.4290   112.3710    24.3460     2.2360   -12.3130 
  205.0000    56.7420   110.9040    95.6670   116.4040    24.3800     2.2310   -12.4790 
  205.1250    57.2260   111.4990    97.0160   115.4230    24.3810     2.2310   -12.6240 
  205.2500    59.2890   107.0210    94.0250   113.4630    24.3680     2.2340   -12.7480 
  205.3750    61.4540    99.1540    87.8780   110.7680    24.3600     2.2380   -12.8540 
  205.5000    61.9350    90.7160    80.7760    99.4950    24.3470     2.2440   -12.9480 
  205.6250    61.6210    85.0470    75.5770    76.1740    24.3120     2.2490   -13.0210 
  205.7500    61.7670    83.4010    73.7280    60.3650    24.2800     2.2540   -13.0590 
  205.8750    61.3240    86.0570    75.7620    59.0970    24.2540     2.2560   -13.0640 
  206.0000    59.8980    92.4480    81.4090    69.8320    24.2320     2.2540   -13.0300 
  206.1250    58.0270   101.3330    89.7900    89.7500    24.2380     2.2470   -12.9520 
  206.2500    56.2940   110.0280    98.4780   100.0380    24.2660     2.2370   -12.8510 
  206.3750    54.2950   116.3370   105.4240   104.3410    24.2970     2.2260   -12.7340 
  206.5000    52.4150   118.6360   108.9720   107.1400    24.3040     2.2170   -12.6120 
  206.6250    51.8690   116.1290   108.0170   103.9650    24.3210     2.2120   -12.5030 
  206.7500    51.7190   111.2640   104.4540    96.4400    24.3340     2.2120   -12.4160 
  206.8750    51.5410   106.1830   100.1360    92.0880    24.3310     2.2170   -12.3600 
  207.0000    51.4470   102.4690    96.6460    83.4380    24.3330     2.2230   -12.3390 
  207.1250    52.0950   101.0950    95.1330    74.4840    24.3570     2.2250   -12.3530 
  207.2500    52.6200   101.3570    95.2310    73.9280    24.3650     2.2210   -12.3930 
  207.3750    53.6290   102.4150    96.2690    86.3050    24.3450     2.2160   -12.4530 
  207.5000    56.5340   103.4480    97.4770    98.7600    24.3080     2.2140   -12.5220 
  207.6250    60.2000   103.9930    98.3210    95.7170    24.2350     2.2190   -12.5840 
  207.7500    62.1400   104.4630    98.9950    81.9110    24.1640     2.2280   -12.6260 
  207.8750    60.9750   105.6280   100.0950    77.3150    24.1550     2.2350   -12.6360 
  208.0000    57.7000   108.2630   102.3240    83.1990    24.2000     2.2400   -12.6190 
  208.1250    55.7930   113.0170   106.3670    90.4360    24.2240     2.2430   -12.5850 
  208.2500    55.5210   119.2340   111.7590    95.4580    24.2110     2.2450   -12.5590 
  208.3750    54.7140   126.1900   117.9030    98.5170    24.1770     2.2440   -12.5610 
  208.5000    52.8280   133.0780   124.0950   103.8580    24.1570     2.2370   -12.6010 
  208.6250    52.8140   139.0100   129.5700   108.3290    24.1430     2.2220   -12.6810 
  208.7500    54.5400   143.7010   134.0590   104.1360    24.1180     2.2060   -12.7850 
  208.8750    55.9010   147.0970   137.5270    97.7780    24.1210     2.1920   -12.9130 
  209.0000    56.4690   149.3910   140.1540    96.7140    24.1760     2.1870   -13.0640 
  209.1250    55.5630   150.9150   142.2880   107.3870    24.2020     2.1910   -13.2350 
  209.2500    53.2120   152.1650   144.3890   123.3790    24.1980     2.2000   -13.4040 
  209.3750    50.7480   153.1000   146.4860   125.2610    24.2230     2.2080   -13.5540 
  209.5000    51.2780   153.2220   148.1670   124.4820    24.3370     2.2100   -13.6800 
  209.6250    56.6320   151.2870   148.3100   131.9110    24.4700     2.2050   -13.7760 
  209.7500    60.2670   147.0680   146.0750   139.7670    24.5500     2.1950   -13.8590 
  209.8750    57.7050   140.2220   140.7210   144.2150    24.5660     2.1850   -13.9320 
  210.0000    50.7030   131.0230   132.0100   146.8490    24.5670     2.1780   -13.9840 
  210.1250    46.2940   119.8230   120.1500   145.1410    24.5750     2.1820   -14.0060 
  210.2500    46.9130   107.9040   107.0380   138.1770    24.5680     2.1970   -14.0040 
  210.3750    50.8670    94.1390    94.1710   124.0760    24.5390     2.2190   -13.9850 
  210.5000    56.0700    82.4780    82.7940   100.2780    24.5140     2.2400   -13.9580 
  210.6250    58.3210    73.9290    74.1210    81.7270    24.5100     2.2500   -13.9400 
  210.7500    57.0760    68.2280    68.1140    68.0940    24.4970     2.2460   -13.9330 
  210.8750    56.3870    65.4760    64.9200    61.2360    24.4660     2.2320   -13.9330 
  211.0000    57.0320    65.8890    64.7510    57.2210    24.4370     2.2100   -13.9430 
  211.1250    56.4730    70.4910    68.6220    54.0250    24.4330     2.1850   -13.9660 
  211.2500    55.0260    79.0950    76.4520    54.4030    24.4310     2.1640   -14.0070 
  211.3750    55.7570    91.6550    88.3430    60.6630    24.4160     2.1560   -14.0580 
  211.5000    57.0550   107.3040   103.6000    77.4920    24.4060     2.1690   -14.1150 
  211.6250    55.3390   123.7820   120.1580   105.7690    24.4150     2.2030   -14.1730 
  211.7500    53.5160   137.5760   134.4010   146.3550    24.4340     2.2390   -14.2240 
  211.8750    53.9960   145.8980   143.3830   196.0520    24.4650     2.2580   -14.2690 
  212.0000    54.3530   147.5010   145.6120   224.7960    24.4960     2.2510   -14.3120 
  212.1250    52.1490   142.9740   141.3060   210.4250    24.5350     2.2270   -14.3540 
  212.2500    49.8140   136.4590   134.4730   166.1770    24.5650     2.2060   -14.3950 
  212.3750    50.7980   130.5260   127.7660   130.4340    24.5650     2.1970   -14.4390 
