~V
VERS. 2.00: Ver 2.00
~W
STRT.M 47.0000:
STOP.M 270.0000:
STEP.M 0.1250:
NULL. -999.2500:
UWI. F11075:
~C
DEPT.M :
GR.API :
RML.OHMM :
RI. :
RXO.OHMM :
CALI.CM :
DEN.GM/CC :
SP.MV :
~A
# ...
   92.0000    70.6230    11.2200    10.4260    15.4990    25.0940     2.2480   -16.1210 
   92.1250    74.7360    10.7040    10.1210    19.3670    25.2030     2.3160   -15.4240 
   92.2500    80.6020     9.6790     9.2590    17.1090    25.2810     2.3650   -14.7410 
   92.3750    87.1920     8.5060     8.1040     9.8270    25.3080     2.3690   -14.0980 
   92.5000    92.8640     7.5390     7.0140     6.8060    25.3140     2.3440   -13.5330 
   92.6250    97.9410     6.8700     6.1410     5.8460    25.3110     2.3110   -13.0770 
   92.7500   102.7410     6.4390     5.5280     5.6060    25.3070     2.2920   -12.7420 
   92.8750   106.0850     6.1480     5.1870     5.4250    25.3050     2.2910   -12.5590 
   93.0000   108.7680     5.9410     5.0450     5.2370    25.3010     2.2960   -12.4930 
   93.1250   109.3800     5.9280     5.1280     5.1150    25.2960     2.2970   -12.4990 
   93.2500   106.0020     6.3620     5.5870     5.4950    25.2940     2.2990   -12.5670 
   93.3750    99.2780     7.8900     6.9220     7.4030    25.2950     2.3160   -12.7300 
   93.5000    91.9090    10.9450     9.5950    12.0730    25.2920     2.3600   -12.9550 
   93.6250    84.8360    15.8190    14.1760    22.0730    25.2910     2.4320   -13.2300 
   93.7500    78.4030    21.7920    20.6490    43.4530    25.2910     2.5230   -13.5410 
   93.8750    75.0750    25.9380    26.4680    80.5290    25.2930     2.6070   -13.9220 
   94.0000    73.7710    25.9610    27.5350    87.3890    25.2820     2.6570   -14.3510 
   94.1250    72.4520    22.1300    23.5410    55.8750    25.2140     2.6550   -14.8180 
   94.2500    73.2720    16.8690    17.8200    25.7610    25.0480     2.5960   -15.3290 
   94.3750    78.7330    12.8800    13.3680    13.9810    24.8170     2.4880   -15.8440 
   94.5000    81.7930    10.6180    10.5290    10.4200    24.6450     2.3670   -16.3360 
   94.6250    78.7600     9.6900     8.9620     9.9350    24.5600     2.2620   -16.8020 
   94.7500    75.8270     9.6460     8.2730    10.1430    24.5370     2.1940   -17.2340 
   94.8750    79.7470    10.1310     8.2160    10.4320    24.5360     2.1740   -17.5950 
   95.0000    85.4470    10.6980     8.4290    10.5990    24.5340     2.1810   -17.9010 
   95.1250    86.0800    11.1130     8.7060    10.6600    24.5380     2.2000   -18.1680 
   95.2500    81.5620    11.2690     8.9170    10.8550    24.5540     2.2160   -18.3550 
   95.3750    75.0500    11.1550     8.9990    11.0220    24.5810     2.2180   -18.4560 
   95.5000    69.0260    10.9050     8.9800    10.8990    24.5930     2.2090   -18.5240 
   95.6250    65.9190    10.6030     8.8900    10.5030    24.6070     2.1930   -18.5590 
   95.7500    66.8140    10.3120     8.7610    10.1270    24.6310     2.1760   -18.5460 
   95.8750    71.9760    10.0760     8.6100     9.8480    24.6320     2.1610   -18.4980 
   96.0000    77.3770     9.8910     8.4460     9.7860    24.6320     2.1520   -18.4550 
   96.1250    78.4220     9.7370     8.2680     9.8250    24.5990     2.1480   -18.3940 
   96.2500    75.2440     9.5980     8.0870     9.8600    24.5300     2.1470   -18.3410 
   96.3750    73.7790     9.4800     7.9390     9.2730    24.4530     2.1480   -18.3140 
   96.5000    75.8520     9.4080     7.8500     9.0590    24.4090     2.1490   -18.3160 
   96.6250    78.2820     9.4060     7.8300     8.9050    24.3780     2.1500   -18.3510 
   96.7500    77.7400     9.4820     7.8640     8.9140    24.3660     2.1490   -18.4010 
   96.8750    75.2020     9.6240     7.9190     9.2340    24.4290     2.1480   -18.4720 
   97.0000    73.9780     9.7920     7.9740     9.5280    24.5400     2.1520   -18.5550 
   97.1250    74.2590     9.9680     8.0240     9.5960    24.6430     2.1610   -18.6430 
   97.2500    73.6960    10.1480     8.0720     9.5900    24.6920     2.1730   -18.7160 
   97.3750    70.1480    10.3370     8.1280     9.6600    24.7040     2.1790   -18.7860 
   97.5000    68.5270    10.5320     8.1880     9.8890    24.7140     2.1760   -18.8440 
   97.6250    70.5700    10.7280     8.2590    10.2360    24.7240     2.1640   -18.8650 
   97.7500    72.1550    10.9110     8.3510    10.7230    24.7400     2.1490   -18.8630 
   97.8750    72.2180    11.0470     8.4620    10.9860    24.7440     2.1390   -18.8540 
   98.0000    72.7570    11.1070     8.5710    11.1540    24.7250     2.1360   -18.8010 
   98.1250    73.5440    11.0730     8.6430    11.1660    24.6630     2.1400   -18.6880 
   98.2500    73.7210    10.9520     8.6510    10.9790    24.5600     2.1470   -18.5490 
   98.3750    74.8420    10.7680     8.5810    10.4810    24.4070     2.1540   -18.3840 
   98.5000    75.5330    10.5550     8.4650     9.7980    24.2890     2.1570   -18.1860 
   98.6250    74.3490    10.3110     8.3310     9.2280    24.2940     2.1540   -17.9610 
   98.7500    74.2730    10.0260     8.1950     9.2090    24.4100     2.1460   -17.7140 
   98.8750    76.9160     9.7480     8.0590     8.9320    24.5610     2.1350   -17.4320 
   99.0000    77.5020     9.6080     7.9780     8.7410    24.7130     2.1220   -17.1320 
   99.1250    74.6580     9.7560     8.0590     8.6650    24.8800     2.1080   -16.8160 
   99.2500    71.1200    10.2810     8.3960     9.0310    25.0140     2.0990   -16.4550 
   99.3750    69.1700    11.1450     9.0260     9.6190    24.9790     2.1200   -16.0210 
   99.5000    69.2770    12.0090     9.7440    10.9700    24.8440     2.1780   -15.5400 
   99.6250    71.8020    12.5280    10.2950    14.1210    24.8230     2.2680   -15.0250 
   99.7500    75.3510    12.4600    10.4310    18.2220    24.9840     2.3680   -14.4850 
   99.8750    77.5130    11.7530     9.9950    16.0710    25.0940     2.4500   -13.9560 
  100.0000    79.1690    10.7960     9.2630    12.0190    25.1050     2.5060   -13.4710 
  100.1250    80.8860     9.8630     8.4410    10.9690    25.0810     2.5350   -13.0630 
  100.2500    82.6840     9.0960     7.6600    10.5790    25.0890     2.5390   -12.7500 
  100.3750    84.6620     8.5160     7.0050     9.4890    25.1860     2.5110   -12.5730 
  100.5000    87.4450     8.0310     6.4720     8.1770    25.2780     2.4620   -12.4940 
  100.6250    89.2410     7.6170     6.0710     6.9490    25.3130     2.4050   -12.5030 
  100.7500    89.3760     7.3030     5.8190     6.3820    25.3160     2.3590   -12.6260 
  100.8750    89.2290     7.1680     5.7720     6.3290    25.3080     2.3340   -12.8420 
  101.0000    89.2990     7.1970     5.8910     6.1620    25.2690     2.3190   -13.1060 
  101.1250    88.8190     7.3410     6.1110     6.3370    25.1620     2.3030   -13.4030 
  101.2500    86.9680     7.5330     6.3480     7.2990    25.0120     2.2810   -13.7330 
  101.3750    85.2890     7.6990     6.5180     7.7040    24.9090     2.2570   -14.0310 
  101.5000    85.5530     7.8010     6.5940     7.7060    24.8760     2.2380   -14.2820 
  101.6250    86.0390     7.8260     6.5860     7.5290    24.8770     2.2240   -14.5000 
  101.7500    84.7980     7.7850     6.5250     7.4630    24.8950     2.2160   -14.6560 
  101.8750    82.2830     7.7270     6.4520     7.5460    24.9160     2.2140   -14.6870 
  102.0000    81.1900     7.7310     6.4120     7.6930    24.9520     2.2180   -14.6090 
  102.1250    81.5090     7.8500     6.4330     7.6310    25.0290     2.2260   -14.4590 
  102.2500    81.6400     8.1010     6.5260     7.3030    25.1300     2.2370   -14.2610 
  102.3750    82.0970     8.4340     6.6870     7.4770    25.1750     2.2440   -14.0470 
  102.5000    83.1590     8.7220     6.8510     8.1950    25.1840     2.2440   -13.8290 
  102.6250    84.1520     8.8620     6.9520     8.6480    25.1730     2.2390   -13.6010 
  102.7500    85.5400     8.8070     6.9390     7.8910    25.1450     2.2340   -13.3750 
  102.8750    88.5930     8.5660     6.7890     7.4390    25.1420     2.2350   -13.1780 
  103.0000    92.1490     8.2480     6.5690     7.3970    25.1610     2.2450   -13.0280 
  103.1250    92.7180     7.9080     6.3310     7.1650    25.1860     2.2610   -12.9160 
