~V
VERS. 2.00: Ver 2.00
~W
STRT.M 62.0000:
STOP.M 272.0000:
STEP.M 0.1250:
NULL. -999.2500:
UWI. F11076:
~C
DEPT.M :
GR.API :
RML.OHMM :
RI. :
RXO.OHMM :
CALI.CM :
DEN.GM/CC :
SP.MV :
~A
# ...
  242.0000    62.6240   108.5470   102.0850    87.5490    24.6140     2.2050   -15.6370 
  242.1250    60.1440   118.6400   111.9180    99.9580    24.5990     2.1990   -15.5420 
  242.2500    58.8570   129.9720   123.7010   118.6590    24.9840     2.2030   -15.3970 
  242.3750    61.1670   139.8080   134.8510   145.1600    25.3200     2.2230   -15.2430 
  242.5000    64.0520   144.9340   141.8740   167.4150    25.4510     2.2540   -15.0460 
  242.6250    64.8080   142.2100   140.7770   172.2150    25.4000     2.2760   -14.8680 
  242.7500    65.5680   133.9190   133.2720   154.2780    25.3010     2.2760   -14.6790 
  242.8750    67.5600   123.2030   122.4390   128.5880    25.2430     2.2520   -14.4610 
  243.0000    68.8210   113.3130   111.7310   105.0290    25.1880     2.2170   -14.2810 
  243.1250    69.3620   107.0230   104.2440    95.0570    25.0430     2.1900   -14.1130 
  243.2500    69.9850   104.4820   100.5070    96.0430    24.8440     2.1780   -14.0160 
  243.3750    71.2020   105.3850   100.3220   100.2030    24.6650     2.1740   -13.9190 
  243.5000    75.1570   109.1030   103.0280   101.0740    24.6060     2.1760   -13.8130 
  243.6250    78.7400   115.3450   108.1580   107.7740    24.7800     2.1920   -13.6920 
  243.7500    78.1000   123.6240   115.0720   116.9620    24.9890     2.2310   -13.5750 
  243.8750    73.4090   134.6070   124.4300   125.7760    25.1140     2.2980   -13.5180 
  244.0000    68.5820   149.7300   137.8120   138.5780    25.1540     2.3870   -13.4550 
  244.1250    66.2570   172.3960   158.9110   159.8030    25.1670     2.4800   -13.4260 
  244.2500    64.2890   203.6450   189.1680   200.2730    25.1180     2.5620   -13.3780 
  244.3750    62.4550   242.5910   229.0270   282.5550    25.0490     2.6280   -13.3350 
  244.5000    59.8910   280.5830   274.1770   385.9120    25.0530     2.6800   -13.2760 
  244.6250    58.7200   291.8620   305.1920   434.4250    25.1030     2.7190   -13.2150 
  244.7500    60.9800   262.3310   296.3350   443.6450    25.1540     2.7340   -13.1280 
  244.8750    62.8430   198.8400   238.2290   452.1990    25.2260     2.7140   -12.9820 
  245.0000    61.9890   126.5240   155.1360   388.5180    25.3130     2.6530   -12.8080 
  245.1250    62.4890    72.9810    87.7440   186.8320    25.3900     2.5650   -12.5530 
  245.2500    67.7530    40.5740    46.3090    75.4770    25.4360     2.4800   -12.1640 
  245.3750    73.5530    22.9030    24.3650    32.1030    25.4540     2.4210   -11.6350 
  245.5000    72.9570    13.5110    13.6640    16.7370    25.4480     2.3950   -11.0080 
  245.6250    64.0640     8.8500     9.0590     8.7770    25.4130     2.3950   -10.2900 
  245.7500    54.6370     6.3750     6.7740     6.1520    25.3500     2.4040    -9.5620 
  245.8750    49.8160     5.4090     5.7600     5.2960    25.3210     2.4150    -8.9090 
  246.0000    49.5330     5.3880     5.5140     5.4340    25.3280     2.4260    -8.3320 
  246.1250    50.0620     5.7510     5.7790     6.0500    25.3920     2.4380    -7.9010 
  246.2500    49.1740     6.1370     6.2220     6.5080    25.5180     2.4500    -7.6600 
  246.3750    47.0120     6.4530     6.6560     6.6740    25.6320     2.4580    -7.6230 
  246.5000    44.7580     6.6470     6.9650     6.5840    25.6720     2.4610    -7.7590 
  246.6250    44.0330     6.7300     7.1060     6.6360    25.6450     2.4560    -8.0600 
  246.7500    44.1690     6.7850     7.1600     6.8190    25.5740     2.4470    -8.4490 
  246.8750    43.8050     6.8620     7.1890     7.0440    25.4210     2.4350    -8.8580 
  247.0000    43.0040     6.9890     7.2370     7.2530    25.2560     2.4260    -9.2880 
  247.1250    42.5490     7.1780     7.3250     7.5330    25.3080     2.4290    -9.7150 
  247.2500    42.5470     7.4060     7.4390     7.9390    25.4080     2.4470   -10.1050 
  247.3750    43.0900     7.6530     7.5650     8.1790    25.4390     2.4730   -10.4670 
  247.5000    44.4270     7.8950     7.6870     8.2930    25.3460     2.4980   -10.7980 
  247.6250    46.1960     8.1030     7.7820     8.2760    25.1960     2.5050   -11.0400 
  247.7500    46.6310     8.2620     7.8410     8.0350    25.1360     2.4930   -11.1710 
  247.8750    46.0200     8.3590     7.8640     7.9760    25.1850     2.4660   -11.2000 
  248.0000    44.9500     8.3800     7.8500     8.0380    25.2360     2.4330   -11.1430 
  248.1250    43.2950     8.2820     7.7610     7.9540    25.2440     2.4030   -10.9920 
  248.2500    41.6660     8.0600     7.5620     7.7990    25.2330     2.3820   -10.7640 
  248.3750    40.5810     7.7260     7.2420     7.6350    25.2080     2.3750   -10.4440 
  248.5000    40.3280     7.3370     6.8370     7.4870    25.1480     2.3810   -10.0090 
  248.6250    41.1210     6.9960     6.4420     6.9780    25.1010     2.4000    -9.4740 
  248.7500    42.8240     6.7870     6.1500     6.3270    25.0990     2.4200    -8.9330 
  248.8750    45.0790     6.7410     6.0080     6.2790    25.1140     2.4350    -8.3970 
  249.0000    46.8560     6.8370     6.0180     6.8950    25.1280     2.4410    -7.8520 
  249.1250    48.9410     7.0130     6.1480     7.4280    25.1470     2.4400    -7.3090 
  249.2500    51.6930     7.1690     6.3040     7.4530    25.1630     2.4380    -6.8000 
  249.3750    54.6050     7.2510     6.4230     7.2480    25.1610     2.4370    -6.3750 
  249.5000    56.8010     7.2440     6.4700     7.1080    25.1670     2.4380    -6.0820 
  249.6250    57.2320     7.1660     6.4430     7.0690    25.1780     2.4400    -5.9340 
  249.7500    57.0050     7.0720     6.3870     7.1100    25.1490     2.4400    -5.8330 
  249.8750    56.6020     6.9940     6.3290     7.0560    25.1220     2.4380    -5.8000 
  250.0000    55.5890     6.9510     6.2800     7.0910    25.1180     2.4350    -5.8540 
  250.1250    54.8120     6.9510     6.2470     7.1070    25.1090     2.4360    -5.9790 
  250.2500    55.3920     6.9720     6.2270     6.9460    25.0770     2.4390    -6.1190 
  250.3750    56.5940     6.9840     6.2080     6.7010    25.0020     2.4420    -6.2590 
  250.5000    57.2570     6.9450     6.1560     6.5540    24.8680     2.4410    -6.3840 
  250.6250    58.5220     6.8120     6.0120     6.4260    24.7330     2.4320    -6.4890 
  250.7500    60.7770     6.6240     5.7950     6.2760    24.6800     2.4180    -6.6090 
  250.8750    65.8470     6.4580     5.5700     6.1710    24.6870     2.4060    -6.7300 
  251.0000    77.6320     6.4170     5.4320     6.0430    24.6900     2.4020    -6.8650 
  251.1250    94.5020     6.6280     5.5000     6.2190    24.6960     2.4100    -7.0920 
  251.2500   105.0820     7.0660     5.7800     7.2920    24.7100     2.4280    -7.4010 
  251.3750   104.5560     7.6570     6.2390     9.1130    24.7570     2.4500    -7.7020 
  251.5000    99.1080     8.2720     6.7910    10.2910    24.8020     2.4670    -7.9250 
  251.6250    96.7810     8.7340     7.2850     9.6920    24.8280     2.4710    -8.0750 
  251.7500    97.6900     8.9780     7.6100     9.1750    24.8160     2.4610    -8.2000 
  251.8750    98.2710     9.0140     7.7370     9.0660    24.7950     2.4440    -8.2830 
  252.0000    99.0070     8.9150     7.7040     9.2520    24.7870     2.4270    -8.2830 
  252.1250   102.1000     8.7730     7.5840     9.2350    24.7890     2.4200    -8.1610 
  252.2500   105.8070     8.6600     7.4590     9.0100    24.7890     2.4210    -7.9470 
  252.3750   109.1300     8.5950     7.3580     8.7220    24.7890     2.4270    -7.7280 
  252.5000   112.6740     8.5830     7.2940     8.4870    24.7890     2.4350    -7.5800 
  252.6250   113.5610     8.6300     7.2870     8.4890    24.7880     2.4460    -7.5370 
  252.7500   110.5200     8.7280     7.3350     8.6350    24.7870     2.4570    -7.5430 
  252.8750   108.7630     8.8680     7.4350     8.8180    24.7860     2.4660    -7.5770 
  253.0000   111.7620     9.0270     7.5760     8.7850    24.7840     2.4700    -7.6480 
  253.1250   112.4770     9.1600     7.7310     8.9170    24.7810     2.4670    -7.6880 
