~V
VERS. 2.00: Ver 2.00
~W
STRT.M 60.0000:
STOP.M 273.0000:
STEP.M 0.1250:
NULL. -999.2500:
UWI. F11028:
~C
DEPT.M :
DEN.GM/CC :
GR.API :
RML.OHMM :
RI. :
RXO.OHMM :
CALI.CM :
SP.MV :
~A
# ...
  217.5000     2.2210    67.6120    82.7920    76.9370    83.1120    23.0910   -25.5980 
  217.6250     2.2020    63.2350    98.8730    91.6970   130.4890    23.5580   -25.7170 
  217.7500     2.1830    62.9500   115.8550   108.3810   151.7630    23.6550   -25.7990 
  217.8750     2.1660    65.3960   128.9040   122.3560   149.7370    23.6060   -25.8960 
  218.0000     2.1550    67.8820   133.4190   128.8240   148.1750    23.5770   -25.9700 
  218.1250     2.1510    67.5680   127.2680   124.6860   137.8180    23.6040   -26.0620 
  218.2500     2.1540    64.8660   116.2880   114.7780   127.5810    23.6830   -26.1050 
  218.3750     2.1610    60.9070   104.9280   103.3900   116.6740    23.7180   -26.1430 
  218.5000     2.1720    60.6400    96.1140    93.7200    93.9530    23.5410   -26.1720 
  218.6250     2.1840    65.5580    92.0380    88.3180    73.7400    23.8530   -26.1840 
  218.7500     2.1940    68.2670    92.1180    87.0770    71.2730    23.7580   -26.2050 
  218.8750     2.1980    66.2410    95.4700    89.3890    81.7230    23.7670   -26.2310 
  219.0000     2.1960    62.6670   100.5490    93.9360    99.0140    23.9940   -26.2570 
  219.1250     2.1900    62.0670   104.8710    98.5400   111.6300    24.3680   -26.2740 
  219.2500     2.1810    62.5560   106.3730   100.9510   106.5650    24.6050   -26.3180 
  219.3750     2.1720    62.1830   104.4200   100.1280    95.3350    24.6010   -26.3530 
  219.5000     2.1650    61.5130    99.8610    96.4240    90.8410    24.4820   -26.4100 
  219.6250     2.1610    60.3930    94.2540    91.0890    89.0320    24.3130   -26.4720 
  219.7500     2.1600    60.8240    88.9600    85.7070    85.2560    24.2430   -26.5750 
  219.8750     2.1610    64.7580    84.3780    80.8660    77.9870    24.2450   -26.6770 
  220.0000     2.1640    69.8610    80.5830    76.7500    70.3150    24.1830   -26.8000 
  220.1250     2.1680    69.5500    77.7700    73.5410    64.2540    23.7140   -26.9190 
  220.2500     2.1730    64.9900    75.9330    71.1830    60.5270    23.3660   -27.0720 
  220.3750     2.1780    61.4570    75.1800    69.7710    58.2670    23.2140   -27.2430 
  220.5000     2.1810    61.0350    75.5010    69.3530    57.5800    23.1230   -27.4350 
  220.6250     2.1810    62.8130    76.7280    69.8670    58.7980    22.9850   -27.6240 
  220.7500     2.1810    65.4280    78.1480    70.6600    61.4850    22.5870   -27.8140 
  220.8750     2.1810    68.0410    79.3000    71.2430    65.6510    22.1980   -27.9850 
  221.0000     2.1820    69.3090    80.1390    71.4700    77.8520    22.0260   -28.1430 
  221.1250     2.1830    67.6910    81.2750    71.7580    79.4480    22.2230   -28.2820 
  221.2500     2.1830    66.3270    83.4670    72.8000    69.9690    22.6970   -28.3600 
  221.3750     2.1810    66.9560    87.1710    75.1020    62.7990    23.2300   -28.3920 
  221.5000     2.1760    69.3870    92.2500    78.7460    70.1080    23.4050   -28.3200 
  221.6250     2.1690    71.8460    97.5970    83.0480    93.7270    23.5160   -28.1920 
  221.7500     2.1630    73.5830   101.3240    86.4120   107.4830    23.5580   -27.9910 
  221.8750     2.1590    74.0650   102.0300    87.5360    98.8090    23.5600   -27.7530 
  222.0000     2.1600    71.0190    99.3120    85.8160    85.3860    23.5140   -27.4350 
  222.1250     2.1640    67.9030    93.7360    81.4230    76.5040    23.3740   -27.0830 
  222.2500     2.1700    68.5040    87.2070    75.9630    66.9630    23.1830   -26.7000 
  222.3750     2.1760    70.3440    80.6410    70.3080    63.4370    23.1230   -26.2940 
  222.5000     2.1820    70.0480    74.4710    64.8900    63.0500    23.1270   -25.9030 
  222.6250     2.1870    67.5420    69.1330    60.0200    58.4600    23.1190   -25.4970 
  222.7500     2.1910    67.1530    64.9280    55.9500    51.4550    23.0280   -25.1100 
  222.8750     2.1950    68.2780    62.2340    53.0460    45.7160    22.8510   -24.7270 
  223.0000     2.1980    68.9700    61.2340    51.5490    44.0670    22.9990   -24.3960 
  223.1250     2.2020    68.4330    62.0430    51.6720    49.1200    22.9870   -24.0830 
  223.2500     2.2060    67.3840    63.9710    52.8900    52.5240    22.9810   -23.8160 
  223.3750     2.2110    66.8590    66.4660    54.7920    56.4490    22.9030   -23.5720 
  223.5000     2.2220    65.4430    68.8620    56.8710    57.2530    22.6800   -23.3700 
  223.6250     2.2480    63.0710    70.2510    58.4250    60.6490    22.5860   -23.1780 
  223.7500     2.2920    62.8090    70.2430    59.0250    63.6640    22.6140   -22.9980 
  223.8750     2.3540    65.6530    68.7500    58.4940    71.3530    22.6390   -22.8410 
  224.0000     2.4280    69.3910    66.0350    56.9360    85.4890    23.0760   -22.7050 
  224.1250     2.4950    70.2250    62.4940    54.5470    76.5290    22.9800   -22.5810 
  224.2500     2.5380    69.6570    58.8870    51.8580    57.9780    23.0200   -22.4700 
  224.3750     2.5490    68.0950    55.8800    49.3690    51.0040    22.9710   -22.3860 
  224.5000     2.5320    64.8020    53.9110    47.5730    51.3780    22.8550   -22.3140 
  224.6250     2.4940    61.0310    52.4540    46.3840    51.2640    22.8730   -22.3010 
  224.7500     2.4520    59.9920    49.6090    44.3460    48.9990    22.8880   -22.2990 
  224.8750     2.4200    61.5340    43.7860    39.9140    51.2910    22.9440   -22.3020 
  225.0000     2.4070    63.3880    34.9670    32.7400    60.6750    22.9500   -22.2840 
  225.1250     2.4160    66.1090    25.4160    24.5500    46.6440    22.3750   -22.2950 
  225.2500     2.4320    70.2360    17.8030    17.7470    22.5160    22.1660   -22.2780 
  225.3750     2.4430    76.4260    12.8380    13.0460    10.6920    22.3260   -22.2470 
  225.5000     2.4410    81.6820    10.0670    10.2020     8.1700    22.2280   -22.1680 
  225.6250     2.4290    83.4290     8.8900     8.8350     8.7740    22.2490   -22.0840 
  225.7500     2.4140    85.0040     8.5210     8.2960     8.6660    22.3240   -21.9970 
  225.8750     2.3980    87.5210     8.6440     8.3120     8.2210    22.1780   -21.9330 
  226.0000     2.3830    90.5430     8.9970     8.6240     7.7270    22.3290   -21.8870 
  226.1250     2.3710    91.4160     9.3690     8.9890     7.6140    22.9150   -21.8550 
  226.2500     2.3620    91.8300     9.6530     9.2560     7.9780    23.3540   -21.8470 
  226.3750     2.3580    92.8540     9.8110     9.3940     8.3540    23.5960   -21.8630 
  226.5000     2.3560    92.9920     9.8220     9.4100     8.4670    23.8890   -21.9300 
  226.6250     2.3570    94.4290     9.6790     9.3090     8.4550    23.8130   -22.0240 
  226.7500     2.3610    99.0220     9.4630     9.1460     8.3250    23.5770   -22.1620 
  226.8750     2.3680   105.1810     9.2330     8.9480     8.2360    23.4700   -22.3040 
  227.0000     2.3750   108.6450     9.0620     8.7370     8.2880    23.4690   -22.4730 
  227.1250     2.3790   107.5580     9.0860     8.5770     8.5020    23.4360   -22.6240 
  227.2500     2.3790   107.6860     9.3940     8.5560     8.6330    23.3420   -22.8030 
  227.3750     2.3740   110.1770    10.0840     8.7780     8.9620    23.2670   -22.9720 
  227.5000     2.3650   111.7580    11.2590     9.3520     9.7700    23.2200   -23.1690 
  227.6250     2.3550   106.1060    13.1070    10.4730    11.8980    23.0250   -23.3600 
  227.7500     2.3450    95.8220    15.5240    12.1290    15.0230    22.8530   -23.5290 
  227.8750     2.3380    87.2020    18.3380    14.2600    18.0260    22.6950   -23.6940 
  228.0000     2.3330    83.5610    21.2180    16.6400    20.1260    22.6780   -23.8520 
  228.1250     2.3300    84.3360    23.6110    18.8000    22.3910    23.0490   -24.0400 
  228.2500     2.3290    85.8180    25.2080    20.3480    23.4230    23.4870   -24.1850 
  228.3750     2.3280    85.0870    25.9600    21.1520    23.0780    23.5650   -24.3440 
  228.5000     2.3270    81.4320    26.0720    21.3420    22.4210    23.5490   -24.4870 
  228.6250     2.3250    78.7640    25.8420    21.1590    22.5150    23.4870   -24.6120 
