~V
VERS. 2.00: Ver 2.00
~W
STRT.M 65.0000:
STOP.M 225.0000:
STEP.M 0.1250:
NULL. -999.2500:
UWI. F11012:
~C
DEPT.M :
SP.MV :
GR.API :
RML.OHMM :
RI. :
RXO.OHMM :
CALI.CM :
DEN.GM/CC :
~A
# ...
  166.2500   -16.9360    58.9130   154.8120   140.4630   148.5500    23.8620     2.2080 
  166.3750   -17.0000    58.6960   155.1360   143.6790   170.0010    23.9200     2.2100 
  166.5000   -17.0610    57.1690   152.9400   145.1350   172.1440    24.0010     2.2190 
  166.6250   -17.1420    56.7610   147.0140   143.3070   158.2070    24.0930     2.2310 
  166.7500   -17.2920    57.3160   136.2400   136.3570   134.1670    24.0890     2.2460 
  166.8750   -17.4940    57.7770   121.6040   124.5710   105.5650    23.9680     2.2640 
  167.0000   -17.7470    59.1530   103.6030   107.9170    82.1220    23.8060     2.2830 
  167.1250   -18.0540    60.6340    83.4570    87.5620    68.0270    23.6770     2.2980 
  167.2500   -18.4100    61.3140    64.0400    67.1970    55.9260    23.5730     2.3050 
  167.3750   -18.7940    63.3170    48.2580    50.7960    41.4390    23.3940     2.3040 
  167.5000   -19.2550    65.2660    37.5760    39.8170    26.5610    23.1510     2.2910 
  167.6250   -19.7840    65.4450    32.3420    34.0700    17.0400    22.9050     2.2650 
  167.7500   -20.3470    63.7350    33.4220    33.7460    15.2220    22.7700     2.2350 
  167.8750   -20.9360    62.7850    40.1710    38.3300    20.3630    22.7490     2.2160 
  168.0000   -21.5510    60.8250    53.1830    49.1030    37.9820    22.7670     2.2120 
  168.1250   -22.1670    56.9570    73.1470    67.9440    74.6050    22.8130     2.2180 
  168.2500   -22.8010    53.0250   101.1250    97.2110   126.2830    22.9240     2.2260 
  168.3750   -23.4590    50.3960   133.3670   131.7220   168.2460    23.0550     2.2300 
  168.5000   -24.1310    49.9060   164.6440   163.8840   194.6870    23.1300     2.2280 
  168.6250   -24.8060    51.3130   189.4080   187.1380   216.0340    23.0790     2.2220 
  168.7500   -25.4950    53.4280   204.5040   198.9060   224.7830    23.0040     2.2170 
  168.8750   -26.1650    54.6900   214.1880   204.4050   228.0940    22.9600     2.2150 
  169.0000   -26.7990    53.7500   221.5990   207.0890   237.0300    22.9740     2.2170 
  169.1250   -27.3900    51.6630   228.8300   209.3710   258.9530    22.9530     2.2200 
  169.2500   -27.9070    50.2500   237.0620   212.7700   268.1270    22.8910     2.2220 
  169.3750   -28.3310    52.5580   246.2640   217.5170   273.2340    22.9200     2.2210 
  169.5000   -28.6460    57.2340   256.1660   223.5470   273.8660    22.9640     2.2190 
  169.6250   -28.8640    59.1980   266.5030   230.6930   267.9400    22.9890     2.2140 
  169.7500   -28.9590    57.9310   277.0720   238.8110   269.5630    23.0080     2.2090 
  169.8750   -28.9660    56.6050   287.1050   246.9980   286.8280    23.0400     2.2060 
  170.0000   -28.8900    56.5120   295.0750   253.8410   295.2300    23.0620     2.2070 
  170.1250   -28.7440    55.1880   299.0080   257.5780   293.1630    23.0660     2.2110 
  170.2500   -28.5160    54.2720   296.4660   256.0810   281.9020    23.0730     2.2160 
  170.3750   -28.2230    55.6870   288.5830   250.0460   275.6800    23.2440     2.2170 
  170.5000   -27.8580    57.2480   277.0820   240.6320   268.4540    23.6000     2.2150 
  170.6250   -27.3980    58.4800   264.4580   229.7860   241.5540    23.9920     2.2110 
  170.7500   -26.8310    57.3840   253.3980   219.8560   224.1910    24.0960     2.2070 
  170.8750   -26.1780    53.9110   244.7950   211.9560   223.4380    24.0170     2.2050 
  171.0000   -25.4340    50.5400   238.3710   206.0860   233.1030    23.9110     2.2050 
  171.1250   -24.6050    51.4440   233.0560   201.5060   231.9760    23.8620     2.2090 
  171.2500   -23.7100    57.5450   227.1610   196.8990   226.2380    23.7790     2.2140 
  171.3750   -22.7780    59.2140   219.6370   191.1720   216.0980    23.6670     2.2180 
  171.5000   -21.8280    54.7650   210.3700   184.0150   193.9510    23.5900     2.2200 
  171.6250   -20.8960    49.0340   199.9070   175.6730   173.5540    23.5940     2.2150 
  171.7500   -19.9800    47.4290   189.2850   166.7710   156.7450    23.5550     2.2090 
  171.8750   -19.0880    50.7350   179.6560   158.3610   155.1100    23.4280     2.2090 
  172.0000   -18.2280    56.4670   171.6870   151.1820   166.8700    23.2680     2.2180 
  172.1250   -17.4020    60.7790   165.5510   145.5460   166.8900    23.1060     2.2300 
  172.2500   -16.6290    58.8350   161.1610   141.4470   152.9650    22.9420     2.2380 
  172.3750   -15.9140    53.7570   157.6640   138.1280   141.7040    22.8360     2.2410 
  172.5000   -15.2490    50.8460   154.4920   135.0520   141.7010    22.8370     2.2400 
  172.6250   -14.6330    53.1990   151.3250   131.8440   140.9500    22.9630     2.2390 
  172.7500   -14.1040    57.9390   148.6510   128.7230   133.8560    23.1820     2.2460 
  172.8750   -13.6330    59.5750   147.5110   126.6050   127.6460    23.3770     2.2670 
  173.0000   -13.2400    57.5830   148.0690   125.9130   126.5280    23.5030     2.3060 
  173.1250   -12.9210    55.3230   147.7630   125.0150   128.2310    23.5430     2.3580 
  173.2500   -12.6560    55.3930   138.8730   118.0850   130.8980    23.5420     2.4210 
  173.3750   -12.4300    55.1700   119.1390   102.5360   145.5890    23.4700     2.4930 
  173.5000   -12.2460    51.7530    93.7810    81.5700   167.2660    23.2520     2.5670 
  173.6250   -12.0690    45.6250    70.8680    61.6800   127.2480    23.0000     2.6130 
  173.7500   -11.9070    41.0500    56.0120    48.2960    57.6920    22.8190     2.5970 
  173.8750   -11.7490    40.3330    47.7460    40.6890    31.7150    22.8290     2.5670 
  174.0000   -11.5680    41.8050    44.1670    37.2300    30.0530    22.9030     2.5680 
  174.1250   -11.3810    43.9830    43.1700    36.0790    41.2510    22.8810     2.6100 
  174.2500   -11.1930    47.3540    42.4500    35.3560    46.4740    22.7790     2.6620 
  174.3750   -10.9920    49.3810    39.9170    33.2480    43.4660    22.7950     2.6850 
  174.5000   -10.7870    49.5230    34.7810    28.9940    36.5110    22.8180     2.6820 
  174.6250   -10.6030    51.6940    27.7650    23.2180    25.8370    22.6540     2.6720 
  174.7500   -10.4340    57.8900    20.7390    17.5670    19.1260    22.4070     2.6630 
  174.8750   -10.2900    62.1960    15.0390    13.0540    15.5510    22.4170     2.6500 
  175.0000   -10.1770    62.4320    10.9630     9.8120    11.4620    22.7680     2.6230 
  175.1250   -10.0920    61.6560     8.3630     7.6610     7.5650    23.3460     2.5820 
  175.2500   -10.0400    63.0970     7.0280     6.4490     6.5570    23.6640     2.5450 
  175.3750   -10.0140    63.5970     6.3730     5.7790     6.5880    23.7730     2.5190 
  175.5000   -10.0170    60.8770     6.1340     5.4790     6.8180    23.8120     2.5000 
  175.6250   -10.0400    56.1660     6.1070     5.4020     6.6790    23.7960     2.4820 
  175.7500   -10.0650    53.9260     6.1170     5.4050     7.2180    23.6740     2.4760 
  175.8750   -10.0810    55.3230     6.0570     5.3680     6.6140    23.5670     2.4750 
  176.0000   -10.0920    56.9880     5.9250     5.2690     5.9920    23.5840     2.4540 
  176.1250   -10.0970    54.7270     5.7650     5.1360     5.5710    23.6760     2.4060 
  176.2500   -10.1030    50.7330     5.6280     5.0160     5.2600    23.7480     2.3540 
  176.3750   -10.1200    50.5140     5.5420     4.9320     4.9440    23.6760     2.3150 
  176.5000   -10.1650    52.8850     5.5210     4.8900     4.7730    23.6740     2.2860 
  176.6250   -10.2340    53.2510     5.5640     4.8850     4.6780    23.6450     2.2630 
  176.7500   -10.3130    50.8100     5.6840     4.9220     4.7460    23.5400     2.2590 
  176.8750   -10.4340    49.5140     5.8710     5.0000     4.8810    23.5240     2.2800 
  177.0000   -10.6010    49.2700     6.1170     5.1210     5.3100    23.5710     2.3170 
  177.1250   -10.8040    49.5520     6.4020     5.2780     5.5990    23.6820     2.3550 
  177.2500   -11.0200    51.1400     6.6950     5.4460     5.9290    23.8120     2.3770 
  177.3750   -11.2330    52.7950     6.9620     5.5970     6.0930    23.8080     2.3780 
