~V
VERS. 2.00: Ver 2.00
~W
STRT.M 57.0000:
STOP.M 276.0000:
STEP.M 0.1250:
NULL. -999.2500:
UWI. F11063:
~C
DEPT.M :
DEN.GM/CC :
GR.API :
RML.OHMM :
RI. :
RXO.OHMM :
CALI.CM :
SP.MV :
~A
# ...
  203.2500     2.2160    53.0360   204.3700   175.3950   126.1210    24.5670   -17.8470 
  203.3750     2.2110    52.7200   191.5310   165.3670   141.4220    24.3250   -17.6030 
  203.5000     2.2100    53.5000   173.4850   150.5260   139.4050    24.2940   -17.3380 
  203.6250     2.2150    52.7640   155.2470   134.6710   121.1330    24.5600   -17.0680 
  203.7500     2.2190    51.2000   140.8080   121.4930   115.1390    24.8640   -16.7700 
  203.8750     2.2180    50.3930   131.9930   112.8910   114.3140    24.9680   -16.4450 
  204.0000     2.2160    51.5720   129.6740   109.8600   108.9140    24.8800   -16.0870 
  204.1250     2.2140    53.9670   135.1750   113.7200   111.3610    24.6620   -15.6930 
  204.2500     2.2140    54.7920   146.0040   122.3420   121.1520    24.4410   -15.2600 
  204.3750     2.2200    54.1270   157.9080   132.1560   139.4200    24.3170   -14.8030 
  204.5000     2.2370    53.0080   163.0620   137.0760   174.5810    24.2620   -14.3720 
  204.6250     2.2780    53.2030   148.7580   127.3340   166.3620    24.2050   -13.9240 
  204.7500     2.3470    55.2000   117.6600   103.2060   117.6810    24.1410   -13.4070 
  204.8750     2.4360    57.6860    81.4390    72.4650    88.0150    24.0930   -12.9080 
  205.0000     2.5250    61.5070    51.3320    45.4150    47.9390    24.0740   -12.5100 
  205.1250     2.5840    66.7090    32.3660    29.3270    36.0560    24.0790   -12.1390 
  205.2500     2.6040    72.6800    20.9060    21.8320    25.7710    24.0760   -11.7440 
  205.3750     2.5910    77.8900    14.4890    14.8240    16.7730    24.0930   -11.3950 
  205.5000     2.5550    81.6570    11.1700    11.0990    12.5870    24.0980   -11.1490 
  205.6250     2.5170    83.4710     9.7790     9.4030    11.3360    24.0780   -10.9490 
  205.7500     2.4920    81.1200     9.2690     8.6660    11.1200    24.0750   -10.7950 
  205.8750     2.4810    75.6490     9.2880     8.5350    11.0450    24.0710   -10.7100 
  206.0000     2.4810    71.1630     9.5970     8.7600    11.5780    24.0830   -10.6550 
  206.1250     2.4800    68.8530    10.0170     9.1580    11.4270    24.1500   -10.6180 
  206.2500     2.4750    66.1190    10.4130     9.5890    11.5760    24.2540   -10.5810 
  206.3750     2.4650    63.4080    10.7260    10.0130    11.6970    24.3630   -10.5540 
  206.5000     2.4520    62.3350    10.9140    10.3840    11.6690    24.4150   -10.5330 
  206.6250     2.4430    61.3220    10.9240    10.5920    11.5100    24.3930   -10.4650 
  206.7500     2.4420    60.8140    10.7540    10.5500    11.3010    24.3320   -10.3710 
  206.8750     2.4510    61.1390    10.3850    10.2000    11.0690    24.2940   -10.3080 
  207.0000     2.4620    60.1540     9.8680     9.5950    10.7800    24.2850   -10.2640 
  207.1250     2.4740    57.6440     9.3760     8.9010    10.3730    24.2640   -10.1830 
  207.2500     2.4890    55.4440     9.0580     8.3220     9.8900    24.2140   -10.1240 
  207.3750     2.4990    55.1690     8.9530     7.9650     9.5720    24.1500   -10.1100 
  207.5000     2.4940    58.5060     8.9930     7.8360     9.0730    24.1060   -10.1240 
  207.6250     2.4760    63.1570     9.0210     7.8400     8.3700    24.0800   -10.1530 
  207.7500     2.4580    63.8010     8.8660     7.7650     7.6020    24.0760   -10.2060 
  207.8750     2.4480    61.2530     8.4400     7.4720     7.0590    24.0700   -10.2690 
  208.0000     2.4440    60.7630     7.7630     6.9320     7.1690    24.0670   -10.3310 
  208.1250     2.4380    61.0370     6.9720     6.2510     7.6840    24.0730   -10.3850 
  208.2500     2.4190    57.0240     6.3130     5.6400     6.6790    24.0710   -10.4470 
  208.3750     2.3910    51.7640     5.9560     5.2200     6.1220    24.0870   -10.5740 
  208.5000     2.3720    51.0130     5.9480     5.0390     5.5160    24.0910   -10.7280 
  208.6250     2.3780    54.0340     6.2390     5.1100     4.8080    24.0750   -10.8780 
  208.7500     2.3980    58.0430     6.6390     5.3280     5.1140    24.0830   -11.1460 
  208.8750     2.4200    65.7970     7.0510     5.6260     5.5010    24.0950   -11.4970 
  209.0000     2.4360    77.2650     7.4660     5.9680     7.0450    24.0870   -11.8450 
  209.1250     2.4400    88.9180     7.9540     6.3730     7.1560    24.0980   -12.1990 
  209.2500     2.4330    96.3370     8.5390     6.8610     7.4430    24.0980   -12.6050 
  209.3750     2.4180    98.3360     9.1910     7.4380     7.8430    24.0900   -13.0290 
  209.5000     2.3980    95.6310     9.8460     8.0580     8.8170    24.0970   -13.4320 
  209.6250     2.3770    91.5620    10.4290     8.6070    10.3570    24.0950   -13.8000 
  209.7500     2.3560    89.9170    10.8870     8.9770    10.6230    24.0830   -14.1220 
  209.8750     2.3360    90.3020    11.1620     9.1070    10.7710    24.0650   -14.4120 
  210.0000     2.3230    91.5870    11.2270     9.0000    10.2330    24.0520   -14.6770 
  210.1250     2.3270    92.9500    11.0930     8.7040     9.0240    24.0420   -14.8820 
  210.2500     2.3470    92.2370    10.9150     8.3740     8.7830    24.0420   -15.0340 
  210.3750     2.3690    89.6600    10.8220     8.1240     8.9810    24.0460   -15.1410 
  210.5000     2.3820    87.9830    10.9150     8.0430    11.1060    24.0720   -15.1590 
  210.6250     2.3830    88.7870    11.3060     8.2380    11.4840    24.1580   -15.1610 
  210.7500     2.3800    89.0670    11.9630     8.6880    12.8130    24.2670   -15.1840 
  210.8750     2.3740    87.0200    12.8340     9.3600    14.4910    24.3130   -15.1380 
  211.0000     2.3660    83.6770    13.8650    10.2110    15.2530    24.2810   -14.9950 
  211.1250     2.3700    82.4990    15.0420    11.2470    15.4020    24.2550   -14.8510 
  211.2500     2.3880    82.8780    16.3530    12.4750    15.8450    24.2520   -14.7230 
  211.3750     2.4150    80.9580    17.8550    13.9480    17.6350    24.2160   -14.5260 
  211.5000     2.4410    74.7510    19.6550    15.7310    20.9920    24.1320   -14.2440 
  211.6250     2.4700    68.8690    21.9820    17.9580    24.9830    24.1290   -13.8650 
  211.7500     2.5010    69.4630    24.7610    20.5360    27.0770    24.1800   -13.4110 
  211.8750     2.5310    73.4190    27.5130    23.1030    27.3980    24.2070   -12.9060 
  212.0000     2.5530    75.4180    29.0750    24.7140    26.2240    24.2140   -12.3580 
  212.1250     2.5660    74.8680    27.3810    23.5690    26.2280    24.2020   -11.7630 
  212.2500     2.5720    75.0090    22.7400    19.8550    27.6730    24.1800   -11.1680 
  212.3750     2.5690    74.2970    16.8120    15.0070    25.6220    24.1400   -10.5770 
  212.5000     2.5460    70.4590    11.5010    10.6140    17.2840    24.0900   -10.0200 
  212.6250     2.4920    65.2930     8.0540     7.6380     9.4270    24.1000    -9.5920 
  212.7500     2.4300    61.7210     6.1150     5.8050     7.8020    24.1380    -9.2210 
  212.8750     2.3850    61.0000     5.3050     4.8520     8.1190    24.1520    -8.8820 
  213.0000     2.3690    64.4800     5.2970     4.5590     8.6680    24.1720    -8.6170 
  213.1250     2.3710    71.7930     5.8530     4.8030     9.8910    24.2060    -8.4790 
  213.2500     2.3790    79.8480     6.5510     5.2920    11.4360    24.2580    -8.4000 
  213.3750     2.3850    88.3570     7.1050     5.8160    12.3650    24.3190    -8.3250 
  213.5000     2.3850    96.9660     7.3620     6.2070    12.0020    24.3960    -8.2750 
  213.6250     2.3790   100.4910     7.3110     6.3540    10.9780    24.4300    -8.2610 
  213.7500     2.3750    97.0750     7.1120     6.3150    10.1270    24.4230    -8.2350 
  213.8750     2.3800    90.9220     6.8540     6.1600     9.5170    24.4020    -8.1860 
  214.0000     2.3860    87.7190     6.6020     5.9730     9.0240    24.3980    -8.1530 
  214.1250     2.3830    90.1010     6.4530     5.8600     9.0310    24.4210    -8.1530 
  214.2500     2.3730    93.9970     6.4700     5.8730     8.9720    24.4320    -8.1370 
  214.3750     2.3620    95.3020     6.6780     6.0330     8.3380    24.4320    -8.1220 
