~V
VERS. 2.00: Ver 2.00
~W
STRT.M 7.0000:
STOP.M 259.0000:
STEP.M 0.1250:
NULL. -999.2500:
UWI. F11018:
~C
DEPT.M :
DEN.GM/CC :
SP.MV :
GR.API :
RML.OHMM :
RI. :
RXO.OHMM :
CALI.CM :
~A
# ...
  187.0000     2.2610   -23.6150    57.3890   113.7030    93.9790    75.7090    24.7680 
  187.1250     2.2640   -23.6010    56.7450   122.0670   100.0700    80.8600    24.8340 
  187.2500     2.2680   -23.6230    56.8480   133.1340   108.5300    90.4770    24.8220 
  187.3750     2.2740   -23.6640    58.5710   145.7980   118.5630   115.0960    24.8720 
  187.5000     2.2830   -23.6530    58.7720   157.6260   128.3220   143.2160    24.9920 
  187.6250     2.2940   -23.6270    58.0130   165.7390   135.5360   165.2640    25.0930 
  187.7500     2.3080   -23.6330    58.0540   167.8930   138.4920   183.9050    25.1360 
  187.8750     2.3200   -23.6390    58.6830   163.3460   136.4980   192.2400    25.1210 
  188.0000     2.3210   -23.6370    58.3290   152.8750   129.8260   189.5030    25.0750 
  188.1250     2.3130   -23.6600    57.4470   140.2710   121.2500   173.4180    25.0640 
  188.2500     2.2990   -23.7100    57.9420   127.7720   112.6210   149.7960    25.1080 
  188.3750     2.2880   -23.7600    59.3260   116.6430   105.1360   128.6400    25.1500 
  188.5000     2.2800   -23.8070    59.8340   107.4950    99.4430   114.4090    25.1730 
  188.6250     2.2720   -23.8480    59.7650    99.5530    94.8750   121.5290    25.1960 
  188.7500     2.2680   -23.8800    61.4450    91.9810    90.5960   136.1540    25.2070 
  188.8750     2.2710   -23.8750    64.1310    85.6610    85.6610   135.6710    25.1980 
  189.0000     2.2850   -23.8120    64.8600    78.7790    78.7790   115.4850    25.1710 
  189.1250     2.3050   -23.7250    62.1510    69.2890    69.2890    92.2020    25.1580 
  189.2500     2.3300   -23.5870    57.4070    56.9050    56.9050    72.5560    25.1490 
  189.3750     2.3570   -23.3370    54.0330    42.7390    42.7390    52.7320    25.1250 
  189.5000     2.3900   -23.0130    55.2400    29.7210    29.7210    36.3650    25.0500 
  189.6250     2.4310   -22.7350    61.5210    19.8070    19.8070    24.0400    24.9440 
  189.7500     2.4770   -22.4620    73.9680    13.2070    13.2070    14.2150    24.8300 
  189.8750     2.5210   -22.2310    92.7310     9.2230     9.2230     7.8330    24.6970 
  190.0000     2.5590   -22.1850   108.3010     7.2010     7.2010     5.2120    24.4510 
  190.1250     2.5880   -22.2760   110.3290     6.2140     6.2140     4.6350    24.3570 
  190.2500     2.5950   -22.4550   101.8130     5.9470     5.9470     5.0720    24.5930 
  190.3750     2.5630   -22.7550    92.3990     6.1990     6.1990     6.0380    25.0550 
  190.5000     2.5010   -23.2030    88.0040     6.8550     6.8550     6.9350    25.4910 
  190.6250     2.4490   -23.6980    87.7140     7.7160     7.7160     7.4600    25.7460 
  190.7500     2.4210   -24.1920    88.3840     8.7350     8.7350     7.8580    25.8130 
  190.8750     2.4150   -24.6220    87.1120     9.9900     9.9900     8.4820    25.7870 
  191.0000     2.4170   -24.9040    82.8690    11.8610    11.8610    10.3600    25.7320 
  191.1250     2.4110   -25.0970    77.9070    14.8090    14.7090    13.9870    25.7360 
  191.2500     2.3930   -25.2590    73.4820    19.3040    18.9320    19.8150    25.7860 
  191.3750     2.3720   -25.3960    70.7940    25.4160    24.7110    28.4820    25.7670 
  191.5000     2.3610   -25.4640    72.1720    33.0450    31.7330    39.5260    25.5410 
  191.6250     2.3570   -25.4870    75.0230    40.8330    38.5080    45.5200    25.2040 
  191.7500     2.3550   -25.5000    77.6860    47.4850    43.8390    44.2880    24.8450 
  191.8750     2.3520   -25.5110    80.1530    52.5050    47.4290    36.8520    24.4710 
  192.0000     2.3450   -25.5500    80.2520    56.5380    49.9640    28.5100    24.1860 
  192.1250     2.3330   -25.6110    76.5530    60.7210    52.5580    25.5930    24.1350 
  192.2500     2.3190   -25.6350    72.2990    65.2670    55.4880    27.2050    24.1970 
  192.3750     2.3120   -25.6140    70.7710    69.8160    58.5370    30.3480    24.1110 
  192.5000     2.3120   -25.6130    68.1390    73.5530    61.1320    30.0480    24.0060 
  192.6250     2.3090   -25.6220    62.3040    75.9380    62.8330    30.9140    24.0210 
  192.7500     2.3000   -25.5950    57.7880    76.5970    63.3330    32.8700    24.0810 
  192.8750     2.2890   -25.5460    59.2340    75.4960    62.5680    35.5100    24.0700 
  193.0000     2.2890   -25.4690    63.9760    72.9370    60.7320    36.5070    23.9820 
  193.1250     2.3040   -25.3220    66.5950    70.0220    58.6430    35.0580    23.8720 
  193.2500     2.3280   -25.1070    66.8060    67.5520    56.9530    30.5040    23.8600 
  193.3750     2.3660   -24.8610    64.6580    66.0250    56.1760    26.6700    23.8770 
  193.5000     2.4340   -24.5750    58.5250    65.3470    56.5470    26.6130    23.6830 
  193.6250     2.5280   -24.1980    52.3470    64.1720    57.0680    28.5530    23.3530 
  193.7500     2.6190   -23.7480    51.1840    60.9870    56.2900    27.9080    23.0840 
  193.8750     2.6720   -23.2850    54.3560    55.0810    52.9530    24.0870    22.9490 
  194.0000     2.6820   -22.7830    54.7340    47.2630    46.7600    22.2160    22.9120 
  194.1250     2.6810   -22.2350    51.4680    39.4710    39.5690    20.9080    22.8290 
  194.2500     2.6770   -21.6820    50.2090    32.2600    32.4620    18.9180    22.6640 
  194.3750     2.6660   -21.1420    53.4730    25.4230    25.7430    16.2020    22.5510 
  194.5000     2.6530   -20.6120    54.9580    19.7840    19.4120    13.6780    22.6220 
  194.6250     2.6420   -20.1440    50.6930    13.5530    13.6650    11.2070    22.7930 
  194.7500     2.6260   -19.7210    45.0120     8.5820     8.9740     7.8600    23.0050 
  194.8750     2.5970   -19.3100    43.4120     5.1260     5.5880     4.8390    23.4790 
  195.0000     2.5560   -18.9890    44.5410     3.1830     3.5350     3.2870    24.4230 
  195.1250     2.5120   -18.7780    44.9760     2.1250     2.2940     2.3830    25.2760 
  195.2500     2.4680   -18.6450    45.6730     1.6600     1.6210     1.7670    25.6080 
  195.3750     2.4340   -18.5950    47.9450     1.6070     1.3590     1.7050    25.6180 
  195.5000     2.4170   -18.6210    51.3760     1.9090     1.4560     2.3160    25.6050 
  195.6250     2.4070   -18.6550    53.6120     2.4470     1.7960     3.1840    25.5810 
  195.7500     2.3940   -18.7540    53.0800     3.0240     2.3210     4.0300    25.4140 
  195.8750     2.3760   -18.9420    49.1900     3.6720     2.9380     4.6210    25.1960 
  196.0000     2.3560   -19.1460    44.7910     4.1560     3.4780     4.5860    24.9110 
  196.1250     2.3470   -19.3320    43.5240     4.3760     3.8200     4.3890    24.7690 
  196.2500     2.3540   -19.5360    43.3910     4.3970     3.9610     4.2460    24.7690 
  196.3750     2.3750   -19.7530    41.9960     4.3460     3.9820     4.2610    24.8490 
  196.5000     2.4020   -19.9450    39.7700     4.3410     3.9800     4.3920    24.8590 
  196.6250     2.4300   -20.1270    38.0690     4.4250     4.0050     4.6060    24.7700 
  196.7500     2.4550   -20.2870    36.9970     4.5950     4.0590     4.9320    24.7120 
  196.8750     2.4750   -20.4050    37.2530     4.8230     4.1290     5.0600    24.6680 
  197.0000     2.4830   -20.4990    40.1990     5.0650     4.2040     5.0870    24.6730 
  197.1250     2.4820   -20.5870    41.7870     5.2820     4.2770     5.0620    24.7180 
  197.2500     2.4770   -20.6430    39.7660     5.4620     4.3510     5.1910    24.7530 
  197.3750     2.4710   -20.6540    36.9530     5.6080     4.4230     5.4040    24.7380 
  197.5000     2.4600   -20.6610    38.0360     5.7280     4.4920     5.4860    24.6680 
  197.6250     2.4470   -20.6900    42.2400     5.8290     4.5530     5.3670    24.6020 
  197.7500     2.4350   -20.7100    45.6840     5.9120     4.6050     5.3290    24.5510 
  197.8750     2.4290   -20.7080    45.8170     5.9780     4.6480     5.3560    24.5190 
  198.0000     2.4290   -20.7230    44.2410     6.0270     4.6810     5.4260    24.5020 
  198.1250     2.4300   -20.7650    44.4750     6.0640     4.7100     5.3610    24.4550 
