~V
VERS. 2.00: Ver 2.00
~W
STRT.M 55.0000:
STOP.M 229.0000:
STEP.M 0.1250:
NULL. -999.2500:
UWI. F11013:
~C
DEPT.M :
DEN.GM/CC :
GR.API :
RML.OHMM :
RI. :
RXO.OHMM :
CALI.CM :
SP.MV :
~A
# ...
  212.5000     2.3560    75.8250     9.6350     8.7690     6.4320    20.4330    -9.7160 
  212.6250     2.3610    75.9750     9.7090     8.9080     6.9450    20.7220    -9.5100 
  212.7500     2.3800    74.3060     9.7310     9.0080     7.2090    20.8800    -9.3220 
  212.8750     2.3980    73.2790     9.7230     9.0600     6.9920    21.2430    -9.1670 
  213.0000     2.4010    74.2880     9.7140     9.0820     6.4990    21.7410    -9.0250 
  213.1250     2.3930    74.5090     9.7190     9.0850     6.3140    22.3990    -8.8790 
  213.2500     2.3830    72.9600     9.7460     9.0760     6.4300    23.1010    -8.7590 
  213.3750     2.3780    73.4710     9.7820     9.0390     6.6280    23.3870    -8.6160 
  213.5000     2.3810    77.8780     9.7910     8.9620     6.7970    23.4500    -8.4810 
  213.6250     2.3970    83.7980     9.7510     8.8410     6.7080    23.4370    -8.3600 
  213.7500     2.4220    85.2080     9.6580     8.6830     6.4290    23.4440    -8.2400 
  213.8750     2.4380    80.0110     9.5380     8.5160     6.1750    23.4880    -8.1240 
  214.0000     2.4430    74.0300     9.4520     8.3770     6.1300    23.5400    -8.0010 
  214.1250     2.4450    71.3680     9.4470     8.2980     6.2120    23.5720    -7.8970 
  214.2500     2.4520    71.6250     9.5480     8.3040     6.3110    23.5750    -7.7690 
  214.3750     2.4620    72.4030     9.7710     8.4240     6.4800    23.5640    -7.6440 
  214.5000     2.4700    73.2600    10.0690     8.6320     6.7570    23.4900    -7.4940 
  214.6250     2.4770    72.6150    10.3930     8.8920     7.1210    23.3150    -7.3720 
  214.7500     2.4840    69.4070    10.6890     9.1570     7.6130    23.0980    -7.2620 
  214.8750     2.4940    65.5220    10.9100     9.3820     8.1800    22.9080    -7.1480 
  215.0000     2.5070    63.4730    11.0780     9.5700     8.7570    22.8170    -7.0600 
  215.1250     2.5170    63.8920    11.2430     9.7500     9.4790    22.8980    -6.9760 
  215.2500     2.5190    66.3310    11.4570     9.9610    10.6440    23.1000    -6.9130 
  215.3750     2.5090    69.3450    11.7590    10.2250    12.9590    23.3280    -6.9020 
  215.5000     2.4990    69.1490    12.1070    10.5180    15.4570    23.4150    -6.9310 
  215.6250     2.4980    68.1800    12.4460    10.8030    16.1800    23.4420    -6.9820 
  215.7500     2.5060    68.8470    12.7200    11.0410    16.0760    23.4710    -7.0580 
  215.8750     2.5190    69.2950    12.8540    11.1800    14.3180    23.5220    -7.1190 
  216.0000     2.5290    69.5070    12.8420    11.2070    13.9280    23.5780    -7.2080 
  216.1250     2.5340    70.8950    12.6920    11.1210    14.9670    23.6130    -7.3050 
  216.2500     2.5330    72.8010    12.4440    10.9390    15.9770    23.6230    -7.3990 
  216.3750     2.5280    71.0790    12.1620    10.7090    17.4440    23.6000    -7.4920 
  216.5000     2.5220    67.4570    11.9300    10.5080    15.0530    23.5470    -7.5850 
  216.6250     2.5160    66.4570    11.8040    10.3920    11.8350    23.5010    -7.6690 
  216.7500     2.5170    69.8040    11.8130    10.3900     9.1520    23.5230    -7.7160 
  216.8750     2.5240    74.4230    11.9670    10.5180     8.2870    23.5420    -7.7720 
  217.0000     2.5260    76.2430    12.2040    10.7240     8.1710    23.5120    -7.8250 
  217.1250     2.5200    75.7670    12.4730    10.9680     8.6160    23.4280    -7.8600 
  217.2500     2.5070    75.1310    12.7360    11.2200     9.9840    23.3590    -7.8980 
  217.3750     2.4980    73.0040    12.9740    11.4570    11.2390    23.2960    -7.9610 
  217.5000     2.5010    70.2100    13.1940    11.6730    12.0820    23.2500    -8.0170 
  217.6250     2.5130    68.5270    13.3900    11.8640    12.6720    23.2880    -8.0960 
  217.7500     2.5250    67.9480    13.5480    12.0220    13.3850    23.2770    -8.1970 
  217.8750     2.5240    67.1690    13.6490    12.1380    14.3860    23.1130    -8.3310 
  218.0000     2.5110    66.4790    13.7140    12.2240    15.5160    23.0010    -8.4680 
  218.1250     2.4980    66.1290    13.7770    12.3020    16.0360    23.0110    -8.6280 
  218.2500     2.4910    66.1160    13.8730    12.3910    17.2000    23.0560    -8.7940 
  218.3750     2.4900    67.3660    14.0250    12.5140    17.2920    23.0070    -8.9040 
  218.5000     2.4920    68.4350    14.2030    12.6590    17.0410    23.0070    -9.0100 
  218.6250     2.4950    68.3140    14.3630    12.8050    16.9830    23.0610    -9.0980 
  218.7500     2.4970    67.9730    14.4580    12.9190    15.5170    23.1050    -9.1960 
  218.8750     2.4970    69.0920    14.4350    12.9590    14.3140    23.1010    -9.2310 
  219.0000     2.5010    69.0920    14.3180    12.9250    12.0570    23.2040    -9.2500 
  219.1250     2.5100    69.0920    14.1560    12.8340    10.6690    23.4520    -9.2520 
  219.2500     2.5220    69.0920    14.0120    12.7220     9.8820    23.6580    -9.2130 
  219.3750     2.5260    69.0920    13.9560    12.6430     9.3560    23.7270    -9.1860 
  219.5000     2.5190    69.0920    14.0060    12.6340     9.3120    23.7410    -9.1640 
  219.6250     2.5050    69.0920    14.1570    12.7190    10.0660    23.7540    -9.1430 
  219.7500     2.4950    69.0920    14.3850    12.9010    12.4250    23.7490    -9.1030 
  219.8750     2.4930    69.0920    14.6630    13.1710    15.5760    23.7340    -9.0640 
  220.0000     2.4980    69.0920    14.9540    13.4760    15.5070    23.7510    -9.0050 
  220.1250     2.5060    69.0920    15.2340    13.7810    13.4240    23.7610    -8.9450 
  220.2500     2.5160    69.0920    15.4850    14.0620    12.7460    23.7050    -8.9000 
  220.3750     2.5290    69.0920    15.6710    14.2910    15.0630    23.6340    -8.8590 
  220.5000     2.5440    69.0920    15.7490    14.4350    19.3380    23.6320    -8.8180 
  220.6250     2.5580    69.0920    15.6420    14.4240    22.5380    23.5970    -8.7670 
  220.7500     2.5640    69.0920    15.2870    14.1800    21.7820    23.5560    -8.7170 
  220.8750     2.5510    69.0920    14.6390    13.6360    18.6180    23.5410    -8.6800 
  221.0000     2.5240    69.0920    13.8240    12.9060    13.8040    23.5500    -8.6370 
  221.1250     2.4930    69.0920    12.9630    12.1120     9.6800    23.5430    -8.6030 
  221.2500     2.4690    69.0920    12.1850    11.3820     7.8990    23.4880    -8.5810 
  221.3750     2.4600    69.0920    11.6230    10.8450     8.6390    23.5330    -8.5570 
  221.5000     2.4610    69.0920    11.2920    10.5140    11.3470    23.7330    -8.5050 
  221.6250     2.4630    69.0920    11.1920    10.3880    12.9410    23.8600    -8.4390 
  221.7500     2.4600    69.0920    11.2960    10.4490    11.8420    23.8690    -8.3910 
  221.8750     2.4560    69.0920    11.5740    10.6860    11.6420    23.8680    -8.3620 
  222.0000     2.4570    69.0920    11.9290    11.0260    13.4410    23.9150    -8.3210 
  222.1250     2.4660    69.0920    12.3010    11.4120    17.8540    24.0150    -8.2660 
  222.2500     2.4790    69.0920    12.6350    11.7810    20.7730    24.0690    -8.2200 
  222.3750     2.4880    69.0920    12.8790    12.0480    20.6080    24.0300    -8.1840 
  222.5000     2.4920    69.0920    13.0350    12.1860    16.8980    23.9820    -8.1460 
  222.6250     2.4920    69.0920    13.1210    12.2030    12.0710    23.9320    -8.1030 
  222.7500     2.4910    69.0920    13.1640    12.1380     9.5030    23.9000    -8.0540 
  222.8750     2.4910    69.0920    13.1900    12.0440     9.9820    23.9110    -7.9880 
  223.0000     2.4940    69.0920    13.2110    11.9650    12.1200    23.9710    -7.9680 
  223.1250     2.5020    69.0920    13.2250    11.9180    14.0310    24.0250    -7.9620 
  223.2500     2.5080    69.0920    13.2290    11.9020    14.5340    24.0040    -7.9070 
  223.3750     2.5110    69.0920    13.2230    11.9140    14.1640    23.9420    -7.8710 
  223.5000     2.5130    69.0920    13.2140    11.9390    13.5190    23.9210    -7.8640 
  223.6250     2.5170    69.0920    13.2050    11.9690    12.3730    23.9340    -7.8650 
