~V
VERS. 2.00: Ver 2.00
~W
STRT.M 60.0000:
STOP.M 274.0000:
STEP.M 0.1250:
NULL. -999.2500:
UWI. F11079:
~C
DEPT.M :
GR.API :
RML.OHMM :
RI. :
RXO.OHMM :
CALI.CM :
DEN.GM/CC :
SP.MV :
~A
# ...
  195.0000    68.7770   163.0070   146.2080   104.4950    24.1330     2.2500   -10.4450 
  195.1250    68.8150   181.1750   160.4510   113.8440    24.1410     2.2500   -10.4690 
  195.2500    64.0670   211.6100   181.1590   154.3250    24.1490     2.2450   -10.4770 
  195.3750    60.0880   239.6280   206.3990   242.7580    24.2090     2.2350   -10.4800 
  195.5000    59.0690   258.5860   226.5530   461.4750    24.3960     2.2170   -10.5080 
  195.6250    57.0740   244.4460   222.2630   638.9540    24.6930     2.1880   -10.5490 
  195.7500    54.7500   205.5590   194.0930   556.6330    24.8560     2.1520   -10.5860 
  195.8750    57.1290   163.1960   156.0810   214.8610    24.8290     2.1260   -10.6180 
  196.0000    62.7170   131.5490   123.2780    89.5550    24.6000     2.1240   -10.6510 
  196.1250    66.5360   115.6590   104.8120    68.4080    24.3210     2.1490   -10.7390 
  196.2500    67.9740   110.7460    98.0100    88.7430    24.1340     2.1810   -10.8690 
  196.3750    68.3880   114.0390    99.9990   119.0670    23.9980     2.2050   -11.0170 
  196.5000    67.6410   122.9880   107.9380   130.7600    23.8760     2.2200   -11.1290 
  196.6250    64.9370   134.9540   119.4110   118.9630    23.8520     2.2320   -11.1890 
  196.7500    63.2750   145.7880   130.6770   122.7860    23.9450     2.2410   -11.2220 
  196.8750    63.9170   151.9190   138.5850   116.6920    24.1340     2.2380   -11.2320 
  197.0000    65.3880   150.5860   140.4850    77.9990    24.2930     2.2210   -11.1990 
  197.1250    64.4240   139.5680   133.6980    49.9740    24.2510     2.1980   -11.0850 
  197.2500    63.1200   122.5410   120.3820    41.6060    24.1750     2.1820   -10.9100 
  197.3750    66.1370   104.0340   103.9280    44.6610    24.1280     2.1770   -10.6940 
  197.5000    74.1490    88.2790    88.5080    47.7670    24.0570     2.1860   -10.4750 
  197.6250    82.3290    77.9250    77.4650    43.5490    23.8890     2.2080   -10.2830 
  197.7500    84.8620    71.5970    70.2310    38.5000    23.7390     2.2330   -10.1010 
  197.8750    79.2960    67.8530    65.6310    39.7870    23.6770     2.2550    -9.9180 
  198.0000    69.9640    65.1550    62.3320    47.0920    23.7080     2.2710    -9.8000 
  198.1250    66.6160    62.1960    59.1840    52.3710    23.8280     2.2820    -9.7830 
  198.2500    69.8980    58.9260    55.9100    52.2040    23.9230     2.2900    -9.8310 
  198.3750    73.6110    56.4690    53.2450    50.0010    23.9500     2.2920    -9.9340 
  198.5000    75.2650    56.4740    52.4040    49.5430    23.9050     2.2870   -10.0640 
  198.6250    75.4650    61.4780    55.5190    52.2350    23.7910     2.2780   -10.1870 
  198.7500    74.6410    72.3130    63.6780    63.1350    23.6880     2.2690   -10.3030 
  198.8750    72.2450    89.9980    78.1790    96.1900    23.6480     2.2610   -10.4380 
  199.0000    70.0520   114.7980    99.4110   158.1110    23.6550     2.2470   -10.5610 
  199.1250    67.8760   145.1770   125.7300   184.5250    23.6950     2.2290   -10.6420 
  199.2500    64.7820   173.4970   150.2880   159.3570    23.8070     2.2150   -10.6870 
  199.3750    61.4440   191.1920   166.2370   123.1260    24.0880     2.2050   -10.6950 
  199.5000    58.8020   193.4470   169.7870    96.1010    24.5910     2.1910   -10.6970 
  199.6250    58.5510   182.6950   162.0680    86.0280    25.1310     2.1660   -10.7240 
  199.7500    60.0860   169.3360   151.0860    91.2180    25.3210     2.1380   -10.7510 
  199.8750    62.3980   158.1930   141.1570   102.5000    25.2840     2.1220   -10.7680 
  200.0000    64.5880   150.5180   133.9520    93.2360    25.1950     2.1230   -10.7670 
  200.1250    65.4020   145.0410   129.0350    77.5000    25.1560     2.1360   -10.7670 
  200.2500    65.3230   138.6870   123.9630    81.7580    25.1360     2.1490   -10.7960 
  200.3750    64.5270   129.6310   117.0120    99.0450    25.1040     2.1620   -10.8460 
  200.5000    64.6960   117.4730   107.4450   131.7040    25.0810     2.1750   -10.8850 
  200.6250    64.8950   103.0920    95.5120   102.4090    25.0300     2.1880   -10.8630 
  200.7500    64.1270    86.6340    82.9700    63.8390    24.7950     2.1970   -10.8190 
  200.8750    63.8930    71.7400    71.0430    52.3300    24.2780     2.2100   -10.7620 
  201.0000    66.7260    61.2360    60.7540    50.6620    23.7430     2.2330   -10.7170 
  201.1250    71.3500    54.4820    53.6100    47.7140    23.5020     2.2660   -10.6620 
  201.2500    72.4350    51.8500    50.0200    38.1020    23.4250     2.2930   -10.5830 
  201.3750    69.8550    54.0740    50.6200    33.4740    23.4090     2.3040   -10.5000 
  201.5000    68.5730    62.2210    56.4150    35.9350    23.3940     2.2980   -10.4320 
  201.6250    69.4570    79.2430    70.5750    53.7930    23.5240     2.2730   -10.3990 
  201.7500    68.2270   105.2310    93.6220    91.1810    23.8170     2.2290   -10.3720 
  201.8750    64.3660   139.3600   124.7570   121.3540    24.2110     2.1760   -10.3410 
  202.0000    60.9280   176.4820   158.9710   129.0660    24.4770     2.1320   -10.2940 
  202.1250    59.7890   203.7040   184.9840   134.7710    24.5500     2.1140   -10.2530 
  202.2500    58.9700   213.9550   196.6620   131.6660    24.5560     2.1150   -10.2100 
  202.3750    57.7150   209.4260   195.1450   118.6450    24.5660     2.1250   -10.1290 
  202.5000    56.5690   196.4950   185.3240   101.7860    24.5340     2.1380   -10.0090 
  202.6250    57.2100   178.3500   169.9800    92.7550    24.4770     2.1540    -9.8880 
  202.7500    59.0810   156.4190   150.5860    84.3110    24.4380     2.1740    -9.8000 
  202.8750    60.4530   131.8850   128.0700    69.6350    24.4330     2.1970    -9.7530 
  203.0000    60.7520   107.0020   104.4910    53.2470    24.4260     2.2210    -9.7190 
  203.1250    61.3240    84.7810    82.8800    48.1460    24.3970     2.2440    -9.6490 
  203.2500    64.0760    66.6060    65.0090    44.5330    24.3680     2.2620    -9.5550 
  203.3750    69.4300    53.1340    51.7090    33.0520    24.3640     2.2770    -9.4380 
  203.5000    75.2720    44.4180    43.0390    22.6320    24.3460     2.2970    -9.3060 
  203.6250    76.1600    40.8480    39.1950    20.7560    24.3180     2.3210    -9.1740 
  203.7500    73.0520    41.3900    39.0570    23.3050    24.2960     2.3420    -9.0990 
  203.8750    70.0880    45.9820    42.6270    30.3670    24.2850     2.3510    -9.0710 
  204.0000    68.5930    54.5490    50.1070    41.1520    24.2860     2.3450    -9.0580 
  204.1250    66.9330    67.0360    61.8890    47.7600    24.3010     2.3270    -9.0450 
  204.2500    63.4190    81.1970    75.8150    57.5480    24.3230     2.3080    -9.0220 
  204.3750    59.5160    94.5730    89.1950    70.6290    24.3270     2.2920    -9.0000 
  204.5000    58.6270   104.5500    99.0550    80.3080    24.3000     2.2820    -8.9810 
  204.6250    62.0200   108.7140   102.6660    67.4910    24.1680     2.2780    -8.9460 
  204.7500    67.2160   108.5710   101.5070    45.0540    23.9120     2.2770    -8.8780 
  204.8750    71.6910   106.1870    97.5980    30.1650    23.6260     2.2780    -8.8380 
  205.0000    75.0430   103.9700    93.3050    27.1370    23.5320     2.2760    -8.8790 
  205.1250    76.9400   104.6540    91.2140    30.0290    23.5740     2.2680    -9.0220 
  205.2500    76.0730   109.4590    92.6230    36.4420    23.5860     2.2620    -9.2160 
  205.3750    73.1670   119.0450    98.3210    54.9110    23.6100     2.2630    -9.4520 
  205.5000    70.3720   133.1910   108.3710   102.8100    23.7730     2.2710    -9.6990 
  205.6250    67.9480   151.1390   122.4310   143.5320    24.0670     2.2800    -9.8890 
  205.7500    64.0090   170.2510   138.2090   170.6560    24.2770     2.2860   -10.0180 
  205.8750    59.7080   188.3820   153.8960   210.3270    24.4400     2.2810   -10.1240 
  206.0000    57.3030   203.7080   167.9340   216.3070    24.6140     2.2590   -10.2330 
  206.1250    56.8830   214.5810   178.9640   274.0610    24.7390     2.2230   -10.3310 
