~V
VERS. 2.00: Ver 2.00
~W
STRT.M 59.0000:
STOP.M 291.0000:
STEP.M 0.1250:
NULL. -999.2500:
UWI. F11077:
~C
DEPT.M :
DEN.GM/CC :
GR.API :
RML.OHMM :
RI. :
RXO.OHMM :
CALI.CM :
SP.MV :
~A
# ...
  149.0000     2.2950    78.3740     7.7740     7.1390     7.5560    25.6260   -12.7420 
  149.1250     2.2830    75.4820     8.0570     7.3340     7.6610    25.4910   -13.4030 
  149.2500     2.2730    72.9320     8.4180     7.5770     7.8630    25.3420   -13.9840 
  149.3750     2.2660    72.6490     8.8730     7.8940     8.3080    25.2210   -14.4910 
  149.5000     2.2650    74.3960     9.3870     8.2730     8.8730    25.1020   -14.9220 
  149.6250     2.2710    76.6200     9.9140     8.6870     9.4100    25.0040   -15.2940 
  149.7500     2.2810    77.7670    10.4230     9.1070     9.9640    25.0350   -15.5740 
  149.8750     2.2900    75.9190    10.9130     9.5210    10.5830    25.2130   -15.7940 
  150.0000     2.2880    72.6430    11.3820     9.9190    11.0040    25.4130   -15.9670 
  150.1250     2.2730    72.4250    11.8030    10.2860    11.3170    25.5840   -16.0580 
  150.2500     2.2450    75.6140    12.1180    10.5790    13.3310    25.8510   -16.0850 
  150.3750     2.2180    76.5800    12.2650    10.7480    18.1820    26.1390   -16.0460 
  150.5000     2.2020    72.6030    12.2350    10.7730    20.6300    26.1900   -15.9510 
  150.6250     2.2020    68.4890    12.0610    10.6670    16.6750    26.0150   -15.8140 
  150.7500     2.2150    68.5470    11.8200    10.4800    12.2450    25.7620   -15.6480 
  150.8750     2.2290    70.9040    11.5880    10.2670    10.7000    25.5740   -15.4440 
  151.0000     2.2350    71.7220    11.4060    10.0750    10.3610    25.4870   -15.2460 
  151.1250     2.2340    71.7310    11.2760     9.9220    10.1700    25.4610   -15.0890 
  151.2500     2.2310    72.7940    11.1780     9.8090     9.8640    25.4440   -14.9620 
  151.3750     2.2300    74.3460    11.0930     9.7300     9.4490    25.4200   -14.8800 
  151.5000     2.2310    75.9810    11.0250     9.6780     9.2040    25.4000   -14.8630 
  151.6250     2.2330    77.9570    10.9850     9.6570     9.3040    25.3880   -14.8850 
  151.7500     2.2340    78.0980    10.9760     9.6650     9.4720    25.3740   -14.9410 
  151.8750     2.2340    74.0000    10.9810     9.6900     9.4470    25.3540   -15.0300 
  152.0000     2.2340    69.8500    10.9820     9.7150     9.3320    25.3410   -15.1140 
  152.1250     2.2340    70.9100    10.9690     9.7260     9.1180    25.3480   -15.1860 
  152.2500     2.2350    74.6770    10.9380     9.7160     8.7790    25.3540   -15.2390 
  152.3750     2.2370    75.6890    10.8920     9.6830     8.6230    25.3320   -15.2870 
  152.5000     2.2390    75.2190    10.8310     9.6340     8.7510    25.2950   -15.3100 
  152.6250     2.2410    77.1530    10.7470     9.5660     8.7830    25.2730   -15.3080 
  152.7500     2.2390    80.6400    10.6370     9.4740     8.6480    25.2780   -15.2810 
  152.8750     2.2330    81.0520    10.5060     9.3630     8.5230    25.3130   -15.2350 
  153.0000     2.2230    77.3970    10.3750     9.2500     8.3760    25.3480   -15.1710 
  153.1250     2.2140    72.2240    10.2640     9.1530     8.1080    25.3040   -15.0410 
  153.2500     2.2120    69.0800    10.1900     9.0880     7.8820    25.1250   -14.8590 
  153.3750     2.2170    69.8030    10.1580     9.0600     7.8620    24.9210   -14.6440 
  153.5000     2.2240    72.3410    10.1580     9.0620     8.0320    24.8500   -14.4110 
  153.6250     2.2270    74.0340    10.1800     9.0800     8.3370    24.8790   -14.1810 
  153.7500     2.2210    74.1170    10.2060     9.0930     8.4740    24.9540   -13.9600 
  153.8750     2.2090    73.0210    10.2080     9.0780     8.2750    25.0040   -13.7270 
  154.0000     2.2000    71.4670    10.1680     9.0240     8.0070    24.9760   -13.5170 
  154.1250     2.2000    70.9490    10.0790     8.9290     7.7360    24.9130   -13.3710 
  154.2500     2.2170    73.7340     9.9500     8.8020     7.5290    24.8750   -13.2860 
  154.3750     2.2430    78.8090     9.8110     8.6650     7.4670    24.8660   -13.2410 
  154.5000     2.2710    82.1880     9.7040     8.5480     7.5690    24.8680   -13.2400 
  154.6250     2.2920    82.3550     9.6540     8.4780     7.6110    24.8880   -13.2930 
  154.7500     2.2990    80.2290     9.6680     8.4720     7.5160    24.9330   -13.3900 
  154.8750     2.2930    77.9960     9.7280     8.5310     7.7320    24.9750   -13.5010 
  155.0000     2.2760    77.4440     9.8130     8.6370     8.1870    24.9860   -13.5550 
  155.1250     2.2530    77.7760     9.9330     8.7860     8.3750    24.9950   -13.5500 
  155.2500     2.2310    77.2010    10.1430     9.0020     8.3020    25.0270   -13.4410 
  155.3750     2.2220    75.6700    10.4880     9.3110     8.1810    25.0800   -13.1860 
  155.5000     2.2420    74.5350    10.9070     9.6760     8.1660    25.1860   -12.7700 
  155.6250     2.2910    74.1020    11.2420     9.9840     8.2880    25.3820   -12.2120 
  155.7500     2.3540    75.4050    11.2390    10.0360     8.5010    25.6100   -11.5540 
  155.8750     2.4030    79.8350    10.7190     9.6750     8.8500    25.7720   -10.8720 
  156.0000     2.4200    86.3130     9.7850     8.9560     8.9360    25.8770   -10.2570 
  156.1250     2.4020    92.0600     8.6880     8.0700     8.1420    25.9410    -9.6910 
  156.2500     2.3660    95.6940     7.7440     7.2660     6.9360    25.8870    -9.1990 
  156.3750     2.3310    97.5160     7.1450     6.7100     6.2630    25.7520    -8.8080 
  156.5000     2.3060    96.7270     6.8700     6.4140     6.0670    25.6420    -8.4870 
  156.6250     2.2920    92.8220     6.8190     6.3230     6.3010    25.5860    -8.2050 
  156.7500     2.2890    87.7930     6.8450     6.3330     6.6000    25.5690    -7.9780 
  156.8750     2.2950    85.4310     6.8230     6.3360     6.4560    25.5730    -7.7890 
  157.0000     2.3070    87.9600     6.7190     6.2760     5.9760    25.5850    -7.5780 
  157.1250     2.3200    93.3300     6.5690     6.1620     5.7460    25.5900    -7.3470 
  157.2500     2.3330    97.9120     6.4390     6.0370     5.8160    25.5860    -7.1300 
  157.3750     2.3440    99.2830     6.3740     5.9430     5.8760    25.5730    -6.9410 
  157.5000     2.3510    97.7540     6.3750     5.8930     5.7240    25.5590    -6.8090 
  157.6250     2.3510    94.8140     6.4170     5.8710     5.6410    25.5610    -6.7050 
  157.7500     2.3450    93.1830     6.4540     5.8450     5.7610    25.5730    -6.5930 
  157.8750     2.3400    95.2300     6.4430     5.7840     5.9160    25.5700    -6.4690 
  158.0000     2.3410    99.3090     6.3610     5.6720     5.9190    25.5550    -6.3660 
  158.1250     2.3520   103.1230     6.2120     5.5140     5.6820    25.5420    -6.3290 
  158.2500     2.3680   106.6340     6.0450     5.3520     5.3750    25.5450    -6.3750 
  158.3750     2.3800   110.0320     5.9590     5.2560     5.1860    25.5620    -6.5030 
  158.5000     2.3770   111.9520     6.0480     5.2990     5.1210    25.5780    -6.7230 
  158.6250     2.3580   110.9640     6.3760     5.5290     5.2300    25.5760    -7.0550 
  158.7500     2.3260   106.8280     6.9620     5.9720     5.6160    25.5510    -7.4670 
  158.8750     2.2900   101.0420     7.7280     6.5860     6.2050    25.5140    -7.9270 
  159.0000     2.2600    95.4100     8.4850     7.2360     6.7280    25.4850    -8.3310 
  159.1250     2.2410    90.7860     9.0390     7.7700     7.0550    25.4700    -8.5970 
  159.2500     2.2360    88.6330     9.2140     8.0310     7.1970    25.4740    -8.6940 
  159.3750     2.2440    89.9270     8.9800     7.9600     7.1940    25.4930    -8.6210 
  159.5000     2.2610    93.8770     8.4930     7.6510     7.0760    25.5150    -8.4020 
  159.6250     2.2820    99.0530     7.9170     7.2230     6.8740    25.5370    -8.0890 
  159.7500     2.2990   104.3110     7.3960     6.7930     6.5150    25.5650    -7.7340 
  159.8750     2.3050   107.7960     7.0090     6.4410     6.1060    25.6070    -7.3690 
  160.0000     2.2990   108.0480     6.7740     6.1980     5.8520    25.6620    -7.0540 
  160.1250     2.2860   105.6450     6.6850     6.0700     5.7370    25.7300    -6.8430 
