~V
VERS. 2.00: Ver 2.00
~W
STRT.M 55.0000:
STOP.M 275.0000:
STEP.M 0.1250:
NULL. -999.2500:
UWI. F11036:
~C
DEPT.M :
GR.API :
RML.OHMM :
RI. :
RXO.OHMM :
CALI.CM :
DEN.GM/CC :
SP.MV :
~A
# ...
   88.7500    87.3890     9.5890     8.2650     8.2560    24.9510     2.2460   -12.6440 
   88.8750    95.4540     7.8060     6.9020     6.7230    25.0870     2.2560   -12.2600 
   89.0000   100.5520     6.9690     6.1620     5.9420    25.1530     2.2750   -11.6300 
   89.1250   100.3120     6.8560     5.9470     5.8210    25.1570     2.2820   -10.8440 
   89.2500    98.7870     7.0210     5.9850     5.9100    25.1400     2.2770   -10.0500 
   89.3750    97.8930     7.2510     6.1210     6.0210    25.0920     2.2710    -9.3360 
   89.5000    98.5870     7.4070     6.2400     6.0860    25.0220     2.2750    -8.7990 
   89.6250   100.7380     7.3780     6.2390     6.0070    24.9790     2.2940    -8.5950 
   89.7500   104.1890     7.1860     6.1060     5.7490    24.9650     2.3160    -8.6820 
   89.8750   107.0560     6.8960     5.8810     5.6430    24.9520     2.3290    -8.9790 
   90.0000   107.9470     6.6210     5.6480     5.3920    24.9160     2.3250    -9.4440 
   90.1250   109.4220     6.5260     5.5220     5.2320    24.8530     2.3020   -10.1370 
   90.2500   110.8840     6.6820     5.5580     5.0630    24.8000     2.2690   -11.0460 
   90.3750   109.0990     7.1080     5.7840     5.3170    24.7460     2.2320   -12.1210 
   90.5000   101.4430     7.7470     6.1840     6.3440    24.6780     2.1940   -13.2710 
   90.6250    91.9560     8.4380     6.6790     7.5550    24.6690     2.1610   -14.3440 
   90.7500    86.3860     8.9530     7.0910     8.0440    24.7140     2.1430   -15.2140 
   90.8750    84.1000     9.1500     7.2800     8.0780    24.7870     2.1460   -15.8550 
   91.0000    81.8260     9.0090     7.1960     8.1300    24.8220     2.1720   -16.3020 
   91.1250    80.8700     8.6480     6.9100     7.6610    24.8110     2.2070   -16.6500 
   91.2500    84.0580     8.3220     6.6220     6.8870    24.7720     2.2300   -16.9890 
   91.3750    88.3320     8.1890     6.4540     6.5590    24.7090     2.2320   -17.2970 
   91.5000    87.8170     8.3080     6.4640     7.0420    24.6060     2.2130   -17.5750 
   91.6250    82.5580     8.6680     6.6710     7.9350    24.5290     2.1840   -17.9450 
   91.7500    77.5700     9.1110     6.9800     8.5890    24.4910     2.1580   -18.4980 
   91.8750    74.6410     9.5150     7.3040     8.7950    24.4740     2.1410   -19.2350 
   92.0000    73.1620     9.7880     7.5550     8.8680    24.4740     2.1320   -20.0500 
   92.1250    71.2860     9.8670     7.6650     8.9580    24.4900     2.1300   -20.7270 
   92.2500    69.0420     9.8090     7.6670     9.1200    24.5000     2.1320   -21.1790 
   92.3750    68.6100     9.6670     7.6050     9.2890    24.5040     2.1380   -21.4800 
   92.5000    70.5780     9.5000     7.5170     9.2950    24.5140     2.1460   -21.7110 
   92.6250    72.0880     9.4000     7.4440     9.2190    24.5500     2.1500   -21.8710 
   92.7500    72.0340     9.4520     7.4390     9.4280    24.5930     2.1490   -21.9590 
   92.8750    72.8220     9.7250     7.5580     9.5950    24.5950     2.1500   -21.9480 
   93.0000    74.1540    10.2200     7.8270     9.6120    24.5580     2.1680   -21.8530 
   93.1250    73.0010    10.8180     8.2100     9.7450    24.5200     2.2130   -21.7050 
   93.2500    72.1920    11.2550     8.5490    10.8790    24.4250     2.2700   -21.5210 
   93.3750    74.3090    11.3160     8.6740    12.6860    24.2600     2.3160   -21.2650 
   93.5000    77.8400    10.9390     8.4870    12.4440    24.1040     2.3350   -20.9070 
   93.6250    77.5900    10.3380     8.0870    10.3530    23.9840     2.3280   -20.3970 
   93.7500    76.0430    10.0380     7.8200     9.4200    23.9140     2.3210   -19.7700 
   93.8750    76.9550    10.4820     7.9720     9.2050    23.9430     2.3350   -19.0890 
   94.0000    79.9130    11.9230     8.7610     9.5410    24.0840     2.3760   -18.4290 
   94.1250    81.4160    14.2990    10.3990    12.2570    24.3120     2.4290   -17.9590 
   94.2500    80.3080    16.6730    12.4710    20.0750    24.5910     2.4620   -17.8030 
   94.3750    77.9650    18.0360    14.1550    29.4850    24.7780     2.4550   -18.0020 
   94.5000    74.4660    17.6800    14.4620    28.3450    24.8030     2.4020   -18.4940 
   94.6250    69.5950    15.5380    13.0150    20.1230    24.6760     2.3180   -19.2250 
   94.7500    66.5520    12.8630    10.9980    13.3880    24.4640     2.2380   -20.0750 
   94.8750    67.3590    10.5430     9.1970    10.1250    24.2520     2.1810   -21.0200 
   95.0000    70.7560     9.0220     7.9460     8.9790    24.1410     2.1550   -22.0150 
   95.1250    71.8790     8.4090     7.3420     8.8890    24.1160     2.1520   -22.8640 
   95.2500    70.9980     8.3230     7.1600     8.7740    24.1160     2.1580   -23.4140 
   95.3750    70.6070     8.5340     7.2600     8.5340    24.1140     2.1680   -23.6550 
   95.5000    71.9320     8.8650     7.5070     8.3210    24.0780     2.1820   -23.6830 
   95.6250    72.9150     9.1870     7.7900     8.8890    23.9610     2.2000   -23.6270 
   95.7500    73.1560     9.4270     8.0290    10.9400    23.8030     2.2150   -23.6250 
   95.8750    74.4380     9.5510     8.1780    13.4820    23.7360     2.2210   -23.7180 
   96.0000    76.4880     9.5450     8.2100    11.2860    23.7800     2.2130   -23.9030 
   96.1250    75.9590     9.4180     8.1120     9.7870    23.9270     2.1950   -24.1520 
   96.2500    72.2950     9.2460     7.9440     9.2650    24.0870     2.1740   -24.4200 
   96.3750    68.2320     9.0930     7.7580     9.4900    24.2290     2.1540   -24.6730 
   96.5000    68.3410     9.0040     7.5920     9.8040    24.3610     2.1390   -24.8880 
   96.6250    72.2220     9.0010     7.4740     9.5660    24.3410     2.1290   -25.0600 
   96.7500    73.5220     9.0400     7.3920     9.4660    24.1490     2.1230   -25.1900 
   96.8750    70.6900     9.0740     7.3360     9.4070    23.8870     2.1230   -25.2610 
   97.0000    68.0150     9.0660     7.2900     9.3900    23.7350     2.1300   -25.2700 
   97.1250    69.9890     9.0190     7.2510     9.3090    23.8400     2.1450   -25.1890 
   97.2500    73.0010     9.0140     7.2510     9.3320    24.1430     2.1640   -25.0570 
   97.3750    74.8230     9.1570     7.3570     9.3790    24.5530     2.1850   -24.9210 
   97.5000    74.1450     9.5360     7.6370     9.2090    24.8690     2.2130   -24.7840 
   97.6250    71.2180    10.1780     8.1430     8.7690    25.0270     2.2580   -24.6480 
   97.7500    68.8900    10.8820     8.7570     8.4040    24.9880     2.3160   -24.5200 
   97.8750    69.0670    11.4020     9.2920     8.4820    24.7360     2.3700   -24.4200 
   98.0000    70.0110    11.5100     9.5150     8.7740    24.3820     2.3990   -24.3460 
   98.1250    69.3670    11.0480     9.2270     9.0170    24.1430     2.3840   -24.3610 
   98.2500    70.1290    10.2640     8.6250     9.0540    24.0420     2.3400   -24.4650 
   98.3750    73.5490     9.4230     7.9350     8.7720    24.0670     2.2910   -24.6500 
   98.5000    78.1130     8.7600     7.3530     8.4460    24.0670     2.2510   -24.9190 
   98.6250    78.4050     8.4400     7.0230     8.3460    23.9860     2.2270   -25.2480 
   98.7500    74.6960     8.3790     6.9090     8.3680    23.8260     2.2110   -25.5640 
   98.8750    70.4360     8.4710     6.9460     8.4270    23.6690     2.1990   -25.8180 
   99.0000    68.4860     8.6140     7.0640     8.7340    23.5350     2.1910   -26.0060 
   99.1250    69.2260     8.7350     7.2020     9.0000    23.4990     2.1900   -26.1390 
   99.2500    70.4940     8.8250     7.3280     8.8930    23.6250     2.1900   -26.2180 
   99.3750    71.3570     8.9000     7.4410     8.7660    23.8410     2.1870   -26.2120 
   99.5000    70.7280     8.9810     7.5500     8.8000    24.0000     2.1800   -26.1070 
   99.6250    69.7870     9.0770     7.6610     9.0440    24.0550     2.1740   -25.8900 
   99.7500    71.5260     9.1670     7.7640     9.3300    24.0000     2.1730   -25.6070 
   99.8750    73.6310     9.2250     7.8400     9.5550    23.8140     2.1810   -25.3150 
