~V
VERS. 2.00: Ver 2.00
~W
STRT.M 58.0000:
STOP.M 277.0000:
STEP.M 0.1250:
NULL. -999.2500:
UWI. F11038:
~C
DEPT.M :
GR.API :
RML.OHMM :
RI. :
RXO.OHMM :
CALI.CM :
DEN.GM/CC :
SP.MV :
~A
   58.0000    68.1210     4.1670     0.9740     1.7000    24.1560     2.2440   107.7350 
   58.1250    64.3670     3.9470     0.8920     1.9020    23.7400     2.2260   105.5880 
   58.2500    62.8290     3.2720     0.7250     2.0470    23.4810     2.2230   103.4090 
   58.3750    63.2090     2.2330     0.5010     2.1100    23.2980     2.2560   100.7330 
   58.5000    64.0180     1.1580     0.2960     2.1180    23.2160     2.3400    97.0660 
   58.6250    65.2950     0.4230     0.1740     2.1130    23.3060     2.4700    91.6940 
   58.7500    66.9110     0.0550     0.1170     2.0980    23.5140     2.6010    84.5170 
   58.8750    69.2370    -0.0050     0.1190     2.1580    23.7590     2.6860    75.4340 
   59.0000    72.1360     0.2280     0.1980     2.5680    24.2790     2.6930    64.7020 
   59.1250    75.2530     0.9210     0.4470     4.0080    25.7090     2.6080    52.9240 
   59.2500    77.8810     2.1490     0.9610     5.5170    28.1230     2.4740    41.0430 
   59.3750    81.4180     3.8020     1.8320     6.3520    31.0610     2.3240    29.5840 
   59.5000    88.2740     5.3960     2.9980     6.7230    33.3400     2.1810    19.0240 
   59.6250    94.1060     6.2080     4.1120     7.0300    33.9760     2.0640    10.0920 
   59.7500    93.6400     6.2810     4.9160     7.0390    33.4810     1.9710     3.0690 
   59.8750    88.5810     6.0270     5.4470     6.7830    31.8890     1.9090    -1.8640 
   60.0000    85.3170     5.8410     5.8400     6.2780    29.5170     1.8820    -4.9270 
   60.1250    91.3060     5.8860     6.1840     6.0340    27.2880     1.9060    -6.6530 
   60.2500   101.2140     6.0790     6.5350     6.1700    25.9010     1.9730    -7.8570 
   60.3750   109.7140     6.3650     6.9130     6.8170    25.2190     2.0670    -8.8320 
   60.5000   112.1290     6.6870     7.3000     7.7430    24.9000     2.1630    -9.6780 
   60.6250   107.6670     6.9680     7.6110     9.1510    24.6520     2.2300   -10.3850 
   60.7500   104.0100     7.1490     7.7760     8.7630    24.4510     2.2590   -11.0070 
   60.8750   106.9770     7.2040     7.7720     7.8870    24.2880     2.2580   -11.5560 
   61.0000   114.2380     7.1450     7.6270     7.2750    24.1680     2.2460   -12.0120 
   61.1250   116.2770     7.0090     7.3900     7.2820    24.1280     2.2390   -12.3370 
   61.2500   113.0480     6.8700     7.1460     7.2350    24.1550     2.2430   -12.5300 
   61.3750   110.8620     6.7780     6.9480     6.9540    24.2850     2.2550   -12.5920 
   61.5000   112.4320     6.7750     6.8280     6.6660    24.5240     2.2710   -12.5950 
   61.6250   113.5690     6.9110     6.8260     6.4230    24.7930     2.2830   -12.6450 
   61.7500   112.0390     7.1780     6.9390     6.4890    24.8830     2.2860   -12.8220 
   61.8750   108.9610     7.5610     7.1570     7.1010    24.6870     2.2770   -13.1690 
   62.0000   107.3110     8.0170     7.4420     7.8340    24.3270     2.2590   -13.6650 
   62.1250   105.7550     8.4600     7.7290     7.5020    24.0630     2.2370   -14.2740 
   62.2500   103.6250     8.7720     7.9330     7.7780    23.9400     2.2180   -14.9580 
   62.3750   101.8480     8.8460     7.9700     8.3590    23.9510     2.2050   -15.6270 
   62.5000    99.9440     8.6170     7.7790     8.6090    24.1420     2.2000   -16.2050 
   62.6250    94.9670     8.1160     7.3550     8.3830    24.3970     2.2020   -16.6490 
   62.7500    93.6720     7.6250     6.8940     8.1890    24.5510     2.2060   -17.0090 
   62.8750   101.8400     7.4490     6.6280     7.3110    24.5470     2.2090   -17.3840 
   63.0000   111.9120     7.8860     6.7950     7.0070    24.4780     2.2130   -17.8580 
   63.1250   107.3140     9.3210     7.7140     7.8680    24.4790     2.2350   -18.4430 
   63.2500    92.0640    11.5840     9.3630    10.6660    24.6470     2.2860   -19.1000 
   63.3750    78.1270    14.1560    11.5330    15.9410    24.8800     2.3620   -19.8920 
   63.5000    71.6460    16.0370    13.5050    26.6790    24.9540     2.4340   -20.8920 
   63.6250    71.9780    15.9700    13.8880    30.1850    24.8910     2.4580   -22.1690 
   63.7500    74.4950    14.3270    12.7040    23.4600    24.9190     2.4220   -23.6400 
   63.8750    77.0670    12.0870    10.8700    15.4300    25.1930     2.3430   -25.1600 
   64.0000    78.2070    10.2500     9.2720    11.8760    25.5690     2.2540   -26.6610 
   64.1250    76.4760     9.4550     8.4210    10.5680    25.6950     2.1920   -28.2070 
   64.2500    72.9840     9.4710     8.2260    10.5880    25.4700     2.1690   -29.8010 
   64.3750    70.4450    10.0040     8.5420    11.4560    24.9500     2.1820   -31.4200 
   64.5000    70.8470    10.6860     9.1200    12.7020    24.6500     2.2200   -32.9870 
   64.6250    72.6980    11.1060     9.5930    13.3450    24.6740     2.2600   -34.4390 
   64.7500    73.5600    11.1190     9.7290    14.0590    24.8460     2.2810   -35.7450 
   64.8750    74.2850    10.7880     9.5270    14.5870    25.0010     2.2740   -36.8860 
   65.0000    75.2880    10.3030     9.1320    14.1270    25.1120     2.2470   -37.8230 
   65.1250    75.8200     9.8850     8.7420    13.0970    25.2580     2.2160   -38.4810 
   65.2500    74.3310     9.6260     8.4820    12.1990    25.4910     2.1890   -38.9440 
   65.3750    70.2530     9.5180     8.3740    11.7750    25.8210     2.1630   -39.2080 
   65.5000    66.7910     9.5040     8.3860    12.1950    26.0500     2.1340   -39.2880 
   65.6250    68.7180     9.5300     8.4710    12.8010    25.9400     2.1100   -39.1660 
   65.7500    74.1810     9.5720     8.5790    13.0000    25.6670     2.0970   -38.9080 
   65.8750    78.5640     9.6470     8.6990    12.3850    25.4350     2.0980   -38.5680 
   66.0000    80.3270     9.7740     8.8290    12.0010    25.3350     2.1090   -38.1790 
   66.1250    80.5210     9.9580     8.9650    12.1390    25.3050     2.1230   -37.6410 
   66.2500    79.3020    10.1390     9.0710    12.5380    25.4080     2.1340   -36.8600 
   66.3750    77.9490    10.2350     9.0780    12.6110    25.4800     2.1440   -35.7440 
   66.5000    78.3950    10.1530     8.9030    12.1130    25.4810     2.1560   -34.2380 
   66.6250    83.2120     9.7760     8.4510    11.2100    25.3710     2.1730   -32.2710 
   66.7500    91.2440     9.1370     7.7840    10.1530    25.2640     2.1950   -30.0020 
   66.8750   100.2370     8.2990     6.9900     8.6290    25.1600     2.2210   -27.5970 
   67.0000   107.0160     7.4060     6.1960     7.7210    25.0690     2.2490   -25.2150 
   67.1250   109.1340     6.7700     5.6120     7.0750    25.0350     2.2730   -23.0520 
   67.2500   108.9430     6.7290     5.4070     6.8060    25.0200     2.2920   -21.2610 
   67.3750   106.0930     7.6560     5.7770     7.0250    24.9960     2.3070   -19.9710 
   67.5000    99.2330     9.8870     6.9630     8.0980    24.9680     2.3310   -19.2580 
   67.6250    89.5090    13.7290     9.4620    12.4340    25.0140     2.3800   -19.2760 
   67.7500    80.3230    18.2170    13.1060    26.2920    25.0610     2.4490   -19.9100 
   67.8750    72.6350    21.7950    16.9460    51.0050    25.0630     2.5170   -21.0250 
   68.0000    66.6310    22.8210    18.9140    55.7650    25.0200     2.5490   -22.4800 
   68.1250    64.9580    20.4360    17.3230    35.3390    24.9740     2.5140   -24.1940 
   68.2500    68.4150    16.6180    14.2890    18.6870    24.9700     2.4290   -25.9510 
   68.3750    75.2160    13.0850    11.4960    13.0560    25.0740     2.3260   -27.6400 
   68.5000    81.9210    10.7680     9.5870    11.8720    25.1840     2.2380   -29.1950 
   68.6250    83.8150     9.8560     8.6640    12.0910    25.0570     2.1890   -30.5130 
   68.7500    81.5110     9.6880     8.3340    12.2340    24.8460     2.1700   -31.5510 
   68.8750    78.0280     9.8590     8.3560    12.3260    24.6560     2.1650   -32.2790 
   69.0000    76.3760    10.0890     8.5080    12.3230    24.5420     2.1620   -32.7280 
   69.1250    77.4150    10.2190     8.6260    12.0740    24.5480     2.1540   -32.9080 
