~V
VERS. 2.00: Ver 2.00
~W
STRT.M 51.0000:
STOP.M 240.0000:
STEP.M 0.1250:
NULL. -999.2500:
UWI. F11016:
~C
DEPT.M :
GR.API :
RML.OHMM :
RI. :
RXO.OHMM :
CALI.CM :
DEN.GM/CC :
SP.MV :
~A
# ...
  118.5000    54.7440    10.7660     9.6550    17.3700    23.6190     2.4300   -13.7790 
  118.6250    53.7560    10.0470     9.2080    14.8790    23.2270     2.4000   -14.0050 
  118.7500    53.6240     9.0790     8.4830    11.1500    22.6720     2.3540   -14.3470 
  118.8750    54.9490     8.2240     7.7630     8.8780    22.2810     2.3090   -14.7650 
  119.0000    56.9340     7.7030     7.2540     8.1780    22.1280     2.2750   -15.1920 
  119.1250    59.1940     7.5270     7.0030     8.1980    22.0860     2.2540   -15.5630 
  119.2500    61.0900     7.5860     6.9550     8.2990    22.0620     2.2440   -15.8350 
  119.3750    60.2260     7.7070     6.9990     8.3290    22.0580     2.2400   -15.9450 
  119.5000    57.0950     7.7260     7.0070     8.2230    22.1060     2.2380   -15.8800 
  119.6250    55.8640     7.5560     6.8960     7.9660    22.2190     2.2380   -15.6640 
  119.7500    58.9230     7.2030     6.6470     7.7000    22.3820     2.2420   -15.3230 
  119.8750    62.0440     6.7970     6.3120     7.5050    22.6040     2.2520   -14.9010 
  120.0000    62.4450     6.4830     5.9940     7.2620    22.9240     2.2610   -14.4840 
  120.1250    62.6180     6.3640     5.7850     6.7870    23.2960     2.2650   -14.1490 
  120.2500    63.8870     6.5330     5.7360     6.1910    23.4970     2.2630   -13.9280 
  120.3750    64.2760     6.8330     5.8760     6.1550    23.3240     2.2540   -13.8420 
  120.5000    63.4710     7.2100     6.1750     6.7640    22.9420     2.2420   -13.8770 
  120.6250    64.0520     7.6680     6.5750     7.4480    22.6760     2.2310   -14.0290 
  120.7500    66.2740     8.1320     7.0170     8.1010    22.6380     2.2220   -14.2990 
  120.8750    66.5940     8.5140     7.4280     9.1570    22.7700     2.2140   -14.6840 
  121.0000    64.2530     8.7510     7.7440    10.7940    22.9030     2.2070   -15.1210 
  121.1250    62.0430     8.8190     7.9290    12.9240    22.8710     2.2030   -15.5480 
  121.2500    61.6840     8.7310     7.9790    14.3330    22.7250     2.2030   -15.9470 
  121.3750    62.2670     8.5460     7.9160    13.0770    22.5790     2.2080   -16.3260 
  121.5000    62.4510     8.3590     7.8080    10.8380    22.4590     2.2140   -16.6950 
  121.6250    62.0890     8.2480     7.7210     9.7230    22.3780     2.2170   -17.0480 
  121.7500    61.0500     8.2420     7.6930     9.5330    22.4000     2.2150   -17.3480 
  121.8750    60.2770     8.3350     7.7380     9.5050    22.5910     2.2090   -17.5360 
  122.0000    60.0760     8.4800     7.8320     9.3750    22.8680     2.1990   -17.5720 
  122.1250    58.7160     8.6160     7.9340     9.2060    23.0690     2.1900   -17.4250 
  122.2500    56.1410     8.6840     7.9990     9.0890    23.1390     2.1830   -17.0580 
  122.3750    54.0110     8.6140     7.9660     8.9890    23.0820     2.1830   -16.4350 
  122.5000    53.5930     8.4100     7.8240     8.7220    22.9070     2.1920   -15.5780 
  122.6250    55.5290     8.1810     7.6330     8.3000    22.6730     2.2140   -14.5550 
  122.7500    60.4120     8.1230     7.5270     7.8440    22.5280     2.2460   -13.4440 
  122.8750    65.9820     8.5220     7.7290     7.5450    22.6430     2.2890   -12.3400 
  123.0000    67.3090     9.4870     8.3670     7.7710    22.9610     2.3360   -11.3080 
  123.1250    63.1730    10.8790     9.3970     9.2500    23.3320     2.3840   -10.3970 
  123.2500    57.4760    12.3590    10.6210    12.3830    23.6310     2.4230    -9.6540 
  123.3750    54.5380    13.3660    11.6350    17.2190    23.7640     2.4470    -9.1220 
  123.5000    54.5780    13.5130    12.0580    19.8970    23.7600     2.4530    -8.7920 
  123.6250    55.6880    12.8300    11.7800    17.2730    23.7550     2.4460    -8.6250 
  123.7500    56.5610    11.7590    11.0580    13.1920    23.8000     2.4330    -8.5680 
  123.8750    55.9520    11.0980    10.4980    11.3300    23.8660     2.4260    -8.5700 
  124.0000    54.0600    11.5010    10.6390    11.0940    23.9160     2.4300    -8.5970 
  124.1250    52.1200    13.2450    11.7610    11.7500    23.9370     2.4470    -8.6380 
  124.2500    51.0490    16.3110    13.9570    14.0920    23.9370     2.4730    -8.6810 
  124.3750    50.4930    20.3730    17.1590    19.1710    23.9350     2.5040    -8.7240 
  124.5000    49.5260    24.6660    20.8710    24.9680    23.9550     2.5340    -8.7730 
  124.6250    48.1040    28.1270    24.3620    28.6480    23.9730     2.5600    -8.8280 
  124.7500    46.0690    30.2170    26.9590    29.6050    23.9550     2.5800    -8.8820 
  124.8750    44.0790    30.7810    28.1560    30.5290    23.9090     2.5910    -8.9390 
  125.0000    42.3990    30.2250    28.1590    32.3990    23.8710     2.5920    -8.9990 
  125.1250    40.6020    29.1840    27.5150    32.6520    23.8500     2.5810    -9.0660 
  125.2500    39.2420    28.0870    26.6370    30.9420    23.8280     2.5610    -9.1470 
  125.3750    39.6950    27.2300    25.8310    27.7970    23.8210     2.5350    -9.2340 
  125.5000    41.9890    26.7580    25.2840    25.6420    23.8380     2.5120    -9.3120 
  125.6250    45.0770    26.7120    25.1000    25.1540    23.8460     2.4970    -9.3750 
  125.7500    48.1280    27.0780    25.3110    24.7480    23.8280     2.4920    -9.4230 
  125.8750    49.4360    27.7570    25.8770    25.2310    23.8180     2.4950    -9.4580 
  126.0000    47.7960    28.5180    26.6130    26.3910    23.8320     2.5040    -9.4860 
  126.1250    45.2280    29.0980    27.2790    27.5560    23.8530     2.5140    -9.5060 
  126.2500    44.9770    29.3070    27.6780    28.8830    23.8660     2.5210    -9.5130 
  126.3750    47.0340    29.0320    27.6560    29.2600    23.8320     2.5210    -9.5110 
  126.5000    49.7180    28.3890    27.2630    27.6460    23.7380     2.5150    -9.4980 
  126.6250    51.9210    27.6190    26.6790    25.7110    23.5740     2.5040    -9.4710 
  126.7500    52.2950    26.9470    26.0990    24.9870    23.3990     2.4910    -9.4380 
  126.8750    50.1900    26.5690    25.7080    25.7590    23.3190     2.4820    -9.4100 
  127.0000    47.0210    26.5070    25.5650    27.5150    23.3950     2.4800    -9.3910 
  127.1250    45.0700    26.6460    25.6060    27.5190    23.5770     2.4850    -9.3720 
  127.2500    44.8440    26.8310    25.7160    25.7690    23.7390     2.4960    -9.3530 
  127.3750    45.7610    26.8890    25.7470    24.6050    23.8120     2.5070    -9.3350 
  127.5000    46.8330    26.7390    25.6150    24.5970    23.8550     2.5130    -9.3110 
  127.6250    46.9030    26.4060    25.3210    24.4670    23.9080     2.5120    -9.2880 
  127.7500    46.0020    25.9860    24.9320    23.5760    23.9530     2.5080    -9.2630 
  127.8750    45.0020    25.6270    24.5660    22.6420    23.9580     2.5050    -9.2310 
  128.0000    44.4360    25.4370    24.3240    21.8470    23.9430     2.5070    -9.1910 
  128.1250    44.2290    25.4310    24.2320    21.5130    23.9270     2.5140    -9.1540 
  128.2500    44.2240    25.5250    24.2320    21.5620    23.9080     2.5220    -9.1170 
  128.3750    44.1320    25.5380    24.1810    22.3590    23.9070     2.5280    -9.0910 
  128.5000    43.7200    25.3180    23.9470    24.0280    23.9420     2.5270    -9.0730 
  128.6250    43.9260    24.8350    23.4880    24.6660    23.9780     2.5200    -9.0620 
  128.7500    45.9670    24.1930    22.8780    23.3360    23.9910     2.5100    -9.0810 
  128.8750    48.5670    23.6190    22.3050    21.5410    23.9780     2.5040    -9.1130 
  129.0000    48.9770    23.3200    21.9490    20.2490    23.9200     2.5060    -9.1350 
  129.1250    46.9860    23.3960    21.9100    19.7230    23.8100     2.5150    -9.1640 
  129.2500    44.7250    23.8490    22.2060    20.4000    23.6920     2.5260    -9.2130 
  129.3750    43.5770    24.5900    22.7910    22.0290    23.6630     2.5380    -9.2580 
  129.5000    43.4880    25.4220    23.5120    23.0630    23.7480     2.5470    -9.3140 
  129.6250    44.0460    26.1380    24.1840    23.3140    23.8660     2.5550    -9.4040 
