~V
VERS. 2.00: Ver 2.00
~W
STRT.M 58.0000:
STOP.M 271.0000:
STEP.M 0.1250:
NULL. -999.2500:
UWI. F11072:
~C
DEPT.M :
DEN.GM/CC :
GR.API :
RML.OHMM :
RI. :
RXO.OHMM :
CALI.CM :
SP.MV :
~A
# ...
   69.2500     2.2680    84.4760     6.0430     5.3600     6.0180    24.3980    -5.4470 
   69.3750     2.2830    84.5600     5.9220     5.2680     5.8130    24.4850    -5.3440 
   69.5000     2.2930    87.2580     5.8730     5.2380     5.7400    24.4680    -5.2840 
   69.6250     2.2940    86.8690     5.9300     5.2940     5.7050    24.4250    -5.2750 
   69.7500     2.2850    84.8230     6.0630     5.4160     5.6570    24.3670    -5.2850 
   69.8750     2.2700    84.9420     6.2260     5.5700     5.6790    24.2650    -5.2830 
   70.0000     2.2570    85.5650     6.3570     5.7070     5.8550    24.1380    -5.2400 
   70.1250     2.2550    83.3210     6.3910     5.7580     6.1880    24.0250    -5.1240 
   70.2500     2.2640    82.8260     6.3320     5.7100     6.4820    23.9730    -4.9580 
   70.3750     2.2830    86.9320     6.2160     5.5800     6.2810    23.9530    -4.7650 
   70.5000     2.3030    92.3330     6.1070     5.4190     5.6350    23.9330    -4.5550 
   70.6250     2.3150    93.6120     6.0710     5.2930     5.2640    23.8170    -4.3480 
   70.7500     2.3170    91.2080     6.1070     5.2290     5.2500    23.5280    -4.1730 
   70.8750     2.3090    88.6780     6.1760     5.2150     5.4610    23.0910    -4.0680 
   71.0000     2.2960    88.1870     6.2290     5.2220     5.7710    22.5990    -4.0580 
   71.1250     2.2850    89.0230     6.2380     5.2260     5.9910    22.3230    -4.1770 
   71.2500     2.2800    89.2150     6.2650     5.2450     5.9500    22.2450    -4.3890 
   71.3750     2.2900    89.9330     6.4360     5.3510     5.7460    22.2940    -4.6740 
   71.5000     2.3200    91.7600     6.8980     5.6410     5.7420    22.3900    -5.0310 
   71.6250     2.3710    91.4820     7.8150     6.2500     6.2190    22.5880    -5.4840 
   71.7500     2.4220    87.8130     9.0630     7.1310     7.0890    22.9140    -6.0210 
   71.8750     2.4510    83.3750    10.4160     8.1620     8.4670    23.2840    -6.6360 
   72.0000     2.4400    81.0800    11.5290     9.1200    10.7090    23.5480    -7.3060 
   72.1250     2.3860    80.7390    11.9180     9.6450    12.4520    23.5070    -8.0000 
   72.2500     2.3180    78.6870    11.5480     9.6210    12.2790    23.2780    -8.6790 
   72.3750     2.2590    73.1420    10.6230     9.1200    10.7070    23.0920    -9.3060 
   72.5000     2.2180    68.3100     9.5340     8.3920     9.3530    23.1500    -9.8490 
   72.6250     2.2000    69.8370     8.7040     7.7400     8.3630    23.3870   -10.2680 
   72.7500     2.1940    74.1940     8.2420     7.3050     7.7450    23.5000   -10.5640 
   72.8750     2.1910    73.3510     8.0960     7.0920     7.5000    23.4930   -10.7330 
   73.0000     2.1850    65.9270     8.1490     7.0450     7.4850    23.4100   -10.7910 
   73.1250     2.1760    59.0850     8.2940     7.0990     7.3780    23.2580   -10.7450 
   73.2500     2.1690    58.1390     8.4330     7.1690     7.4310    23.1700   -10.6350 
   73.3750     2.1670    60.6560     8.5130     7.2060     7.8790    23.1880   -10.4780 
   73.5000     2.1710    63.7470     8.4950     7.1750     8.5530    23.2320   -10.2880 
   73.6250     2.1810    66.4520     8.3480     7.0480     8.3950    23.2470   -10.0770 
   73.7500     2.1950    69.8960     8.1120     6.8520     7.4990    23.2650    -9.8730 
   73.8750     2.2100    73.3880     7.8440     6.6250     7.0550    23.2750    -9.6920 
   74.0000     2.2230    76.6180     7.6320     6.4290     6.9740    23.2960    -9.5520 
   74.1250     2.2280    79.9080     7.6440     6.3790     6.9280    23.3470    -9.4740 
   74.2500     2.2270    80.1960     7.9880     6.5600     6.9260    23.3700    -9.4480 
   74.3750     2.2270    76.2060     8.7370     7.0380     7.3400    23.3650    -9.4810 
   74.5000     2.2350    70.5570     9.8600     7.8240     8.3300    23.3730    -9.5840 
   74.6250     2.2570    66.2290    11.1670     8.8280    10.0530    23.3820    -9.7680 
   74.7500     2.2810    61.0720    12.2600     9.7650    12.6300    23.3740   -10.0180 
   74.8750     2.2940    55.3270    12.7950    10.3580    16.5130    23.3300   -10.3230 
   75.0000     2.2870    53.3610    12.5710    10.3930    18.2730    23.2350   -10.6650 
   75.1250     2.2610    58.0080    11.5970     9.7860    13.6540    23.1920   -11.0350 
   75.2500     2.2300    63.9600    10.3960     8.9030     9.3690    23.2300   -11.4150 
   75.3750     2.2030    65.9550     9.3580     8.0480     7.6620    23.3350   -11.7940 
   75.5000     2.1840    64.1350     8.6910     7.4160     7.3140    23.5020   -12.1540 
   75.6250     2.1730    62.3600     8.4330     7.0910     7.3860    23.7220   -12.4620 
   75.7500     2.1670    64.0960     8.3740     6.9640     7.4390    23.8870   -12.7130 
   75.8750     2.1650    66.5820     8.3920     6.9540     7.4740    23.9570   -12.9140 
   76.0000     2.1650    67.3160     8.4290     7.0030     7.6250    23.9880   -13.0670 
   76.1250     2.1670    67.5710     8.4900     7.0870     7.7980    24.0090   -13.1700 
   76.2500     2.1710    66.9230     8.5910     7.1910     7.8410    24.0200   -13.2430 
   76.3750     2.1770    65.1910     8.7250     7.3040     7.7920    24.0350   -13.2920 
   76.5000     2.1840    65.0170     8.8630     7.4070     7.8460    24.0170   -13.3160 
   76.6250     2.1860    66.3630     8.9540     7.4690     8.1420    23.9520   -13.3160 
   76.7500     2.1820    65.0680     8.9800     7.4790     8.4830    23.9130   -13.2940 
   76.8750     2.1740    62.2360     8.9450     7.4390     8.4450    23.8680   -13.2420 
   77.0000     2.1650    63.1650     8.8790     7.3650     8.0970    23.8020   -13.1550 
   77.1250     2.1610    67.2110     8.8240     7.2850     7.8950    23.7000   -13.0270 
   77.2500     2.1620    68.7370     8.8040     7.2240     7.8040    23.5320   -12.8720 
   77.3750     2.1650    67.2990     8.8130     7.1880     7.7250    23.3530   -12.7060 
   77.5000     2.1680    65.8880     8.8300     7.1760     7.6820    23.2450   -12.5450 
   77.6250     2.1700    64.2970     8.8330     7.1800     7.6200    23.1720   -12.3950 
   77.7500     2.1690    62.8070     8.8210     7.1870     7.5650    23.0530   -12.2570 
   77.8750     2.1680    60.8770     8.8010     7.1950     7.5260    22.9100   -12.1330 
   78.0000     2.1670    59.6270     8.7810     7.2040     7.5050    22.7720   -12.0320 
   78.1250     2.1680    62.1100     8.7640     7.2160     7.6140    22.6620   -11.9650 
   78.2500     2.1700    66.5570     8.7410     7.2270     7.7310    22.6250   -11.9250 
   78.3750     2.1720    69.7920     8.7010     7.2300     7.6530    22.6530   -11.9040 
   78.5000     2.1750    67.9810     8.6400     7.2160     7.5180    22.7180   -11.9010 
   78.6250     2.1800    62.0490     8.5670     7.1810     7.4500    22.8310   -11.9360 
   78.7500     2.1900    58.0720     8.5200     7.1510     7.5010    22.9530   -12.0150 
   78.8750     2.2080    60.2900     8.5490     7.1590     7.5670    23.0420   -12.1410 
   79.0000     2.2370    68.3840     8.6960     7.2400     7.5940    23.1480   -12.3100 
   79.1250     2.2760    74.1350     8.9720     7.4140     7.6190    23.2700   -12.5090 
   79.2500     2.3100    72.3590     9.2750     7.6230     7.7100    23.4030   -12.7210 
   79.3750     2.3220    66.1730     9.4880     7.7930     7.9430    23.5690   -12.9350 
   79.5000     2.3060    61.0950     9.5060     7.8430     8.2330    23.7560   -13.1310 
   79.6250     2.2710    60.8790     9.2690     7.7070     8.2540    23.8490   -13.2850 
   79.7500     2.2370    62.6920     8.9160     7.4570     8.1480    23.8660   -13.3930 
   79.8750     2.2130    64.9450     8.6130     7.1960     7.8740    23.8300   -13.4520 
   80.0000     2.1970    65.8810     8.5050     7.0340     7.5480    23.7240   -13.4710 
   80.1250     2.1830    63.2070     8.6830     7.0680     7.4150    23.5490   -13.4640 
   80.2500     2.1690    58.5360     9.0230     7.2480     7.5190    23.3640   -13.4430 
   80.3750     2.1590    55.6940     9.3830     7.4970     7.9840    23.2680   -13.4140 
