~V
VERS. 2.00: Ver 2.00
~W
STRT.M 53.0000:
STOP.M 276.0000:
STEP.M 0.1250:
NULL. -999.2500:
UWI. F11074:
~C
DEPT.M :
DEN.GM/CC :
SP.MV :
GR.API :
RML.OHMM :
RI. :
RXO.OHMM :
CALI.CM :
~A
# ...
  210.5000     2.2300   -17.6330    70.0700   123.7810   117.8890   126.8420    24.4400 
  210.6250     2.2240   -17.7230    66.2590   143.7640   137.3640   153.7160    24.6460 
  210.7500     2.2200   -17.7850    61.8710   160.7950   154.9120   168.4940    24.7190 
  210.8750     2.2180   -17.7780    58.7340   167.5910   163.6460   174.0760    24.7220 
  211.0000     2.2160   -17.7410    58.9710   161.8140   160.6700   169.5760    24.7080 
  211.1250     2.2140   -17.6920    62.2230   148.2590   148.3460   153.3470    24.6790 
  211.2500     2.2110   -17.6340    65.4310   135.5560   133.7190   143.4720    24.6670 
  211.3750     2.2090   -17.5660    67.0600   124.2720   122.0610   136.0150    24.6640 
  211.5000     2.2080   -17.4900    67.2770   115.6570   113.2070   124.6280    24.6640 
  211.6250     2.2090   -17.4220    65.4230   109.6890   107.0140   112.3540    24.6640 
  211.7500     2.2110   -17.3730    63.3440   105.3480   102.4370   109.6120    24.6640 
  211.8750     2.2140   -17.3420    63.8210   102.1040    98.8710   109.8910    24.6640 
  212.0000     2.2190   -17.3360    66.7150    99.5010    95.7500   108.8070    24.6640 
  212.1250     2.2250   -17.3660    70.2470    97.0290    92.4500   111.1090    24.6640 
  212.2500     2.2280   -17.3990    72.6120    93.9700    88.4010   117.5480    24.6640 
  212.3750     2.2260   -17.4230    73.7350    89.7360    83.2430   119.3810    24.6640 
  212.5000     2.2180   -17.4440    74.7270    84.1580    77.0260   102.7500    24.6640 
  212.6250     2.2130   -17.4740    76.6840    77.7690    70.4810    81.7520    24.6640 
  212.7500     2.2160   -17.5100    79.3100    71.8530    64.7840    69.6540    24.6640 
  212.8750     2.2250   -17.5330    80.5540    67.2320    60.6580    66.3790    24.6640 
  213.0000     2.2350   -17.5520    80.4370    64.1790    58.2490    66.2700    24.6640 
  213.1250     2.2380   -17.5790    80.1480    62.5300    57.2180    70.2950    24.6640 
  213.2500     2.2320   -17.6000    80.4870    61.4260    56.5260    73.4750    24.6630 
  213.3750     2.2210   -17.6210    80.4010    60.4730    55.6980    71.5980    24.6620 
  213.5000     2.2140   -17.6550    80.0170    59.6660    54.8440    64.1820    24.6600 
  213.6250     2.2170   -17.6910    82.5510    59.7310    55.0240    58.6620    24.6620 
  213.7500     2.2240   -17.7270    85.7920    61.5960    57.2970    58.4870    24.6620 
  213.8750     2.2260   -17.7630    83.2330    66.0750    62.2580    67.9220    24.6600 
  214.0000     2.2230   -17.8000    74.1770    73.2590    69.5740    82.3610    24.6600 
  214.1250     2.2190   -17.8390    70.5350    81.8760    77.5030    92.9550    24.6590 
  214.2500     2.2170   -17.8970    74.5830    88.9430    83.2670    99.1520    24.6590 
  214.3750     2.2140   -17.9680    79.2680    92.3770    85.2770   103.6520    24.6600 
  214.5000     2.2090   -18.0480    80.0540    91.8140    83.7450   113.1430    24.6590 
  214.6250     2.2060   -18.1560    78.2460    88.3060    80.1020   116.7810    24.6620 
  214.7500     2.2080   -18.2860    76.5790    84.0400    76.3080   109.8020    24.6620 
  214.8750     2.2170   -18.4520    75.9800    80.3340    73.5680    92.0530    24.6610 
  215.0000     2.2260   -18.6450    76.7830    78.8650    73.4400    78.9730    24.6620 
  215.1250     2.2280   -18.8580    75.9640    82.7570    78.6290    84.4740    24.6630 
  215.2500     2.2210   -19.0840    72.2590    92.8820    89.4040   104.5710    24.6640 
  215.3750     2.2060   -19.3370    67.8430   108.5700   104.8510   133.0170    24.6640 
  215.5000     2.1920   -19.6020    65.3570   126.1040   121.4470   160.7790    24.6630 
  215.6250     2.1820   -19.8590    64.9450   137.6340   131.6610   170.8720    24.6610 
  215.7500     2.1750   -20.1110    65.0450   139.6070   132.3560   164.2390    24.6590 
  215.8750     2.1710   -20.3350    64.8550   134.1140   126.0380   160.5570    24.6570 
  216.0000     2.1720   -20.5340    63.1480   125.9630   117.6130   164.8330    24.6560 
  216.1250     2.1800   -20.7120    63.1820   118.5880   110.2200   165.1630    24.6570 
  216.2500     2.1900   -20.8720    67.3450   112.3000   103.9800   153.3660    24.6590 
  216.3750     2.2010   -21.0050    72.2420   106.9480    98.8020   138.5430    24.6600 
  216.5000     2.2130   -21.1190    71.7400   102.9680    95.0430   137.2590    24.6590 
  216.6250     2.2230   -21.2220    65.4170   101.2820    93.4300   136.4230    24.6610 
  216.7500     2.2280   -21.3220    61.7870   101.4810    93.6300   122.9150    24.6590 
  216.8750     2.2310   -21.4270    62.0250   103.2080    95.5160   108.6140    24.6560 
  217.0000     2.2360   -21.5380    63.1750   106.6370    99.3800   104.5450    24.6560 
  217.1250     2.2390   -21.6600    62.7270   113.0930   106.2710   122.1870    24.6570 
  217.2500     2.2400   -21.7910    61.7940   122.3050   115.4790   152.6510    24.6570 
  217.3750     2.2380   -21.9310    61.1730   132.4910   125.1060   174.1200    24.6560 
  217.5000     2.2380   -22.0740    59.5350   140.5650   132.3610   167.8170    24.6550 
  217.6250     2.2380   -22.2080    57.3410   144.0060   135.5040   157.3880    24.6550 
  217.7500     2.2340   -22.3330    56.7810   145.6340   137.7520   160.5790    24.6550 
  217.8750     2.2240   -22.4440    58.3900   149.2490   142.6140   172.0000    24.6500 
  218.0000     2.2060   -22.5240    59.9720   157.1570   151.7690   190.3930    24.6360 
  218.1250     2.1890   -22.5620    60.2620   168.1090   163.4070   231.8210    24.6070 
  218.2500     2.1850   -22.5660    60.4650   176.3470   171.5340   278.6720    24.5900 
  218.3750     2.1850   -22.5380    60.1930   177.2860   171.4050   276.3250    24.5700 
  218.5000     2.1830   -22.4680    59.6450   169.6710   162.1520   247.9080    24.5290 
  218.6250     2.1840   -22.3620    59.3720   155.3210   146.5000   233.1030    24.4570 
  218.7500     2.2020   -22.2260    59.1380   138.8760   129.4260   232.6550    24.3270 
  218.8750     2.2310   -22.0670    60.7390   122.2120   112.6920   215.8350    24.1610 
  219.0000     2.2570   -21.9050    64.8530   105.9770    96.8280   169.5440    23.9810 
  219.1250     2.2670   -21.7470    68.0030    90.8650    82.5620   130.9940    23.8660 
  219.2500     2.2690   -21.6260    66.7430    77.5060    70.3160   120.1820    23.8230 
  219.3750     2.2740   -21.5790    63.1650    66.2610    60.2430   116.1310    23.8160 
  219.5000     2.2860   -21.6220    62.5810    56.9620    52.0110    95.7350    23.8160 
  219.6250     2.2990   -21.7550    66.9780    49.5720    45.4750    68.9380    23.8160 
  219.7500     2.3050   -21.9570    71.0170    43.7620    40.3600    53.5760    23.8160 
  219.8750     2.2990   -22.2150    71.5200    39.6090    36.7890    48.6570    23.8180 
  220.0000     2.2840   -22.5060    70.6420    37.0680    34.7250    48.6390    23.8480 
  220.1250     2.2670   -22.8240    72.9920    35.9960    33.9510    47.1900    23.9440 
  220.2500     2.2580   -23.1310    75.7920    35.6340    33.7020    44.7500    24.0750 
  220.3750     2.2570   -23.3960    77.1630    35.5610    33.5900    45.2610    24.1490 
  220.5000     2.2630   -23.6030    77.8780    35.5610    33.4630    48.2270    24.1680 
  220.6250     2.2710   -23.7320    79.5340    35.5200    33.2380    49.8930    24.1680 
  220.7500     2.2770   -23.7950    80.5850    35.2560    32.7650    49.6600    24.1680 
  220.8750     2.2820   -23.8250    80.0150    34.5840    31.8990    47.1010    24.1680 
  221.0000     2.2880   -23.8150    79.5130    33.4530    30.6500    45.3570    24.1680 
  221.1250     2.2950   -23.7780    77.9810    32.0030    29.2320    41.9610    24.1680 
  221.2500     2.3040   -23.7140    75.1220    30.6010    27.9940    37.8840    24.1680 
  221.3750     2.3140   -23.6260    75.1320    29.4670    27.1260    34.9570    24.1700 
  221.5000     2.3200   -23.5150    80.2690    28.7050    26.7010    34.1370    24.1740 
  221.6250     2.3210   -23.3560    85.8390    28.3520    26.7230    35.1710    24.1760 
