~V
VERS. 2.00: Ver 2.00
~W
STRT.M 50.0000:
STOP.M 276.0000:
STEP.M 0.1250:
NULL. -999.2500:
UWI. F11044:
~C
DEPT.M :
SP.MV :
GR.API :
RML.OHMM :
RI. :
RXO.OHMM :
CALI.CM :
DEN.GM/CC :
~A
# ...
  140.0000    -6.7110    57.5670    19.3650    18.3360    24.6360    24.8750     2.5960 
  140.1250    -6.4000    58.0470    20.4640    19.5240    24.2800    24.9220     2.6110 
  140.2500    -6.1600    57.1750    21.4650    20.5970    27.2900    24.9170     2.6220 
  140.3750    -5.9870    56.2960    22.3610    21.6260    32.8140    24.8400     2.6280 
  140.5000    -5.8140    55.7610    23.0160    22.5010    37.0700    24.7010     2.6250 
  140.6250    -5.6250    55.6510    23.1580    22.8880    34.2300    24.6460     2.6120 
  140.7500    -5.4480    55.2140    22.7860    22.6990    30.1170    24.7540     2.5980 
  140.8750    -5.2810    54.3970    22.0030    22.0000    27.3110    24.8840     2.5920 
  141.0000    -5.1530    54.6520    20.9980    20.9850    24.2390    24.9490     2.5950 
  141.1250    -4.9860    55.6440    19.9690    19.8630    22.9410    24.9540     2.6020 
  141.2500    -4.7810    54.9980    19.0640    18.8080    21.6310    24.9120     2.6070 
  141.3750    -4.6240    53.6950    18.3880    17.9310    20.1830    24.8100     2.6090 
  141.5000    -4.4410    53.3380    18.0430    17.3460    18.3180    24.7340     2.6100 
  141.6250    -4.3640    53.9710    18.1740    17.2270    17.0940    24.6800     2.6070 
  141.7500    -4.3480    54.1180    18.6780    17.5360    17.9390    24.6080     2.5960 
  141.8750    -4.2800    53.7670    19.3850    18.1770    20.2480    24.5320     2.5740 
  142.0000    -4.2110    52.9660    20.0320    18.9230    22.1920    24.5130     2.5450 
  142.1250    -4.2510    50.5830    20.2810    19.4050    21.4070    24.5120     2.5200 
  142.2500    -4.2810    48.7780    20.0980    19.4390    21.7310    24.4850     2.5100 
  142.3750    -4.2440    49.0130    19.6170    19.0550    21.5830    24.4290     2.5130 
  142.5000    -4.2680    51.7070    19.0810    18.4630    19.4240    24.3700     2.5190 
  142.6250    -4.2010    54.5860    18.7420    17.9520    17.7520    24.3570     2.5170 
  142.7500    -4.0180    55.2940    18.6220    17.6610    19.1850    24.3520     2.5060 
  142.8750    -3.8600    54.3840    18.6310    17.5730    21.1910    24.3240     2.4940 
  143.0000    -3.6910    52.9120    18.6430    17.5880    21.7850    24.3020     2.4860 
  143.1250    -3.4480    51.6610    18.5400    17.5630    21.3330    24.3150     2.4880 
  143.2500    -3.2870    51.3100    18.3240    17.4050    21.5600    24.3880     2.4930 
  143.3750    -3.1650    53.4520    18.0450    17.1180    21.3880    24.5310     2.4960 
  143.5000    -3.0310    56.5250    17.7870    16.7870    18.8880    24.7300     2.4940 
  143.6250    -2.9310    56.0060    17.6390    16.5320    18.4400    24.8650     2.4870 
  143.7500    -2.8740    54.0300    17.5820    16.3750    18.4220    24.8720     2.4790 
  143.8750    -2.8830    54.8360    17.5340    16.2630    18.5270    24.8850     2.4770 
  144.0000    -2.9350    60.0770    17.3830    16.0950    19.7380    24.9630     2.4840 
  144.1250    -2.9920    67.5540    17.0160    15.7490    21.3670    25.1030     2.4980 
  144.2500    -3.0400    72.2160    16.4750    15.2180    20.2540    25.1670     2.5090 
  144.3750    -3.1220    72.4210    15.8330    14.5380    18.1770    25.1560     2.5120 
  144.5000    -3.1460    69.9210    15.1720    13.7650    17.1830    25.1890     2.5050 
  144.6250    -3.1800    68.2220    14.5560    12.9900    16.9640    25.2280     2.4960 
  144.7500    -3.3320    67.1710    14.0240    12.3280    16.4430    25.2340     2.4950 
  144.8750    -3.4460    66.1750    13.6300    11.8700    15.1830    25.1700     2.5050 
  145.0000    -3.5120    65.5660    13.4360    11.6680    13.6010    25.0980     2.5210 
  145.1250    -3.6770    65.3100    13.4560    11.7320    13.1020    25.0450     2.5350 
  145.2500    -3.8320    64.6110    13.4850    11.8770    14.2760    25.0040     2.5420 
  145.3750    -3.9400    65.0250    13.2600    11.8570    15.8820    24.9390     2.5400 
  145.5000    -4.1460    68.2500    12.5580    11.4140    15.4310    24.8430     2.5300 
  145.6250    -4.4350    73.0320    11.2720    10.3760    12.2850    24.6560     2.5060 
  145.7500    -4.5730    77.5730     9.7330     9.0420     9.7000    24.4810     2.4740 
  145.8750    -4.6480    82.8030     8.2530     7.7170     8.2290    24.4590     2.4400 
  146.0000    -4.7560    89.5230     7.0650     6.6280     7.0850    24.6420     2.4130 
  146.1250    -4.7680    93.8210     6.3190     5.9020     6.2980    24.8060     2.4010 
  146.2500    -4.7650    92.7660     5.9050     5.4430     6.2870    24.9230     2.3930 
  146.3750    -4.8200    90.4970     5.7310     5.1660     6.5760    24.9730     2.3820 
  146.5000    -4.7880    89.1780     5.6920     4.9840     6.6200    24.9780     2.3660 
  146.6250    -4.6750    89.9760     5.6820     4.8130     6.0920    24.9740     2.3500 
  146.7500    -4.5950    91.9470     5.6260     4.6190     5.3410    24.9670     2.3450 
  146.8750    -4.4860    94.4510     5.5110     4.4160     4.9240    24.9650     2.3510 
  147.0000    -4.3770    95.6980     5.3590     4.2370     4.8190    24.9610     2.3580 
  147.1250    -4.2960    93.2140     5.2240     4.1220     4.8960    24.9620     2.3590 
  147.2500    -4.1660    92.0090     5.1480     4.0680     4.9230    24.9610     2.3530 
  147.3750    -4.0310    94.4770     5.1440     4.0640     4.8940    24.9600     2.3470 
  147.5000    -3.8770    97.4700     5.2000     4.0910     4.9230    24.9620     2.3440 
  147.6250    -3.6640    97.3060     5.2800     4.1310     5.0750    24.9790     2.3440 
  147.7500    -3.5020    94.1610     5.3340     4.1600     5.1880    25.0000     2.3430 
  147.8750    -3.4270    91.3680     5.3270     4.1660     5.1810    25.0140     2.3400 
  148.0000    -3.3190    90.4140     5.2460     4.1370     5.1040    25.0070     2.3380 
  148.1250    -3.2210    91.1370     5.1110     4.0740     5.0620    24.9820     2.3390 
  148.2500    -3.2070    91.6390     4.9840     4.0020     5.0000    24.9670     2.3430 
  148.3750    -3.1540    91.5100     4.9070     3.9410     4.8860    24.9580     2.3470 
  148.5000    -3.1650    93.8190     4.8970     3.9090     4.7740    24.9430     2.3510 
  148.6250    -3.3220    99.8890     4.9490     3.9170     4.8390    24.9450     2.3540 
  148.7500    -3.4760   106.2110     5.0250     3.9510     4.9960    24.9360     2.3570 
  148.8750    -3.5730   108.6970     5.1070     3.9940     5.1250    24.9240     2.3610 
  149.0000    -3.7040   107.3320     5.1890     4.0250     5.0950    24.9260     2.3620 
  149.1250    -3.8110   106.1500     5.2540     4.0290     5.0760    24.9140     2.3620 
  149.2500    -3.7910   106.8970     5.2820     4.0110     5.0450    24.9080     2.3620 
  149.3750    -3.7840   107.7300     5.2620     3.9790     4.9830    24.9050     2.3640 
  149.5000    -3.7490   105.5780     5.1980     3.9420     4.9270    24.9030     2.3700 
  149.6250    -3.5790   101.7680     5.1080     3.9060     4.9520    24.8990     2.3770 
  149.7500    -3.4190    99.5180     5.0190     3.8730     4.9710    24.8940     2.3840 
  149.8750    -3.2820    97.6060     4.9400     3.8440     4.9390    24.8960     2.3900 
  150.0000    -3.1530    95.7550     4.8790     3.8180     4.9040    24.8970     2.3970 
  150.1250    -3.0840    95.4350     4.8500     3.7940     4.8870    24.9130     2.4070 
  150.2500    -3.0820    97.9110     4.8630     3.7730     4.8730    24.9420     2.4170 
  150.3750    -3.1430   101.0210     4.9150     3.7600     4.8760    24.9740     2.4230 
  150.5000    -3.2420   102.0810     4.9890     3.7620     4.8430    24.9900     2.4190 
  150.6250    -3.3660   101.2840     5.0520     3.7850     4.6830    24.9720     2.4030 
  150.7500    -3.5150   100.1890     5.0890     3.8240     4.6480    24.9660     2.3800 
  150.8750    -3.6830    99.8210     5.1030     3.8770     4.8320    24.9670     2.3600 
  151.0000    -3.7870   100.5940     5.1030     3.9420     5.0300    24.9740     2.3480 
  151.1250    -3.8680   100.9030     5.0970     4.0140     5.1150    24.9730     2.3460 
