~V
VERS. 2.00: Ver 2.00
~W
STRT.M 50.0000:
STOP.M 270.0000:
STEP.M 0.1250:
NULL. -999.2500:
UWI. F11070:
~C
DEPT.M :
DEN.GM/CC :
GR.API :
RML.OHMM :
RI. :
RXO.OHMM :
CALI.CM :
SP.MV :
~A
# ...
  263.7500     2.2890    57.7020     8.4330     7.5810    12.2160    23.9650    -2.9970 
  263.8750     2.3080    57.7020     8.4090     7.5780    10.9890    24.1320    -3.0910 
  264.0000     2.3480    57.7020     8.3810     7.5740    10.9680    24.3680    -3.1740 
  264.1250     2.3950    57.7020     8.3570     7.5720    11.6330    24.3530    -3.2000 
  264.2500     2.4280    57.7020     8.3500     7.5720    12.9590    24.1940    -3.2350 
  264.3750     2.4290    57.7020     8.3650     7.5720    14.1920    24.1030    -3.3340 
  264.5000     2.3960    57.7020     8.3920     7.5710    15.0830    24.1080    -3.4060 
  264.6250     2.3460    57.7020     8.4180     7.5710    17.5420    24.2360    -3.4320 
  264.7500     2.3050    57.7020     8.4390     7.5710    21.9210    24.4230    -3.4910 
  264.8750     2.2850    57.7020     8.4520     7.5720    27.3490    24.4880    -3.5190 
  265.0000     2.2810    57.7020     8.4540     7.5740    32.1380    24.3890    -4.1440 
  265.1250     2.2930    57.7020     8.4440     7.5740    25.0480    24.2350    -5.6560 
  265.2500     2.3210    57.7020     8.4250     7.5720    17.3080    24.2050    -7.1440 
  265.3750     2.3610    57.7020     8.4010     7.5680    13.6610    24.4290    -8.6270 
  265.5000     2.3930    57.7020     8.3740     7.5630    13.0310    24.8120   -10.0520 
  265.6250     2.3960    57.7020     8.3540     7.5600    12.6500    25.0930   -11.5200 
  265.7500     2.3800    57.7020     8.3400     7.5600    12.7520    25.0290   -13.0190 
  265.8750     2.3620    57.7020     8.3330     7.5610    14.4530    24.8270   -14.4670 
  266.0000     2.3520    57.7020     8.3320     7.5610    17.4950    24.6660   -14.7520 
  266.1250     2.3430    57.7020     8.3320     7.5610    18.2920    24.5750   -14.7520 
  266.2500     2.3340    57.7020     8.3320     7.5610    17.1500    24.6000  -999.2500 
  266.3750     2.3270    57.7020     8.3320     7.5610    16.8140    24.6390  -999.2500 
  266.5000     2.3200    57.7020     8.3320     7.5610    18.0910    24.5890  -999.2500 
  266.6250     2.2870    57.7020     8.3320     7.5610    18.4230    24.6240  -999.2500 
  266.7500     2.2130    57.7020     8.3320     7.5610    16.9970    24.8840  -999.2500 
  266.8750     2.1060    57.7020     8.3320     7.5610    13.5410    25.1420  -999.2500 
  267.0000     1.9870    57.7020     8.3320     7.5610    10.1180    25.0560  -999.2500 
  267.1250     1.8680    57.7020     8.3320     7.5610     7.2920    24.5830  -999.2500 
  267.2500     1.7640    57.7020     8.3320     7.5610     6.2210    24.1390  -999.2500 
  267.3750     1.6950    57.7020     8.3320     7.5610     5.9530    23.9320  -999.2500 
  267.5000     1.6640    57.7020     8.3320     7.5610     5.9660    23.8700  -999.2500 
  267.6250     1.6610    57.7020     8.3320     7.5610     5.9460    23.8770  -999.2500 
  267.7500     1.6630    57.7020     8.3320     7.5610     5.9260    23.8890  -999.2500 
  267.8750     1.6650    57.7020     8.3320     7.5610     5.9570    23.8710  -999.2500 
  268.0000     1.6680    57.7020     8.3320     7.5610     5.9810    23.8560  -999.2500 
  268.1250     1.6720    57.7020     8.3320     7.5610     5.9540    23.8680  -999.2500 
  268.2500     1.6760    57.7020     8.3320     7.5610     5.9060    23.8910  -999.2500 
  268.3750     1.6790    57.7020     8.3320     7.5610     5.8990    23.8930  -999.2500 
  268.5000     1.6790    57.7020     8.3320     7.5610     5.9260    23.8810  -999.2500 
  268.6250     1.6770    57.7020     8.3320     7.5610     5.8990    23.8990  -999.2500 
  268.7500     1.6750    57.7020     8.3320     7.5610     5.9070    23.8960  -999.2500 
  268.8750     1.6750    57.7020     8.3320     7.5610     5.9540    23.8680  -999.2500 
  269.0000     1.6790    57.7020     8.3320     7.5610     5.9810    23.8510  -999.2500 
  269.1250  -999.2500    57.7020     8.3320     7.5610     5.9740    23.8530  -999.2500 
  269.2500  -999.2500    57.7020     8.3320     7.5610     5.9590    23.8610  -999.2500 
  269.3750  -999.2500    57.7020     8.3320     7.5610     5.9550    23.8640  -999.2500 
  269.5000  -999.2500    57.7020     8.3320     7.5610     5.9120    23.8900  -999.2500 
  269.6250  -999.2500    57.7020     8.3320     7.5610     5.8980    23.8960  -999.2500 
  269.7500  -999.2500    57.7020     8.3320     7.5610     5.9100    23.8880  -999.2500 
  269.8750  -999.2500    57.7020     8.3320     7.5610     5.9030    23.8900  -999.2500 
  270.0000  -999.2500    57.7020     8.3320     7.5610     5.8970    23.8920  -999.2500 
