~V
VERS. 2.00: Ver 2.00
~W
STRT.M 51.0000:
STOP.M 240.0000:
STEP.M 0.1250:
NULL. -999.2500:
UWI. F11016:
~C
DEPT.M :
GR.API :
RML.OHMM :
RI. :
RXO.OHMM :
CALI.CM :
DEN.GM/CC :
SP.MV :
~A
   51.0000  -999.2500  -999.2500  -999.2500  -999.2500  -999.2500  -999.2500     0.0000 
   51.1250  -999.2500  -999.2500  -999.2500  -999.2500  -999.2500  -999.2500     0.0000 
   51.2500  -999.2500  -999.2500  -999.2500  -999.2500  -999.2500     2.1230     0.0000 
   51.3750  -999.2500  -999.2500  -999.2500  -999.2500  -999.2500     2.1230    12.3870 
   51.5000  -999.2500  -999.2500  -999.2500  -999.2500  -999.2500     2.1420    57.8810 
   51.6250  -999.2500  -999.2500  -999.2500  -999.2500  -999.2500     2.1700    82.9040 
   51.7500  -999.2500  -999.2500  -999.2500  -999.2500  -999.2500     2.1910    83.2670 
   51.8750  -999.2500  -999.2500  -999.2500  -999.2500  -999.2500     2.2060    83.6740 
   52.0000  -999.2500  -999.2500  -999.2500  -999.2500  -999.2500     2.2120    84.1090 
   52.1250  -999.2500  -999.2500  -999.2500  -999.2500  -999.2500     2.2130    84.5590 
   52.2500  -999.2500  -999.2500  -999.2500  -999.2500  -999.2500     2.2090    84.9950 
   52.3750  -999.2500  -999.2500  -999.2500  -999.2500  -999.2500     2.1990    85.3830 
   52.5000  -999.2500  -999.2500  -999.2500  -999.2500  -999.2500     2.1860    85.7040 
   52.6250  -999.2500  -999.2500  -999.2500  -999.2500  -999.2500     2.1750    85.9240 
   52.7500  -999.2500  -999.2500  -999.2500  -999.2500  -999.2500     2.1670    85.9930 
   52.8750  -999.2500  -999.2500  -999.2500  -999.2500  -999.2500     2.1640    85.8380 
   53.0000  -999.2500  -999.2500  -999.2500  -999.2500  -999.2500     2.1670    85.4080 
   53.1250  -999.2500  -999.2500  -999.2500  -999.2500  -999.2500     2.1770    84.6950 
   53.2500    37.2980     1.8230     0.4810     4.4420    25.3290     2.1960    83.7400 
   53.3750    37.2980     1.8230     0.4810     4.4420    25.3290     2.2260    82.6340 
   53.5000    37.1760     1.8280     0.4820     4.7910    25.3290     2.2640    81.5130 
   53.6250    36.6490     1.8510     0.4860     6.0380    25.3290     2.3050    80.5250 
   53.7500    36.3250     1.8860     0.4890     6.7260    25.3290     2.3450    79.8210 
   53.8750    37.4890     1.9230     0.4880     7.1370    25.3270     2.3830    79.5870 
   54.0000    39.1580     1.9560     0.4830     8.3510    25.3230     2.4170    79.9050 
   54.1250    39.9910     1.9740     0.4780    11.2770    25.3190     2.4490    80.7710 
   54.2500    39.8940     1.9650     0.4760    15.6960    25.3180     2.4790    82.1530 
   54.3750    39.2870     1.9150     0.4800    14.9140    25.3180     2.5040    83.9740 
   54.5000    38.2110     1.8210     0.4880     9.2960    25.3170     2.5230    86.0550 
   54.6250    37.0170     1.6950     0.4970     4.8480    25.3170     2.5340    88.1800 
   54.7500    36.9190     1.5580     0.5020     2.6160    25.3160     2.5380    90.1420 
   54.8750    38.0030     1.4430     0.5030     1.4420    25.2960     2.5340    91.7130 
   55.0000    38.8500     1.3680     0.5020     0.8300    25.2380     2.5240    92.7390 
   55.1250    39.2730     1.3310     0.5010     0.5680    25.1760     2.5110    93.1060 
   55.2500    40.2380     1.3190     0.4990     0.4910    25.1730     2.4920    92.7260 
   55.3750    41.5990     1.3160     0.4960     0.5220    25.2110     2.4670    91.4980 
   55.5000    41.6150     1.3200     0.4920     0.6360    25.2420     2.4340    89.5090 
   55.6250    39.9710     1.3380     0.4870     0.8380    25.2650     2.3910    86.9420 
   55.7500    38.5310     1.3740     0.4830     1.1120    25.3020     2.3410    83.9680 
   55.8750    38.5560     1.4190     0.4820     1.3310    25.3430     2.2860    80.7120 
   56.0000    39.1900     1.4470     0.4840     1.4000    25.3680     2.2300    77.3120 
   56.1250    39.3610     1.4360     0.4910     1.3930    25.3760     2.1770    73.9190 
   56.2500    38.9170     1.3760     0.5000     1.4410    25.3770     2.1330    70.6980 
   56.3750    38.3180     1.2730     0.5120     1.6370    25.3770     2.1040    67.8320 
   56.5000    38.5070     1.1490     0.5250     1.9220    25.3770     2.0930    65.3770 
   56.6250    39.9400     1.0360     0.5380     2.2120    25.3770     2.1000    63.2960 
   56.7500    41.7750     0.9650     0.5480     2.6100    25.3780     2.1220    61.5450 
   56.8750    43.3000     0.9860     0.5520     3.3130    25.3800     2.1530    60.1760 
   57.0000    45.8070     1.1260     0.5480     4.3920    25.3830     2.1850    59.2330 
   57.1250    49.8090     1.3470     0.5350     5.7810    25.3850     2.2160    58.6920 
   57.2500    52.9770     1.5500     0.5090     7.3850    25.3840     2.2470    58.4470 
   57.3750    53.0010     1.5660     0.4620     7.4860    25.3840     2.2850    58.3050 
   57.5000    51.0780     1.2820     0.3940     5.5040    25.3830     2.3400    57.9800 
   57.6250    49.8450     0.7730     0.3170     3.4830    25.3680     2.4140    57.1300 
   57.7500    49.9720     0.2900     0.2470     1.7680    25.3200     2.5020    55.4190 
   57.8750    50.6760     0.0380     0.2100     0.6340    25.1800     2.5790    52.3480 
   58.0000    52.4930     0.0220     0.2350     0.4460    24.9110     2.6190    47.6640 
   58.1250    56.3220     0.2200     0.3630     1.0010    24.5270     2.6050    41.4200 
   58.2500    61.2240     0.6780     0.6600     2.4460    24.0930     2.5440    33.8840 
   58.3750    65.0240     1.4650     1.2220     4.5440    23.6920     2.4580    25.5050 
   58.5000    67.3520     2.5140     2.0650     6.6830    23.4710     2.3790    16.8640 
   58.6250    68.6980     3.6200     3.1070     7.5000    23.4490     2.3240     8.4630 
   58.7500    68.7350     4.5070     4.1980     6.8070    23.5130     2.2960     0.6890 
   58.8750    69.0400     4.9430     5.1370     6.3050    23.5580     2.2930    -5.9680 
   59.0000    70.7270     5.0410     5.8360     6.5440    23.5110     2.3030   -11.2290 
   59.1250    72.0260     5.0390     6.3140     6.9280    23.3540     2.3130   -15.0990 
   59.2500    71.1290     5.0200     6.5860     7.2800    23.1230     2.3170   -17.7830 
   59.3750    68.8510     4.9620     6.6360     7.6240    22.9070     2.3140   -19.6140 
   59.5000    68.2810     4.8730     6.5330     7.6240    22.8020     2.3080   -20.9840 
   59.6250    70.8310     4.8310     6.4160     7.3510    22.8220     2.3050   -22.1380 
   59.7500    74.0210     4.9260     6.4170     7.1100    22.9110     2.3040   -23.1970 
   59.8750    73.0710     5.2130     6.6140     7.1250    22.9300     2.2990   -24.2580 
   60.0000    67.7020     5.6260     6.9480     8.0740    22.8110     2.2850   -25.3470 
   60.1250    62.3490     6.0270     7.2810    10.0100    22.6460     2.2630   -26.4280 
   60.2500    60.5000     6.2840     7.4790    10.4390    22.5620     2.2390   -27.4770 
   60.3750    61.5250     6.3030     7.4450     9.2560    22.5710     2.2220   -28.4690 
   60.5000    62.7790     6.1290     7.2190     8.1580    22.5960     2.2140   -29.3750 
   60.6250    62.9540     5.8880     6.9180     7.6920    22.6050     2.2140   -30.1960 
   60.7500    62.0400     5.6930     6.6510     7.5790    22.6060     2.2180   -30.9060 
   60.8750    60.9650     5.6250     6.5040     7.5720    22.6040     2.2210   -31.4690 
   61.0000    61.5690     5.6870     6.4940     7.6070    22.5850     2.2190   -31.9410 
   61.1250    63.9080     5.8370     6.5890     7.6700    22.5330     2.2090   -32.3900 
   61.2500    64.9830     6.0300     6.7460     7.8260    22.4850     2.1910   -32.8340 
   61.3750    61.7130     6.2130     6.9050     8.3010    22.5830     2.1690   -33.3050 
   61.5000    56.9180     6.3400     7.0080     8.9950    22.8880     2.1490   -33.8080 
   61.6250    54.8160     6.3880     7.0230     9.1200    23.2180     2.1350   -34.3150 
   61.7500    56.1030     6.3610     6.9540     8.6050    23.3720     2.1310   -34.7990 
   61.8750    58.8970     6.2840     6.8310     8.0440    23.3780     2.1360   -35.2200 
   62.0000    61.1240     6.2020     6.7010     7.7330    23.3460     2.1480   -35.5440 
   62.1250    62.0120     6.1560     6.6050     7.6360    23.2980     2.1610   -35.7800 
