~V
VERS. 2.00: Ver 2.00
~W
STRT.M 53.0000:
STOP.M 220.0000:
STEP.M 0.1250:
NULL. -999.2500:
UWI. F11005:
~C
DEPT.M :
DEN.GM/CC :
GR.API :
RML.OHMM :
RI. :
RXO.OHMM :
CALI.CM :
SP.MV :
~A
# ...
  176.7500     2.3190    72.9090     8.0480     6.4160     6.1510    25.2430   -17.0010 
  176.8750     2.3240    82.9310     8.1440     6.4710     6.0980    25.2170   -17.8350 
  177.0000     2.3390    91.3860     8.3320     6.5900     6.0900    25.0770   -18.7480 
  177.1250     2.3530    97.6080     8.5900     6.7690     6.3940    24.9170   -19.7180 
  177.2500     2.3550   101.9920     8.8430     6.9560     6.9530    24.9890   -20.6980 
  177.3750     2.3400   102.9010     9.0290     7.1010     7.4670    25.2870   -21.6180 
  177.5000     2.3140   101.5280     9.1050     7.1660     7.6640    25.6720   -22.4900 
  177.6250     2.2900   100.7120     9.0430     7.1210     7.4720    25.8640   -23.2630 
  177.7500     2.2830   101.3670     8.8980     7.0000     7.4630    25.9870   -23.8750 
  177.8750     2.2990   100.8340     8.7220     6.8410     7.3290    26.0440   -24.4280 
  178.0000     2.3330    99.6500     8.5720     6.6940     7.1090    26.0210   -25.0440 
  178.1250     2.3650   100.2490     8.5100     6.6110     6.9680    26.0240   -25.6850 
  178.2500     2.3770   101.2740     8.5470     6.6070     7.2490    25.9710   -26.3830 
  178.3750     2.3610   100.8480     8.6850     6.6850     7.4420    25.9520   -27.1920 
  178.5000     2.3250    98.3630     8.9040     6.8360     7.5220    25.9650   -28.1070 
  178.6250     2.2920    96.8430     9.1690     7.0360     7.6320    25.9560   -29.1220 
  178.7500     2.2820    98.0320     9.4240     7.2370     7.8410    25.9690   -30.2060 
  178.8750     2.2940   100.1220     9.6320     7.4080     8.1630    25.9070   -31.2900 
  179.0000     2.3210   100.0540     9.7700     7.5250     8.1650    25.7180   -32.2600 
  179.1250     2.3470    98.4330     9.8210     7.5680     7.9100    25.6430   -33.1320 
  179.2500     2.3610    97.2820     9.8160     7.5630     7.9080    25.8360   -33.9350 
  179.3750     2.3600    96.5750     9.7850     7.5380     8.0720    26.2130   -34.6360 
  179.5000     2.3470    95.5970     9.7500     7.5180     8.0930    25.9390   -35.2320 
  179.6250     2.3240    95.9810     9.7290     7.5220     8.2150    25.8470   -35.6840 
  179.7500     2.3040    96.1080     9.7480     7.5620     8.6480    25.9820   -35.9530 
  179.8750     2.2950    92.8030     9.8610     7.6640     9.2830    25.9820   -36.0420 
  180.0000     2.3060    88.7150    10.1520     7.8790    10.0200    25.8850   -35.9310 
  180.1250     2.3370    88.9810    10.7300     8.2930     9.7760    25.8390   -35.5210 
  180.2500     2.3740    89.2880    11.4980     8.8760     9.9710    25.6230   -34.9180 
  180.3750     2.4030    87.0330    12.2320     9.5030    11.5210    25.5300   -34.1100 
  180.5000     2.4140    86.7980    12.6050     9.9210    14.1950    25.5810   -33.0770 
  180.6250     2.3990    94.9520    12.2260     9.7410    14.0970    25.5170   -31.9400 
  180.7500     2.3740   105.2160    11.2240     9.0060    11.8820    25.3650   -30.7780 
  180.8750     2.3520   109.4600     9.8980     7.9700     8.9760    25.2250   -29.5470 
  181.0000     2.3430   104.7650     8.6310     6.9550     6.9080    25.3010   -28.3220 
  181.1250     2.3470    93.3450     7.7830     6.2370     6.2170    25.4760   -27.2660 
  181.2500     2.3510    82.9440     7.3660     5.8410     6.2770    25.3270   -26.3110 
  181.3750     2.3490    77.0930     7.2920     5.7240     6.6730    24.9360   -25.4240 
  181.5000     2.3410    74.5990     7.4210     5.8020     6.9510    24.7630   -24.6320 
  181.6250     2.3310    71.7840     7.6170     5.9840     6.7030    24.8830   -23.8810 
  181.7500     2.3180    67.3820     7.7870     6.1710     6.4270    25.0860   -23.1500 
  181.8750     2.3050    62.7580     7.9230     6.3350     6.4550    25.1890   -22.5120 
  182.0000     2.2920    59.8600     8.0410     6.4780     6.5260    25.2970   -21.9420 
  182.1250     2.2880    58.4040     8.1610     6.6160     6.7530    25.3790   -21.3200 
  182.2500     2.2920    56.7660     8.2670     6.7460     6.8530    25.4140   -20.7110 
  182.3750     2.2980    56.1260     8.3220     6.8350     6.5680    25.3410   -20.1510 
  182.5000     2.3020    58.3820     8.2840     6.8420     6.5320    25.2620   -19.6300 
  182.6250     2.3030    62.8510     8.1120     6.7160     6.4220    25.2860   -19.1250 
  182.7500     2.3080    65.9170     7.8430     6.4880     6.2060    25.3560   -18.5850 
  182.8750     2.3240    67.4080     7.5370     6.2040     6.0390    25.4760   -18.0250 
  183.0000     2.3450    71.3620     7.2650     5.9320     6.0760    25.5500   -17.4680 
  183.1250     2.3630    79.0420     7.1090     5.7430     6.1120    25.5330   -17.0060 
  183.2500     2.3690    86.7690     7.0700     5.6490     5.8850    25.4950   -16.6620 
  183.3750     2.3660    93.1770     7.1160     5.6330     5.6870    25.4470   -16.4440 
  183.5000     2.3580    97.4850     7.2010     5.6650     5.6430    25.4160   -16.3710 
  183.6250     2.3530    96.7690     7.2900     5.7150     5.5300    25.4020   -16.5550 
  183.7500     2.3490    95.3260     7.3850     5.7720     5.3090    25.3900   -17.0440 
  183.8750     2.3440    98.2940     7.5030     5.8480     5.3640    25.4090   -17.7420 
  184.0000     2.3360   103.8870     7.6560     5.9540     5.6320    25.4170   -18.6180 
  184.1250     2.3280   105.4230     7.8420     6.0960     6.0750    25.4280   -19.6270 
  184.2500     2.3230   102.7460     8.0320     6.2580     6.3660    25.4700   -20.6060 
  184.3750     2.3250    98.2230     8.2140     6.4230     6.4600    25.5250   -21.5810 
  184.5000     2.3320    93.2540     8.3840     6.5810     6.4660    25.5490   -22.5750 
  184.6250     2.3380    92.2550     8.5430     6.7290     6.5970    25.5440   -23.4760 
  184.7500     2.3390    94.3290     8.6880     6.8690     6.9810    25.5550   -24.2900 
  184.8750     2.3370    93.9480     8.8080     6.9960     7.3350    25.6080   -24.9560 
  185.0000     2.3370    90.6620     8.8880     7.1030     7.1740    25.7210   -25.4620 
  185.1250     2.3420    87.4870     8.9110     7.1680     6.6710    25.6030   -25.8370 
  185.2500     2.3480    88.7810     8.8940     7.1940     6.4090    25.5330   -26.1380 
  185.3750     2.3530    93.8210     8.8610     7.1940     6.5290    25.5270   -26.3890 
  185.5000     2.3550    96.7730     8.8390     7.1930     6.8220    25.5390   -26.5260 
  185.6250     2.3540    91.1060     8.8590     7.2170     6.7520    25.5290   -26.5520 
  185.7500     2.3510    86.4680     8.9140     7.2680     6.6260    25.5530   -26.5070 
  185.8750     2.3460    89.3370     8.9820     7.3330     6.5550    25.6300   -26.4660 
  186.0000     2.3380    93.2810     9.0280     7.3830     6.3640    25.6920   -26.4680 
  186.1250     2.3290    89.6300     9.0130     7.3910     6.2280    25.5290   -26.4740 
  186.2500     2.3230    86.9880     8.9480     7.3610     6.1350    25.4650   -26.4640 
  186.3750     2.3230    90.8160     8.8710     7.3140     6.0430    25.4540   -26.4200 
  186.5000     2.3280    96.0850     8.8450     7.2920     6.0470    25.4650   -26.3370 
  186.6250     2.3310    97.2360     8.9620     7.3760     6.1730    25.4430   -26.1000 
  186.7500     2.3260    96.2520     9.2250     7.5930     6.2220    25.3910   -25.6870 
  186.8750     2.3130    93.6340     9.5960     7.9290     6.3990    25.4080   -25.1560 
  187.0000     2.2960    90.1610    10.0000     8.3240     7.4130    25.6090   -24.4890 
  187.1250     2.2860    89.6040    10.3500     8.6900    10.4330    25.8900   -23.7000 
  187.2500     2.2850    91.8080    10.6130     8.9870    12.3910    26.0410   -22.9180 
  187.3750     2.2960    92.4690    10.7880     9.2170    11.5980    25.9680   -22.0970 
  187.5000     2.3130    90.3210    10.8780     9.3930    10.0370    25.9620   -21.3020 
  187.6250     2.3310    87.2320    10.8820     9.5090     9.8900    25.8470   -20.6850 
  187.7500     2.3430    85.2020    10.8540     9.5950    11.4550    25.5690   -20.1720 
  187.8750     2.3460    85.5330    10.8640     9.7150    12.8130    25.4130   -19.7380 
