~V
VERS. 2.00: Ver 2.00
~W
STRT.M 62.0000:
STOP.M 273.0000:
STEP.M 0.1250:
NULL. -999.2500:
UWI. F11050:
~C
DEPT.M :
SP.MV :
GR.API :
RML.OHMM :
RI. :
RXO.OHMM :
CALI.CM :
DEN.GM/CC :
~A
# ...
  242.0000   -12.2820    82.8220    96.9660    92.4360   103.5530    24.5750     2.3330 
  242.1250   -12.0660    79.0190    95.3090    91.6410    80.5900    24.6300     2.3080 
  242.2500   -11.8140    74.1710    95.3090    91.9630    73.3130    24.6780     2.2820 
  242.3750   -11.5700    71.5270    96.6760    93.3990    83.6610    24.7130     2.2600 
  242.5000   -11.3090    71.8700    97.6360    94.5130   120.5000    24.7400     2.2440 
  242.6250   -11.0520    72.5280    95.3300    92.7960   139.8220    24.6810     2.2410 
  242.7500   -10.8100    71.1620    89.4310    87.8300    99.5790    24.5900     2.2520 
  242.8750   -10.6140    69.3370    81.3690    80.7040    58.9940    24.5900     2.2680 
  243.0000   -10.4690    68.3070    73.4410    73.3970    52.8890    24.6140     2.2790 
  243.1250   -10.3510    69.5830    67.7580    67.8650    68.9950    24.6350     2.2780 
  243.2500   -10.3180    71.7930    64.5050    64.4700    75.3450    24.6320     2.2730 
  243.3750   -10.3080    72.5320    63.5980    63.2620    64.2840    24.6270     2.2680 
  243.5000   -10.3630    72.0850    65.0080    64.2910    54.5730    24.6240     2.2600 
  243.6250   -10.4620    72.8090    69.5070    68.3030    56.1660    24.6140     2.2540 
  243.7500   -10.6170    72.2130    77.2530    75.4320    60.5810    24.5950     2.2520 
  243.8750   -10.7860    67.3790    88.2670    85.7600    79.3840    24.5890     2.2510 
  244.0000   -10.9700    59.9260   101.1610    98.0230   110.0420    24.5920     2.2420 
  244.1250   -11.1460    56.5340   112.1060   108.6280   143.2730    24.5200     2.2290 
  244.2500   -11.3590    58.9670   118.0130   114.5770   196.4470    24.3670     2.2220 
  244.3750   -11.5810    64.1560   118.7540   115.4350   279.4170    24.2610     2.2230 
  244.5000   -11.8150    68.3260   117.0360   113.3180   198.2840    24.2670     2.2330 
  244.6250   -11.9900    69.4110   117.2840   112.2970   116.1700    24.3520     2.2520 
  244.7500   -12.1250    68.4220   121.9060   115.2550   112.7630    24.5000     2.2640 
  244.8750   -12.2190    65.9460   131.0480   122.6370   177.2600    24.6550     2.2560 
  245.0000   -12.2640    64.2230   143.0540   132.8280   199.6930    24.7450     2.2330 
  245.1250   -12.2950    64.8100   154.1870   142.2160   193.8590    24.7390     2.2160 
  245.2500   -12.2320    65.0240   160.6900   147.4390   179.4990    24.6970     2.2090 
  245.3750   -12.1450    64.7020   161.4380   147.4840   162.2420    24.6400     2.2090 
  245.5000   -11.9920    63.8730   158.6390   144.0890   152.0040    24.5650     2.2130 
  245.6250   -11.8430    63.3300   157.0380   141.2880   146.5320    24.4510     2.2250 
  245.7500   -11.6670    63.4330   160.4460   142.7110   142.3080    24.4100     2.2450 
  245.8750   -11.4720    63.1050   171.5120   150.9570   137.8180    24.5010     2.2760 
  246.0000   -11.2380    61.3470   192.5310   168.2040   142.2620    24.6250     2.3230 
  246.1250   -10.9890    57.8060   225.3790   195.8220   167.0860    24.6480     2.3990 
  246.2500   -10.7270    55.1810   260.2740   225.3750   224.4590    24.6610     2.4890 
  246.3750   -10.4790    53.8440   278.8890   243.4250   319.1880    24.6890     2.5620 
  246.5000   -10.2340    54.5130   265.3030   237.7700   376.9440    24.7090     2.5880 
  246.6250    -9.9830    58.8070   226.1250   208.3340   354.5450    24.7540     2.5670 
  246.7500    -9.7170    64.0830   189.1490   175.5240   215.5870    24.7590     2.5440 
  246.8750    -9.4460    66.8490   165.1520   151.4270   127.0080    24.7230     2.5430 
  247.0000    -9.2060    65.8890   155.0680   140.1060   102.6300    24.6630     2.5720 
  247.1250    -8.9330    63.1540   155.2040   139.8580   148.4270    24.6330     2.6170 
  247.2500    -8.7040    61.8680   153.4060   139.8720   227.9980    24.6370     2.6470 
  247.3750    -8.4420    63.3180   137.4060   129.0610   266.9030    24.6660     2.6490 
  247.5000    -8.1960    66.3390   104.2600   101.9110   222.6390    24.6630     2.6250 
  247.6250    -7.9170    66.8810    67.7940    67.2920   148.2790    24.5790     2.5810 
  247.7500    -7.6570    63.5920    40.8840    39.9520    68.8920    24.3670     2.5230 
  247.8750    -7.3970    58.0010    24.2590    22.9180    26.5730    24.1070     2.4540 
  248.0000    -7.1370    55.0460    14.9660    13.6900    10.3020    23.9000     2.3870 
  248.1250    -6.8900    57.0630    10.2110     9.4210     6.9860    23.9030     2.3420 
  248.2500    -6.6680    59.5870     7.0520     7.2070     6.1260    24.1080     2.3190 
  248.3750    -6.4600    59.1320     6.3600     6.1440     6.2620    24.3940     2.3130 
  248.5000    -6.2910    58.2840     6.2550     5.7600     6.4590    24.5720     2.3200 
  248.6250    -6.1810    60.4780     6.4090     5.7720     6.3990    24.5930     2.3340 
  248.7500    -6.1130    60.6190     6.5690     5.8900     6.3510    24.5640     2.3520 
  248.8750    -6.0770    56.8300     6.6590     6.0000     6.3490    24.5660     2.3730 
  249.0000    -6.0680    53.5980     6.6800     6.0540     6.3580    24.5980     2.3970 
  249.1250    -6.1290    55.2090     6.6570     6.0410     6.3820    24.5910     2.4170 
  249.2500    -6.1860    57.5330     6.6220     5.9870     6.4340    24.5620     2.4270 
  249.3750    -6.2840    58.4510     6.5800     5.9040     6.4550    24.5470     2.4270 
  249.5000    -6.3580    59.1040     6.5160     5.7970     6.3980    24.5400     2.4220 
  249.6250    -6.4400    59.2250     6.4140     5.6640     6.4660    24.4940     2.4130 
  249.7500    -6.5150    59.1920     6.3010     5.5140     6.6170    24.4510     2.4000 
  249.8750    -6.6230    58.8450     6.2140     5.3680     6.6720    24.4530     2.3850 
  250.0000    -6.7400    57.3560     6.1880     5.2460     6.3960    24.5440     2.3730 
  250.1250    -6.8690    54.3210     6.2350     5.1700     6.1050    24.6360     2.3760 
  250.2500    -6.9550    53.1000     6.3130     5.1290     5.8170    24.6880     2.3910 
  250.3750    -7.0140    54.9390     6.3800     5.1050     5.7590    24.7070     2.4090 
  250.5000    -7.0360    57.9120     6.4090     5.0760     5.8590    24.7190     2.4170 
  250.6250    -7.0260    60.0930     6.3950     5.0250     6.0130    24.7170     2.4120 
  250.7500    -6.9880    61.7130     6.3690     4.9610     6.2020    24.7000     2.4010 
  250.8750    -6.9240    62.9710     6.3570     4.9020     6.1440    24.6640     2.3910 
  251.0000    -6.8430    62.1270     6.3730     4.8670     5.8940    24.6680     2.3850 
  251.1250    -6.7370    58.0240     6.4290     4.8770     5.7770    24.6420     2.3880 
  251.2500    -6.6830    54.1910     6.5130     4.9140     5.8340    24.6060     2.3930 
  251.3750    -6.6200    52.6880     6.6060     4.9590     5.9100    24.6190     2.3930 
  251.5000    -6.5900    53.2610     6.6810     4.9900     5.9140    24.6900     2.3870 
  251.6250    -6.5530    55.0340     6.7090     4.9960     5.8180    24.7160     2.3800 
  251.7500    -6.5210    57.6820     6.7010     4.9860     5.7160    24.7130     2.3760 
  251.8750    -6.4860    61.9290     6.6880     4.9710     5.6000    24.7590     2.3720 
  252.0000    -6.4650    66.5270     6.7080     4.9590     5.5730    24.8210     2.3670 
  252.1250    -6.4290    66.6260     6.7840     4.9520     5.5530    24.8020     2.3650 
  252.2500    -6.3930    60.7020     6.8900     4.9510     5.5840    24.8030     2.3640 
  252.3750    -6.3390    54.6590     6.9940     4.9540     5.6760    24.9680     2.3640 
  252.5000    -6.2910    54.5030     7.0680     4.9610     5.8220    25.1830     2.3650 
  252.6250    -6.2580    56.5450     7.0950     4.9620     5.6640    25.3040     2.3680 
  252.7500    -6.2340    55.1130     7.0880     4.9500     5.5280    25.3660     2.3710 
  252.8750    -6.2250    52.3750     7.0520     4.9200     5.4450    25.4280     2.3750 
  253.0000    -6.1960    52.7650     6.9920     4.8750     5.4130    25.4270     2.3810 
  253.1250    -6.1970    56.7990     6.9240     4.8260     5.4830    25.3590     2.3890 
