~V
VERS. 2.00: Ver 2.00
~W
STRT.M 53.0000:
STOP.M 220.0000:
STEP.M 0.1250:
NULL. -999.2500:
UWI. F11005:
~C
DEPT.M :
DEN.GM/CC :
GR.API :
RML.OHMM :
RI. :
RXO.OHMM :
CALI.CM :
SP.MV :
~A
# ...
   64.2500     2.0950    66.6330     9.6000     8.4380     7.3630    24.5180   -19.6270 
   64.3750     2.0870    68.9730     9.1900     7.9180     7.1000    24.6380   -20.5070 
   64.5000     2.1040    72.1300     9.2410     7.8280     7.2440    24.5290   -21.1580 
   64.6250     2.1330    75.3930     9.5270     8.0120     7.6510    24.1000   -21.5940 
   64.7500     2.1570    77.2000     9.8350     8.2690     7.9550    23.7810   -21.9250 
   64.8750     2.1720    75.4420    10.0830     8.5020     8.0760    23.6860   -22.1980 
   65.0000     2.1800    71.4420    10.2400     8.6660     8.0370    23.7690   -22.3990 
   65.1250     2.1820    67.8940    10.2910     8.7320     7.5870    23.9480   -22.5540 
   65.2500     2.1750    67.6380    10.2580     8.7130     7.0530    24.0750   -22.7320 
   65.3750     2.1530    71.2420    10.1500     8.6110     7.2380    24.1090   -23.0080 
   65.5000     2.1200    75.9880     9.9890     8.4440     7.8320    24.0300   -23.4050 
   65.6250     2.0920    76.5090     9.8240     8.2510     8.2160    23.9440   -23.8340 
   65.7500     2.0830    73.2440     9.7200     8.0950     8.3330    23.9480   -24.1820 
   65.8750     2.0970    69.9890     9.7160     8.0200     8.3580    24.0260   -24.4410 
   66.0000     2.1240    69.8220     9.8180     8.0440     8.4780    24.1030   -24.6520 
   66.1250     2.1480    71.9400     9.9920     8.1560     8.7580    23.9770   -24.7550 
   66.2500     2.1590    70.2360    10.1630     8.2900     8.9650    23.7690   -24.7340 
   66.3750     2.1600    66.0740    10.2780     8.4000     9.0910    23.5830   -24.5700 
   66.5000     2.1530    64.7120    10.3110     8.4510     9.1920    23.4840   -24.2670 
   66.6250     2.1440    67.5350    10.2540     8.4230     9.3570    23.4300   -23.8310 
   66.7500     2.1330    68.5960    10.1510     8.3480     9.5250    23.3940   -23.3390 
   66.8750     2.1230    65.9370    10.0390     8.2540     9.6610    23.3760   -22.8330 
   67.0000     2.1160    63.6310     9.9470     8.1690     9.7360    23.3800   -22.3470 
   67.1250     2.1150    63.8870     9.9020     8.1110     9.6280    23.3750   -21.9300 
   67.2500     2.1200    65.7460     9.9040     8.0800     9.5720    23.3380   -21.5600 
   67.3750     2.1300    67.7260     9.9440     8.0710     9.6660    23.2970   -21.2040 
   67.5000     2.1410    68.0990    10.0040     8.0740     9.8060    23.2560   -20.8180 
   67.6250     2.1520    67.9660    10.0490     8.0660     9.7430    23.2240   -20.4760 
   67.7500     2.1590    68.9790    10.0470     8.0270     9.4800    23.1780   -20.2340 
   67.8750     2.1610    71.1460     9.9830     7.9470     9.0680    23.1150   -20.0850 
   68.0000     2.1600    74.1870     9.8680     7.8310     8.6730    23.0570   -19.9960 
   68.1250     2.1600    75.8880     9.7420     7.7080     8.8120    23.0190   -19.9450 
   68.2500     2.1610    75.8630     9.6700     7.6230     8.8160    22.9750   -19.9470 
   68.3750     2.1620    74.4790     9.7030     7.6180     8.8620    22.9480   -20.0610 
   68.5000     2.1600    73.1960     9.8680     7.7230     8.9740    22.9700   -20.3090 
   68.6250     2.1550    72.8870    10.1600     7.9540     9.2080    23.0150   -20.5700 
   68.7500     2.1500    72.7490    10.4830     8.2450     9.5410    23.0430   -20.7890 
   68.8750     2.1490    72.7400    10.7470     8.5180    10.0270    23.0530   -20.9780 
   69.0000     2.1530    70.9970    10.8790     8.6980    10.6580    23.0270   -21.1320 
   69.1250     2.1590    68.1320    10.8340     8.7140    10.2880    22.9980   -21.2380 
   69.2500     2.1640    66.4910    10.6820     8.6140     9.6500    23.0040   -21.2820 
   69.3750     2.1670    65.5250    10.4840     8.4480     9.3310    23.0250   -21.2230 
   69.5000     2.1680    64.3490    10.2790     8.2610     9.2490    23.0350   -21.0860 
   69.6250     2.1680    64.4850    10.0670     8.0660     9.2090    23.0400   -20.9390 
   69.7500     2.1710    66.1290     9.8310     7.8580     9.1340    23.0660   -20.7890 
   69.8750     2.1790    68.1430     9.5870     7.6370     9.2060    23.1250   -20.6390 
   70.0000     2.1910    69.0740     9.4050     7.4440     9.2270    23.1980   -20.5250 
   70.1250     2.2030    67.2200     9.4370     7.3870     9.2270    23.3130   -20.5000 
   70.2500     2.2060    65.4240     9.7360     7.5250     9.4400    23.4430   -20.5670 
   70.3750     2.1980    66.0560    10.2740     7.8730     9.7610    23.5700   -20.6880 
   70.5000     2.1840    69.4160    10.9110     8.3700    10.2840    23.7270   -20.8180 
   70.6250     2.1710    71.3220    11.3780     8.8430    11.5430    23.8910   -20.9690 
   70.7500     2.1640    69.8780    11.4940     9.0930    12.8160    23.9840   -21.1320 
   70.8750     2.1620    69.4280    11.2250     9.0330    12.2910    23.8720   -21.2900 
   71.0000     2.1620    72.7180    10.6960     8.7260    11.3890    23.6590   -21.4260 
   71.1250     2.1610    77.1730    10.1430     8.3370    10.7250    23.5080   -21.5040 
   71.2500     2.1600    77.7210     9.7620     8.0260    10.3940    23.4590   -21.5240 
   71.3750     2.1600    74.0530     9.5990     7.8490    10.1900    23.4410   -21.5430 
   71.5000     2.1610    69.6270     9.5990     7.7900    10.2630    23.4240   -21.5960 
   71.6250     2.1610    66.1130     9.6480     7.7850    10.4190    23.3950   -21.6220 
   71.7500     2.1590    65.3740     9.6460     7.7570    10.2970    23.3580   -21.6020 
   71.8750     2.1540    68.2010     9.5680     7.6820     9.9230    23.3170   -21.5140 
   72.0000     2.1490    72.9610     9.4310     7.5640     9.5930    23.2790   -21.3600 
   72.1250     2.1430    76.3170     9.2630     7.4150     9.3470    23.2140   -21.1780 
   72.2500     2.1400    77.4930     9.0900     7.2550     8.9830    23.1130   -20.9560 
   72.3750     2.1410    76.9710     8.9230     7.0980     8.8590    22.9750   -20.6400 
   72.5000     2.1470    75.3010     8.7750     6.9580     8.7510    22.8670   -20.2570 
   72.6250     2.1540    73.6340     8.6760     6.8590     8.5670    22.8310   -19.8650 
   72.7500     2.1560    72.5980     8.6440     6.8090     8.3520    22.8510   -19.4800 
   72.8750     2.1540    71.5660     8.6920     6.8170     8.2550    22.9230   -19.1290 
   73.0000     2.1540    69.8500     8.8180     6.8860     8.3720    23.0050   -18.8400 
   73.1250     2.1630    70.5620     9.0120     7.0190     8.6910    23.0990   -18.6550 
   73.2500     2.1790    73.9140     9.2200     7.1840     8.8250    23.1580   -18.5950 
   73.3750     2.1940    76.9850     9.3930     7.3470     8.7290    23.1720   -18.6420 
   73.5000     2.1980    77.9050     9.4880     7.4680     8.8780    23.1670   -18.7020 
   73.6250     2.1900    76.6370     9.4750     7.5080     9.6180    23.1620   -18.7120 
   73.7500     2.1780    77.0050     9.4020     7.4810     9.6910    23.1600   -18.6670 
   73.8750     2.1710    81.0670     9.3190     7.4140     9.2240    23.1460   -18.5130 
   74.0000     2.1710    86.8010     9.2520     7.3340     8.7800    23.1090   -18.2190 
   74.1250     2.1760    89.3830     9.1670     7.2400     8.6080    23.0710   -17.6930 
   74.2500     2.1810    87.5640     8.9980     7.0920     8.6590    23.0510   -16.9690 
   74.3750     2.1820    83.6330     8.7110     6.8640     8.8850    23.0990   -16.1260 
   74.5000     2.1830    81.5930     8.3500     6.5800     8.8850    23.3040   -15.3060 
   74.6250     2.1890    85.0750     8.0540     6.3310     8.1210    23.6770   -14.7070 
   74.7500     2.2020    90.9870     7.9470     6.2140     7.0940    23.9330   -14.3890 
   74.8750     2.2180    93.1170     8.0720     6.2760     7.0240    23.8650   -14.3400 
   75.0000     2.2250    88.6250     8.3770     6.5080     8.4180    23.6200   -14.4770 
   75.1250     2.2150    83.4910     8.7300     6.8340     9.7900    23.4570   -14.6940 
   75.2500     2.1970    83.1510     8.9820     7.1200     9.9460    23.3840   -14.8720 
   75.3750     2.1860    84.5810     9.0750     7.2840     9.1300    23.3580   -14.9280 
