~V
VERS. 2.00: Ver 2.00
~W
STRT.M 59.0000:
STOP.M 225.0000:
STEP.M 0.1250:
NULL. -999.2500:
UWI. F11010:
~C
DEPT.M :
GR.API :
RML.OHMM :
RI. :
RXO.OHMM :
CALI.CM :
SP.MV :
DEN.GM/CC :
~A
# ...
  115.2500    85.8290     5.5340     5.1910     4.5350    25.7300     1.7680     2.2930 
  115.3750    85.1100     5.3820     5.0560     4.4870    25.5610     1.8920     2.3150 
  115.5000    85.0770     5.2820     4.9410     4.3880    25.4510     2.0230     2.3350 
  115.6250    86.9720     5.2830     4.8860     4.3430    25.3680     2.1290     2.3440 
  115.7500    91.3430     5.3770     4.8930     4.3350    25.3610     2.1830     2.3410 
  115.8750    94.7910     5.5370     4.9440     4.3920    25.3900     2.1880     2.3330 
  116.0000    94.3100     5.7120     5.0040     4.5040    25.3350     2.1470     2.3240 
  116.1250    92.7600     5.8160     5.0150     4.5680    25.2650     2.0370     2.3220 
  116.2500    92.0530     5.7910     4.9410     4.5710    25.2310     1.9210     2.3230 
  116.3750    92.1890     5.6090     4.7620     4.4970    25.2210     1.8250     2.3260 
  116.5000    92.3780     5.3080     4.5010     4.3030    25.1980     1.7420     2.3240 
  116.6250    92.3220     5.0450     4.2580     4.1590    25.1370     1.6590     2.3170 
  116.7500    92.8990     5.0610     4.1860     4.1610    25.0770     1.5590     2.3160 
  116.8750    91.5540     5.6170     4.4400     4.3030    25.0330     1.4050     2.3380 
  117.0000    88.4210     6.9600     5.1880     4.8320    24.9960     1.1610     2.3960 
  117.1250    83.5860     9.3420     6.7370     7.7220    24.9430     0.8010     2.4860 
  117.2500    79.4320    12.2910     9.0130    16.0290    24.9560     0.2820     2.5700 
  117.3750    78.7440    15.0010    11.6030    29.6230    25.1020    -0.4330     2.6090 
  117.5000    79.0700    16.5000    13.5230    37.7550    25.4600    -1.3410     2.5830 
  117.6250    78.2810    16.1010    13.5620    27.8210    25.6720    -2.3990     2.4940 
  117.7500    76.4630    14.5900    12.3290    17.0090    25.8130    -3.5120     2.3880 
  117.8750    75.4080    12.7600    10.7550    10.9210    25.8330    -4.5960     2.3010 
  118.0000    73.8360    11.2190     9.4660     8.8670    25.7430    -5.5790     2.2480 
  118.1250    69.4390    10.3820     8.7360     8.6320    25.7700    -6.4410     2.2330 
  118.2500    63.6960    10.1440     8.4320     8.6300    25.8680    -7.1790     2.2340 
  118.3750    61.1770    10.3000     8.4460     8.6260    25.8350    -7.7600     2.2390 
  118.5000    63.6610    10.6380     8.6520     8.4850    25.5970    -8.1720     2.2370 
  118.6250    68.2180    10.9610     8.9050     8.6140    25.2960    -8.4330     2.2150 
  118.7500    71.6410    11.0890     9.0460     8.6160    25.1070    -8.6090     2.1780 
  118.8750    72.4540    10.8920     8.9450     8.4080    25.0330    -8.7170     2.1380 
  119.0000    69.9740    10.3190     8.5220     8.1330    25.0920    -8.7140     2.1140 
  119.1250    66.8340     9.4360     7.7990     7.7750    25.3310    -8.4840     2.1300 
  119.2500    66.1840     8.5360     7.0280     7.5140    25.5490    -8.0710     2.1720 
  119.3750    68.2090     7.8620     6.4040     7.0500    25.5010    -7.5890     2.2200 
  119.5000    72.3390     7.5830     6.0640     6.5170    25.3390    -7.1660     2.2510 
  119.6250    77.0610     7.8200     6.1300     6.2850    25.3180    -6.8280     2.2490 
  119.7500    79.1810     8.4030     6.5140     7.2320    25.3900    -6.5200     2.2290 
  119.8750    76.4240     9.1720     7.1250     8.1110    25.4420    -6.2700     2.2070 
  120.0000    72.0900     9.9450     7.8310     8.5850    25.4400    -6.1540     2.1940 
  120.1250    70.7960    10.5230     8.4560     8.7510    25.3870    -6.2520     2.1900 
  120.2500    71.7820    10.8230     8.8660     8.7720    25.4800    -6.4670     2.1920 
  120.3750    72.4580    10.8060     8.9950     8.5430    25.5710    -6.6630     2.1980 
  120.5000    71.7130    10.4670     8.8250     8.0990    25.3800    -6.6890     2.2100 
  120.6250    71.6810     9.8130     8.3370     7.6570    24.8500    -6.4690     2.2320 
  120.7500    75.4790     9.0110     7.6680     7.3520    24.7640    -6.0620     2.2610 
  120.8750    82.2320     8.2190     6.9600     6.8690    24.9890    -5.5190     2.2870 
  121.0000    86.8490     7.5840     6.3480     5.7370    25.2200    -4.8930     2.3030 
  121.1250    86.5140     7.2240     5.9320     5.5240    25.3360    -4.2140     2.3050 
  121.2500    87.1090     7.0620     5.6810     5.4670    25.4010    -3.5840     2.3010 
  121.3750    90.5410     6.9920     5.5340     5.5560    25.4210    -3.0320     2.2990 
  121.5000    94.9450     6.9030     5.4080     5.6580    25.4230    -2.5950     2.3050 
  121.6250    97.1080     6.7220     5.2340     5.3010    25.4240    -2.3110     2.3230 
  121.7500    98.5920     6.5120     5.0390     4.8990    25.4270    -2.1860     2.3460 
  121.8750    99.0780     6.3830     4.9020     4.6620    25.4240    -2.2090     2.3650 
  122.0000    96.4100     6.4630     4.9180     4.7270    25.3600    -2.3530     2.3640 
  122.1250    91.9140     6.9150     5.2110     4.9760    25.2070    -2.6620     2.3280 
  122.2500    86.7620     7.7370     5.7870     5.9330    25.1120    -3.0420     2.2620 
  122.3750    80.9410     8.8910     6.6360     7.5130    25.2660    -3.4520     2.1830 
  122.5000    75.0540    10.2490     7.6890     8.6430    25.6030    -3.8680     2.1150 
  122.6250    73.7750    11.5230     8.7670     9.4880    25.9850    -4.2580     2.0760 
  122.7500    75.8920    12.3840     9.5870     9.7450    26.1160    -4.5860     2.0630 
  122.8750    76.4070    12.5990     9.9110     9.8600    26.0700    -4.8560     2.0700 
  123.0000    75.9730    12.1080     9.6400    10.0460    26.0250    -5.0500     2.0940 
  123.1250    77.9010    11.0090     8.8280     9.8060    26.0720    -5.1090     2.1370 
  123.2500    80.7440     9.7230     7.8210     8.6270    25.9660    -5.0990     2.1920 
  123.3750    83.0290     8.5340     6.8530     6.8010    25.6430    -5.0840     2.2500 
  123.5000    86.6150     7.6320     6.0770     5.6450    25.3190    -5.0570     2.3010 
  123.6250    91.9740     7.1480     5.6090     5.2980    25.1460    -5.0240     2.3330 
  123.7500    95.1360     6.9760     5.3960     5.4250    25.0910    -5.0370     2.3500 
  123.8750    95.2580     7.0150     5.3830     5.6140    25.0650    -5.0800     2.3540 
  124.0000    93.6540     7.1470     5.4850     5.8450    25.0600    -5.1420     2.3470 
  124.1250    92.6390     7.2610     5.6030     5.6300    25.1100    -5.2330     2.3310 
  124.2500    92.2000     7.3060     5.6740     5.6270    25.1920    -5.3280     2.3110 
  124.3750    91.9760     7.2760     5.6840     5.7310    25.2740    -5.4080     2.2910 
  124.5000    92.8150     7.1870     5.6410     5.7750    25.3090    -5.4940     2.2740 
  124.6250    93.9630     7.0530     5.5600     5.6880    25.3220    -5.6200     2.2630 
  124.7500    94.0370     6.9050     5.4650     5.5260    25.3800    -5.7620     2.2580 
  124.8750    92.9990     6.7610     5.3670     5.5020    25.3800    -5.9140     2.2580 
  125.0000    93.3820     6.6360     5.2760     5.5000    25.3660    -6.0820     2.2620 
  125.1250    95.3800     6.5390     5.1970     5.4710    25.3580    -6.2670     2.2690 
  125.2500    96.0700     6.4540     5.1270     5.4010    25.3390    -6.4710     2.2760 
  125.3750    94.7380     6.3640     5.0580     5.3480    25.3190    -6.6500     2.2820 
  125.5000    93.1730     6.2610     4.9820     5.3210    25.3390    -6.7870     2.2870 
  125.6250    93.3960     6.1570     4.8990     5.3800    25.3090    -6.8820     2.2950 
  125.7500    93.7710     6.0730     4.8190     5.3840    25.3070    -6.9570     2.3070 
  125.8750    93.9500     6.0250     4.7560     5.3040    25.2850    -7.0080     2.3200 
  126.0000    95.7170     6.0110     4.7170     5.0570    25.2740    -7.0360     2.3310 
  126.1250    97.9890     6.0110     4.7010     4.9400    25.2510    -7.0470     2.3360 
  126.2500    97.5730     5.9950     4.6900     5.0190    25.2520    -7.0390     2.3360 
  126.3750    97.1780     5.9510     4.6710     5.1420    25.2420    -7.0550     2.3350 
