~V
VERS. 2.00: Ver 2.00
~W
STRT.M 59.0000:
STOP.M 291.0000:
STEP.M 0.1250:
NULL. -999.2500:
UWI. F11077:
~C
DEPT.M :
DEN.GM/CC :
GR.API :
RML.OHMM :
RI. :
RXO.OHMM :
CALI.CM :
SP.MV :
~A
# ...
   92.7500     2.2260    74.8120    10.3180     7.8360     7.9220    25.5110    -4.4180 
   92.8750     2.2310    69.8560    10.3780     7.8870     7.9960    25.4950    -4.5800 
   93.0000     2.2400    65.9140    10.3820     7.8800     8.0990    25.4600    -4.7100 
   93.1250     2.2470    64.7280    10.3200     7.8260     8.1100    25.4200    -4.7800 
   93.2500     2.2510    65.3170    10.1590     7.7260     8.0910    25.3970    -4.7390 
   93.3750     2.2530    66.4590     9.8700     7.5800     8.1070    25.3960    -4.5610 
   93.5000     2.2560    67.9210     9.5070     7.4190     8.1010    25.4140    -4.2280 
   93.6250     2.2630    69.2700     9.2300     7.3240     8.0840    25.4400    -3.7500 
   93.7500     2.2760    69.5390     9.3290     7.4610     8.0900    25.4820    -3.1230 
   93.8750     2.2900    68.5510    10.0280     7.9820     8.1930    25.5680    -2.2740 
   94.0000     2.3050    68.0390    11.2450     8.8880     9.1930    25.6890    -1.2240 
   94.1250     2.3190    69.4030    12.6370    10.0190    13.2030    25.8230    -0.0830 
   94.2500     2.3290    73.4860    13.4930    10.8940    21.9700    25.9260     1.0880 
   94.3750     2.3350    82.0260    13.1430    10.9200    26.7320    25.9230     2.2200 
   94.5000     2.3340    94.6910    11.6400     9.9810    18.9480    25.8580     3.1810 
   94.6250     2.3280   106.3770     9.5640     8.4660    10.1910    25.8480     3.9170 
   94.7500     2.3240   112.7200     7.6730     6.9590     6.2300    25.9270     4.3720 
   94.8750     2.3250   115.6350     6.4090     5.8300     5.0850    25.9800     4.4800 
   95.0000     2.3350   119.1520     5.7510     5.1220     4.6030    25.9290     4.3390 
   95.1250     2.3500   123.3390     5.5330     4.7530     4.3880    25.8640     4.0690 
   95.2500     2.3660   126.4640     5.5510     4.6060     4.3900    25.8700     3.7030 
   95.3750     2.3830   127.9890     5.6330     4.5590     4.4650    25.9310     3.2780 
   95.5000     2.3980   127.2100     5.6650     4.5180     4.4690    26.0170     2.8550 
   95.6250     2.4060   123.4890     5.6050     4.4470     4.4270    26.1420     2.4180 
   95.7500     2.4060   119.5530     5.4970     4.3710     4.4560    26.2900     1.9420 
   95.8750     2.3990   118.9460     5.5080     4.3870     4.6590    26.4160     1.3670 
   96.0000     2.3960   120.8910     5.8520     4.6150     4.9200    26.5260     0.5710 
   96.1250     2.4120   120.6090     6.6870     5.1510     5.1340    26.6500    -0.4810 
   96.2500     2.4500   112.4650     8.0830     6.0530     6.3620    26.5950    -1.7080 
   96.3750     2.4920    96.1690     9.8800     7.2600    10.8190    26.2600    -3.0220 
   96.5000     2.5120    79.0750    11.6130     8.5010    16.1790    25.9970    -4.3380 
   96.6250     2.4830    68.6410    12.8060     9.4610    15.6340    25.8160    -5.5920 
   96.7500     2.4060    65.8760    13.1790     9.9010    11.2550    25.6180    -6.7490 
   96.8750     2.3110    66.5660    12.8950     9.8730    10.1620    25.4340    -7.7210 
   97.0000     2.2300    68.0890    12.4270     9.6570    10.7930    25.3500    -8.3970 
   97.1250     2.1840    70.2920    12.0680     9.4490    10.6300    25.3080    -8.8140 
   97.2500     2.1750    72.1690    11.9080     9.3350     9.8510    25.2590    -9.0720 
   97.3750     2.1920    72.6100    11.8620     9.2880     9.2190    25.1980    -9.2360 
   97.5000     2.2240    72.3580    11.8160     9.2410     8.8870    25.2140    -9.3810 
   97.6250     2.2580    72.6410    11.7550     9.1750     8.9580    25.3920    -9.5380 
   97.7500     2.2800    74.4640    11.6820     9.0940     9.2020    25.5870    -9.6500 
   97.8750     2.2840    77.0670    11.5790     8.9900     9.1740    25.6820    -9.7230 
   98.0000     2.2710    77.3150    11.4300     8.8550     8.9900    25.8000    -9.8260 
   98.1250     2.2500    74.6450    11.2450     8.6910     8.7710    25.9070    -9.9400 
   98.2500     2.2330    71.8720    11.0420     8.5110     8.5800    25.9080   -10.0520 
   98.3750     2.2250    71.1440    10.8420     8.3290     8.4340    25.8460   -10.1500 
   98.5000     2.2240    72.2620    10.6570     8.1600     8.3420    25.7950   -10.1890 
   98.6250     2.2280    74.6820    10.5020     8.0180     8.3200    25.7570   -10.1680 
   98.7500     2.2310    76.7620    10.4070     7.9230     8.3170    25.7400   -10.0730 
   98.8750     2.2330    76.3010    10.3990     7.8930     8.1520    25.7510    -9.8230 
   99.0000     2.2330    74.0050    10.4650     7.9240     7.9760    25.7660    -9.3760 
   99.1250     2.2290    72.0130    10.5560     7.9810     7.9220    25.7690    -8.7120 
   99.2500     2.2260    70.4350    10.5710     7.9980     7.9260    25.7650    -7.8030 
   99.3750     2.2280    70.6580    10.4080     7.8980     7.8430    25.7480    -6.7110 
   99.5000     2.2410    77.0060    10.0460     7.6580     7.6070    25.7000    -5.5690 
   99.6250     2.2620    88.1000     9.5280     7.3030     7.1850    25.6150    -4.4120 
   99.7500     2.2880    95.4060     8.9560     6.9000     6.5970    25.5390    -3.3270 
   99.8750     2.3070    95.1610     8.4470     6.5310     6.1440    25.5010    -2.4500 
  100.0000     2.3150    93.5380     8.0790     6.2560     6.0950    25.4630    -1.8060 
  100.1250     2.3120    95.6220     7.8930     6.1120     6.1310    25.3860    -1.4260 
  100.2500     2.3030    99.0020     7.9280     6.1310     5.8940    25.2860    -1.3640 
  100.3750     2.2980    97.4880     8.1900     6.3210     5.5140    25.2160    -1.5110 
  100.5000     2.3010    90.4290     8.6090     6.6380     5.5470    25.1990    -1.6720 
  100.6250     2.3110    83.4770     9.0770     7.0150     6.0790    25.2340    -1.7850 
  100.7500     2.3200    82.4570     9.4050     7.3190     6.6680    25.2910    -1.7730 
  100.8750     2.3230    85.8300     9.4110     7.4030     6.7750    25.3170    -1.5730 
  101.0000     2.3190    88.8130     9.0510     7.2070     6.5700    25.3280    -1.2500 
  101.1250     2.3190    91.7760     8.4070     6.7720     6.3480    25.3490    -0.8560 
  101.2500     2.3300    95.7340     7.6640     6.2240     6.0420    25.3730    -0.4220 
  101.3750     2.3490   101.0880     7.0310     5.7180     5.4860    25.3730    -0.0450 
  101.5000     2.3710   107.8440     6.6610     5.3650     4.9860    25.3300     0.1850 
  101.6250     2.3840   112.6310     6.6340     5.2220     4.8480    25.2220     0.2230 
  101.7500     2.3800   109.8670     6.9800     5.3150     5.0580    25.0610     0.0280 
  101.8750     2.3620   100.9640     7.6140     5.6150     5.4880    24.8860    -0.3350 
  102.0000     2.3350    95.3330     8.2960     5.9920     6.1410    24.6960    -0.7430 
  102.1250     2.3140    95.5870     8.7580     6.2910     6.8740    24.4850    -1.1730 
  102.2500     2.3110    96.1660     8.7720     6.3570     7.3810    24.3180    -1.6200 
  102.3750     2.3260    94.2510     8.3750     6.1890     7.3370    24.2710    -2.1020 
  102.5000     2.3450    93.2090     7.9480     5.9920     6.8720    24.3140    -2.6220 
  102.6250     2.3560    93.6350     7.9490     6.0130     6.5260    24.3730    -3.1110 
  102.7500     2.3580    92.1420     8.9460     6.5730     6.9530    24.4610    -3.5650 
  102.8750     2.3680    88.2250    11.3890     8.0050     8.9110    24.6170    -4.0990 
  103.0000     2.4040    85.1050    15.2280    10.4650    14.1770    24.8280    -4.7850 
  103.1250     2.4660    83.5020    19.8180    13.7900    23.1670    25.1460    -5.6230 
  103.2500     2.5280    81.8650    23.2920    16.8440    29.5580    25.5460    -6.5640 
  103.3750     2.5540    80.1470    23.5990    17.9190    28.1990    25.8310    -7.4900 
  103.5000     2.5290    78.9530    20.8030    16.5720    22.3670    25.8830    -8.3310 
  103.6250     2.4570    77.8500    16.6630    13.8970    15.4260    25.8510    -9.1070 
  103.7500     2.3650    75.9950    13.0940    11.3130    10.5190    25.9090    -9.7920 
  103.8750     2.2830    72.9940    10.9060     9.5220     8.8210    26.0760   -10.3430 
