~V
VERS. 2.00: Ver 2.00
~W
STRT.M 52.0000:
STOP.M 282.0000:
STEP.M 0.1250:
NULL. -999.2500:
UWI. F11052:
~C
DEPT.M :
SP.MV :
GR.API :
RML.OHMM :
RI. :
RXO.OHMM :
CALI.CM :
DEN.GM/CC :
~A
# ...
   63.2500    -6.3890   106.1400     6.3250     6.2960     6.6490    23.9670     2.2830 
   63.3750    -6.2040   101.5910     6.4980     6.3560     6.6540    23.8610     2.2860 
   63.5000    -6.0060    98.6150     6.8210     6.5870     6.2230    23.7720     2.2850 
   63.6250    -5.9050    99.7600     7.1720     6.8990     5.9850    23.7560     2.2760 
   63.7500    -5.9630   100.4840     7.4150     7.1510     6.3290    23.7990     2.2610 
   63.8750    -6.0770    98.9160     7.4640     7.2410     6.8240    23.8900     2.2460 
   64.0000    -6.1790    96.4610     7.2870     7.1110     7.0780    24.0320     2.2400 
   64.1250    -6.2130    97.0760     6.9000     6.7420     6.7990    24.2760     2.2520 
   64.2500    -6.1140   102.3600     6.4370     6.2530     6.2120    24.5370     2.2790 
   64.3750    -5.9790   110.1290     6.0190     5.7420     5.7660    24.8170     2.3090 
   64.5000    -5.7410   116.0320     5.7710     5.3250     5.5940    24.9900     2.3280 
   64.6250    -5.4810   117.8100     5.8700     5.1840     5.7380    25.1000     2.3270 
   64.7500    -5.2600   115.8670     6.3470     5.3840     6.0640    25.1800     2.3180 
   64.8750    -5.1510   110.0090     7.2140     5.9460     6.5670    25.2020     2.3220 
   65.0000    -5.2790    99.7550     8.4310     6.8460     7.5390    25.1620     2.3520 
   65.1250    -5.5330    87.9570     9.9190     8.0710    11.2070    25.0790     2.3980 
   65.2500    -5.9320    79.9410    11.4570     9.4650    15.3490    25.0260     2.4360 
   65.3750    -6.4150    77.3640    12.8420    10.8630    13.8410    25.0430     2.4580 
   65.5000    -6.9500    78.2570    13.8560    12.0600    10.2310    25.0730     2.4730 
   65.6250    -7.6090    79.2520    14.1570    12.7030    12.2820    24.9300     2.4950 
   65.7500    -8.3400    78.9510    13.6950    12.6050    22.7800    24.6700     2.5160 
   65.8750    -9.1160    77.1000    12.5310    11.7360    30.2240    24.4580     2.5110 
   66.0000    -9.9150    74.4090    10.9390    10.3480    18.9480    24.3900     2.4630 
   66.1250   -10.7080    72.9200     9.3710     8.8540    11.2320    24.5320     2.3800 
   66.2500   -11.4190    74.5050     8.2140     7.6200     8.7850    24.7440     2.3030 
   66.3750   -12.0920    79.2190     7.6540     6.8410     8.0790    25.0260     2.2580 
   66.5000   -12.7260    83.1580     7.7300     6.6010     7.8010    25.3150     2.2440 
   66.6250   -13.3020    83.3850     8.4230     6.9630     8.4260    25.4270     2.2380 
   66.7500   -13.8110    80.6080     9.4180     7.7260    12.0370    25.5420     2.2090 
   66.8750   -14.2130    76.1150    10.4240     8.6990    23.1880    25.8850     2.1430 
   67.0000   -14.4760    69.9630    11.1180     9.5870    46.5910    26.5080     2.0480 
   67.1250   -14.6580    65.9390    11.1470     9.9320    53.6610    26.7590     1.9620 
   67.2500   -14.8960    67.0850    10.6180     9.6700    31.3000    26.1450     1.9200 
   67.3750   -15.1560    70.6360     9.7830     8.9980    14.5590    24.9490     1.9340 
   67.5000   -15.5120    72.9630     8.9650     8.2330     9.1910    24.1110     1.9880 
   67.6250   -15.8400    72.7870     8.4670     7.6620     8.4300    23.8660     2.0520 
   67.7500   -16.1590    71.7680     8.3050     7.3540     8.6770    23.9030     2.1010 
   67.8750   -16.5380    72.3880     8.4000     7.2850     8.8640    24.0530     2.1310 
   68.0000   -16.9050    74.1620     8.6230     7.3760     8.7470    24.2610     2.1510 
   68.1250   -17.3140    73.6700     8.8490     7.5270     8.8720    24.4430     2.1670 
   68.2500   -17.6050    71.8510     9.0120     7.6570     9.1320    24.5980     2.1780 
   68.3750   -17.7760    71.1890     9.1130     7.7420     9.2340    24.6350     2.1810 
   68.5000   -17.8300    72.6590     9.1730     7.7840     9.0990    24.5350     2.1750 
   68.6250   -17.7500    73.4480     9.2120     7.7920     8.9470    24.4530     2.1620 
   68.7500   -17.6020    73.0060     9.2420     7.7880     8.8430    24.4780     2.1480 
   68.8750   -17.4080    71.9680     9.2600     7.7790     8.6140    24.5730     2.1380 
   69.0000   -17.2140    71.5330     9.2610     7.7710     8.4910    24.6850     2.1360 
   69.1250   -17.0720    74.1170     9.2430     7.7610     8.5780    24.7430     2.1420 
   69.2500   -17.0500    76.8430     9.2150     7.7440     8.7550    24.7710     2.1530 
   69.3750   -17.1490    77.1850     9.1860     7.7200     8.9000    24.7980     2.1640 
   69.5000   -17.3740    75.3840     9.1710     7.6970     8.9850    24.8180     2.1730 
   69.6250   -17.6540    73.3950     9.1870     7.6850     8.9980    24.8200     2.1780 
   69.7500   -17.9100    72.4620     9.2330     7.6910     8.9220    24.8040     2.1800 
   69.8750   -18.1430    72.3740     9.3020     7.7180     8.8880    24.7650     2.1820 
   70.0000   -18.3480    73.4510     9.3790     7.7610     8.8940    24.7170     2.1820 
   70.1250   -18.5250    74.9410     9.4450     7.8070     8.8740    24.6970     2.1810 
   70.2500   -18.6590    73.5560     9.4870     7.8400     8.9370    24.6930     2.1770 
   70.3750   -18.7420    70.0460     9.5000     7.8530     9.0340    24.6930     2.1730 
   70.5000   -18.7180    67.8730     9.4830     7.8450     9.0430    24.6930     2.1700 
   70.6250   -18.6300    67.3290     9.4410     7.8180     9.0660    24.6930     2.1680 
   70.7500   -18.5330    67.2640     9.3850     7.7780     9.0980    24.6860     2.1690 
   70.8750   -18.3660    67.5780     9.3250     7.7310     9.1250    24.6610     2.1710 
   71.0000   -18.2310    69.7730     9.2670     7.6820     9.0720    24.6020     2.1710 
   71.1250   -18.0360    71.5080     9.2210     7.6390     9.0860    24.5680     2.1700 
   71.2500   -17.8300    70.0860     9.1930     7.6110     9.0160    24.5700     2.1660 
   71.3750   -17.6510    65.8280     9.1820     7.6010     8.8240    24.6390     2.1610 
   71.5000   -17.5030    61.5170     9.1860     7.6050     8.7820    24.7530     2.1560 
   71.6250   -17.4390    61.5050     9.1880     7.6150     8.8990    24.8050     2.1530 
   71.7500   -17.3090    63.4190     9.1760     7.6190     8.9260    24.7910     2.1510 
   71.8750   -17.1560    63.2990     9.1450     7.6130     8.8010    24.7010     2.1520 
   72.0000   -16.9920    61.7200     9.1040     7.5990     8.5130    24.5510     2.1540 
   72.1250   -16.8100    63.0240     9.0760     7.5860     8.2240    24.3940     2.1550 
   72.2500   -16.6430    67.8370     9.0720     7.5840     8.2820    24.2940     2.1540 
   72.3750   -16.4860    74.5990     9.0940     7.5970     8.9070    24.2850     2.1510 
   72.5000   -16.3200    78.3230     9.1330     7.6210     9.5390    24.3350     2.1490 
   72.6250   -16.1920    75.8290     9.1760     7.6490     9.2190    24.4410     2.1530 
   72.7500   -16.1660    71.4750     9.2160     7.6730     9.0400    24.6190     2.1590 
   72.8750   -16.2040    69.2150     9.2490     7.6910     9.0420    24.8630     2.1620 
   73.0000   -16.2830    69.0080     9.2650     7.6970     9.0880    25.0760     2.1560 
   73.1250   -16.3350    69.0920     9.2260     7.6690     9.1210    25.1410     2.1400 
   73.2500   -16.3200    69.5110     9.1090     7.5840     9.0530    25.1160     2.1230 
   73.3750   -16.1660    71.4810     8.9070     7.4290     8.9840    25.0960     2.1160 
   73.5000   -15.8330    76.6540     8.6450     7.2120     8.7330    25.0930     2.1270 
   73.6250   -15.3090    84.1280     8.3970     6.9730     7.9040    25.0990     2.1650 
   73.7500   -14.7170    89.3240     8.2440     6.7820     7.1010    25.0860     2.2200 
   73.8750   -14.2270    90.8780     8.2430     6.6940     7.0320    24.9960     2.2820 
   74.0000   -13.8110    88.6180     8.4090     6.7360     7.2770    24.8150     2.3330 
   74.1250   -13.6150    81.8330     8.7330     6.9230     7.6640    24.7930     2.3500 
   74.2500   -13.5800    73.4930     9.1190     7.1970     8.5260    24.9320     2.3320 
   74.3750   -13.6690    67.5550     9.4870     7.4960     9.2790    25.0780     2.2910 
