~V
VERS. 2.00: Ver 2.00
~W
STRT.M 45.0000:
STOP.M 277.0000:
STEP.M 0.1250:
NULL. -999.2500:
UWI. F11056:
~C
DEPT.M :
GR.API :
RML.OHMM :
RI. :
RXO.OHMM :
CALI.CM :
DEN.GM/CC :
SP.MV :
~A
# ...
  146.2500    56.2170    19.1320    17.9580    17.4660    24.8160     2.6880   -14.5610 
  146.3750    55.7240    18.7360    17.6690    14.3350    24.8050     2.6800   -14.7210 
  146.5000    53.7490    18.2180    17.2680    14.7120    24.7470     2.6760   -14.8770 
  146.6250    52.7640    18.1370    17.2370    16.3750    24.6160     2.6750   -15.0050 
  146.7500    53.7900    18.5030    17.6010    18.3240    24.4140     2.6730   -15.1020 
  146.8750    55.5470    19.1110    18.1820    18.4870    24.2020     2.6640   -15.2050 
  147.0000    56.4390    19.6610    18.6820    16.5270    24.0340     2.6490   -15.3360 
  147.1250    57.2910    19.9670    18.9100    15.6690    23.9150     2.6340   -15.4800 
  147.2500    56.4530    20.0030    18.8520    16.2400    23.7550     2.6280   -15.6190 
  147.3750    52.5040    19.8300    18.5990    17.2310    23.5630     2.6300   -15.7540 
  147.5000    47.9350    19.5120    18.2550    17.9390    23.4650     2.6370   -15.8800 
  147.6250    47.1180    19.1320    17.9120    17.7860    23.4750     2.6410   -16.0480 
  147.7500    50.1950    18.7570    17.6310    17.1900    23.6030     2.6390   -16.2470 
  147.8750    52.3270    18.4730    17.4870    17.0390    23.8310     2.6360   -16.3710 
  148.0000    50.8040    18.4080    17.5810    17.9070    23.9880     2.6360   -16.4090 
  148.1250    48.8040    18.5660    17.8690    17.8810    24.0780     2.6410   -16.4520 
  148.2500    48.7300    18.8950    18.2700    18.4190    24.1160     2.6490   -16.4870 
  148.3750    50.1860    19.2840    18.6640    18.6950    24.1580     2.6530   -16.4610 
  148.5000    52.1830    19.5710    18.8950    18.7930    24.2490     2.6480   -16.4550 
  148.6250    54.1570    19.6590    18.9120    17.6940    24.3590     2.6380   -16.4680 
  148.7500    54.9360    19.5170    18.7080    16.8410    24.4480     2.6260   -16.4160 
  148.8750    52.8330    19.1660    18.3200    16.8980    24.4890     2.6130   -16.3830 
  149.0000    50.7640    18.6530    17.7950    16.9540    24.5110     2.5970   -16.4540 
  149.1250    52.1710    18.0850    17.2280    16.2330    24.5490     2.5720   -16.5220 
  149.2500    54.7520    17.5370    16.6750    15.3910    24.5860     2.5400   -16.5630 
  149.3750    55.8520    17.0860    16.1950    15.4830    24.5780     2.5030   -16.6490 
  149.5000    56.8740    16.8430    15.8800    16.6060    24.4730     2.4700   -16.7710 
  149.6250    59.0800    16.8100    15.7540    16.1180    24.2920     2.4530   -16.8600 
  149.7500    60.6370    16.9410    15.7990    14.5670    24.1050     2.4600   -16.9310 
  149.8750    60.4880    17.1280    15.9470    14.3090    24.0020     2.4880   -16.9750 
  150.0000    60.6250    17.2170    16.0960    15.5970    23.9790     2.5260   -17.0080 
  150.1250    60.6870    17.1480    16.1560    16.3380    24.0150     2.5590   -17.0600 
  150.2500    59.9320    16.9390    16.0860    15.9770    24.1300     2.5790   -17.1290 
  150.3750    58.9030    16.6480    15.8810    15.3570    24.3150     2.5890   -17.1930 
  150.5000    59.6200    16.3070    15.5430    15.6920    24.4340     2.5920   -17.2090 
  150.6250    62.6470    15.9030    15.1000    16.2450    24.4570     2.5890   -17.2020 
  150.7500    67.0930    15.3970    14.5530    15.5920    24.4390     2.5780   -17.2120 
  150.8750    70.0300    14.7840    13.9180    14.8970    24.4270     2.5550   -17.2530 
  151.0000    68.9380    14.1110    13.2360    14.0970    24.4250     2.5240   -17.2320 
  151.1250    64.9820    13.4810    12.5920    13.0500    24.4140     2.4930   -17.1530 
  151.2500    61.5750    12.9620    12.0610    11.6990    24.3880     2.4710   -17.0790 
  151.3750    62.2680    12.5810    11.6690    11.7030    24.3670     2.4590   -16.9750 
  151.5000    66.5350    12.3280    11.4010    12.5120    24.3620     2.4580   -16.8060 
  151.6250    67.8830    12.1330    11.1770    12.9610    24.3690     2.4630   -16.6850 
  151.7500    64.3160    11.9550    10.9570    12.5220    24.3830     2.4710   -16.6280 
  151.8750    59.7510    11.7830    10.7280    11.3500    24.4350     2.4800   -16.5460 
  152.0000    58.5020    11.6410    10.5300    10.8580    24.5460     2.4900   -16.5040 
  152.1250    58.9640    11.5530    10.4150    11.2990    24.7120     2.4980   -16.5370 
  152.2500    59.7260    11.5270    10.4010    11.3420    24.8360     2.5040   -16.5610 
  152.3750    62.0860    11.5490    10.4710    11.1430    24.8810     2.5080   -16.6130 
  152.5000    64.6840    11.5910    10.5770    10.7390    24.8360     2.5130   -16.7640 
  152.6250    65.2060    11.6100    10.6480    10.7140    24.7930     2.5210   -16.9360 
  152.7500    63.8720    11.5710    10.6370    10.7860    24.7610     2.5300   -17.0720 
  152.8750    62.6900    11.4490    10.5250    10.6960    24.7360     2.5400   -17.1810 
  153.0000    62.5040    11.2270    10.3200    10.7360    24.7070     2.5500   -17.2620 
  153.1250    62.1520    10.9610    10.0940    10.8640    24.7050     2.5610   -17.3010 
  153.2500    61.4690    10.7260     9.9220    10.8920    24.7260     2.5750   -17.3320 
  153.3750    61.1660    10.6200     9.8940    10.6340    24.7360     2.5910   -17.3440 
  153.5000    61.1920    10.7640    10.1320    10.8340    24.7110     2.6070   -17.3290 
  153.6250    62.5240    11.1010    10.6240    11.3380    24.6620     2.6160   -17.3100 
  153.7500    66.8770    11.4330    11.2630    11.8670    24.6340     2.6170   -17.2740 
  153.8750    74.0800    11.4030    11.7560    12.2140    24.6470     2.6080   -17.2350 
  154.0000    79.6850    10.5520    11.5140    12.3610    24.7050     2.5890   -17.2140 
  154.1250    81.3880     9.0330    10.3980    12.0610    24.7880     2.5640   -17.1870 
  154.2500    82.5780     7.2320     8.6710    10.7580    24.9150     2.5320   -17.1140 
  154.3750    85.7000     5.6950     6.8340     8.2510    25.0820     2.4940   -17.0290 
  154.5000    89.9300     4.8510     5.3650     5.6510    25.1850     2.4520   -16.9490 
  154.6250    93.6750     4.4560     4.3480     4.4020    25.2270     2.4130   -16.8000 
  154.7500    94.6150     4.2440     3.7480     4.0320    25.2250     2.3840   -16.6410 
  154.8750    94.5000     4.1260     3.4820     4.0330    25.2040     2.3700   -16.5580 
  155.0000    96.4960     4.1850     3.4860     4.0860    25.1660     2.3740   -16.4800 
  155.1250   101.0580     4.3440     3.6110     4.0810    25.1280     2.3860   -16.4250 
  155.2500   105.1240     4.5040     3.7710     4.0800    25.0970     2.4010   -16.4750 
  155.3750   105.2680     4.6130     3.9000     4.1320    25.0600     2.4140   -16.5400 
  155.5000   101.2150     4.6160     3.9390     4.1820    24.9950     2.4210   -16.5760 
  155.6250    95.4660     4.5230     3.8790     4.2780    24.9240     2.4230   -16.7090 
  155.7500    92.2120     4.3660     3.7340     4.3050    24.9060     2.4220   -16.9190 
  155.8750    92.7700     4.2090     3.5590     4.3000    24.9920     2.4200   -17.0840 
  156.0000    93.6630     4.1720     3.4740     4.2880    25.0310     2.4180   -17.2060 
  156.1250    92.8460     4.3540     3.6070     4.4190    25.0260     2.4140   -17.3260 
  156.2500    89.5800     4.8710     4.0990     5.1020    25.0150     2.4040   -17.4180 
  156.3750    84.2100     5.8570     5.0600     6.6780    25.0140     2.3800   -17.5010 
  156.5000    79.5400     7.3940     6.5210     9.9260    25.0140     2.3410   -17.5520 
  156.6250    78.0140     9.0100     8.0370    13.6180    25.0270     2.3000   -17.5670 
  156.7500    78.4390    10.1040     9.0230    19.6320    25.0720     2.2690   -17.6050 
  156.8750    79.0290    10.3320     9.1370    21.8030    25.1550     2.2580   -17.6640 
  157.0000    80.8550     9.9190     8.6820    14.7050    25.1730     2.2650   -17.7120 
  157.1250    81.2880     9.6690     8.4740     9.5460    25.1270     2.2740   -17.7760 
  157.2500    77.7300    10.1040     9.0110    10.1280    25.0590     2.2740   -17.8300 
  157.3750    73.1780    11.6370    10.6720    16.0110    25.0650     2.2630   -17.8570 
