~V
VERS. 2.00: Ver 2.00
~W
STRT.M 57.0000:
STOP.M 280.0000:
STEP.M 0.1250:
NULL. -999.2500:
UWI. F11041:
~C
DEPT.M :
SP.MV :
GR.API :
RML.OHMM :
RI. :
RXO.OHMM :
CALI.CM :
DEN.GM/CC :
~A
# ...
  259.5000     4.2270    60.8570     9.1580     7.5520     7.8950    24.1470     2.4450 
  259.6250     4.1600    60.8830     9.2000     7.5830     8.0250    24.2150     2.4520 
  259.7500     4.0050    62.1780     9.3290     7.6780     8.2330    24.2630     2.4560 
  259.8750     3.8080    63.4340     9.5370     7.8310     8.4620    24.2950     2.4560 
  260.0000     3.6720    62.4100     9.7260     7.9710     8.6550    24.3250     2.4530 
  260.1250     3.6390    60.6660     9.7180     7.9650     9.2490    24.3730     2.4500 
  260.2500     3.6210    62.1180     9.4900     7.7970     9.4880    24.4300     2.4530 
  260.3750     3.6210    66.4230     9.1430     7.5410     9.2240    24.4480     2.4600 
  260.5000     3.6420    70.3380     8.8130     7.2980     9.0300    24.4650     2.4680 
  260.6250     3.6940    70.1400     8.6070     7.1460     8.9010    24.5100     2.4720 
  260.7500     3.7670    68.0910     8.4780     7.0510     8.7070    24.5580     2.4690 
  260.8750     3.8500    66.5420     8.3560     6.9610     8.4570    24.5660     2.4570 
  261.0000     3.9290    66.6200     8.2170     6.8590     8.2510    24.5550     2.4450 
  261.1250     4.0150    66.7360     8.1040     6.7760     7.9320    24.5120     2.4410 
  261.2500     4.1220    65.6000     8.0700     6.7500     7.6370    24.5270     2.4450 
  261.3750     4.1640    63.3150     8.1400     6.8020     7.5840    24.5790     2.4480 
  261.5000     4.1680    60.2780     8.3080     6.9260     7.5110    24.6090     2.4420 
  261.6250     4.2360    58.3360     8.5320     7.0910     7.5000    24.5870     2.4310 
  261.7500     4.3230    59.4820     8.7420     7.2450     7.5950    24.5600     2.4240 
  261.8750     4.3740    62.9810     8.8950     7.3580     7.8440    24.5560     2.4290 
  262.0000     4.3880    66.0530     8.9800     7.4200     8.1390    24.5770     2.4420 
  262.1250     4.4000    66.6900     9.0180     7.4480     8.3390    24.6080     2.4590 
  262.2500     4.3880    65.6910     9.0120     7.4440     8.4340    24.6020     2.4710 
  262.3750     4.3940    64.4890     8.9290     7.3830     8.4630    24.6000     2.4770 
  262.5000     4.4370    63.8170     8.7550     7.2550     8.5720    24.6220     2.4740 
  262.6250     4.4110    64.8500     8.5250     7.0850     9.6310    24.6320     2.4650 
  262.7500     4.3390    66.6670     8.3160     6.9310     9.9450    24.6290     2.4580 
  262.8750     4.3130    67.6340     8.1580     6.8150     9.5650    24.6250     2.4500 
  263.0000     4.3390    66.8020     8.0380     6.7270     8.5260    24.6250     2.4390 
  263.1250     4.3210    64.8570     7.9360     6.6510     7.2790    24.6260     2.4310 
  263.2500     4.3000    64.1210     7.8740     6.6060     6.6520    24.6260     2.4380 
  263.3750     4.3150    64.8320     7.9310     6.6480     6.4830    24.6190     2.4610 
  263.5000     4.3030    66.8850     8.1500     6.8090     6.3150    24.5990     2.4850 
  263.6250     4.2420    68.9710     8.4880     7.0580     6.4970    24.6060     2.4920 
  263.7500     4.2270    68.6270     8.7930     7.2830     7.0830    24.6150     2.4780 
  263.8750     4.2480    64.9800     8.9720     7.4150     7.6710    24.6240     2.4540 
  264.0000     4.2240    60.4130     9.0230     7.4530     7.1620    24.6290     2.4340 
  264.1250     4.1420    59.2550     9.0310     7.4590     6.3840    24.6260     2.4270 
  264.2500     4.1290    60.7480     9.1020     7.5100     6.2580    24.6270     2.4280 
  264.3750     4.0670    61.7440     9.2590     7.6260     6.5740    24.6400     2.4330 
  264.5000     3.9800    61.8050     9.4570     7.7720     6.8950    24.6780     2.4400 
  264.6250     4.0150    63.6460     9.6040     7.8810     7.1020    24.7210     2.4500 
  264.7500     4.0350    65.7800     9.6550     7.9180     7.4120    24.7540     2.4560 
  264.8750     4.0000    66.2430     9.6240     7.8960     7.8470    24.7650     2.4590 
  265.0000     4.0050    64.4530     9.5440     7.8370     8.0000    24.7670     2.4650 
  265.1250     4.0310    62.8640     9.4210     7.7460     7.6650    24.7710     2.4720 
  265.2500     4.0230    63.0730     9.2570     7.6250     7.5790    24.7680     2.4730 
  265.3750     4.1070    64.8790     9.0640     7.4830     7.4770    24.7640     2.4690 
  265.5000     4.1640    67.4710     8.8850     7.3510     7.4230    24.7610     2.4660 
  265.6250     4.1090    68.3050     8.8050     7.2920     7.5010    24.7690     2.4640 
  265.7500     4.1300    67.1300     8.8440     7.3210     7.2630    24.7820     2.4610 
  265.8750     4.1420    64.8720     8.9810     7.4220     6.7890    24.7950     2.4590 
  266.0000     4.0850    62.0360     9.1570     7.5510     6.3870    24.7970     2.4650 
  266.1250     4.1030    61.9920     9.2870     7.6470     6.4080    24.7800     2.4790 
  266.2500     4.0970    64.4940     9.3230     7.6730     6.6360    24.7500     2.4900 
  266.3750     4.0360    66.6550     9.2450     7.6160     7.2110    24.7010     2.4920 
  266.5000     3.9810    66.9120     9.0750     7.4910     7.8060    24.6540     2.4850 
  266.6250     3.9930    66.5760     8.8600     7.3320     8.2240    24.6390     2.4720 
  266.7500     4.0000    66.3710     8.6690     7.1920     8.7790    24.6370     2.4630 
  266.8750     3.9830    65.9410     8.5420     7.0980     9.3360    24.6350     2.4610 
  267.0000     4.0000    64.0430     8.4880     7.0580     9.6350    24.6500     2.4650 
  267.1250     4.0150    61.3420     8.4940     7.0630     9.5990    24.6420     2.4650 
  267.2500     4.0390    60.0510     8.5220     7.0830     9.2540    24.6340     2.4590 
  267.3750     4.0640    61.3470     8.5490     7.1030     8.8840    24.6760     2.4490 
  267.5000     4.0550    64.6320     8.5600     7.1110     8.7590    24.7300     2.4410 
  267.6250     4.0640    66.1490     8.5370     7.0950     8.1690    24.7480     2.4390 
  267.7500     4.0340    64.8180     8.4870     7.0570     7.5190    24.7550     2.4450 
  267.8750     4.0350    62.5800     8.4200     7.0080     6.9030    24.7660     2.4560 
  268.0000     4.0250    62.2250     8.3580     6.9620     6.6820    24.7770     2.4670 
  268.1250     3.9670    65.4150     8.3420     6.9510     6.6270    24.7780     2.4740 
  268.2500     3.9520    67.5970     8.3950     6.9900     6.4710    24.7680     2.4780 
  268.3750     3.9130    66.5020     8.5100     7.0740     6.2520    24.7370     2.4820 
  268.5000     3.9580    64.4440     8.6480     7.1760     6.1280    24.7000     2.4860 
  268.6250     3.9200    64.1760     8.7550     7.2550     6.4460    24.6480     2.4890 
  268.7500     3.9030    65.1490     8.8050     7.2920     6.5950    24.6340     2.4910 
  268.8750     3.9000    65.5660     8.8000     7.2880     6.5760    24.6190     2.4920 
  269.0000     3.9090    65.5970     8.7550     7.2550     6.4720    24.5920     2.4930 
  269.1250     3.9250    65.5970     8.6960     7.2120     6.4360    24.6040     2.4930 
  269.2500     3.8970    65.5970     8.6610     7.1860     6.3910    24.6060     2.4930 
  269.3750     3.8930    65.5970     8.6750     7.1960     6.3790    24.5740     2.4970 
  269.5000     3.8550    65.5970     8.7440     7.2470     6.5720    24.5010     2.4990 
  269.6250     3.8760    65.5970     8.8530     7.3270     6.9700    24.4650     2.4960 
  269.7500     3.8610    65.5970     8.9570     7.4040     7.2260    24.4960     2.4880 
  269.8750     3.8590    65.5970     9.0310     7.4580     7.4650    24.5590     2.4750 
  270.0000     3.8370    65.5970     9.0670     7.4850     7.5860    24.6270     2.4580 
  270.1250     3.7950    65.5970     9.0620     7.4810     7.6210    24.6490     2.4400 
  270.2500     3.7700    65.5970     9.0320     7.4590     7.8780    24.6610     2.4270 
  270.3750     3.7350    65.5970     8.9910     7.4290     8.1770    24.6450     2.4230 
  270.5000     3.6840    65.5970     8.9680     7.4120     8.1300    24.6300     2.4250 
  270.6250     3.6570    65.5970     9.0120     7.4440     7.9810    24.6260     2.4320 
