~V
VERS. 2.00: Ver 2.00
~W
STRT.M 55.0000:
STOP.M 275.0000:
STEP.M 0.1250:
NULL. -999.2500:
UWI. F11036:
~C
DEPT.M :
GR.API :
RML.OHMM :
RI. :
RXO.OHMM :
CALI.CM :
DEN.GM/CC :
SP.MV :
~A
# ...
  111.2500   104.7090     6.0660     5.0430     5.3970    23.9450     2.3260   -12.3600 
  111.3750   103.4590     5.9650     4.9390     5.0260    24.4070     2.3110   -12.0130 
  111.5000   103.9830     5.8710     4.8640     5.1030    24.7010     2.3040   -11.7370 
  111.6250   104.8010     5.8190     4.8230     5.1320    24.6950     2.3040   -11.5260 
  111.7500   104.5080     5.8800     4.8610     5.2190    24.4950     2.3090   -11.3690 
  111.8750   103.3770     6.1190     5.0350     5.4370    24.2600     2.3220   -11.2920 
  112.0000   102.4200     6.5450     5.3670     5.6240    24.1710     2.3400   -11.2690 
  112.1250   100.7680     7.0700     5.8270     5.9330    24.1650     2.3540   -11.2530 
  112.2500    97.3260     7.4860     6.2580     6.6930    24.1460     2.3560   -11.2330 
  112.3750    95.6620     7.6240     6.4950     7.3550    24.0910     2.3440   -11.2180 
  112.5000    99.2140     7.4200     6.4310     6.5660    24.1570     2.3230   -11.2260 
  112.6250   104.4170     6.9490     6.0980     5.4230    24.3760     2.3040   -11.2740 
  112.7500   105.5620     6.4690     5.7230     5.0140    24.5930     2.2960   -11.3240 
  112.8750   103.8580     6.1410     5.4410     5.0140    24.7210     2.3030   -11.3070 
  113.0000   102.7120     6.0110     5.3090     5.2740    24.7710     2.3250   -11.2190 
  113.1250   104.7930     6.0170     5.3020     5.3850    24.7930     2.3500   -11.0960 
  113.2500   107.5350     6.0000     5.2980     5.3640    24.7900     2.3680   -10.9640 
  113.3750   107.1440     5.8820     5.2170     5.1480    24.7540     2.3750   -10.8140 
  113.5000   103.8470     5.6610     5.0470     4.8160    24.7350     2.3730   -10.6550 
  113.6250   105.1450     5.3990     4.8280     4.6550    24.7520     2.3690   -10.5220 
  113.7500   113.4600     5.1800     4.6270     4.5320    24.7640     2.3690   -10.4150 
  113.8750   123.9100     5.0440     4.4760     4.5000    24.7670     2.3730   -10.3630 
  114.0000   130.4670     4.9980     4.3850     4.4930    24.7590     2.3770   -10.3850 
  114.1250   129.7150     5.0340     4.3570     4.5820    24.7400     2.3780   -10.4850 
  114.2500   125.7860     5.1060     4.3620     4.6320    24.7210     2.3750   -10.6110 
  114.3750   121.2680     5.1810     4.3750     4.6560    24.7010     2.3710   -10.7650 
  114.5000   118.5910     5.2300     4.3750     4.6980    24.6070     2.3690   -10.9220 
  114.6250   119.3080     5.2510     4.3550     4.7420    24.3980     2.3730   -11.0660 
  114.7500   119.9460     5.2800     4.3420     4.7140    24.1590     2.3820   -11.2410 
  114.8750   118.3280     5.3590     4.3700     4.6570    23.9490     2.3890   -11.4430 
  115.0000   115.6660     5.5170     4.4630     4.6270    23.7890     2.3870   -11.6560 
  115.1250   116.0970     5.7790     4.6420     4.7760    23.6920     2.3680   -11.9340 
  115.2500   118.0380     6.1260     4.8930     5.1420    23.6700     2.3380   -12.3220 
  115.3750   117.6800     6.5500     5.2120     5.5190    23.6770     2.3040   -12.8410 
  115.5000   113.5710     7.0380     5.5920     5.7620    23.6960     2.2750   -13.5150 
  115.6250   105.8930     7.5540     6.0090     6.0330    23.7480     2.2590   -14.3160 
  115.7500    96.4600     8.0220     6.4010     6.6370    23.8050     2.2530   -15.1080 
  115.8750    87.7060     8.3660     6.7050     7.5250    23.7940     2.2530   -15.8380 
  116.0000    84.2900     8.5360     6.8700     8.0740    23.7200     2.2510   -16.5160 
  116.1250    87.9120     8.5210     6.8740     7.5560    23.6770     2.2490   -17.1070 
  116.2500    90.5310     8.4260     6.7960     7.1830    23.6170     2.2520   -17.5590 
  116.3750    89.7220     8.3320     6.7000     7.2190    23.5180     2.2630   -17.8420 
  116.5000    89.5040     8.2910     6.6320     7.5180    23.4480     2.2770   -17.9390 
  116.6250    90.8010     8.3030     6.6080     7.6290    23.4750     2.2810   -17.8950 
  116.7500    90.9860     8.3200     6.5980     7.3840    23.5490     2.2690   -17.8510 
  116.8750    91.8330     8.3170     6.5780     7.0900    23.6350     2.2450   -17.8700 
  117.0000    94.8490     8.3060     6.5490     6.9520    23.6780     2.2230   -17.9310 
  117.1250    95.7900     8.3450     6.5480     7.1530    23.7050     2.2130   -18.0150 
  117.2500    92.2460     8.4720     6.6080     7.5410    23.7100     2.2140   -18.1160 
  117.3750    88.3070     8.6870     6.7370     7.7160    23.6530     2.2190   -18.2580 
  117.5000    86.9590     8.9500     6.9170     7.8120    23.5590     2.2200   -18.4800 
  117.6250    88.3130     9.1930     7.1060     7.9430    23.5120     2.2110   -18.7970 
  117.7500    90.1680     9.3640     7.2580     8.0440    23.5910     2.1970   -19.1670 
  117.8750    90.6070     9.4520     7.3590     8.0830    23.8140     2.1830   -19.5420 
  118.0000    89.8520     9.4750     7.4130     8.0480    24.0620     2.1770   -19.9440 
  118.1250    87.7090     9.4710     7.4430     7.9670    24.1210     2.1820   -20.3900 
  118.2500    83.9650     9.4840     7.4790     8.1350    24.1650     2.1930   -20.8710 
  118.3750    79.2740     9.5330     7.5400     8.4440    24.2490     2.2030   -21.3650 
  118.5000    77.0210     9.6180     7.6270     8.6410    24.1980     2.2060   -21.8330 
  118.6250    80.2570     9.7250     7.7310     8.6690    24.1600     2.1960   -22.2140 
  118.7500    83.4250     9.8230     7.8250     8.5210    24.1440     2.1780   -22.4670 
  118.8750    82.9320     9.8840     7.8870     8.2590    24.1430     2.1580   -22.5930 
  119.0000    80.1240     9.8900     7.9060     8.1780    24.0920     2.1420   -22.5970 
  119.1250    80.1070     9.8320     7.8760     8.0820    24.0520     2.1370   -22.4950 
  119.2500    81.8430     9.7340     7.8180     8.0600    24.0310     2.1420   -22.3340 
  119.3750    81.5390     9.6240     7.7540     8.0440    23.9270     2.1540   -22.1310 
  119.5000    79.0730     9.5270     7.7030     8.1080    23.7510     2.1650   -21.9080 
  119.6250    79.1370     9.4630     7.6760     8.3620    23.6010     2.1710   -21.7090 
  119.7500    82.4730     9.4210     7.6610     8.5130    23.5160     2.1710   -21.5910 
  119.8750    84.2660     9.3890     7.6470     8.3270    23.4760     2.1680   -21.5750 
  120.0000    83.0120     9.3540     7.6240     8.2770    23.4830     2.1650   -21.6680 
  120.1250    81.7770     9.3200     7.5900     8.1870    23.5290     2.1660   -21.8500 
  120.2500    81.2010     9.3040     7.5590     8.0920    23.5890     2.1680   -22.0470 
  120.3750    79.3860     9.3220     7.5460     7.9510    23.6560     2.1680   -22.2210 
  120.5000    77.7310     9.3740     7.5570     7.8530    23.7690     2.1620   -22.3660 
  120.6250    77.6510     9.4230     7.5770     7.9060    23.9460     2.1540   -22.4230 
  120.7500    79.7940     9.4040     7.5660     8.0050    24.0780     2.1540   -22.3300 
  120.8750    83.9540     9.2710     7.4850     8.0490    24.0370     2.1670   -22.0660 
  121.0000    86.9360     9.0250     7.3250     8.0640    23.8450     2.1930   -21.6590 
  121.1250    86.5890     8.7480     7.1380     8.1280    23.6120     2.2230   -21.1910 
  121.2500    85.8760     8.5960     7.0320     7.8190    23.4200     2.2420   -20.7640 
  121.3750    88.0010     8.6990     7.1100     7.3960    23.3020     2.2440   -20.4140 
  121.5000    89.7420     9.1230     7.4360     7.5850    23.2410     2.2290   -20.1500 
  121.6250    86.6620     9.8510     8.0390     8.8070    23.2000     2.2050   -20.0240 
  121.7500    81.3650    10.6440     8.7610    11.3510    23.1210     2.1850   -20.0480 
  121.8750    78.5080    11.2720     9.4160    13.6840    23.0330     2.1750   -20.2020 
  122.0000    80.5350    11.5260     9.7960    13.5090    22.9620     2.1800   -20.4000 
  122.1250    82.8980    11.2170     9.6850    10.4370    22.9750     2.1990   -20.4610 
  122.2500    82.1470    10.4890     9.1750     8.8060    23.0800     2.2240   -20.3160 
  122.3750    80.0070     9.5070     8.4090     8.1700    23.2280     2.2480   -19.9780 
