~V
VERS. 2.00: Ver 2.00
~W
STRT.M 55.0000:
STOP.M 249.0000:
STEP.M 0.1250:
NULL. -999.2500:
UWI. F11017:
~C
DEPT.M :
GR.API :
RML.OHMM :
RI. :
RXO.OHMM :
CALI.CM :
DEN.GM/CC :
SP.MV :
~A
# ...
  223.7500    71.7690    15.0730    13.6190    13.8020    24.2080     2.3370   -18.4880 
  223.8750    65.7090    15.5160    14.3620    14.9440    24.3020     2.3370   -18.3450 
  224.0000    61.4770    15.8900    14.9550    16.3590    24.3530     2.3330   -18.1190 
  224.1250    60.7820    16.2280    15.3030    17.2270    24.3590     2.3280   -17.8190 
  224.2500    63.3150    16.3160    15.3990    17.3970    24.3430     2.3250   -17.4860 
  224.3750    66.1190    16.1780    15.2640    17.1620    24.3360     2.3240   -17.1340 
  224.5000    68.4410    15.8970    14.9690    16.6640    24.3680     2.3260   -16.7660 
  224.6250    70.2470    15.5900    14.6280    16.0800    24.4110     2.3280   -16.3710 
  224.7500    69.6390    15.3510    14.3480    15.5240    24.4210     2.3290   -15.9450 
  224.8750    67.0400    15.2140    14.1720    15.0700    24.3940     2.3290   -15.4950 
  225.0000    65.7200    15.1730    14.1060    14.7150    24.3590     2.3300   -15.0210 
  225.1250    66.0280    15.2150    14.1450    14.5690    24.3320     2.3320   -14.5410 
  225.2500    65.6630    15.3100    14.2480    14.5840    24.3140     2.3390   -14.0530 
  225.3750    64.7530    15.4510    14.4010    14.5170    24.2920     2.3490   -13.5490 
  225.5000    63.3320    15.6300    14.5900    14.3500    24.2600     2.3640   -13.0460 
  225.6250    61.6680    15.8160    14.7840    14.4520    24.2240     2.3790   -12.5490 
  225.7500    62.1560    15.9470    14.9290    14.6760    24.1790     2.3950   -12.0720 
  225.8750    64.5720    15.9640    14.9690    14.9890    24.1120     2.4080   -11.6320 
  226.0000    64.9650    15.8320    14.8680    15.3240    24.0080     2.4180   -11.2390 
  226.1250    63.5630    15.5440    14.6060    15.1610    23.9620     2.4230   -10.9090 
  226.2500    64.6980    15.1900    14.2600    14.4470    24.0310     2.4210   -10.6300 
  226.3750    68.1070    14.8470    13.8970    13.6810    24.1400     2.4100   -10.3990 
  226.5000    72.5210    14.5790    13.5830    13.3510    24.1820     2.3940   -10.2060 
  226.6250    72.9410    14.4560    13.3880    13.3110    24.1440     2.3740   -10.0730 
  226.7500    68.9850    14.4990    13.3400    13.3240    24.0940     2.3560    -9.9710 
  226.8750    64.0530    14.7430    13.4760    13.3230    24.0730     2.3400    -9.8890 
  227.0000    63.1880    15.2120    13.8260    13.4900    24.0760     2.3270    -9.8460 
  227.1250    66.7770    15.9070    14.4090    14.0470    24.0860     2.3140    -9.8040 
  227.2500    67.6600    16.6830    15.1080    15.0780    24.0890     2.3010    -9.7500 
  227.3750    65.0390    17.3940    15.7990    16.7970    24.1030     2.2900    -9.6860 
  227.5000    62.7470    17.9060    16.3460    19.1610    24.1440     2.2840    -9.5880 
  227.6250    63.7110    18.1230    16.6220    20.1010    24.1810     2.2860    -9.4450 
  227.7500    65.9420    18.1520    16.6840    19.6590    24.1540     2.2950    -9.2760 
  227.8750    68.1340    18.0890    16.6080    18.8080    24.0810     2.3130    -9.0840 
  228.0000    69.9330    17.9810    16.4560    18.3140    24.0130     2.3380    -8.8640 
  228.1250    68.0430    17.7860    16.2240    19.1690    23.9910     2.3680    -8.6140 
  228.2500    63.2900    17.4480    15.8960    19.5750    23.9840     2.3990    -8.3600 
  228.3750    60.3080    16.9370    15.4510    19.0960    23.9870     2.4250    -8.1000 
  228.5000    63.1370    16.2920    14.9060    17.3660    24.0060     2.4420    -7.8530 
  228.6250    69.8850    15.6330    14.3380    15.2870    24.0370     2.4500    -7.6240 
  228.7500    75.9780    15.1020    13.8540    14.5640    24.0570     2.4500    -7.4110 
  228.8750    80.3720    14.7560    13.5100    15.1840    24.0400     2.4430    -7.2140 
  229.0000    82.3220    14.5660    13.2960    13.6800    24.0010     2.4290    -7.0200 
  229.1250    81.2310    14.3870    13.1100    12.0020    23.9870     2.4120    -6.8350 
  229.2500    79.9070    14.0250    12.7880    11.4160    24.0030     2.3980    -6.6470 
  229.3750    78.9160    13.3640    12.2210    11.6440    23.9890     2.3910    -6.4510 
  229.5000    76.7820    12.4080    11.3900    11.2550    23.9380     2.3900    -6.2490 
  229.6250    71.5630    11.2780    10.3790     9.7550    23.8840     2.3940    -6.0360 
  229.7500    66.0540    10.2080     9.3890     7.7720    23.8210     2.4000    -5.8200 
  229.8750    62.7360     9.3450     8.5520     6.2730    23.7210     2.4070    -5.6200 
  230.0000    61.9750     8.7550     7.9390     5.7500    23.6200     2.4120    -5.4390 
  230.1250    62.3940     8.4520     7.5850     5.7540    23.5280     2.4130    -5.2850 
  230.2500    62.2620     8.3110     7.3980     5.9090    23.4800     2.4070    -5.1700 
  230.3750    61.2390     8.2620     7.3190     6.0520    23.4850     2.3980    -5.0990 
  230.5000    59.7140     8.2500     7.2980     6.0800    23.5000     2.3880    -5.0640 
  230.6250    58.5320     8.2470     7.3010     6.2040    23.5160     2.3790    -5.0610 
  230.7500    57.9740     8.2460     7.3110     6.1930    23.5590     2.3740    -5.0790 
  230.8750    58.2570     8.2510     7.3230     6.0680    23.6140     2.3730    -5.0990 
  231.0000    58.6460     8.2530     7.3370     5.9630    23.6610     2.3760    -5.1310 
  231.1250    58.2790     8.2470     7.3540     6.0260    23.6830     2.3820    -5.1630 
  231.2500    59.2870     8.2150     7.3690     6.0320    23.6940     2.3880    -5.1970 
  231.3750    61.4780     8.1240     7.3700     5.8980    23.6720     2.3930    -5.2260 
  231.5000    62.1620     8.0070     7.3450     6.0290    23.6140     2.3930    -5.2360 
  231.6250    59.0950     7.9100     7.2770     6.2720    23.5730     2.3910    -5.2560 
  231.7500    56.2290     7.7970     7.1770     6.2280    23.5990     2.3890    -5.2710 
  231.8750    56.1120     7.6990     7.0660     5.8120    23.6340     2.3890    -5.2910 
  232.0000    57.5370     7.6290     6.9740     5.4360    23.5990     2.3890    -5.3200 
  232.1250    57.2340     7.5840     6.9410     5.3360    23.5070     2.3880    -5.3570 
  232.2500    57.1640     7.5740     6.9720     5.3940    23.4220     2.3850    -5.3830 
  232.3750    59.4860     7.6430     7.0540     5.5550    23.3920     2.3800    -5.4100 
  232.5000    63.8950     7.7490     7.1480     5.6270    23.3940     2.3760    -5.4350 
  232.6250    66.4320     7.7950     7.1980     5.7060    23.4170     2.3760    -5.4470 
  232.7500    64.8660     7.7530     7.1750     5.7360    23.4390     2.3790    -5.4500 
  232.8750    61.1800     7.6420     7.0850     5.5750    23.4450     2.3830    -5.4410 
  233.0000    58.2150     7.5110     6.9630     5.0490    23.4420     2.3880    -5.4120 
  233.1250    55.7930     7.4430     6.8740     4.7380    23.4170     2.3930    -5.3740 
  233.2500    53.7160     7.4750     6.8590     4.8220    23.4130     2.3980    -5.3450 
  233.3750    53.6700     7.6070     6.9280     5.0510    23.4280     2.4040    -5.3290 
  233.5000    55.9970     7.7990     7.0620     5.2420    23.4340     2.4110    -5.3220 
  233.6250    58.3140     7.9850     7.2160     5.3800    23.4400     2.4170    -5.3080 
  233.7500    58.4810     8.1110     7.3360     5.5590    23.3930     2.4210    -5.3150 
  233.8750    58.4500     8.1640     7.4020     5.9020    23.3490     2.4220    -5.3520 
  234.0000    58.6710     8.1700     7.4230     6.4230    23.3590     2.4180    -5.4010 
  234.1250    58.0650     8.1860     7.4380     6.7590    23.3840     2.4100    -5.4540 
  234.2500    56.5970     8.2540     7.4890     7.0650    23.3870     2.3990    -5.5000 
  234.3750    55.6060     8.3820     7.5920     7.4500    23.3720     2.3880    -5.5470 
  234.5000    57.1840     8.5480     7.7360     7.9120    23.3500     2.3800    -5.6110 
  234.6250    61.0810     8.7040     7.8880     8.3050    23.3060     2.3800    -5.6800 
  234.7500    64.3050     8.8090     8.0090     8.3780    23.2930     2.3860    -5.7390 
  234.8750    65.0570     8.8530     8.0830     8.5230    23.3430     2.3960    -5.7820 
