~V
VERS. 2.00: Ver 2.00
~W
STRT.M 53.0000:
STOP.M 276.0000:
STEP.M 0.1250:
NULL. -999.2500:
UWI. F11074:
~C
DEPT.M :
DEN.GM/CC :
SP.MV :
GR.API :
RML.OHMM :
RI. :
RXO.OHMM :
CALI.CM :
~A
# ...
  165.5000     2.4110   -14.2080    88.8640    15.0890    14.2630    17.4190    24.4020 
  165.6250     2.4060   -14.1510    93.7240    14.4890    13.7280    16.1990    24.3860 
  165.7500     2.4090   -14.0430    94.4890    13.6940    12.9930    15.8380    24.3340 
  165.8750     2.4200   -13.9160    91.3310    12.6910    12.0480    16.1900    24.2550 
  166.0000     2.4360   -13.8530    89.6950    11.4670    10.8920    14.4100    24.2070 
  166.1250     2.4510   -13.9040    93.4440    10.1080     9.5870    11.0080    24.1930 
  166.2500     2.4470   -14.0560   100.6620     8.9260     8.3810     8.8010    24.1750 
  166.3750     2.4190   -14.3410   107.5360     8.1990     7.5050     8.1600    24.1200 
  166.5000     2.3790   -14.7300   110.7720     8.0530     7.0900     8.2970    24.0340 
  166.6250     2.3470   -15.1310   109.5860     8.4850     7.1980     8.9060    23.9920 
  166.7500     2.3240   -15.4530   107.3800     9.1510     7.6030     9.6880    23.9850 
  166.8750     2.3080   -15.6420   104.4660     9.7550     8.0870    10.4470    24.0250 
  167.0000     2.2970   -15.6380   101.8050    10.0550     8.4210    10.9480    24.1630 
  167.1250     2.2960   -15.3040   102.3920     9.8880     8.4040    11.7970    24.4450 
  167.2500     2.3030   -14.7280   102.9710     9.3560     8.0580    12.6140    24.7170 
  167.3750     2.3200   -13.9780    99.9820     8.5130     7.4110    11.2750    24.8550 
  167.5000     2.3450   -13.1530    97.1170     7.4900     6.5560     7.7640    24.8890 
  167.6250     2.3690   -12.3450   100.7950     6.6040     5.7260     6.0820    24.8890 
  167.7500     2.3850   -11.6290   106.0210     6.1360     5.1620     5.5190    24.8890 
  167.8750     2.3910   -11.0780   108.3970     6.2040     4.9910     5.5370    24.8890 
  168.0000     2.3990   -10.7100   109.4050     6.7760     5.2340     5.8340    24.8890 
  168.1250     2.4150   -10.5370   109.3640     7.6780     5.8410     6.6120    24.8890 
  168.2500     2.4290   -10.4740   105.9270     8.4940     6.5230     7.7700    24.8890 
  168.3750     2.4320   -10.4610   100.8330     8.8840     7.0020     8.9120    24.8890 
  168.5000     2.4230   -10.4210    98.4830     8.6850     7.0730     9.7020    24.8940 
  168.6250     2.4130   -10.3290    98.9860     7.9370     6.6550     9.7080    24.9310 
  168.7500     2.4000   -10.2560    99.6640     7.0120     5.9920     8.5010    25.0060 
  168.8750     2.3800   -10.1960   100.6180     6.1990     5.3050     6.5640    25.0710 
  169.0000     2.3540   -10.1270   101.4840     5.6980     4.7750     5.6740    25.0960 
  169.1250     2.3310   -10.0650    99.2480     5.6240     4.5320     5.7760    25.0960 
  169.2500     2.3170   -10.0620    95.9100     5.8190     4.5090     5.9120    25.0960 
  169.3750     2.3140   -10.1000    95.9490     6.1330     4.6180     5.9550    25.0960 
  169.5000     2.3160   -10.1620    99.9010     6.4160     4.7590     6.0370    25.0960 
  169.6250     2.3200   -10.2590   103.8050     6.5620     4.8540     6.2090    25.0960 
  169.7500     2.3230   -10.3470   105.7010     6.6160     4.9050     6.4270    25.0960 
  169.8750     2.3230   -10.3990   104.4890     6.6350     4.9350     6.5700    25.0960 
  170.0000     2.3210   -10.4050   100.3390     6.6500     4.9550     6.4330    25.0960 
  170.1250     2.3200   -10.3750    97.7600     6.6760     4.9680     6.1550    25.0960 
  170.2500     2.3180   -10.3180    99.4520     6.7390     4.9910     6.0300    25.0960 
  170.3750     2.3170   -10.2430   101.5950     6.8750     5.0520     6.1480    25.0960 
  170.5000     2.3190   -10.1530   101.2430     7.1080     5.1790     6.4440    25.0960 
  170.6250     2.3300   -10.0720   103.8330     7.4350     5.3840     6.9500    25.0960 
  170.7500     2.3420   -10.0090   109.6120     7.7530     5.6120     7.5960    25.0960 
  170.8750     2.3510    -9.9460   110.3470     7.9430     5.7860     7.9140    25.0960 
  171.0000     2.3570    -9.8890   105.9380     7.9100     5.8320     7.8380    25.0960 
  171.1250     2.3560    -9.8870   105.4830     7.6270     5.7000     7.5430    25.0960 
  171.2500     2.3510    -9.9220   110.1620     7.2610     5.4760     7.2880    25.0960 
  171.3750     2.3450    -9.9700   113.3100     6.9560     5.2460     7.0450    25.0960 
  171.5000     2.3410   -10.0460   112.0130     6.7880     5.0750     6.8930    25.0960 
  171.6250     2.3380   -10.1660   112.1070     6.7710     4.9910     6.7720    25.0960 
  171.7500     2.3320   -10.2830   114.7460     6.8180     4.9610     6.6440    25.0960 
  171.8750     2.3250   -10.3870   115.9430     6.8790     4.9590     6.6160    25.0960 
  172.0000     2.3200   -10.4960   113.9870     6.9260     4.9650     6.6780    25.0910 
  172.1250     2.3180   -10.6030   110.9610     6.9510     4.9690     6.6170    25.0830 
  172.2500     2.3160   -10.6730   110.3570     6.9580     4.9650     6.5460    25.0800 
  172.3750     2.3150   -10.7100   109.3790     6.9520     4.9530     6.4920    25.0900 
  172.5000     2.3170   -10.7330   105.5190     6.9380     4.9360     6.4170    25.0960 
  172.6250     2.3230   -10.7340   103.7870     6.9340     4.9250     6.4150    25.0960 
  172.7500     2.3310   -10.7140   105.0780     6.9480     4.9270     6.5590    25.0960 
  172.8750     2.3400   -10.6940   105.5700     6.9630     4.9350     6.7900    25.0960 
  173.0000     2.3480   -10.6760   104.8940     6.9560     4.9300     6.8910    25.0960 
  173.1250     2.3490   -10.6590   108.4020     6.9120     4.8990     6.5440    25.0960 
  173.2500     2.3490   -10.6390   115.8560     6.8670     4.8570     6.3780    25.0960 
  173.3750     2.3510   -10.6280   120.3840     6.8680     4.8360     6.3550    25.0960 
  173.5000     2.3540   -10.6380   119.4990     6.9530     4.8660     6.4390    25.0960 
  173.6250     2.3540   -10.6430   116.2160     7.1430     4.9770     6.6420    25.0960 
  173.7500     2.3520   -10.6320   113.3620     7.3700     5.1330     6.9970    25.0960 
  173.8750     2.3520   -10.6250   113.3490     7.5520     5.2870     7.3270    25.0960 
  174.0000     2.3570   -10.6490   115.0500     7.6050     5.3770     7.4680    25.0960 
  174.1250     2.3620   -10.6580   115.8410     7.4630     5.3460     7.2330    25.0960 
  174.2500     2.3650   -10.6540   116.4340     7.1990     5.2190     6.8330    25.0960 
  174.3750     2.3630   -10.6780   116.0410     6.9170     5.0490     6.4170    25.0960 
  174.5000     2.3580   -10.7150   114.4160     6.7200     4.9020     6.1530    25.0960 
  174.6250     2.3530   -10.7510   112.0230     6.6750     4.8360     6.1910    25.0960 
  174.7500     2.3490   -10.8020   109.6250     6.7280     4.8370     6.3190    25.0960 
  174.8750     2.3460   -10.8860   108.3390     6.8140     4.8770     6.4200    25.0960 
  175.0000     2.3450   -10.9630   109.6510     6.8740     4.9180     6.4420    25.0960 
  175.1250     2.3440   -11.0390   113.6410     6.8740     4.9330     6.4090    25.0960 
  175.2500     2.3400   -11.1210   115.5140     6.8360     4.9240     6.3450    25.0960 
  175.3750     2.3340   -11.2030   115.5440     6.7960     4.9090     6.2710    25.0960 
  175.5000     2.3310   -11.2850   116.6170     6.7900     4.9140     6.2210    25.0960 
  175.6250     2.3340   -11.3540   116.9990     6.8500     4.9630     6.2750    25.0960 
  175.7500     2.3370   -11.4280   113.8490     6.9650     5.0540     6.3610    25.0960 
  175.8750     2.3340   -11.4890   110.1050     7.1190     5.1760     6.4220    25.0960 
  176.0000     2.3270   -11.5400   110.6200     7.2980     5.3160     6.4670    25.0960 
  176.1250     2.3230   -11.5770   116.8260     7.5020     5.4720     6.6280    25.0960 
  176.2500     2.3220   -11.6190   120.3130     7.7340     5.6490     6.9330    25.0960 
  176.3750     2.3220   -11.6610   117.4190     7.9840     5.8460     7.3240    25.0960 
  176.5000     2.3210   -11.6910   111.0050     8.2150     6.0450     7.7500    25.0960 
  176.6250     2.3230   -11.7490   108.7060     8.3550     6.1990     8.0380    25.0960 
