~V
VERS. 2.00: Ver 2.00
~W
STRT.M 55.0000:
STOP.M 229.0000:
STEP.M 0.1250:
NULL. -999.2500:
UWI. F11013:
~C
DEPT.M :
DEN.GM/CC :
GR.API :
RML.OHMM :
RI. :
RXO.OHMM :
CALI.CM :
SP.MV :
~A
   55.0000  -999.2500  -999.2500  -999.2500  -999.2500  -999.2500  -999.2500    31.0670 
   55.1250  -999.2500  -999.2500  -999.2500  -999.2500  -999.2500  -999.2500    62.0690 
   55.2500  -999.2500  -999.2500  -999.2500  -999.2500  -999.2500  -999.2500    61.8310 
   55.3750  -999.2500    44.4030     0.6200     0.4740     0.9190    24.4800    61.3340 
   55.5000  -999.2500    44.4030     0.6200     0.4740     0.9190    24.4800    60.5280 
   55.6250  -999.2500    44.5650     0.5880     0.4770     0.9770    24.6320    59.4250 
   55.7500  -999.2500    44.8500     0.5430     0.4860     1.0910    24.8740    58.0540 
   55.8750  -999.2500    43.5090     0.5320     0.4980     1.1780    24.9740    56.5230 
   56.0000  -999.2500    40.9620     0.5640     0.5040     1.0980    24.9720    54.8920 
   56.1250  -999.2500    38.6970     0.6400     0.5000     1.0610    24.9710    53.1790 
   56.2500  -999.2500    36.4350     0.7510     0.4890     1.0940    24.9950    51.4320 
   56.3750  -999.2500    36.5900     0.8740     0.4780     1.2140    24.9890    49.8030 
   56.5000  -999.2500    40.0560     0.9730     0.4730     1.4590    24.9000    48.3110 
   56.6250  -999.2500    44.2530     1.0100     0.4740     1.9480    24.8120    46.8690 
   56.7500  -999.2500    46.3520     0.9640     0.4780     2.2400    24.8910    45.4330 
   56.8750  -999.2500    44.9660     0.8520     0.4830     2.2270    25.0760    43.8240 
   57.0000  -999.2500    43.4930     0.7330     0.4860     3.0170    25.2310    42.0920 
   57.1250  -999.2500    42.4330     0.6450     0.4860     3.5360    25.3130    40.3830 
   57.2500  -999.2500    40.7540     0.6040     0.4840     2.2520    25.3290    38.8000 
   57.3750  -999.2500    39.3300     0.6220     0.4800     1.2620    25.2960    37.3240 
   57.5000  -999.2500    39.3870     0.6720     0.4730     1.0420    25.2650    36.0020 
   57.6250  -999.2500    40.1330     0.7280     0.4670     1.6570    25.2630    34.9670 
   57.7500  -999.2500    41.0370     0.7630     0.4640     5.0540    25.2820    34.2290 
   57.8750  -999.2500    41.6780     0.7430     0.4680    15.4610    25.2950    33.9640 
   58.0000  -999.2500    42.5000     0.6780     0.4770     7.9650    25.2950    34.1010 
   58.1250  -999.2500    43.2330     0.5940     0.4890     5.4730    25.2880    34.5040 
   58.2500  -999.2500    44.3690     0.5280     0.4980     3.8680    25.2810    34.9990 
   58.3750  -999.2500    44.0640     0.5230     0.4970     2.7450    25.2600    35.5060 
   58.5000  -999.2500    41.2300     0.5830     0.4910     1.9200    25.2150    36.0180 
   58.6250  -999.2500    38.7470     0.6990     0.4810     1.3140    25.0960    36.4400 
   58.7500  -999.2500    39.3910     0.8400     0.4690     0.8660    24.8340    36.7270 
   58.8750  -999.2500    43.2460     0.9540     0.4560     0.6870    24.4450    36.7640 
   59.0000  -999.2500    46.5990     0.9990     0.4440     0.6460    24.0520    36.5080 
   59.1250  -999.2500    47.2330     0.9540     0.4350     0.6930    23.8920    36.0270 
   59.2500     2.0020    43.8090     0.8520     0.4270     0.7060    24.1750    35.3730 
   59.3750     2.0020    37.7690     0.7680     0.4210     0.9520    24.7230    34.5790 
   59.5000     2.0210    36.6930     0.7320     0.4160     1.6410    25.0860    33.7830 
   59.6250     2.0390    42.4430     0.7280     0.4160     2.4440    25.2030    33.0280 
   59.7500     2.0530    49.5130     0.7290     0.4220     2.3170    25.2150    32.3890 
   59.8750     2.0570    51.5480     0.7110     0.4380     1.9370    25.2060    32.0080 
   60.0000     2.0550    50.3440     0.6810     0.4600     1.4720    25.1800    31.8700 
   60.1250     2.0540    47.8000     0.6640     0.4790     1.0610    25.1480    31.9580 
   60.2500     2.0620    44.5760     0.6750     0.4880     0.7730    25.1200    32.2800 
   60.3750     2.0850    41.4930     0.7050     0.4840     0.5600    25.0790    32.8130 
   60.5000     2.1040    39.5570     0.7250     0.4770     0.4530    25.0410    33.4310 
   60.6250     2.1040    38.8180     0.7200     0.4750     0.4220    24.9850    34.1500 
   60.7500     2.0820    40.6960     0.6810     0.4810     0.4250    24.8620    35.0150 
   60.8750     2.0570    44.2710     0.6000     0.4920     0.4320    24.6110    35.9730 
   61.0000     2.0440    45.3840     0.5060     0.4990     0.4780    24.3020    37.0110 
   61.1250     2.0360    44.7250     0.4270     0.5030     0.5360    24.0920    38.1180 
   61.2500     2.0270    45.0060     0.3690     0.5050     0.6340    23.9640    39.3190 
   61.3750     2.0180    46.7470     0.3370     0.5100     0.7540    23.9020    40.6560 
   61.5000     2.0160    46.5130     0.3350     0.5130     0.8780    23.7640    42.1090 
   61.6250     2.0210    44.4100     0.3640     0.5100     1.0880    23.5170    43.6530 
   61.7500     2.0310    43.6430     0.4120     0.4990     1.3540    23.2180    45.2640 
   61.8750     2.0390    45.4580     0.4400     0.4890     1.4490    23.0510    46.9480 
   62.0000     2.0410    47.4560     0.4200     0.4890     1.4390    22.9810    48.6310 
   62.1250     2.0400    46.7290     0.3520     0.5010     1.4630    22.9580    50.2870 
   62.2500     2.0450    43.6580     0.2610     0.5220     1.4830    22.9430    51.8330 
   62.3750     2.0620    41.8070     0.1850     0.5380     1.4330    22.9310    53.2000 
   62.5000     2.0830    43.2130     0.1420     0.5380     1.3940    22.9340    54.4120 
   62.6250     2.1010    47.5330     0.1350     0.5260     1.4080    22.9250    55.4220 
   62.7500     2.1160    52.0270     0.1590     0.5080     1.4760    22.9200    56.1610 
   62.8750     2.1340    53.0540     0.2070     0.4960     1.4490    22.8730    56.5530 
   63.0000     2.1540    52.4080     0.2540     0.4960     1.4150    22.8020    56.6130 
   63.1250     2.1700    53.1090     0.2820     0.5110     1.5640    22.7020    56.3290 
   63.2500     2.1770    55.3010     0.2780     0.5380     1.8510    22.5620    55.7160 
   63.3750     2.1780    55.0350     0.2500     0.5710     1.9990    22.4370    54.6650 
   63.5000     2.1770    52.2410     0.2360     0.5930     2.0230    22.3600    53.2480 
   63.6250     2.1800    50.6020     0.2540     0.5890     2.0630    22.3090    51.5280 
   63.7500     2.1920    51.3320     0.2920     0.5420     2.1360    22.2520    49.4610 
   63.8750     2.2230    54.0660     0.2830     0.4460     2.1640    22.1140    46.8990 
   64.0000     2.2730    57.0030     0.1950     0.3330     2.1580    21.8830    43.8120 
   64.1250     2.3370    56.4240     0.0670     0.2290     2.1160    21.6200    40.0480 
   64.2500     2.4060    52.5910    -0.0330     0.1560     2.0780    21.4670    35.5270 
   64.3750     2.4570    51.0420    -0.0580     0.1340     2.2200    21.5740    30.1030 
   64.5000     2.4390    53.6540    -0.0070     0.1720     2.7040    21.9550    23.9770 
   64.6250     2.3390    55.0940     0.1450     0.2980     3.4800    22.5260    17.3610 
   64.7500     2.1980    53.5950     0.4620     0.5560     4.1110    23.0980    10.6440 
   64.8750     2.0730    55.5110     1.0610     1.0480     4.5710    23.5990     4.3090 
   65.0000     1.9980    61.9870     1.8600     1.7570     4.4720    24.3780    -1.3090 
   65.1250     1.9930    70.2910     2.6160     2.5430     4.0710    25.8600    -6.0250 
   65.2500     2.0630    79.8520     3.0610     3.1670     3.5670    27.5730    -9.7650 
   65.3750     2.1960    91.6200     3.1310     3.4790     3.4800    27.3450   -12.2990 
   65.5000     2.3270   101.8430     3.0940     3.6330     3.7680    25.9440   -13.8940 
   65.6250     2.4030   105.0930     3.0820     3.7290     4.0740    24.7470   -14.7970 
   65.7500     2.4260   102.6850     3.1000     3.7900     4.1810    24.0520   -15.3250 
   65.8750     2.4330   101.6240     3.1000     3.8000     4.0600    23.6670   -15.7810 
   66.0000     2.4400   102.4640     3.1250     3.8260     3.8780    23.3920   -16.3770 
   66.1250     2.4470   100.7640     3.3060     3.9920     3.7800    23.1790   -17.1110 
