~V
VERS. 2.00: Ver 2.00
~W
STRT.M 55.0000:
STOP.M 281.0000:
STEP.M 0.1250:
NULL. -999.2500:
UWI. F11051:
~C
DEPT.M :
SP.MV :
GR.API :
RML.OHMM :
RI. :
RXO.OHMM :
CALI.CM :
DEN.GM/CC :
~A
# ...
  122.5000   -15.6190    91.7680     6.1980     5.0520     5.1760    23.7540     2.2590 
  122.6250   -15.4340    86.6720     6.3830     5.1690     5.5170    23.6970     2.2540 
  122.7500   -15.2850    82.2600     6.4710     5.3670     6.2820    23.5610     2.2520 
  122.8750   -15.1860    78.0930     6.3470     5.5300     6.1980    23.4280     2.2520 
  123.0000   -15.0840    78.4040     6.0450     5.5540     5.7230    23.4640     2.2490 
  123.1250   -15.0320    86.1730     5.6920     5.3700     5.3530    23.5800     2.2430 
  123.2500   -14.9970    93.0370     5.3650     5.0530     5.2220    23.6590     2.2440 
  123.3750   -14.9670    96.2970     5.0560     4.6830     5.0340    23.7330     2.2610 
  123.5000   -14.9520   100.4240     4.7530     4.3410     4.7740    23.8900     2.2920 
  123.6250   -14.9470   103.6280     4.5080     4.1050     4.4840    24.1030     2.3260 
  123.7500   -14.9380   102.5760     4.4140     3.9990     4.3160    24.2670     2.3510 
  123.8750   -14.9570    99.6910     4.5740     4.0430     4.2940    24.3740     2.3640 
  124.0000   -15.0280    96.7690     5.0200     4.2480     4.7670    24.3890     2.3660 
  124.1250   -15.1600    90.2950     5.6980     4.6160     5.4110    24.2560     2.3560 
  124.2500   -15.3340    81.9220     6.4140     5.0590     5.9440    24.0270     2.3330 
  124.3750   -15.5680    77.3110     7.0210     5.4880     6.1510    23.7130     2.3030 
  124.5000   -15.8180    76.1800     7.4120     5.8210     6.5170    23.3730     2.2770 
  124.6250   -16.0990    73.7190     7.5730     6.0090     6.6160    23.1750     2.2700 
  124.7500   -16.4140    70.3070     7.7070     6.1410     6.7160    23.0760     2.2760 
  124.8750   -16.7200    68.0820     7.9950     6.3360     6.6970    23.0870     2.2880 
  125.0000   -17.0590    69.3230     8.5470     6.7030     7.2460    23.1930     2.2920 
  125.1250   -17.3530    71.9560     9.4390     7.3280     7.9710    23.3440     2.2810 
  125.2500   -17.6160    71.6170    10.5820     8.1190     8.4640    23.3980     2.2620 
  125.3750   -17.8420    68.5350    11.8200     8.9370     9.1010    23.3630     2.2460 
  125.5000   -18.0070    66.2210    12.8740     9.5950    10.3900    23.2460     2.2400 
  125.6250   -18.1580    68.8730    13.3500     9.8740    11.7140    23.2450     2.2590 
  125.7500   -18.2770    73.3070    13.2310     9.8070    11.6100    23.3280     2.3000 
  125.8750   -18.3830    74.1630    12.6670     9.4910    10.8820    23.4320     2.3460 
  126.0000   -18.4680    70.1130    11.9140     9.0540    10.3940    23.4670     2.3670 
  126.1250   -18.5220    63.3160    11.2260     8.6130     9.8320    23.4110     2.3390 
  126.2500   -18.5600    58.7660    10.6930     8.2420     8.9600    23.3640     2.2850 
  126.3750   -18.5940    57.6010    10.3130     7.9680     8.4670    23.3410     2.2250 
  126.5000   -18.6470    56.5240    10.0890     7.7900     8.3290    23.3180     2.1750 
  126.6250   -18.6990    54.4020    10.0430     7.7130     8.3200    23.2680     2.1480 
  126.7500   -18.7340    53.0040    10.1010     7.7010     8.4020    23.2360     2.1380 
  126.8750   -18.7630    54.1680    10.1980     7.7320     8.4950    23.2150     2.1360 
  127.0000   -18.7650    56.8510    10.2800     7.7790     8.5300    23.1820     2.1350 
  127.1250   -18.7700    58.9720    10.3240     7.8200     8.6340    23.1010     2.1360 
  127.2500   -18.7660    61.2950    10.3330     7.8500     8.7300    23.0150     2.1410 
  127.3750   -18.7440    62.9820    10.2940     7.8700     8.7140    22.9650     2.1500 
  127.5000   -18.7370    62.6890    10.2060     7.8820     8.6810    22.9490     2.1600 
  127.6250   -18.6870    60.1510    10.0810     7.8840     8.5800    22.9460     2.1630 
  127.7500   -18.6440    56.7160     9.9570     7.8670     8.5440    22.9470     2.1590 
  127.8750   -18.5820    55.5100     9.8540     7.8240     8.5570    22.9370     2.1540 
  128.0000   -18.4950    58.4370     9.7700     7.7480     8.5390    22.8990     2.1550 
  128.1250   -18.4440    62.8120     9.6650     7.6430     8.5490    22.8440     2.1630 
  128.2500   -18.3870    65.7160     9.4930     7.5220     8.4590    22.8820     2.1680 
  128.3750   -18.3430    67.9610     9.2650     7.4030     8.3620    22.9580     2.1650 
  128.5000   -18.2960    69.5860     9.0480     7.3070     8.2420    23.0070     2.1530 
  128.6250   -18.2680    68.3750     8.9370     7.2650     8.2210    22.8930     2.1410 
  128.7500   -18.2610    65.9050     8.9510     7.2860     8.2870    22.7680     2.1370 
  128.8750   -18.2540    63.7770     9.0770     7.3680     8.4360    22.6950     2.1430 
  129.0000   -18.2620    61.7860     9.2800     7.5020     8.5560    22.6630     2.1550 
  129.1250   -18.2660    60.1100     9.5150     7.6670     8.5090    22.6510     2.1650 
  129.2500   -18.2720    60.3790     9.7190     7.8240     8.4760    22.6800     2.1690 
  129.3750   -18.2770    61.2140     9.8420     7.9400     8.5260    22.8080     2.1710 
  129.5000   -18.2860    61.2070     9.8340     7.9850     8.6620    23.0410     2.1720 
  129.6250   -18.2950    60.3810     9.6530     7.9280     8.6820    23.2290     2.1720 
  129.7500   -18.2960    59.3750     9.3840     7.8010     8.4780    23.2710     2.1700 
  129.8750   -18.2920    58.4800     9.1080     7.6420     8.1640    23.2250     2.1650 
  130.0000   -18.3120    58.7490     8.8850     7.4970     8.0460    23.1410     2.1580 
  130.1250   -18.3450    59.3940     8.7590     7.4070     8.1180    22.9990     2.1530 
  130.2500   -18.3410    59.0410     8.7200     7.3740     8.3760    22.9280     2.1520 
  130.3750   -18.3370    58.3520     8.7520     7.3900     8.4930    23.0130     2.1520 
  130.5000   -18.2900    58.8400     8.8290     7.4390     8.4390    23.1480     2.1520 
  130.6250   -18.2220    60.4810     8.8950     7.5000     8.3870    23.1900     2.1490 
  130.7500   -18.1240    60.7180     8.9060     7.5510     8.3620    23.1630     2.1450 
  130.8750   -17.9980    60.5770     8.8610     7.5770     8.3050    23.1420     2.1420 
  131.0000   -17.8410    61.8820     8.7660     7.5730     8.0840    23.1800     2.1430 
  131.1250   -17.6200    62.2800     8.7380     7.5680     7.9860    23.2010     2.1480 
  131.2500   -17.4180    64.1750     8.5920     7.5400     7.6130    23.2700     2.1550 
  131.3750   -17.2020    65.7740     8.4480     7.5090     7.4420    23.2440     2.1610 
  131.5000   -17.0010    66.4340     8.3600     7.4830     7.4730    23.1940     2.1680 
  131.6250   -16.8310    64.6930     8.4200     7.4840     7.7830    23.2330     2.1760 
  131.7500   -16.6760    62.1010     8.6410     7.5320     8.1960    23.3250     2.1870 
  131.8750   -16.5440    63.0220     8.9820     7.6410     8.3470    23.3670     2.2010 
  132.0000   -16.4240    67.5600     9.3240     7.7880     8.4040    23.3170     2.2150 
  132.1250   -16.3310    70.3640     9.4860     7.8930     8.5060    23.2400     2.2290 
  132.2500   -16.2450    69.1490     9.4290     7.8840     8.3450    23.2310     2.2360 
  132.3750   -16.1580    66.7150     9.2220     7.7610     8.0430    23.3200     2.2330 
  132.5000   -16.0780    67.2270     9.0260     7.6060     7.8230    23.4450     2.2190 
  132.6250   -15.9550    71.5000     9.0960     7.5850     7.8300    23.5620     2.2110 
  132.7500   -15.8410    72.9310     9.5480     7.8070     8.5560    23.5960     2.2300 
  132.8750   -15.6910    67.7240    10.4360     8.3310    10.6400    23.5930     2.2840 
  133.0000   -15.5190    60.0860    11.7550     9.1570    14.4070    23.5790     2.3640 
  133.1250   -15.3240    56.5210    13.4920    10.2540    14.4320    23.6250     2.4350 
  133.2500   -15.1080    56.1520    15.3940    11.4570    13.7530    23.6790     2.4740 
  133.3750   -14.9100    55.4930    17.2270    12.6600    14.1460    23.7590     2.4830 
  133.5000   -14.7030    53.6220    18.8290    13.8250    16.4010    23.9000     2.4820 
  133.6250   -14.5420    51.9100    20.1720    14.9800    19.8950    24.0970     2.4900 
