~V
VERS. 2.00: Ver 2.00
~W
STRT.M 59.0000:
STOP.M 225.0000:
STEP.M 0.1250:
NULL. -999.2500:
UWI. F11010:
~C
DEPT.M :
GR.API :
RML.OHMM :
RI. :
RXO.OHMM :
CALI.CM :
SP.MV :
DEN.GM/CC :
~A
# ...
  137.7500    72.1790    18.8230    16.4430    15.8290    25.4500    -4.3810     2.4640 
  137.8750    72.0220    18.2660    15.9460    16.3930    25.4320    -4.3760     2.4820 
  138.0000    74.1890    17.5990    15.3290    15.5720    25.4200    -4.4040     2.5060 
  138.1250    75.4290    16.9940    14.7530    13.2460    25.3930    -4.4460     2.5280 
  138.2500    72.7650    16.6200    14.3880    12.3900    25.3820    -4.4950     2.5360 
  138.3750    67.4720    16.5760    14.3280    12.2780    25.4330    -4.5540     2.5230 
  138.5000    63.7120    16.8600    14.6010    12.7550    25.4630    -4.6320     2.4890 
  138.6250    62.1360    17.3850    15.1580    13.3820    25.4640    -4.7450     2.4430 
  138.7500    61.9700    17.9170    15.7670    14.1380    25.5120    -4.8970     2.4050 
  138.8750    64.1120    18.2840    16.2490    14.2760    25.5600    -5.0830     2.3870 
  139.0000    66.8900    18.3630    16.4910    14.6560    25.3200    -5.2790     2.3960 
  139.1250    66.1080    18.0320    16.3800    15.0370    25.0720    -5.4670     2.4270 
  139.2500    63.8820    17.3680    15.9480    14.9500    24.9180    -5.6610     2.4630 
  139.3750    64.9520    16.4690    15.2540    14.7470    24.8510    -5.8450     2.4880 
  139.5000    70.6230    15.5050    14.4410    14.8480    24.7790    -5.9780     2.4940 
  139.6250    77.7990    14.7310    13.7390    13.8820    24.7720    -6.0580     2.4750 
  139.7500    84.2330    14.2950    13.3090    11.9500    24.9120    -6.1280     2.4440 
  139.8750    88.4380    14.2440    13.2110     9.6380    25.2130    -6.1640     2.4120 
  140.0000    88.5860    14.5180    13.4100     8.9540    25.5160    -6.1540     2.3910 
  140.1250    85.5300    14.9990    13.8090    10.3490    25.6350    -6.0890     2.3880 
  140.2500    82.9480    15.5010    14.2330    12.4730    25.5970    -5.9840     2.4010 
  140.3750    80.0390    15.9230    14.5810    13.2880    25.4600    -5.9040     2.4250 
  140.5000    76.0140    16.1980    14.7880    12.6190    25.1950    -5.9190     2.4550 
  140.6250    73.7910    16.2580    14.7800    12.7280    25.0070    -6.0130     2.4910 
  140.7500    74.2450    16.1620    14.6080    13.8870    24.8860    -6.1440     2.5200 
  140.8750    74.6370    16.0590    14.3860    14.7060    24.7710    -6.3380     2.5190 
  141.0000    72.3310    16.2560    14.3320    14.8310    24.6070    -6.6040     2.4590 
  141.1250    68.6380    17.4790    14.9150    13.7640    24.4510    -6.9670     2.3240 
  141.2500    66.1780    20.3290    16.5780    12.1510    24.4980    -7.3820     2.1570 
  141.3750    66.0130    25.4720    19.9630    12.2920    24.7570    -7.7870     2.0150 
  141.5000    66.0300    33.3380    25.7810    15.2550    25.1280    -8.1520     1.9460 
  141.6250    66.8800    44.0060    34.8980    28.1960    25.4400    -8.4900     1.9700 
  141.7500    68.2010    55.5580    45.9030    50.8050    25.5760    -8.8020     2.0390 
  141.8750    68.3620    66.0190    56.4870    59.8700    25.6090    -9.0850     2.1090 
  142.0000    67.8620    73.9630    64.3930    54.9150    25.6240    -9.3280     2.1570 
  142.1250    67.0140    79.1810    69.0260    50.4300    25.6660    -9.5320     2.1780 
  142.2500    64.1220    83.5550    72.6340    53.7190    25.7350    -9.6900     2.1900 
  142.3750    60.7300    88.1530    76.5240    63.2510    25.7960    -9.8240     2.1990 
  142.5000    61.2220    92.9840    80.8630    78.4570    25.8470    -9.9420     2.2070 
  142.6250    65.4210    96.9270    84.6380    90.0430    25.8570   -10.0380     2.2130 
  142.7500    66.6550    99.2020    86.9110    91.5400    25.8380   -10.1180     2.2190 
  142.8750    66.0600    99.8460    87.6000    86.0730    25.8150   -10.1830     2.2270 
  143.0000    67.3660    99.6710    87.4730    85.5280    25.7980   -10.2360     2.2360 
  143.1250    68.4640   100.0400    87.8600    83.7850    25.7780   -10.2760     2.2430 
  143.2500    67.1460   101.8180    89.6760    77.0410    25.7550   -10.3660     2.2450 
  143.3750    65.1200   105.1260    93.1980    72.0300    25.7520   -10.4950     2.2390 
  143.5000    63.2180   109.3220    97.9240    85.0660    25.7630   -10.6540     2.2260 
  143.6250    62.1810   112.8070   102.3640   103.0310    25.7470   -10.8430     2.2120 
  143.7500    63.2300   114.0090   104.8760   115.2950    25.6520   -11.0420     2.2020 
  143.8750    65.5660   111.9290   104.3930   112.6920    25.4940   -11.2410     2.2010 
  144.0000    66.9510   106.3870   100.5340   109.9760    25.2730   -11.4310     2.2050 
  144.1250    67.5720    97.8280    93.4610    96.0660    25.0930   -11.5840     2.2120 
  144.2500    69.9270    88.2190    85.0640    79.9810    24.9780   -11.6890     2.2170 
  144.3750    71.4470    78.9410    76.7160    70.8730    24.9430   -11.7690     2.2210 
  144.5000    70.7650    71.0460    69.4830    62.0140    24.9700   -11.8160     2.2250 
  144.6250    69.0800    65.4950    64.3700    47.0040    25.0170   -11.8260     2.2310 
  144.7500    68.9260    62.0250    61.2570    43.4930    25.0560   -11.8490     2.2370 
  144.8750    70.2550    60.2840    59.8550    46.6180    25.0940   -11.9010     2.2390 
  145.0000    73.4800    59.6690    59.5770    43.9860    25.1370   -12.0050     2.2380 
  145.1250    78.0380    59.4970    59.6860    42.8130    25.2080   -12.1850     2.2330 
  145.2500    80.5520    59.1660    59.5190    42.5630    25.2520   -12.3940     2.2310 
  145.3750    78.7310    58.5490    58.8730    43.4770    25.2510   -12.5930     2.2320 
  145.5000    74.1560    57.8430    57.9040    42.7380    25.2390   -12.8020     2.2380 
  145.6250    72.4830    57.5870    57.1670    39.5700    25.2890   -13.0130     2.2440 
  145.7500    74.1210    58.2040    57.1920    38.4750    25.3780   -13.1580     2.2430 
  145.8750    73.6970    59.9910    58.2880    40.1820    25.4570   -13.2250     2.2340 
  146.0000    69.3270    63.1520    60.6420    39.7900    25.5160   -13.2330     2.2220 
  146.1250    66.8630    68.1700    64.7110    40.6580    25.5680   -13.2070     2.2140 
  146.2500    68.4440    75.0400    70.4840    46.6000    25.5890   -13.1840     2.2120 
  146.3750    70.3370    83.9130    78.1450    52.9210    25.5920   -13.1960     2.2170 
  146.5000    68.8410    94.5310    87.6290    54.2490    25.5400   -13.2400     2.2220 
  146.6250    66.0310   105.5260    97.8820    54.6770    25.3970   -13.3130     2.2210 
  146.7500    64.1250   114.2810   106.2500    60.6360    25.2780   -13.4360     2.2160 
  146.8750    63.1680   118.5320   110.2840    71.8850    25.2710   -13.5970     2.2100 
  147.0000    63.4790   117.3070   108.9310    75.8220    25.3450   -13.7490     2.2100 
  147.1250    65.7600   111.0250   102.7360    58.8430    25.3020   -13.8500     2.2170 
  147.2500    69.7700   102.7970    94.7990    42.1950    25.1340   -13.9320     2.2270 
  147.3750    73.3800    94.4550    86.8510    36.0070    24.9620   -14.0090     2.2350 
  147.5000    74.1120    86.9900    79.7410    41.8170    24.8280   -14.0690     2.2380 
  147.6250    72.1410    80.9130    73.8970    50.6060    24.7810   -14.1250     2.2380 
  147.7500    70.4390    76.0430    69.1860    62.9150    24.7650   -14.1770     2.2410 
  147.8750    71.6870    72.4260    65.6170    73.7420    24.7420   -14.2540     2.2490 
  148.0000    74.3660    70.1900    63.2680    72.7890    24.6840   -14.3830     2.2640 
  148.1250    75.3620    69.7340    62.5300    68.2790    24.6400   -14.5830     2.2780 
  148.2500    74.3400    70.7910    63.2060    70.2690    24.7260   -14.8530     2.2830 
  148.3750    71.3490    73.1980    65.1190    64.4350    24.9230   -15.1520     2.2780 
  148.5000    67.4910    76.7840    68.0540    61.8460    25.1300   -15.4410     2.2650 
  148.6250    65.9410    81.7440    72.1140    58.0220    25.3580   -15.6660     2.2520 
  148.7500    67.6430    88.1100    77.3280    58.1540    25.4700   -15.8190     2.2430 
  148.8750    69.6410    96.0340    83.9640    57.1650    25.5360   -15.9040     2.2350 
