~V
VERS. 2.00: Ver 2.00
~W
STRT.M 60.0000:
STOP.M 273.0000:
STEP.M 0.1250:
NULL. -999.2500:
UWI. F11028:
~C
DEPT.M :
DEN.GM/CC :
GR.API :
RML.OHMM :
RI. :
RXO.OHMM :
CALI.CM :
SP.MV :
~A
# ...
  127.5000     2.5230    51.3110    21.8280    16.7830    17.3570    21.1810   -11.1450 
  127.6250     2.5360    48.4580    23.7630    18.6080    19.5860    21.2420   -11.1770 
  127.7500     2.5440    46.9850    24.6350    19.7200    22.9820    21.7800   -11.2090 
  127.8750     2.5470    46.7240    24.3460    19.9250    23.3630    22.3400   -11.2370 
  128.0000     2.5450    46.1550    23.1970    19.3560    19.1710    22.6680   -11.2610 
  128.1250     2.5410    45.1340    21.7610    18.3690    15.8290    22.8170   -11.2950 
  128.2500     2.5360    44.0250    20.6200    17.4460    15.0200    22.8240   -11.3220 
  128.3750     2.5330    44.3830    20.0190    16.8160    14.7810    22.8770   -11.3270 
  128.5000     2.5300    46.4190    19.9770    16.5750    14.1320    22.8980   -11.3220 
  128.6250     2.5280    48.7060    20.3500    16.7200    14.4180    22.8930   -11.3140 
  128.7500     2.5250    49.8980    20.7620    17.0160    15.4710    22.9310   -11.3040 
  128.8750     2.5210    49.9890    20.9800    17.2810    16.3230    23.0270   -11.2980 
  129.0000     2.5160    49.6860    20.9060    17.4040    16.1480    23.0810   -11.2980 
  129.1250     2.5110    49.1330    20.5350    17.3420    15.7760    23.1400   -11.3220 
  129.2500     2.5040    48.6710    20.0360    17.1660    15.0830    23.3820   -11.3710 
  129.3750     2.4950    48.0980    19.5470    16.9390    14.7770    23.5520   -11.4790 
  129.5000     2.4830    46.5450    19.1810    16.7290    14.8520    23.5820   -11.6150 
  129.6250     2.4700    43.6070    19.0720    16.6260    15.2380    23.5030   -11.7770 
  129.7500     2.4570    41.2530    19.2430    16.6800    15.2210    23.3590   -11.9450 
  129.8750     2.4460    42.0870    19.6900    16.9280    14.8530    23.2900   -12.1080 
  130.0000     2.4390    45.1470    20.3220    17.3540    14.9460    23.2950   -12.2740 
  130.1250     2.4400    45.7490    20.9400    17.8530    15.5990    23.3430   -12.4270 
  130.2500     2.4480    44.9100    21.3290    18.2420    16.8940    23.3750   -12.5520 
  130.3750     2.4570    46.9630    21.3570    18.3890    17.5320    23.2530   -12.6630 
  130.5000     2.4620    52.0330    21.0170    18.2580    16.7060    23.4640   -12.7690 
  130.6250     2.4570    54.8830    20.4970    17.9430    15.5140    23.6390   -12.8950 
  130.7500     2.4460    54.8280    20.1490    17.6710    15.4350    23.6290   -13.0160 
  130.8750     2.4330    54.7740    20.1820    17.5920    16.1040    23.5600   -13.1450 
  131.0000     2.4250    54.5060    20.6260    17.7690    17.0030    23.4020   -13.2810 
  131.1250     2.4250    50.7500    21.3420    18.1950    16.5530    23.0770   -13.4400 
  131.2500     2.4350    45.8730    22.0670    18.7420    16.1790    22.9460   -13.5800 
  131.3750     2.4550    43.6220    22.7260    19.3530    16.4160    22.8390   -13.6980 
  131.5000     2.4830    44.4690    23.3740    20.0210    17.1490    22.7090   -13.7820 
  131.6250     2.5140    45.8030    24.0950    20.7590    18.5080    22.6340   -13.8260 
  131.7500     2.5410    46.7310    24.7890    21.4890    19.3320    22.6030   -13.8580 
  131.8750     2.5580    48.1240    25.2230    22.0620    20.2840    22.5720   -13.8720 
  132.0000     2.5650    49.8830    25.1790    22.2920    21.3460    22.5610   -13.8430 
  132.1250     2.5590    52.2160    24.5790    22.0180    21.3040    22.5900   -13.7730 
  132.2500     2.5440    55.5220    23.8030    21.4630    20.8390    22.7260   -13.6990 
  132.3750     2.5220    57.6380    23.2200    20.9020    19.2900    23.1500   -13.6170 
  132.5000     2.5000    56.9790    23.1050    20.5920    17.5970    23.9910   -13.5250 
  132.6250     2.4870    57.2590    23.6050    20.7360    17.6040    24.2210   -13.4580 
  132.7500     2.4840    59.6340    24.4440    21.2180    20.3320    24.0120   -13.3970 
  132.8750     2.4900    59.0680    25.3340    21.8590    23.4430    23.9240   -13.3410 
  133.0000     2.4990    53.0570    25.9970    22.4380    24.4490    23.8830   -13.3240 
  133.1250     2.5050    47.5550    26.2180    22.7540    22.7720    23.9260   -13.3210 
  133.2500     2.5050    46.8740    26.1560    22.8590    21.4170    23.9340   -13.3540 
  133.3750     2.5040    48.6570    26.0430    22.8990    21.4610    23.7090   -13.4250 
  133.5000     2.5050    49.7160    26.0940    23.0330    22.4730    23.5350   -13.5380 
  133.6250     2.5110    51.6060    26.4460    23.3720    20.9160    23.3730   -13.6540 
  133.7500     2.5220    55.1610    26.9960    23.8610    20.3180    23.0080   -13.7760 
  133.8750     2.5330    58.1640    27.5850    24.4190    20.7120    22.8070   -13.8790 
  134.0000     2.5420    57.4270    27.9510    24.8890    21.9780    22.7130   -13.9650 
  134.1250     2.5470    53.6220    27.6320    24.9070    23.6120    22.5220   -14.0320 
  134.2500     2.5460    51.7660    26.5280    24.2920    24.4140    22.0260   -14.0690 
  134.3750     2.5400    52.9660    24.8270    23.1000    24.8310    21.3380   -14.0550 
  134.5000     2.5300    54.8930    23.0330    21.6820    22.9480    21.1580   -14.0140 
  134.6250     2.5190    54.8750    21.9380    20.6610    19.3820    21.4450   -13.9270 
  134.7500     2.5080    53.8430    21.9370    20.4570    17.3410    22.1710   -13.8210 
  134.8750     2.5010    53.2720    23.0920    21.2560    19.0910    22.9480   -13.7300 
  135.0000     2.4980    53.1600    25.0310    22.9300    22.3360    23.4630   -13.6660 
  135.1250     2.4980    52.5690    26.6660    24.7450    24.4560    23.5710   -13.6170 
  135.2500     2.4950    52.9210    26.6030    25.2780    26.0580    23.5400   -13.5920 
  135.3750     2.4830    53.9510    24.0530    23.4570    25.9560    23.4160   -13.6090 
  135.5000     2.4580    56.7460    19.5480    19.5270    22.8610    23.5030   -13.6660 
  135.6250     2.4200    63.5340    14.8410    15.0860    15.9870    23.4390   -13.7560 
  135.7500     2.3780    73.7250    11.3370    11.5730    10.2820    23.3260   -13.8700 
  135.8750     2.3410    82.2850     9.3280     9.3230     7.2910    23.4620   -13.9800 
  136.0000     2.3170    85.0580     8.6730     8.2540     6.5330    23.5970   -14.0500 
  136.1250     2.3150    80.7630     9.3510     8.3730     7.2230    23.6590   -14.0880 
  136.2500     2.3320    73.5810    11.0100     9.4110     9.5830    23.6210   -14.0840 
  136.3750     2.3630    69.4670    13.4420    11.2770    13.9780    23.5960   -14.0430 
  136.5000     2.4020    68.1450    16.2540    13.7390    16.8150    23.5750   -13.9460 
  136.6250     2.4410    63.5060    18.7860    16.2750    16.6120    23.4540   -13.8350 
  136.7500     2.4730    55.6570    20.6040    18.2840    16.7700    23.3140   -13.6990 
  136.8750     2.4920    49.6820    21.6560    19.5340    18.1630    23.2780   -13.5590 
  137.0000     2.4990    48.0780    22.1490    20.1360    20.2570    23.2050   -13.4400 
  137.1250     2.4900    47.4600    22.2890    20.2970    20.4980    23.3150   -13.3530 
  137.2500     2.4740    47.0910    22.2350    20.2300    19.3430    23.4560   -13.2840 
  137.3750     2.4560    46.4230    22.0050    19.9530    18.6630    23.3180   -13.2160 
  137.5000     2.4430    45.7270    21.6540    19.4970    18.9450    22.8940   -13.1530 
  137.6250     2.4360    46.0380    21.2570    18.9110    19.1870    21.7100   -13.0520 
  137.7500     2.4330    47.4670    20.8700    18.2810    18.2300    20.8000   -12.9550 
  137.8750     2.4290    50.1010    20.5140    17.6500    16.8370    20.9270   -12.8520 
  138.0000     2.4200    51.4480    20.2020    17.0680    15.7470    21.5220   -12.7140 
  138.1250     2.4090    49.2350    19.9460    16.6170    15.5860    22.5970   -12.5900 
  138.2500     2.4010    45.8270    19.7230    16.3050    15.6730    23.3930   -12.4600 
  138.3750     2.4000    45.4900    19.4970    16.0880    15.9790    23.5870   -12.3400 
  138.5000     2.4070    49.0480    19.2100    15.8720    16.9690    23.5450   -12.2380 
  138.6250     2.4240    51.1890    18.7620    15.5400    18.1730    23.5630   -12.1950 
