~V
VERS. 2.00: Ver 2.00
~W
STRT.M 57.0000:
STOP.M 272.0000:
STEP.M 0.1250:
NULL. -999.2500:
UWI. F11045:
~C
DEPT.M :
DEN.GM/CC :
GR.API :
RML.OHMM :
RI. :
RXO.OHMM :
CALI.CM :
SP.MV :
~A
# ...
  214.5000     2.2480    61.9100    81.6170    75.6060    73.7140    24.5780     3.5400 
  214.6250     2.2280    67.3200    79.5410    73.4720    69.5480    24.6450     3.3770 
  214.7500     2.2140    70.3380    79.5530    73.0120    67.9930    24.6930     3.1920 
  214.8750     2.2050    70.3440    82.1430    74.8650    67.1270    24.7360     2.9890 
  215.0000     2.1990    68.7280    87.2640    79.1890    67.1750    24.8020     2.7830 
  215.1250     2.1910    66.0180    94.6910    85.9950    71.5200    24.8390     2.5850 
  215.2500     2.1810    63.0950   103.0220    94.0110    85.7990    24.8300     2.3740 
  215.3750     2.1750    61.6480   111.0490   102.0710   104.0590    24.7630     2.1410 
  215.5000     2.1770    61.7720   117.7460   109.1470   118.9380    24.7170     1.8860 
  215.6250     2.1850    60.8910   122.1540   114.3140   134.8260    24.7010     1.6560 
  215.7500     2.1920    59.8370   124.1960   117.4620   119.4440    24.6880     1.5410 
  215.8750     2.1970    60.6340   123.4890   118.2450   107.9620    24.6610     1.4950 
  216.0000     2.2070    62.8750   119.6360   116.2790   107.7030    24.6110     1.4530 
  216.1250     2.2220    64.3020   111.6680   110.5020   113.1030    24.5280     1.3660 
  216.2500     2.2380    64.1050   100.2620    96.4440   103.0310    24.4680     1.2600 
  216.3750     2.2510    63.9550    86.5720    80.2890    80.1200    24.4350     1.1370 
  216.5000     2.2660    64.2430    72.7990    68.4560    68.1260    24.4000     1.0010 
  216.6250     2.2780    63.9960    62.0390    58.5300    59.6670    24.3210     0.8790 
  216.7500     2.2830    64.4320    55.6350    52.0630    45.5560    24.2050     0.7600 
  216.8750     2.2770    66.9740    54.3440    49.9180    34.1320    24.0910     0.6450 
  217.0000     2.2640    69.3370    58.4020    52.5130    33.7330    24.0640     0.5620 
  217.1250     2.2430    67.9450    68.0860    60.3820    55.8610    24.1200     0.5140 
  217.2500     2.2220    64.8710    80.6140    71.2850   107.3820    24.1900     0.5040 
  217.3750     2.2080    62.8100    92.2330    82.1320   148.8230    24.2440     0.5110 
  217.5000     2.2040    61.6710    98.0640    88.6580   136.7870    24.2670     0.4940 
  217.6250     2.2110    60.0380    94.2290    86.8480   123.3470    24.2710     0.3720 
  217.7500     2.2210    59.1590    85.5250    79.9740   104.9220    24.2880     0.1710 
  217.8750     2.2270    60.9760    76.8210    72.0920    89.0120    24.3230    -0.0350 
  218.0000     2.2320    65.6650    71.0310    66.1290    71.1670    24.3640    -0.1950 
  218.1250     2.2380    71.1810    69.7220    63.9120    58.6770    24.3600    -0.3270 
  218.2500     2.2420    72.7810    72.2510    65.2200    55.7500    24.3260    -0.4240 
  218.3750     2.2390    69.1270    78.2740    69.8930    60.9540    24.3010    -0.5170 
  218.5000     2.2310    64.3790    87.1130    77.3540    68.2250    24.3030    -0.6160 
  218.6250     2.2200    65.3390    97.4140    86.4610    82.9360    24.2940    -0.7460 
  218.7500     2.2090    68.6460   106.1650    94.6130   111.1330    24.2850    -0.8940 
  218.8750     2.2000    70.0820   110.2820    99.1940   126.8830    24.3020    -1.0380 
  219.0000     2.1990    69.3490   107.9080    98.4360   143.5880    24.3210    -1.1960 
  219.1250     2.2050    68.9360    99.3540    92.0570   127.4980    24.3370    -1.3310 
  219.2500     2.2160    69.5690    88.8940    83.3490    79.8960    24.3330    -1.4950 
  219.3750     2.2290    71.9730    79.3270    74.6870    50.8650    24.3560    -1.6650 
  219.5000     2.2460    74.7520    72.2800    67.7430    42.5640    24.3650    -1.7760 
  219.6250     2.2610    74.3930    68.7010    63.7300    47.7920    24.3280    -1.8160 
  219.7500     2.2680    71.5020    67.9100    62.3090    56.4130    24.2860    -1.8550 
  219.8750     2.2660    69.1970    69.7220    63.3730    60.1760    24.2410    -1.9640 
  220.0000     2.2590    69.1030    73.9870    66.7840    56.5350    24.2120    -2.1060 
  220.1250     2.2480    70.3500    80.5490    72.4850    57.9380    24.2600    -2.2740 
  220.2500     2.2360    69.9270    87.9270    79.2480    71.9300    24.3350    -2.4260 
  220.3750     2.2260    67.4310    94.4350    85.6450    91.1670    24.3520    -2.5330 
  220.5000     2.2200    65.6860    98.0760    89.8510    96.3160    24.3520    -2.5940 
  220.6250     2.2210    68.3150    96.7360    89.6740    87.2520    24.3690    -2.5790 
  220.7500     2.2250    72.6890    92.0040    86.0330    78.2040    24.3740    -2.5050 
  220.8750     2.2310    75.0600    86.3700    80.8900    72.4450    24.3780    -2.3730 
  221.0000     2.2380    73.6500    82.4350    76.6400    66.2010    24.3900    -2.2400 
  221.1250     2.2450    70.2270    82.6750    75.7480    61.2200    24.4170    -2.1150 
  221.2500     2.2490    67.8940    87.2330    78.6620    67.5630    24.4640    -2.0200 
  221.3750     2.2430    66.8980    95.9630    85.4440    86.2100    24.4910    -1.9850 
  221.5000     2.2280    65.5760   108.0010    95.5450   102.4330    24.5050    -2.0630 
  221.6250     2.2130    63.3230   121.7840   107.8480   110.3210    24.5180    -2.2340 
  221.7500     2.2040    61.4390   134.9790   120.1380   124.2110    24.5090    -2.4140 
  221.8750     2.2000    61.3180   146.2390   130.9910   147.6360    24.4960    -2.5570 
  222.0000     2.2000    61.7750   155.0280   139.6140   172.6940    24.4880    -2.6370 
  222.1250     2.2020    62.1210   160.7490   145.1520   171.7540    24.4860    -2.6610 
  222.2500     2.2050    61.7320   163.1910   147.4650   166.6450    24.4740    -2.6090 
  222.3750     2.2070    61.0500   161.7050   146.1210   149.3410    24.4960    -2.4800 
  222.5000     2.2090    60.4690   156.7380   141.4980   130.1370    24.5200    -2.2460 
  222.6250     2.2130    58.9660   150.4590   135.2330   119.7810    24.5250    -1.9840 
  222.7500     2.2170    58.9930   146.0260   130.1280   113.0750    24.5410    -1.7550 
  222.8750     2.2180    61.6600   145.3040   128.0440   115.9800    24.5570    -1.5720 
  223.0000     2.2130    63.8810   148.8770   129.7330   129.7430    24.5690    -1.4280 
  223.1250     2.2030    62.4570   156.1260   134.8990   147.2150    24.5720    -1.3460 
  223.2500     2.1920    59.9840   163.7800   140.9090   164.4710    24.5970    -1.3150 
  223.3750     2.1820    60.1320   169.0690   145.4700   184.4230    24.6160    -1.3490 
  223.5000     2.1720    61.6600   170.6440   147.2100   185.6970    24.6220    -1.4400 
  223.6250     2.1680    62.0610   169.8520   146.8720   167.1190    24.5700    -1.4830 
  223.7500     2.1690    61.6870   170.0090   147.1800   152.1750    24.5450    -1.4280 
  223.8750     2.1700    60.5730   171.6960   148.7990   143.9310    24.5400    -1.3370 
  224.0000     2.1670    59.6080   172.3630   149.8190   135.2790    24.5570    -1.2510 
  224.1250     2.1590    60.5950   166.1460   145.5030   164.4000    24.5990    -1.1810 
  224.2500     2.1580    62.0670   152.1650   134.5300   211.5570    24.6410    -1.1440 
  224.3750     2.1710    61.8010   134.0020   119.0850   172.2320    24.6370    -1.1260 
  224.5000     2.1970    60.0940   117.2110   103.6570   139.0410    24.5910    -1.1410 
  224.6250     2.2210    59.5840   106.6470    95.3350    96.9110    24.5430    -1.1870 
  224.7500     2.2280    60.3970   102.0990    96.9140    76.7110    24.4900    -1.2630 
  224.8750     2.2160    61.4400   102.4820    95.7970    74.0300    24.4310    -1.3170 
  225.0000     2.1920    62.0230   106.0760    98.0080    85.0450    24.4250    -1.3490 
  225.1250     2.1650    60.2840   110.8750   101.6840   105.0770    24.4980    -1.3470 
  225.2500     2.1460    57.0360   114.9860   105.0480    95.3530    24.6070    -1.2970 
  225.3750     2.1450    56.5780   117.5670   107.2990    85.6140    24.6480    -1.1960 
  225.5000     2.1630    60.3160   118.1270   107.8430    97.3260    24.5470    -1.0010 
  225.6250     2.1910    63.6860   115.7580   105.7040   108.8140    24.4640    -0.7980 
