~V
VERS. 2.00: Ver 2.00
~W
STRT.M 51.0000:
STOP.M 277.0000:
STEP.M 0.1250:
NULL. -999.2500:
UWI. F11053:
~C
DEPT.M :
GR.API :
RML.OHMM :
RI. :
RXO.OHMM :
CALI.CM :
DEN.GM/CC :
SP.MV :
~A
# ...
  118.5000    90.8610     7.0440     6.3080     6.6290    24.7710     2.2520   -14.8230 
  118.6250    91.4880     6.8930     6.1400     6.7780    24.7720     2.2510   -14.6390 
  118.7500    93.3140     6.7330     6.0070     6.4810    24.8530     2.2770   -14.4970 
  118.8750    95.5520     6.4990     5.8460     5.7120    25.0310     2.3220   -14.3700 
  119.0000    97.4980     6.2230     5.6840     5.1310    25.1880     2.3720   -14.2580 
  119.1250    99.0120     5.9840     5.5740     5.1430    25.2070     2.4050   -14.1590 
  119.2500    99.6150     5.8360     5.5360     5.4910    25.1600     2.4140   -14.0790 
  119.3750    98.9680     5.8000     5.5600     5.6390    25.1250     2.4000   -14.0040 
  119.5000    98.1930     5.8730     5.6260     5.6210    25.1140     2.3730   -13.9360 
  119.6250    98.4310     6.0110     5.7050     5.6800    25.1130     2.3450   -13.8870 
  119.7500    97.5180     6.1710     5.7790     5.8030    25.1130     2.3210   -13.8780 
  119.8750    94.4980     6.3230     5.8390     5.9610    25.1130     2.3050   -13.8970 
  120.0000    92.8040     6.4320     5.8690     5.9960    25.1130     2.2960   -13.9240 
  120.1250    94.4550     6.4800     5.8490     6.0520    25.1130     2.2960   -13.9530 
  120.2500    97.0320     6.4530     5.7650     5.9870    25.1130     2.3000   -13.9750 
  120.3750    97.9830     6.3480     5.6240     5.7980    25.1130     2.3070   -14.0090 
  120.5000    98.0360     6.1770     5.4560     5.6670    25.1030     2.3120   -14.0560 
  120.6250    97.5660     5.9960     5.3120     5.5340    25.0720     2.3150   -14.1330 
  120.7500    97.0220     5.8790     5.2490     5.4180    25.0280     2.3140   -14.1970 
  120.8750    98.2240     5.8970     5.3130     5.4310    24.9970     2.3090   -14.2590 
  121.0000    99.6800     6.1280     5.5450     5.6720    24.9870     2.3000   -14.3150 
  121.1250    96.9680     6.5330     5.9000     6.1710    24.9860     2.2880   -14.3890 
  121.2500    90.3210     7.0030     6.2910     6.8420    24.9860     2.2770   -14.4800 
  121.3750    85.8300     7.3770     6.5990     7.5350    24.9910     2.2710   -14.5690 
  121.5000    86.9850     7.4610     6.6700     7.8230    25.0070     2.2760   -14.6200 
  121.6250    90.6030     7.2470     6.4780     7.5340    25.0310     2.2880   -14.6190 
  121.7500    95.7170     6.8450     6.0900     6.7470    25.0440     2.3040   -14.5950 
  121.8750   101.9760     6.3990     5.6250     6.1910    25.0440     2.3180   -14.5660 
  122.0000   106.3460     6.0470     5.2280     5.7940    25.0340     2.3290   -14.5350 
  122.1250   106.5840     5.8350     4.9730     5.5990    25.0110     2.3370   -14.4830 
  122.2500   102.7570     5.7710     4.8690     5.5810    24.9800     2.3410   -14.4220 
  122.3750    96.6000     5.8380     4.8800     5.8570    24.9430     2.3420   -14.3580 
  122.5000    91.6070     6.0270     4.9760     6.3670    24.9250     2.3370   -14.3270 
  122.6250    89.2760     6.3260     5.1670     6.7100    24.9190     2.3340   -14.3190 
  122.7500    88.6530     6.7720     5.5240     6.8560    24.9200     2.3480   -14.3340 
  122.8750    87.2730     7.4570     6.1450     6.9630    24.9230     2.3850   -14.3760 
  123.0000    83.9950     8.5230     7.1370     8.1540    24.9320     2.4450   -14.4520 
  123.1250    80.2920     9.8440     8.3860    11.2490    24.9520     2.5000   -14.5660 
  123.2500    77.7590    11.0560     9.6070    14.1960    24.9730     2.5240   -14.6950 
  123.3750    75.4580    11.6960    10.3960    14.1560    24.9900     2.5010   -14.8500 
  123.5000    72.9090    11.4330    10.3890    12.1140    25.0190     2.4360   -15.0230 
  123.6250    72.0540    10.6220     9.8070     9.9590    25.0760     2.3600   -15.2120 
  123.7500    72.4490     9.7480     9.0360     8.8230    25.1360     2.2970   -15.4130 
  123.8750    70.6400     9.1350     8.3740     8.5430    25.1750     2.2570   -15.6080 
  124.0000    67.0440     8.8930     7.9820     9.1810    25.2000     2.2370   -15.7770 
  124.1250    66.2600     8.8820     7.8130    10.0500    25.2240     2.2250   -15.9320 
  124.2500    68.0690     8.9670     7.7840     9.9730    25.2340     2.2160   -16.0850 
  124.3750    68.9780     9.0640     7.8280     9.4070    25.2250     2.2080   -16.2510 
  124.5000    67.5230     9.1360     7.9030     8.9430    25.2010     2.2020   -16.4230 
  124.6250    65.8470     9.1750     7.9970     8.8400    25.1860     2.2000   -16.6070 
  124.7500    66.3920     9.1750     8.1090     8.8610    25.1820     2.1980   -16.7860 
  124.8750    68.9820     9.1540     8.2440     8.9820    25.1820     2.1960   -16.9720 
  125.0000    69.1100     9.1840     8.4150     9.0790    25.1820     2.1930   -17.1550 
  125.1250    65.6470     9.3390     8.6210     9.2780    25.1820     2.1940   -17.3390 
  125.2500    62.9600     9.6300     8.8470     9.4280    25.1820     2.1970   -17.5000 
  125.3750    64.5360     9.9780     9.0610     9.5640    25.1820     2.2000   -17.6300 
  125.5000    68.1560    10.2180     9.2100     9.7780    25.1820     2.1990   -17.7150 
  125.6250    69.8680    10.2670     9.2670    10.0260    25.1820     2.1920   -17.7850 
  125.7500    69.1370    10.1540     9.2320    10.0170    25.1800     2.1820   -17.8420 
  125.8750    66.5410     9.9790     9.1360     9.8250    25.1720     2.1730   -17.8870 
  126.0000    63.7650     9.8610     9.0250     9.6550    25.1500     2.1690   -17.9170 
  126.1250    63.6400     9.8350     8.9350     9.6160    25.1270     2.1720   -17.9470 
  126.2500    66.6870     9.8670     8.8840     9.6760    25.1160     2.1810   -17.9950 
  126.3750    69.2940     9.9020     8.8680     9.7850    25.1150     2.1910   -18.0680 
  126.5000    67.5990     9.8940     8.8670     9.8620    25.1250     2.1950   -18.1540 
  126.6250    64.6740     9.8450     8.8610     9.8930    25.1380     2.1940   -18.2220 
  126.7500    64.6420     9.7870     8.8460     9.8860    25.1390     2.1870   -18.2700 
  126.8750    66.5960     9.7540     8.8220     9.9650    25.1210     2.1810   -18.2850 
  127.0000    66.3170     9.7860     8.7950    10.0520    25.0930     2.1780   -18.3140 
  127.1250    64.0520     9.8890     8.7750    10.0660    25.0670     2.1810   -18.3250 
  127.2500    61.9000    10.0630     8.7860    10.0880    25.0660     2.1880   -18.3180 
  127.3750    60.9620    10.2970     8.8580    10.1050    25.0980     2.1990   -18.2650 
  127.5000    61.7560    10.5840     9.0430    10.3850    25.1400     2.2100   -18.2020 
  127.6250    63.8630    10.9150     9.3570    10.8560    25.1920     2.2190   -18.1400 
  127.7500    65.9790    11.2930     9.7920    11.6660    25.2770     2.2220   -18.0940 
  127.8750    67.2280    11.7040    10.3040    13.8080    25.3900     2.2160   -18.0640 
  128.0000    68.0060    12.0570    10.7770    15.7800    25.4670     2.2040   -18.0230 
  128.1250    68.9700    12.2270    11.0800    15.7440    25.4870     2.1920   -17.9740 
  128.2500    68.8900    12.1210    11.1210    13.0990    25.4370     2.1910   -17.9110 
  128.3750    67.5120    11.7420    10.8840    10.9590    25.2980     2.2030   -17.8640 
  128.5000    68.5350    11.1900    10.4300    10.3790    25.1460     2.2240   -17.8040 
  128.6250    73.6700    10.6310     9.9110    10.4900    25.0680     2.2400   -17.7440 
  128.7500    78.0870    10.1660     9.4400    10.6370    25.0470     2.2430   -17.6810 
  128.8750    76.9660     9.8450     9.0800    10.5250    25.0450     2.2320   -17.6200 
  129.0000    73.4050     9.7100     8.8650    10.3040    25.0540     2.2140   -17.5410 
  129.1250    71.5800     9.7290     8.7630    10.2220    25.0730     2.1980   -17.4570 
  129.2500    70.1060     9.8430     8.7390    10.1030    25.0870     2.1890   -17.3650 
  129.3750    67.4190     9.9730     8.7600     9.9010    25.0800     2.1850   -17.2650 
  129.5000    64.7700    10.0240     8.8010     9.5910    25.0680     2.1870   -17.1770 
  129.6250    64.2690     9.9670     8.8380     9.5290    25.0590     2.1890   -17.0860 
