~V
VERS. 2.00: Ver 2.00
~W
STRT.M 53.0000:
STOP.M 276.0000:
STEP.M 0.1250:
NULL. -999.2500:
UWI. F11074:
~C
DEPT.M :
DEN.GM/CC :
SP.MV :
GR.API :
RML.OHMM :
RI. :
RXO.OHMM :
CALI.CM :
~A
   53.0000     2.3700     0.4300    74.8220    26.7940     7.3780    11.5310    23.6090 
   53.1250     2.2730    -3.3970    79.2010    48.9210    18.8480    12.4330    23.6120 
   53.2500     2.2240    -7.1710    82.1720    40.6710    29.4400    12.6230    23.6240 
   53.3750     2.2080   -10.7260    84.2770    20.5020    25.2600    12.4610    23.6490 
   53.5000     2.2070   -13.8200    83.8260    11.2320    15.6600    12.2420    23.6670 
   53.6250     2.2070   -16.1840    80.6270     7.9240    10.2150    12.2010    23.6720 
   53.7500     2.2030   -17.9270    78.0990     6.3890     7.4750    12.2530    23.6720 
   53.8750     2.1970   -19.1860    78.7570     5.7180     6.2500    12.3250    23.6720 
   54.0000     2.1940   -20.1240    81.2470     5.5100     5.8350    12.2260    23.6720 
   54.1250     2.1930   -20.6710    80.2820     5.5690     5.7610    11.9830    23.6720 
   54.2500     2.1870   -20.8740    76.7610     5.7250     5.7820    11.6700    23.6720 
   54.3750     2.1780   -20.8250    75.8150     5.9050     5.8420    11.3500    23.6650 
   54.5000     2.1700   -20.6720    80.0110     6.0570     5.8800    10.8390    23.6230 
   54.6250     2.1670   -20.4960    85.7260     6.1490     5.8510     9.9670    23.5190 
   54.7500     2.1620   -20.3630    88.1120     6.2130     5.7860     9.3890    23.4420 
   54.8750     2.1510   -20.3260    86.4760     6.2890     5.7340     9.2910    23.4790 
   55.0000     2.1350   -20.3410    83.2830     6.4070     5.7390     9.4970    23.5720 
   55.1250     2.1210   -20.4750    79.3340     6.6080     5.8520     9.7940    23.5750 
   55.2500     2.1180   -20.6540    75.3760     6.9010     6.0790    10.6600    23.5510 
   55.3750     2.1350   -20.7610    72.1950     7.3060     6.4260    11.5580    23.5520 
   55.5000     2.1770   -20.6810    70.9960     7.8730     6.9100    12.0500    23.5840 
   55.6250     2.2420   -20.2870    71.0440     8.7590     7.6320    12.7750    23.5590 
   55.7500     2.3220   -19.6210    71.1140     9.9910     8.6210    15.5560    23.4720 
   55.8750     2.4130   -18.8000    72.3160    11.3770     9.7640    22.5300    23.3760 
   56.0000     2.4920   -18.0060    75.2740    12.2550    10.6050    26.8180    23.3700 
   56.1250     2.5070   -17.3920    81.7740    11.4420    10.2620    18.1560    23.5040 
   56.2500     2.4520   -17.0690    90.9790     9.4330     8.8780    10.5190    23.6970 
   56.3750     2.3580   -17.0740    97.8160     7.4350     7.2060     8.1440    23.8280 
   56.5000     2.2700   -17.3880    98.9790     6.2380     5.9390     8.2150    23.8910 
   56.6250     2.2140   -17.9430    94.6550     6.0670     5.4460     8.8050    23.9520 
   56.7500     2.1790   -18.5440    88.5440     6.5030     5.5190     9.5270    24.0470 
   56.8750     2.1510   -19.0300    82.9600     7.2030     5.9200    10.1730    24.1820 
   57.0000     2.1280   -19.2600    80.4970     7.8100     6.3660    10.5680    24.4260 
   57.1250     2.1170   -19.1030    82.6780     8.0300     6.6130    10.7900    24.7290 
   57.2500     2.1220   -18.5730    86.3330     7.9340     6.6380    10.9480    24.9560 
   57.3750     2.1400   -17.7780    88.6360     7.6140     6.4720    10.6950    25.1490 
   57.5000     2.1680   -16.8910    89.2780     7.1660     6.1620     9.5370    25.2890 
   57.6250     2.1970   -16.1050    89.8370     6.7360     5.8030     7.9300    25.3410 
   57.7500     2.2200   -15.5930    90.1310     6.4560     5.5180     7.3190    25.3460 
   57.8750     2.2320   -15.4290    90.7620     6.3880     5.3770     7.2280    25.3060 
   58.0000     2.2340   -15.5590    92.3910     6.5300     5.4030     7.4410    25.1800 
   58.1250     2.2310   -15.7630    92.5540     6.8330     5.5880     8.4250    24.9510 
   58.2500     2.2190   -15.8720    88.8930     7.1480     5.8300     9.7600    24.8450 
   58.3750     2.2030   -15.8630    86.0360     7.3500     6.0310    10.5670    24.8800 
   58.5000     2.1930   -15.7340    89.5840     7.3390     6.0970    10.0150    25.0340 
   58.6250     2.2040   -15.5660    97.8430     7.0740     5.9580     8.2480    25.1130 
   58.7500     2.2230   -15.3430   104.2260     6.7190     5.7110     6.9740    25.1170 
   58.8750     2.2370   -15.0280   107.0960     6.4640     5.5010     6.4660    25.0170 
   59.0000     2.2330   -14.6280   106.2640     6.4830     5.4760     6.8380    24.7760 
   59.1250     2.2100   -14.2310   101.9860     6.8790     5.7530     7.9600    24.4550 
   59.2500     2.1850   -13.9440    99.4330     7.4540     6.2110     9.1590    24.2400 
   59.3750     2.1710   -13.7850    98.5970     7.9570     6.6620     9.4900    24.1690 
   59.5000     2.1740   -13.6990    95.9360     8.1640     6.8990     8.9490    24.2220 
   59.6250     2.1900   -13.5000    94.5470     7.9920     6.7890     8.0960    24.4010 
   59.7500     2.2070   -13.1310    99.5240     7.6670     6.4820     7.6930    24.6450 
   59.8750     2.2250   -12.6240   106.5460     7.3410     6.1130     7.4550    24.7660 
   60.0000     2.2500   -12.0740   110.3440     7.0690     5.7600     7.3550    24.7900 
   60.1250     2.2840   -11.7300   111.5730     6.8370     5.4320     6.6920    24.7900 
   60.2500     2.3200   -11.7130   114.7270     6.6670     5.1370     6.0170    24.7900 
   60.3750     2.3430   -12.0120   118.2100     6.7030     4.9500     5.6620    24.7900 
   60.5000     2.3390   -12.5790   117.8780     7.1910     5.0140     5.9710    24.7900 
   60.6250     2.3040   -13.3780   111.1060     8.5330     5.6080     8.1780    24.7900 
   60.7500     2.2530   -14.2780    98.5260    10.6890     6.8160    12.0840    24.7900 
   60.8750     2.2040   -15.1640    85.5760    13.4420     8.6440    13.5980    24.7900 
   61.0000     2.1790   -15.9590    77.8220    16.3350    10.8900    12.3980    24.7900 
   61.1250     2.1980   -16.5890    74.6890    18.9510    13.2230    12.1750    24.7900 
   61.2500     2.2570   -17.0290    73.5850    21.4870    15.5660    16.2280    24.7900 
   61.3750     2.3460   -17.2960    74.0860    24.1180    18.0380    29.4700    24.7890 
   61.5000     2.4450   -17.4470    77.2780    26.2930    20.3350    61.2070    24.7810 
   61.6250     2.5060   -17.5710    81.8330    25.9560    20.8410    87.2050    24.7360 
   61.7500     2.5040   -17.7510    82.4550    22.4200    18.6980    67.5560    24.6150 
   61.8750     2.4520   -18.0680    80.6940    17.0960    14.8430    35.2530    24.4240 
   62.0000     2.3700   -18.5680    81.0360    12.3360    11.0820    16.6960    24.2810 
   62.1250     2.2860   -19.2640    84.8680     9.7370     8.6610    11.4790    24.2350 
   62.2500     2.2210   -20.0990    86.0620     8.8450     7.4120    10.0930    24.2320 
   62.3750     2.1810   -21.0180    82.6210     9.1420     7.0690    10.0870    24.2470 
   62.5000     2.1540   -21.9300    80.4930    10.1290     7.3660    10.2860    24.2850 
   62.6250     2.1280   -22.7500    82.5410    11.2650     8.0330    11.0340    24.3440 
   62.7500     2.1000   -23.5220    83.2840    11.9960     8.6420    12.1220    24.3690 
   62.8750     2.0770   -24.2530    79.3860    12.0860     8.9310    12.5990    24.3750 
   63.0000     2.0660   -24.9190    72.6920    11.6320     8.8370    12.5030    24.3750 
   63.1250     2.0700   -25.4130    67.8110    10.9600     8.4860    12.3180    24.3850 
   63.2500     2.0780   -25.7240    68.1050    10.4350     8.1380    12.3440    24.4080 
   63.3750     2.0810   -25.8240    71.3770    10.1960     7.9240    12.3760    24.4330 
   63.5000     2.0800   -25.7290    74.6660    10.2200     7.8680    12.3910    24.4420 
   63.6250     2.0850   -25.4630    77.1200    10.3760     7.9100    12.0670    24.4440 
   63.7500     2.0990   -25.0240    79.4130    10.5170     7.9480    11.6420    24.4440 
   63.8750     2.1240   -24.4140    82.0330    10.6260     7.9580    11.8960    24.4460 
   64.0000     2.1590   -23.7320    85.0490    10.7310     7.9600    13.0000    24.4460 
   64.1250     2.2110   -23.1090    88.4300    10.8540     7.9860    16.0630    24.4440 
