~V
VERS. 2.00: Ver 2.00
~W
STRT.M 52.0000:
STOP.M 279.0000:
STEP.M 0.1250:
NULL. -999.2500:
UWI. F11031:
~C
DEPT.M :
DEN.GM/CC :
GR.API :
RML.OHMM :
RI. :
RXO.OHMM :
CALI.CM :
SP.MV :
~A
# ...
  153.2500     2.2960    81.6080     5.1230     3.8110     4.3470    23.9350   -18.6780 
  153.3750     2.2920    79.1930     5.2140     3.8720     4.3060    23.6250   -18.9130 
  153.5000     2.2840    79.9070     5.3700     3.9910     4.2690    23.3740   -19.1480 
  153.6250     2.2740    84.0290     5.6150     4.1810     4.3890    23.5000   -19.3480 
  153.7500     2.2630    88.6740     5.9390     4.4210     4.7530    23.6020   -19.4720 
  153.8750     2.2520    90.3710     6.3070     4.6930     5.1820    23.5900   -19.5170 
  154.0000     2.2400    88.5860     6.6550     4.9710     5.4070    23.5760   -19.4960 
  154.1250     2.2310    86.6870     6.8970     5.2120     5.6160    23.4930   -19.3770 
  154.2500     2.2240    85.6070     7.0270     5.3920     5.6720    23.2050   -19.2120 
  154.3750     2.2200    83.1170     7.0560     5.4940     5.5690    22.6790   -19.0240 
  154.5000     2.2170    79.5940     6.9980     5.5090     5.3650    21.8770   -18.7750 
  154.6250     2.2120    80.8730     6.8420     5.4290     5.1680    21.3100   -18.4960 
  154.7500     2.2040    84.8960     6.6130     5.2820     5.0910    21.1240   -18.2410 
  154.8750     2.1930    84.7470     6.3450     5.0910     5.0610    21.6440   -18.0040 
  155.0000     2.1810    80.4990     6.0950     4.8810     4.9110    22.4420   -17.7800 
  155.1250     2.1700    80.3620     5.9420     4.6990     4.8200    22.9110   -17.5740 
  155.2500     2.1590    85.1120     5.9160     4.5970     4.8530    23.2150   -17.3650 
  155.3750     2.1480    86.8420     6.0410     4.6260     4.8840    23.2980   -17.1420 
  155.5000     2.1390    81.6010     6.3630     4.8310     4.8480    23.5060   -16.9370 
  155.6250     2.1330    76.9740     6.9720     5.2800     5.1860    23.5700   -16.7020 
  155.7500     2.1300    76.5700     7.8080     5.9300     6.0360    23.5870   -16.4430 
  155.8750     2.1270    77.1650     8.7620     6.7220     7.1270    23.5970   -16.1370 
  156.0000     2.1220    77.3100     9.6530     7.5390     7.9580    23.6510   -15.7590 
  156.1250     2.1150    79.0920    10.2220     8.1720     8.4580    23.6200   -15.2980 
  156.2500     2.1080    80.6870    10.4450     8.5120     8.6780    23.5770   -14.7390 
  156.3750     2.1040    78.4620    10.4240     8.5760     8.7380    23.5350   -14.1440 
  156.5000     2.1020    73.9770    10.3100     8.4830     8.7210    23.4680   -13.5610 
  156.6250     2.1000    71.2250    10.2100     8.3650     8.4600    23.3330   -12.9810 
  156.7500     2.0950    70.2710    10.1770     8.3120     8.0200    23.3120   -12.4650 
  156.8750     2.0850    70.7780    10.2330     8.3600     8.3020    23.3060   -12.0270 
  157.0000     2.0730    71.7200    10.3680     8.5030     9.4940    23.1800   -11.6690 
  157.1250     2.0650    72.9730    10.5660     8.7210     9.6070    22.8870   -11.4460 
  157.2500     2.0680    73.9460    10.8110     8.9790     8.5670    22.3130   -11.3420 
  157.3750     2.0860    74.1550    11.0900     9.2680     8.2480    21.4800   -11.2750 
  157.5000     2.1180    73.5590    11.3560     9.5740     8.4610    20.9230   -11.2110 
  157.6250     2.1560    72.0330    11.5260     9.8790     8.6730    21.0170   -11.1310 
  157.7500     2.1870    69.7620    11.5290    10.1340     9.2390    21.2080   -10.9970 
  157.8750     2.2050    67.6360    11.2870    10.2440    10.0990    21.4310   -10.7980 
  158.0000     2.2110    67.9610    10.7880    10.1130    10.0090    21.6730   -10.5510 
  158.1250     2.2090    71.3930    10.0870     9.6850     9.2410    21.7710   -10.2590 
  158.2500     2.2040    75.0080     9.3120     9.0790     8.1290    21.8140    -9.8890 
  158.3750     2.2000    77.4490     8.5510     8.4030     6.9910    21.8780    -9.4900 
  158.5000     2.1970    78.2040     7.8960     7.7670     6.2100    21.9680    -9.0610 
  158.6250     2.2000    79.2000     7.4500     7.2650     6.0260    22.2320    -8.6350 
  158.7500     2.2070    80.7660     7.1650     6.8850     5.9720    22.4100    -8.2650 
  158.8750     2.2190    85.2240     6.9700     6.5970     5.7850    22.6270    -7.9440 
  159.0000     2.2300    90.5930     6.7830     6.3690     5.4660    22.8230    -7.7000 
  159.1250     2.2390    91.1530     6.5670     6.1850     5.4270    23.2390    -7.5100 
  159.2500     2.2440    87.7430     6.4140     6.0600     5.6220    23.5640    -7.3910 
  159.3750     2.2460    84.5780     6.5010     6.0750     5.9180    23.8720    -7.3500 
  159.5000     2.2470    83.8670     7.0490     6.3700     6.0880    24.0590    -7.3880 
  159.6250     2.2490    81.5320     8.4410     7.2290     6.5470    24.1040    -7.4980 
  159.7500     2.2510    75.4300    10.8030     8.8170     7.7520    24.1480    -7.6410 
  159.8750     2.2480    68.4280    14.2680    11.3600    11.0750    24.1700    -7.8300 
  160.0000     2.2400    62.1140    18.7260    14.9780    18.1710    24.0890    -8.0160 
  160.1250     2.2260    58.0050    23.4470    19.4050    28.7950    24.2080    -8.2190 
  160.2500     2.2120    56.8130    26.8790    23.2650    32.4870    24.2610    -8.4400 
  160.3750     2.2040    57.8530    27.8000    25.1410    29.8790    24.2670    -8.6520 
  160.5000     2.2030    59.1990    26.3100    24.6150    24.9400    24.2380    -8.8640 
  160.6250     2.2120    57.8740    24.0120    22.7080    22.9790    24.2730    -9.0430 
  160.7500     2.2270    55.8510    22.7240    21.1670    22.5540    24.3180    -9.2000 
  160.8750     2.2440    55.7380    23.2500    20.8230    20.6360    24.1830    -9.3160 
  161.0000     2.2570    56.9340    26.0230    22.1980    17.7760    24.1310    -9.4250 
  161.1250     2.2580    57.9750    31.7780    26.1880    22.6020    24.0290    -9.5250 
  161.2500     2.2450    58.4970    40.1210    32.7650    36.0580    23.9260    -9.6080 
  161.3750     2.2190    58.2950    54.3800    41.6400    48.2890    24.0960    -9.7010 
  161.5000     2.1880    55.7110    67.0950    51.4800    48.0940    24.4760    -9.7790 
  161.6250     2.1610    52.0150    75.0390    59.2750    46.6270    24.7780    -9.8860 
  161.7500     2.1430    50.0070    77.4600    63.0600    44.4510    24.7610    -9.9930 
  161.8750     2.1330    50.8950    74.9610    62.7370    40.6650    24.4950   -10.0900 
  162.0000     2.1290    55.3790    69.4870    59.4500    33.8050    23.8140   -10.1880 
  162.1250     2.1290    60.7320    62.8000    54.4040    28.1490    23.2560   -10.2820 
  162.2500     2.1290    64.5730    56.4830    49.0930    26.8510    23.0700   -10.3550 
  162.3750     2.1310    66.8370    51.3360    44.3720    26.5780    23.0170   -10.4150 
  162.5000     2.1340    66.7180    47.6890    40.7420    24.4170    22.9740   -10.4620 
  162.6250     2.1420    63.2710    45.7610    38.5860    20.7070    22.5910   -10.4600 
  162.7500     2.1530    59.9600    45.0920    37.6030    18.9680    22.0960   -10.4590 
  162.8750     2.1640    59.3190    45.4540    37.6110    19.0080    21.8280   -10.4430 
  163.0000     2.1740    58.4120    46.6320    38.4350    20.3460    21.8600   -10.4250 
  163.1250     2.1780    56.0940    48.4340    39.9960    22.0900    22.1150   -10.4080 
  163.2500     2.1750    56.4280    50.3430    41.8940    23.0540    22.2770   -10.4000 
  163.3750     2.1690    58.6510    51.7680    43.6530    23.6430    22.3870   -10.4020 
  163.5000     2.1650    61.3490    52.0040    44.6330    25.3170    22.6760   -10.3880 
  163.6250     2.1680    63.1240    50.2090    43.9830    29.0160    23.1850   -10.4060 
  163.7500     2.1770    62.9530    46.7580    41.8130    32.0620    23.5610   -10.3970 
  163.8750     2.1900    61.5200    42.2860    38.5440    31.7600    23.9450   -10.3740 
  164.0000     2.2000    61.3310    37.5570    34.7910    27.6060    23.9860   -10.3450 
  164.1250     2.2040    64.5310    33.1640    31.1110    23.7830    23.7410   -10.2620 
  164.2500     2.2010    69.1080    29.2100    27.7540    22.2800    23.5030   -10.1640 
  164.3750     2.1940    72.0080    25.6940    24.8000    21.0320    23.2280   -10.0580 
