~V
VERS. 2.00: Ver 2.00
~W
STRT.M 51.0000:
STOP.M 252.0000:
STEP.M 0.1250:
NULL. -999.2500:
UWI. F11020:
~C
DEPT.M :
DEN.GM/CC :
GR.API :
RML.OHMM :
RI. :
RXO.OHMM :
CALI.CM :
SP.MV :
~A
# ...
  107.2500     2.1700    64.0390     9.5530     8.1450    10.4350    25.1220   -25.5520 
  107.3750     2.1760    63.2670     9.2790     7.8840     9.7940    25.1220   -25.2350 
  107.5000     2.1830    58.0510     9.0440     7.6610     9.1450    25.1220   -24.8170 
  107.6250     2.1930    56.5410     8.8600     7.4860     8.4810    25.1210   -24.2680 
  107.7500     2.2080    62.9980     8.7100     7.3420     7.7140    25.1130   -23.5730 
  107.8750     2.2300    70.3470     8.5140     7.1560     7.3230    25.1060   -22.7750 
  108.0000     2.2570    75.8610     8.1960     6.8540     7.3830    25.1420   -21.9350 
  108.1250     2.2860    82.3030     7.7450     6.4240     7.2060    25.2480   -21.1150 
  108.2500     2.3110    89.8310     7.2840     5.9860     6.3840    25.3130   -20.3590 
  108.3750     2.3330    94.7630     7.0030     5.7180     5.4050    25.3230   -19.7230 
  108.5000     2.3520    95.9410     7.0180     5.7310     4.8950    25.2740   -19.2860 
  108.6250     2.3710    94.5620     7.3700     6.0670     5.0810    25.1700   -19.1190 
  108.7500     2.3900    91.4990     8.0080     6.6740     6.6760    25.0520   -19.2800 
  108.8750     2.3900    86.5330     8.7030     7.3360     9.4860    24.9870   -19.7070 
  109.0000     2.3520    79.7090     9.2450     7.8530    10.9090    24.9460   -20.3150 
  109.1250     2.2910    72.5830     9.5080     8.1020     9.1130    24.8770   -21.0180 
  109.2500     2.2500    67.4810     9.5750     8.1670     8.4000    24.7880   -21.7560 
  109.3750     2.2500    65.0730     9.7620     8.3450     8.6240    24.7680   -22.4300 
  109.5000     2.2840    64.5400    10.3060     8.8620     9.5630    24.7850   -22.9750 
  109.6250     2.3370    65.9600    11.3130     9.8220    11.2830    24.7380   -23.3370 
  109.7500     2.3810    67.5480    12.7100    11.1520    14.0780    24.6750   -23.4660 
  109.8750     2.3910    67.7680    14.1590    12.5320    16.5470    24.7080   -23.3980 
  110.0000     2.3730    66.9710    15.4120    13.7260    17.7950    24.7950   -23.1580 
  110.1250     2.3540    65.8760    16.4400    14.7050    17.8570    24.8770   -22.7650 
  110.2500     2.3550    64.1570    17.4930    15.7080    17.5050    24.9510   -22.2220 
  110.3750     2.3720    63.0700    18.8500    17.0010    17.9070    24.9870   -21.6070 
  110.5000     2.4050    65.0110    20.4380    18.5120    20.2200    24.9190   -20.9390 
  110.6250     2.4460    69.5970    21.5870    19.6060    24.2210    24.7600   -20.2260 
  110.7500     2.4760    74.5840    21.1030    19.1450    27.6670    24.6140   -19.4880 
  110.8750     2.4700    78.6590    18.7490    16.9030    25.0410    24.5790   -18.7430 
  111.0000     2.4220    82.3140    15.3380    13.6550    16.3480    24.6480   -18.0420 
  111.1250     2.3540    86.1960    12.0730    10.5460     8.6680    24.8140   -17.4370 
  111.2500     2.2970    89.8860     9.7170     8.3020     6.0140    25.0500   -16.9660 
  111.3750     2.2680    92.2980     8.2080     6.8640     5.2700    25.1990   -16.6080 
  111.5000     2.2650    93.1400     7.3650     6.0610     5.2800    25.2280   -16.3720 
  111.6250     2.2820    94.4460     6.9920     5.7060     5.2570    25.1680   -16.2610 
  111.7500     2.3070    97.2500     6.9180     5.6360     5.0020    25.0470   -16.2860 
  111.8750     2.3290    99.5170     6.9520     5.6680     4.8430    24.8840   -16.4070 
  112.0000     2.3460    99.5420     7.0200     5.7330     4.7930    24.7450   -16.5840 
  112.1250     2.3590    98.2950     7.1000     5.8090     4.6750    24.6590   -16.7880 
  112.2500     2.3640    98.3580     7.1880     5.8930     4.6710    24.5990   -17.0230 
  112.3750     2.3540    99.6520     7.2600     5.9620     4.8700    24.5570   -17.2710 
  112.5000     2.3330    99.9130     7.2900     5.9910     5.0240    24.5430   -17.5250 
  112.6250     2.3110    97.5660     7.2630     5.9650     5.0170    24.5570   -17.7810 
  112.7500     2.2950    94.9150     7.1840     5.8900     4.9080    24.6210   -18.0330 
  112.8750     2.2830    96.1460     7.0850     5.7950     4.8520    24.7650   -18.3020 
  113.0000     2.2710    99.8350     6.9950     5.7100     4.8910    24.9850   -18.6040 
  113.1250     2.2610   100.8800     6.9500     5.6670     5.0850    25.2240   -18.9340 
  113.2500     2.2550    97.4580     6.9740     5.6890     5.3100    25.3380   -19.2800 
  113.3750     2.2440    93.9760     7.0490     5.7610     5.3680    25.3600   -19.6560 
  113.5000     2.2250    90.4640     7.1590     5.8660     5.3520    25.3790   -20.0540 
  113.6250     2.2000    86.6560     7.2770     5.9780     5.5590    25.4660   -20.4740 
  113.7500     2.1770    83.6350     7.3790     6.0760     5.8970    25.6470   -20.9100 
  113.8750     2.1690    82.3940     7.4550     6.1480     5.8670    25.8090   -21.3180 
  114.0000     2.1810    82.7530     7.4990     6.1890     5.4540    25.7870   -21.6880 
  114.1250     2.2100    85.3560     7.5130     6.2030     5.1500    25.5670   -22.0290 
  114.2500     2.2460    89.3100     7.5130     6.2030     5.2390    25.3250   -22.3380 
  114.3750     2.2730    89.5240     7.5170     6.2070     5.4890    25.1360   -22.6230 
  114.5000     2.2870    86.0170     7.5320     6.2210     5.6780    25.0040   -22.8970 
  114.6250     2.2920    83.2770     7.5750     6.2620     5.6470    24.9700   -23.1750 
  114.7500     2.2850    83.9040     7.6870     6.3680     5.5580    25.0100   -23.4550 
  114.8750     2.2680    85.5610     7.8890     6.5610     5.6600    25.0380   -23.7730 
  115.0000     2.2390    85.8040     8.1790     6.8380     6.2360    25.0480   -24.1280 
  115.1250     2.2050    84.5760     8.5160     7.1580     7.0640    25.0660   -24.5010 
  115.2500     2.1720    83.0070     8.8130     7.4410     7.3340    25.1250   -24.8710 
  115.3750     2.1460    81.0570     9.0070     7.6260     7.1270    25.1920   -25.2140 
  115.5000     2.1310    77.9820     9.0970     7.7120     7.0030    25.1750   -25.5090 
  115.6250     2.1270    74.3640     9.1230     7.7360     7.0400    25.0700   -25.7480 
  115.7500     2.1330    71.7670     9.1250     7.7380     7.1730    24.9600   -25.9330 
  115.8750     2.1460    69.8080     9.1280     7.7410     7.3780    24.8760   -26.0390 
  116.0000     2.1600    69.1580     9.1280     7.7410     7.9260    24.7700   -26.0650 
  116.1250     2.1720    72.2310     9.1050     7.7190     9.2800    24.6080   -26.0090 
  116.2500     2.1790    77.0750     9.0310     7.6490    10.8050    24.4700   -25.8930 
  116.3750     2.1810    79.1580     8.9070     7.5310    10.5850    24.5710   -25.7360 
  116.5000     2.1800    79.4890     8.7340     7.3660     8.7180    24.8750   -25.5570 
  116.6250     2.1790    80.5980     8.5220     7.1640     7.4070    25.1660   -25.3780 
  116.7500     2.1810    81.2940     8.2940     6.9470     6.8550    25.2490   -25.2340 
  116.8750     2.1850    79.2990     8.0890     6.7520     6.5940    25.2280   -25.1600 
  117.0000     2.1930    76.3990     7.9230     6.5930     6.5500    25.2000   -25.1720 
  117.1250     2.2030    75.3760     7.7970     6.4730     6.5890    25.1910   -25.2870 
  117.2500     2.2100    76.7460     7.7110     6.3900     6.6540    25.1940   -25.5180 
  117.3750     2.2120    77.6530     7.6560     6.3390     6.7100    25.2060   -25.8380 
  117.5000     2.2130    75.6400     7.6430     6.3260     6.7280    25.2280   -26.2430 
  117.6250     2.2120    72.6420     7.6850     6.3670     6.6720    25.2430   -26.7190 
  117.7500     2.2050    73.5560     7.7990     6.4760     6.7250    25.2310   -27.2310 
  117.8750     2.1920    76.3640     7.9700     6.6380     7.0650    25.2040   -27.7410 
  118.0000     2.1770    76.2490     8.1770     6.8350     7.5410    25.1710   -28.2060 
  118.1250     2.1680    73.6220     8.3950     7.0430     7.9770    25.1080   -28.6000 
  118.2500     2.1680    73.3720     8.5800     7.2190     8.2280    25.0170   -28.8830 
  118.3750     2.1700    74.2040     8.6860     7.3200     8.3700    24.9960   -29.0740 
