~V
VERS. 2.00: Ver 2.00
~W
STRT.M 52.0000:
STOP.M 269.0000:
STEP.M 0.1250:
NULL. -999.2500:
UWI. F11071:
~C
DEPT.M :
GR.API :
RML.OHMM :
RI. :
RXO.OHMM :
CALI.CM :
DEN.GM/CC :
SP.MV :
~A
# ...
  164.5000    63.5870    16.2110    13.6340    13.2380    24.5040     2.5020    -1.6100 
  164.6250    65.9360    15.7130    13.1370    13.1800    24.6170     2.5120    -1.5570 
  164.7500    64.7920    15.4300    12.7670    13.2220    24.7610     2.5220    -1.5120 
  164.8750    61.3390    15.4480    12.6160    13.0990    24.7670     2.5350    -1.4820 
  165.0000    59.6830    15.7690    12.7520    13.1840    24.6980     2.5560    -1.4270 
  165.1250    61.8440    16.2810    13.2270    13.6380    24.6370     2.5860    -1.3520 
  165.2500    64.0550    16.6590    13.8250    14.7350    24.5870     2.6180    -1.2960 
  165.3750    64.0720    16.5550    14.1950    16.3920    24.5520     2.6350    -1.2760 
  165.5000    64.2840    15.6820    13.9010    18.4900    24.5350     2.6250    -1.2870 
  165.6250    68.7100    13.8900    12.5730    18.3740    24.5490     2.5780    -1.3090 
  165.7500    75.8420    11.6640    10.6630    14.8310    24.6240     2.5110    -1.2810 
  165.8750    83.3970     9.4770     8.6890     9.6650    24.7060     2.4410    -1.2010 
  166.0000    91.0900     7.7140     7.0330     6.9790    24.7550     2.3850    -1.1160 
  166.1250    97.8390     6.6310     5.9160     5.7530    24.7470     2.3540    -1.0940 
  166.2500   101.7530     6.0530     5.2240     5.1500    24.7560     2.3410    -1.1160 
  166.3750   103.0230     5.8160     4.8700     4.8040    24.8010     2.3390    -1.1550 
  166.5000   103.4920     5.7640     4.7540     4.7290    24.8690     2.3410    -1.2190 
  166.6250   102.6750     5.7890     4.7850     4.7560    24.9150     2.3440    -1.3220 
  166.7500   101.8070     5.8280     4.8590     4.8230    24.9450     2.3490    -1.4850 
  166.8750   101.4960     5.8600     4.9320     4.9250    24.9780     2.3550    -1.6760 
  167.0000   100.3870     5.8740     4.9780     4.9290    25.0050     2.3590    -1.8540 
  167.1250    98.9150     5.8640     4.9870     4.8550    24.9910     2.3560    -2.0040 
  167.2500    98.8650     5.8480     4.9770     4.8730    25.0200     2.3460    -2.1350 
  167.3750   100.2790     5.8460     4.9650     4.9700    25.0960     2.3310    -2.2430 
  167.5000    99.7730     5.8670     4.9610     4.9450    25.1670     2.3170    -2.3300 
  167.6250    97.5830     5.8970     4.9540     4.8370    25.1820     2.3120    -2.4280 
  167.7500    98.5290     5.9010     4.9290     4.8010    25.1740     2.3170    -2.4950 
  167.8750   101.7760     5.8540     4.8740     4.9060    25.1780     2.3280    -2.5070 
  168.0000   103.6530     5.7500     4.7870     4.9800    25.1810     2.3400    -2.5070 
  168.1250   103.2770     5.6030     4.6790     4.8450    25.1680     2.3460    -2.4770 
  168.2500   104.0480     5.4630     4.5700     4.8050    25.1400     2.3480    -2.4130 
  168.3750   105.1540     5.3810     4.4740     4.7870    25.1190     2.3450    -2.3530 
  168.5000   103.6040     5.4010     4.4070     4.7110    25.0880     2.3420    -2.3300 
  168.6250   100.9940     5.5540     4.3900     4.6100    25.0310     2.3400    -2.3300 
  168.7500   101.0420     5.7870     4.4240     4.6210    25.0000     2.3420    -2.3430 
  168.8750   102.3670     6.0430     4.5140     4.7640    24.9670     2.3500    -2.3640 
  169.0000   102.7790     6.2680     4.6590     4.9400    24.9010     2.3620    -2.3300 
  169.1250   103.3490     6.4110     4.8550     5.2170    24.8520     2.3760    -2.2850 
  169.2500   105.9360     6.4770     5.0660     5.6150    24.9190     2.3880    -2.2780 
  169.3750   106.7490     6.4870     5.2560     6.0560    25.0720     2.3960    -2.3000 
  169.5000   102.4680     6.4920     5.3970     6.3980    25.1720     2.3980    -2.3120 
  169.6250    98.1940     6.5860     5.4890     6.4120    25.1910     2.3950    -2.2620 
  169.7500    98.0330     6.8290     5.5960     6.0830    25.1720     2.3890    -2.1930 
  169.8750   101.6740     7.2430     5.7850     5.9730    25.1230     2.3810    -2.1520 
  170.0000   104.5910     7.7950     6.1010     6.2810    25.0720     2.3700    -2.1840 
  170.1250   103.3080     8.4070     6.5610     7.2200    25.0440     2.3630    -2.2650 
  170.2500   100.2610     8.9630     7.0770     8.4850    25.0360     2.3670    -2.3270 
  170.3750    98.6690     9.3840     7.5480     9.1780    24.9880     2.3850    -2.3760 
  170.5000    98.9730     9.6350     7.8810     8.9110    24.9140     2.4160    -2.4280 
  170.6250    95.7400     9.7230     8.0190     8.1230    24.8830     2.4500    -2.5180 
  170.7500    91.4540     9.7510     8.0430     8.0380    24.9100     2.4740    -2.6510 
  170.8750    91.8320     9.7690     8.0200     7.9270    24.9230     2.4780    -2.8290 
  171.0000    95.1470     9.7720     7.9910     7.7880    24.9100     2.4600    -2.9710 
  171.1250    95.3580     9.7200     7.9580     7.6850    24.8960     2.4250    -2.9620 
  171.2500    91.7250     9.6420     7.9160     8.0120    24.9310     2.3890    -2.8580 
  171.3750    88.5750     9.6420     7.8880     8.1070    25.0080     2.3660    -2.6810 
  171.5000    88.1710     9.8450     7.9330     7.9540    25.1130     2.3610    -2.4770 
  171.6250    90.0080    10.3720     8.1570     7.7620    25.1740     2.3730    -2.2720 
  171.7500    91.5060    11.1330     8.5720     8.5130    25.1110     2.3900    -2.0130 
  171.8750    91.6710    12.0150     9.1510     9.7640    24.9730     2.4020    -1.6800 
  172.0000    91.3050    12.9010     9.8220    10.9320    24.8900     2.4080    -1.4030 
  172.1250    89.3380    13.7210    10.5010    11.7530    24.9310     2.4060    -1.3380 
  172.2500    85.1710    14.5100    11.1610    12.6020    25.0600     2.3980    -1.4300 
  172.3750    82.7230    15.3250    11.8400    13.0270    25.1680     2.3860    -1.6410 
  172.5000    83.6840    16.1980    12.5850    13.7310    25.1640     2.3730    -1.9090 
  172.6250    84.9960    17.1100    13.4020    14.6030    25.0920     2.3640    -2.1980 
  172.7500    84.0310    18.0360    14.2230    16.7740    25.0630     2.3610    -2.5290 
  172.8750    83.4380    19.0680    15.0460    18.0950    25.0900     2.3610    -2.9100 
  173.0000    84.8110    20.4750    16.0100    16.8270    25.1160     2.3580    -3.3190 
  173.1250    86.0510    22.8880    17.5690    16.8290    25.1240     2.3450    -3.7590 
  173.2500    84.9280    26.6210    20.1500    18.3660    25.1140     2.3220    -4.2250 
  173.3750    81.0750    31.7300    24.1390    24.4780    25.0910     2.2950    -4.7430 
  173.5000    76.6240    37.6020    29.4870    37.9340    25.0730     2.2670    -5.3210 
  173.6250    73.6180    42.4290    34.9930    55.2820    25.0780     2.2450    -5.9220 
  173.7500    70.5240    44.5970    38.4540    57.1800    25.1180     2.2330    -6.5110 
  173.8750    68.3490    43.7010    38.6920    43.0700    25.1730     2.2310    -7.0820 
  174.0000    70.4220    40.7720    36.3970    27.4940    25.1620     2.2400    -7.5980 
  174.1250    76.4460    37.7080    33.5350    18.8670    25.0780     2.2560    -7.9820 
  174.2500    79.7860    35.7460    31.6500    16.5460    24.9970     2.2720    -8.3060 
  174.3750    80.1650    34.8820    30.9680    20.3460    24.9910     2.2860    -8.5650 
  174.5000    80.0480    34.4720    30.9960    27.0140    25.0540     2.3010    -8.7150 
  174.6250    80.3050    33.6210    30.7330    30.3710    25.0330     2.3170    -8.7740 
  174.7500    81.0500    32.0990    29.5980    30.5440    24.9160     2.3350    -8.8270 
  174.8750    82.7770    30.2980    27.8380    29.1990    24.7750     2.3490    -8.8580 
  175.0000    83.9640    29.1230    26.2650    26.1840    24.6910     2.3520    -8.8670 
  175.1250    84.2660    30.4700    26.1190    22.4500    24.6740     2.3370    -8.9510 
  175.2500    84.0160    34.9740    28.1150    21.4240    24.6850     2.3100    -9.0660 
  175.3750    83.4100    42.5260    32.9180    29.5300    24.7040     2.2810    -9.1800 
  175.5000    81.5440    52.4940    40.8730    45.5310    24.7120     2.2610    -9.3070 
  175.6250    78.3900    63.8710    51.7010    61.4680    24.7270     2.2600    -9.4550 
