~V
VERS. 2.00: Ver 2.00
~W
STRT.M 54.0000:
STOP.M 281.0000:
STEP.M 0.1250:
NULL. -999.2500:
UWI. F11055:
~C
DEPT.M :
SP.MV :
GR.API :
RML.OHMM :
RI. :
RXO.OHMM :
CALI.CM :
DEN.GM/CC :
~A
# ...
  234.0000    -4.0620   115.1430     7.8610     5.7360     7.1410    24.5370     2.3360 
  234.1250    -3.8510   114.1210     8.4840     5.9800     7.6690    24.5380     2.3570 
  234.2500    -3.6740   108.8770    10.2260     6.8680     9.2360    24.5430     2.3770 
  234.3750    -3.5330   101.1480    13.7790     8.7850    12.3720    24.5420     2.3900 
  234.5000    -3.4140    94.0880    20.1130    12.4150    16.4680    24.5340     2.4010 
  234.6250    -3.3420    86.3120    31.1820    19.5380    29.1070    24.5310     2.3980 
  234.7500    -3.2980    77.2190    46.9920    30.9040    64.1970    24.5320     2.3580 
  234.8750    -3.2720    69.4160    66.1250    46.1050   103.1010    24.5240     2.2870 
  235.0000    -3.2790    64.2890    84.1540    62.0210    99.9270    24.4980     2.2220 
  235.1250    -3.2820    61.8170    94.1440    73.0880   102.6050    24.4280     2.1980 
  235.2500    -3.2670    60.9410    96.5130    78.3150   135.8970    24.3910     2.1970 
  235.3750    -3.2380    61.2270    94.6220    79.3470   166.4050    24.3790     2.1980 
  235.5000    -3.1990    62.9070    91.0580    78.0020   163.3960    24.3660     2.1920 
  235.6250    -3.1440    65.8300    85.4950    74.2810   107.5250    24.3480     2.1810 
  235.7500    -3.0980    67.9800    77.4370    68.0980    83.0600    24.3530     2.1700 
  235.8750    -3.0610    68.4980    67.7040    60.0540    68.4800    24.3590     2.1660 
  236.0000    -3.0150    69.5400    58.1230    51.7050    55.6350    24.3370     2.1720 
  236.1250    -2.9680    73.2250    50.6240    44.8780    47.9440    24.3380     2.1820 
  236.2500    -2.9330    76.7790    45.3740    39.9620    42.7250    24.3390     2.1890 
  236.3750    -2.9250    77.5790    41.9750    36.6810    40.4420    24.2920     2.1940 
  236.5000    -2.9360    76.3420    39.6930    34.4310    40.5790    24.2470     2.2000 
  236.6250    -2.9770    75.6070    37.8600    32.6830    42.4350    24.2300     2.2060 
  236.7500    -3.0330    76.3920    36.2090    31.1650    41.2890    24.2090     2.2080 
  236.8750    -3.1030    77.3230    35.1150    30.0970    36.7010    24.1730     2.2060 
  237.0000    -3.1910    77.4460    35.2180    29.9180    30.8500    24.1320     2.1990 
  237.1250    -3.3070    76.4590    37.4410    31.3750    29.8560    24.1280     2.1810 
  237.2500    -3.4560    74.8140    41.6010    34.5040    38.9950    24.1410     2.1540 
  237.3750    -3.5970    72.9680    47.1460    39.0750    51.4890    24.1440     2.1310 
  237.5000    -3.7580    71.2320    52.8590    44.2420    58.8080    24.1380     2.1280 
  237.6250    -3.9320    71.2760    56.6510    48.2710    58.5140    24.1500     2.1520 
  237.7500    -4.1180    72.7680    57.6650    50.0510    60.3310    24.1260     2.1870 
  237.8750    -4.3180    75.0890    56.2770    49.5610    64.0410    24.0590     2.2190 
  238.0000    -4.5020    76.9090    53.7130    47.6810    74.3820    24.0400     2.2360 
  238.1250    -4.6650    76.5430    51.1510    45.4420    69.4820    24.0860     2.2310 
  238.2500    -4.7740    75.0850    48.9220    43.3590    54.5010    24.1010     2.2190 
  238.3750    -4.8630    74.3570    46.8560    41.4000    40.1490    24.0830     2.2110 
  238.5000    -4.9290    76.0100    44.7830    39.4450    29.6100    24.0140     2.2090 
  238.6250    -4.9270    77.7350    42.7130    37.4710    24.8620    23.9430     2.2060 
  238.7500    -4.9320    77.3560    40.8670    35.6440    24.4770    23.9530     2.2030 
  238.8750    -4.8630    75.1980    39.5830    34.2440    25.7040    24.0630     2.2070 
  239.0000    -4.8120    72.4760    39.2600    33.6060    26.7080    24.2080     2.2200 
  239.1250    -4.7420    73.4540    40.6080    34.3090    28.1910    24.2930     2.2360 
  239.2500    -4.7420    75.8380    43.8430    36.5560    29.8750    24.3480     2.2440 
  239.3750    -4.7280    75.2500    49.3230    40.7070    31.0090    24.3450     2.2430 
  239.5000    -4.7510    70.7450    57.2080    47.0140    36.2370    24.3210     2.2360 
  239.6250    -4.7430    67.2920    67.2890    55.5230    54.2320    24.3710     2.2290 
  239.7500    -4.7230    66.7520    77.7450    64.7760    89.1540    24.4560     2.2260 
  239.8750    -4.7080    66.0480    86.6640    73.1500   124.1990    24.4810     2.2250 
  240.0000    -4.6400    63.7860    92.4780    79.1760   127.0500    24.5040     2.2170 
  240.1250    -4.5040    61.6880    94.4370    81.8940   125.9810    24.5050     2.2120 
  240.2500    -4.3040    61.1030    94.3320    82.5390    91.0290    24.5010     2.2280 
  240.3750    -4.0810    61.4850    93.5620    82.2660    63.4740    24.5310     2.2600 
  240.5000    -3.8520    61.4940    93.0230    81.9860    74.4470    24.5860     2.2850 
  240.6250    -3.6110    62.4400    92.8180    82.0240    88.3220    24.6670     2.2690 
  240.7500    -3.3670    67.6120    92.2560    81.9090    79.7010    24.6650     2.2290 
  240.8750    -3.1320    75.5890    90.4620    80.9810    72.3790    24.6110     2.1970 
  241.0000    -2.9360    82.1500    86.6620    78.6810    78.4020    24.5170     2.1960 
  241.1250    -2.8080    85.6070    80.2500    74.4410    89.4740    24.3970     2.2240 
  241.2500    -2.7130    86.2680    72.2730    68.7660    77.5150    24.3230     2.2600 
  241.3750    -2.6140    84.5170    63.9190    62.3650    59.7330    24.3000     2.2980 
  241.5000    -2.4960    81.5680    56.3960    56.1770    50.9520    24.3140     2.3400 
  241.6250    -2.4300    79.2270    50.8030    51.2240    46.1580    24.2930     2.3840 
  241.7500    -2.3310    77.1240    47.0570    47.7240    40.5170    24.3250     2.4130 
  241.8750    -2.2640    73.9510    44.9130    45.6370    37.9690    24.3680     2.4160 
  242.0000    -2.1960    71.5530    43.8830    44.6020    42.6290    24.3850     2.3980 
  242.1250    -2.1370    70.6750    43.3300    44.0250    56.2580    24.3900     2.3680 
  242.2500    -2.0770    70.6660    42.6310    43.2900    61.2910    24.3970     2.3420 
  242.3750    -2.0630    72.6440    41.6360    42.2470    51.4170    24.3890     2.3340 
  242.5000    -2.0370    77.4560    40.4730    41.0110    45.2990    24.3640     2.3480 
  242.6250    -2.0660    81.7830    39.5650    39.9450    38.8930    24.3400     2.3660 
  242.7500    -2.0800    81.6200    39.3340    39.4400    36.9900    24.3420     2.3620 
  242.8750    -2.0980    78.5250    40.0500    39.7400    43.2290    24.4020     2.3360 
  243.0000    -2.1160    76.0970    41.8750    40.9800    50.9030    24.4940     2.3120 
  243.1250    -2.1580    75.5360    45.3610    43.6590    54.1160    24.5180     2.3150 
  243.2500    -2.1800    75.9410    50.8650    48.1820    52.4570    24.5290     2.3470 
  243.3750    -2.2100    76.9430    59.0540    55.2770    54.0820    24.5390     2.4060 
  243.5000    -2.2130    79.1930    70.4400    65.5270    60.0310    24.5440     2.4860 
  243.6250    -2.1880    81.1130    85.0850    79.0240    97.2010    24.5340     2.5670 
  243.7500    -2.1820    80.0210   100.0290    92.9560   139.6080    24.5330     2.6170 
  243.8750    -2.1620    77.4640   111.0660   103.6210   150.1040    24.5360     2.6170 
  244.0000    -2.1330    76.8940   114.3670   107.6860   144.6310    24.5340     2.5820 
  244.1250    -2.0890    80.8720   108.8890   103.6050   121.3100    24.5360     2.5460 
  244.2500    -2.0320    85.3920   100.0280    95.5350   106.1980    24.5070     2.5230 
  244.3750    -1.9620    86.3370    91.1790    86.6220    99.7030    24.4410     2.5080 
  244.5000    -1.9610    83.6370    83.9000    78.8060    98.1770    24.3940     2.4980 
  244.6250    -1.8910    78.5340    79.0750    73.3320    85.4410    24.4040     2.5000 
  244.7500    -1.8600    75.3670    76.9060    70.4450    77.0610    24.4540     2.5150 
  244.8750    -1.8110    74.6280    78.1410    70.7600    71.6780    24.5070     2.5390 
  245.0000    -1.7900    74.2560    83.6550    75.0550    72.6550    24.5290     2.5710 
  245.1250    -1.7460    74.0480    95.3100    85.2380    92.1470    24.5230     2.6050 
