~V
VERS. 2.00: Ver 2.00
~W
STRT.M 55.0000:
STOP.M 276.0000:
STEP.M 0.1250:
NULL. -999.2500:
UWI. F11046:
~C
DEPT.M :
GR.API :
RML.OHMM :
RI. :
RXO.OHMM :
CALI.CM :
DEN.GM/CC :
SP.MV :
~A
# ...
  223.7500    66.2260   135.0100   125.2230   128.0700    24.3840     2.2300   -21.3450 
  223.8750    65.6010   140.6000   131.0010   128.5270    24.4460     2.2260   -21.3080 
  224.0000    64.9460   143.0660   133.4420   121.5470    24.5840     2.2230   -21.1620 
  224.1250    64.9430   141.4420   131.4060   125.1770    24.7120     2.2210   -20.9530 
  224.2500    65.3310   137.4040   126.8040   123.9330    24.7640     2.2220   -20.9270 
  224.3750    64.5000   132.3850   121.2100   109.7070    24.7730     2.2230   -20.8410 
  224.5000    63.4080   127.4790   115.6880    93.0960    24.7730     2.2240   -20.7160 
  224.6250    64.3490   123.4400   110.8210    94.9950    24.7730     2.2250   -20.6560 
  224.7500    66.5130   120.5090   106.8320   105.0460    24.7730     2.2260   -20.5660 
  224.8750    66.8020   119.0570   104.1700    98.8130    24.7720     2.2290   -20.3890 
  225.0000    64.7140   119.5430   103.3980    86.5080    24.7630     2.2360   -20.2700 
  225.1250    63.9990   122.9020   105.5470    87.5030    24.7440     2.2470   -20.1270 
  225.2500    64.3770   129.0850   110.7300    96.0600    24.7410     2.2560   -19.7580 
  225.3750    63.7690   138.0280   119.1380   105.5680    24.7730     2.2590   -19.3520 
  225.5000    62.2630   149.1370   130.2930   111.6510    24.7640     2.2510   -18.9700 
  225.6250    61.7850   161.3540   142.9350   115.5560    24.6680     2.2320   -18.4930 
  225.7500    61.4730   172.9310   155.4030   109.0660    24.5710     2.2130   -17.9910 
  225.8750    60.3530   181.1820   166.6110    92.5650    24.5360     2.2080   -17.5300 
  226.0000    59.8250   181.0070   173.3400    95.8410    24.6470     2.2330   -16.9930 
  226.1250    59.8310   163.8730   165.2590   120.9890    24.8200     2.2910   -16.4080 
  226.2500    59.9550   132.6350   138.9260   135.1560    24.8870     2.3600   -15.8180 
  226.3750    61.3330    95.4910   100.8360   142.2500    24.8370     2.4190   -15.1820 
  226.5000    65.1180    62.2200    64.2380    91.4570    24.8140     2.4530   -14.6000 
  226.6250    70.2990    38.0070    39.8980    41.1440    24.8680     2.4560   -14.0770 
  226.7500    75.0490    25.2170    25.7990    18.4540    24.9460     2.4440   -13.5020 
  226.8750    78.9120    18.7390    18.5580    13.4350    24.9960     2.4280   -13.0180 
  227.0000    81.1720    16.5240    15.3660    13.5700    25.0180     2.4110   -12.7080 
  227.1250    81.2510    17.6000    15.1170    13.7420    25.0220     2.3920   -12.5130 
  227.2500    79.7330    21.0030    17.0910    17.6680    25.0190     2.3670   -12.5500 
  227.3750    77.0820    26.5770    21.4940    25.8280    25.0010     2.3400   -12.7600 
  227.5000    74.1200    33.8610    28.3980    37.0780    24.9680     2.3220   -12.9400 
  227.6250    71.0960    41.6950    37.0690    48.0680    24.9740     2.3190   -13.2440 
  227.7500    67.1870    48.2230    44.9200    53.3220    25.0230     2.3210   -13.6480 
  227.8750    64.9700    52.1670    49.9660    52.3190    25.0340     2.3180   -13.9470 
  228.0000    66.9030    53.1790    51.6630    47.3790    24.9610     2.3110   -14.1490 
  228.1250    69.8070    51.6680    50.4470    44.4360    24.9250     2.3200   -14.2950 
  228.2500    69.2500    49.1870    47.9000    46.8290    25.0080     2.3610   -14.2460 
  228.3750    66.0940    46.4950    44.8890    53.7990    25.1290     2.4370   -14.0560 
  228.5000    63.9440    43.8190    41.9280    59.8130    25.1100     2.5340   -13.8980 
  228.6250    64.1130    40.7300    38.8640    52.2880    24.9440     2.6220   -13.6450 
  228.7500    65.6160    36.6840    35.0420    40.3770    24.8520     2.6780   -13.3250 
  228.8750    68.0110    31.4810    30.0250    55.1980    24.7800     2.6880   -13.1320 
  229.0000    71.5830    25.5160    24.0660    64.3340    24.6840     2.6540   -13.0190 
  229.1250    78.0630    19.8040    18.3310    37.1630    24.6070     2.5850   -12.9100 
  229.2500    82.7430    15.1920    13.8010    16.2010    24.5460     2.5120   -12.8210 
  229.3750    80.2730    11.9930    10.6800     9.7820    24.5020     2.4550   -12.7420 
  229.5000    75.5560    10.1210     8.7720     7.9190    24.4280     2.4250   -12.6780 
  229.6250    79.1250     9.4010     7.9090     7.3990    24.3720     2.4190   -12.6300 
  229.7500    85.2130     9.2720     7.6620     7.4180    24.3030     2.4270   -12.5460 
  229.8750    84.3420     9.4170     7.7890     7.5450    24.2290     2.4420   -12.3570 
  230.0000    78.6100     9.6010     8.0520     7.6140    24.1760     2.4570   -12.0730 
  230.1250    76.8910     9.6830     8.2620     7.7690    24.1950     2.4670   -11.7710 
  230.2500    78.6290     9.6790     8.3760     7.8760    24.3290     2.4670   -11.6160 
  230.3750    83.4490     9.6450     8.4300     7.9190    24.5330     2.4590   -11.6250 
  230.5000    92.3260     9.6300     8.4670     8.0400    24.6660     2.4450   -11.6520 
  230.6250   102.2000     9.6600     8.5110     8.4310    24.7190     2.4330   -11.7360 
  230.7500   108.2330     9.7150     8.5510     8.9130    24.7270     2.4280   -11.8690 
  230.8750   112.7560     9.7620     8.5670     9.0270    24.6950     2.4280   -11.9610 
  231.0000   118.8120     9.7650     8.5320     8.8060    24.6570     2.4330   -12.0800 
  231.1250   120.6350     9.6840     8.4150     8.4740    24.6560     2.4370   -12.2810 
  231.2500   117.0700     9.5280     8.2290     8.4560    24.6610     2.4410   -12.3510 
  231.3750   113.1340     9.3400     7.9990     8.5060    24.6570     2.4430   -12.2020 
  231.5000   113.7000     9.2060     7.7840     8.4230    24.6320     2.4450   -11.9640 
  231.6250   118.2320     9.2890     7.7160     8.0640    24.6340     2.4490   -11.6980 
  231.7500   122.2840     9.6640     7.8980     7.8650    24.6340     2.4580   -11.5090 
  231.8750   123.0120    10.3330     8.3890     8.1300    24.6370     2.4710   -11.5300 
  232.0000   118.9260    11.1680     9.1550     9.2930    24.6370     2.4860   -11.6030 
  232.1250   111.7490    11.8640     9.9870    11.5390    24.6370     2.4950   -11.5210 
  232.2500   105.5420    12.1430    10.5150    13.3280    24.6320     2.4930   -11.3810 
  232.3750   102.7460    11.8950    10.4840    12.7970    24.6200     2.4800   -11.2310 
  232.5000   104.2280    11.2270     9.9110    10.1550    24.5970     2.4620   -11.0910 
  232.6250   109.3200    10.4310     9.0730     8.4550    24.6190     2.4520   -10.9410 
  232.7500   113.3380     9.8210     8.3360     8.0160    24.6460     2.4530   -10.6420 
  232.8750   113.6260     9.5100     7.8380     8.1390    24.6670     2.4600   -10.1690 
  233.0000   111.0910     9.4710     7.5950     8.3030    24.6440     2.4630    -9.6320 
  233.1250   109.3740     9.6260     7.5550     8.3940    24.6150     2.4570    -9.1640 
  233.2500   109.2390     9.9110     7.6080     8.5050    24.6230     2.4470    -8.8900 
  233.3750   108.3190    10.4570     7.7720     8.3810    24.6580     2.4400    -8.8320 
  233.5000   104.7480    11.5830     8.2050     8.2850    24.6920     2.4400    -8.8630 
  233.6250    98.4810    14.0470     9.3610     9.1780    24.7010     2.4410    -9.0420 
  233.7500    91.7220    18.3400    11.7090    12.1610    24.6690     2.4310    -9.4370 
  233.8750    85.6850    25.0300    16.0240    18.9600    24.6100     2.4070    -9.9370 
  234.0000    80.1090    34.3750    23.1650    40.7740    24.5930     2.3730   -10.5480 
  234.1250    73.2810    45.8350    33.8290    71.8310    24.6430     2.3400   -11.3300 
  234.2500    67.1690    56.7040    45.5400    85.3370    24.7010     2.3160   -12.0890 
  234.3750    66.0560    64.4220    54.8530    73.9410    24.7310     2.3030   -12.7370 
  234.5000    69.2070    67.7660    59.4380    62.6090    24.7500     2.2960   -13.3800 
  234.6250    71.0670    67.5050    59.7430    57.5110    24.8170     2.2900   -13.9620 
  234.7500    69.1050    66.6410    59.1570    59.2410    24.8850     2.2810   -14.3620 
  234.8750    64.7600    66.4370    59.1550    63.1970    24.9270     2.2700   -14.7070 
