~V
VERS. 2.00: Ver 2.00
~W
STRT.M 55.0000:
STOP.M 277.0000:
STEP.M 0.1250:
NULL. -999.2500:
UWI. F11037:
~C
DEPT.M :
SP.MV :
GR.API :
RML.OHMM :
RI. :
RXO.OHMM :
CALI.CM :
DEN.GM/CC :
~A
# ...
  212.5000    -7.6820    65.6960    86.5550    82.5350    95.9210    25.4570     2.2580 
  212.6250    -8.0620    65.8080    84.3080    80.6600    98.4750    25.5290     2.2440 
  212.7500    -7.9840    64.7240    82.3120    79.2370    98.5960    25.6090     2.2310 
  212.8750    -7.8920    62.5890    81.1760    78.7110    91.6370    25.6390     2.2220 
  213.0000    -7.6950    61.5140    81.4560    79.4360    84.1400    25.6260     2.2150 
  213.1250    -7.4640    62.2840    83.4360    81.9190    79.0980    25.5970     2.2040 
  213.2500    -7.2280    63.1410    87.4870    85.9280    76.7040    25.5790     2.1910 
  213.3750    -6.9540    63.4410    94.3600    91.1440    78.0890    25.5760     2.1790 
  213.5000    -6.7670    62.6560   102.9170    96.8590    93.2920    25.5950     2.1700 
  213.6250    -6.7520    58.8490   109.6980   101.9710   111.9310    25.6560     2.1620 
  213.7500    -6.7050    54.9990   113.4270   106.0190   127.9200    25.7080     2.1570 
  213.8750    -6.6120    56.0750   115.2560   109.2080   132.5850    25.7540     2.1670 
  214.0000    -6.5740    61.1810   116.3000   111.8800   127.9350    25.7870     2.2080 
  214.1250    -6.6490    62.2520   115.7690   113.4630   120.4840    25.7710     2.2800 
  214.2500    -6.6890    57.7390   112.9240   112.8320   128.9920    25.6640     2.3510 
  214.3750    -6.6690    53.6920   107.1460   108.9790   151.5320    25.4930     2.3890 
  214.5000    -6.5740    55.2830    98.6610   101.7090   137.3390    25.3730     2.3790 
  214.6250    -6.5730    60.5730    92.0050    91.8300   105.2890    25.3030     2.3310 
  214.7500    -6.6770    64.9320    82.6820    81.9620    82.0570    25.3230     2.2830 
  214.8750    -6.7060    67.0580    75.9100    74.0700    77.8060    25.3870     2.2580 
  215.0000    -6.7050    67.0130    72.6800    69.4100    80.2680    25.4350     2.2550 
  215.1250    -6.7750    66.4030    73.9990    69.2130    77.1950    25.4700     2.2590 
  215.2500    -6.9130    65.5910    78.9570    72.9820    80.7620    25.5180     2.2520 
  215.3750    -7.0710    64.7850    86.7500    80.3200   109.8210    25.5770     2.2330 
  215.5000    -7.2900    64.1620    95.9490    90.0490   136.9890    25.6350     2.2090 
  215.6250    -7.5520    64.9470   104.1800    99.8030   130.5900    25.6820     2.1930 
  215.7500    -7.9060    66.0240   109.5450   106.8120   123.3030    25.6950     2.1890 
  215.8750    -8.5370    64.4230   111.3780   109.5600   124.6850    25.6790     2.1960 
  216.0000    -9.2890    61.3060   110.3970   108.4350   124.7060    25.6340     2.2070 
  216.1250    -9.4990    60.5420   108.1840   105.4170   116.0370    25.5650     2.2150 
  216.2500    -9.4500    61.3870   106.2270   102.6780   105.4470    25.5140     2.2170 
  216.3750    -9.4680    62.9100   104.6240   100.5240   100.8770    25.4770     2.2140 
  216.5000    -9.5310    64.3280   102.7850    98.4900   105.3520    25.4660     2.2090 
  216.6250    -9.5440    65.1900    99.8850    95.7780   119.8090    25.4570     2.2050 
  216.7500    -9.4850    65.2280    96.1410    92.2210   117.2770    25.4900     2.2030 
  216.8750    -9.2760    64.8890    92.4510    88.4300   100.5280    25.4890     2.2030 
  217.0000    -8.9710    64.5600    90.1360    85.6740    90.7480    25.4520     2.2050 
  217.1250    -9.2640    63.8090    90.8910    85.8930    87.5030    25.4440     2.2090 
  217.2500   -10.1070    63.6520    94.5170    89.5340    87.7280    25.4750     2.2140 
  217.3750   -10.9740    64.0670    99.8340    96.0500    94.9890    25.4960     2.2170 
  217.5000   -11.2680    63.2310   104.3360   103.0930   116.7000    25.5080     2.2170 
  217.6250   -11.0890    60.8520   103.9290   105.6450   136.9110    25.5310     2.2120 
  217.7500   -10.8790    59.1710    97.6070   101.1490   138.3740    25.5460     2.2030 
  217.8750   -10.6640    59.8180    86.6410    90.4560   120.7410    25.5210     2.1950 
  218.0000   -10.3340    63.3000    74.1230    77.1760    91.0690    25.4630     2.1920 
  218.1250    -9.7240    65.3100    63.8730    65.7550    67.6290    25.3760     2.1990 
  218.2500    -8.9180    63.6670    57.4930    58.0860    56.4490    25.2790     2.2140 
  218.3750    -8.0890    62.3250    55.3560    54.4720    53.4390    25.1440     2.2310 
  218.5000    -7.6450    64.5070    57.3000    54.7130    54.9220    25.0220     2.2440 
  218.6250    -7.6000    66.8930    63.5570    59.2390    60.7520    25.0010     2.2430 
  218.7500    -7.6080    67.1070    72.8870    67.2200    71.9680    25.1370     2.2300 
  218.8750    -7.5550    68.5670    84.2370    78.0270    92.3430    25.2900     2.2090 
  219.0000    -7.5450    71.3770    95.8700    90.2140   111.9960    25.4070     2.1890 
  219.1250    -7.7480    70.5140   104.8340   100.7620   127.4040    25.4560     2.1760 
  219.2500    -7.9500    67.2210   109.3870   106.9970   135.2130    25.4800     2.1710 
  219.3750    -8.1150    64.9260   109.1380   107.8090   134.4880    25.5020     2.1730 
  219.5000    -8.2920    64.0250   105.2740   104.1450   121.7510    25.5070     2.1780 
  219.6250    -8.4390    62.9350    99.9540    98.3390   107.0540    25.4760     2.1850 
  219.7500    -8.6470    62.3320    95.3590    93.0580    98.6210    25.4240     2.1920 
  219.8750    -8.9450    62.3740    92.2300    89.3610    96.7770    25.3910     2.1970 
  220.0000    -9.2330    62.0070    90.5470    87.4840    98.4920    25.3820     2.1970 
  220.1250    -9.3130    60.6800    89.9840    87.2400   101.4560    25.3730     2.1940 
  220.2500    -9.3040    60.2550    89.8630    87.6650   103.1050    25.3500     2.1890 
  220.3750    -9.4350    61.7350    89.9200    88.2090   101.6370    25.3280     2.1850 
  220.5000    -9.7870    63.2230    90.0880    88.6510    98.2590    25.3230     2.1850 
  220.6250   -10.1940    62.9690    90.4070    89.0940    95.8700    25.3530     2.1860 
  220.7500   -10.5240    62.6020    90.7590    89.5760    97.3350    25.3580     2.1880 
  220.8750   -10.8640    62.0800    90.9120    89.8490    97.0310    25.3450     2.1920 
  221.0000   -11.0440    61.1330    90.6250    89.5110    98.6910    25.3230     2.1990 
  221.1250   -11.0380    61.9530    89.8240    88.2370   106.2630    25.2860     2.2120 
  221.2500   -11.0440    64.6110    89.0470    86.6170   100.8740    25.2770     2.2280 
  221.3750   -11.0360    65.3810    89.0060    85.5670    88.6490    25.2490     2.2390 
  221.5000   -10.9320    63.5400    90.3850    85.9950    84.2650    25.2150     2.2440 
  221.6250   -10.6890    63.8970    93.8320    88.6740    87.6840    25.2070     2.2440 
  221.7500   -10.4030    65.9860    98.8140    92.9590   102.8610    25.2210     2.2470 
  221.8750   -10.1590    66.2350   104.6870    98.0580   123.4980    25.2430     2.2550 
  222.0000   -10.1410    64.2350   110.6430   103.0290   143.6550    25.2530     2.2630 
  222.1250   -10.3420    63.2370   115.9010   107.0520   146.0660    25.2140     2.2600 
  222.2500   -10.6180    63.2930   120.5070   110.4260   134.0510    25.2080     2.2480 
  222.3750   -10.8890    62.4060   125.0270   113.9000   128.7490    25.2360     2.2330 
  222.5000   -11.0940    60.2980   130.2960   118.2470   126.7380    25.2970     2.2220 
  222.6250   -11.2730    57.2970   137.2280   124.1090   139.9000    25.3550     2.2130 
  222.7500   -11.3990    56.0390   145.4330   130.9620   150.6480    25.4420     2.1990 
  222.8750   -11.5020    57.1420   153.9010   137.8830   155.6030    25.5300     2.1790 
  223.0000   -11.6920    57.9490   161.0890   143.6140   165.9960    25.5800     2.1650 
  223.1250   -11.9560    56.0100   164.6060   146.3910   179.5150    25.5770     2.1740 
  223.2500   -12.1650    53.9020   163.6190   145.5690   175.6700    25.5450     2.2040 
  223.3750   -12.2660    55.6340   157.9210   140.6360   141.7470    25.4170     2.2480 
  223.5000   -12.2710    59.9260   148.5800   132.0660   124.7710    25.2510     2.2950 
  223.6250   -12.3160    62.2100   138.1090   121.8660   135.8670    25.1920     2.3380 
