~V
VERS. 2.00: Ver 2.00
~W
STRT.M 53.0000:
STOP.M 279.0000:
STEP.M 0.1250:
NULL. -999.2500:
UWI. F11057:
~C
DEPT.M :
GR.API :
RML.OHMM :
RI. :
RXO.OHMM :
CALI.CM :
DEN.GM/CC :
SP.MV :
~A
# ...
  221.7500    70.8880   150.3210   134.4570   157.6330    25.1820     2.1970    -9.1890 
  221.8750    73.1440   152.3190   136.1120   163.9700    25.1430     2.1990    -9.2450 
  222.0000    72.5180   148.8880   133.0490   172.7490    25.1200     2.1980    -9.2470 
  222.1250    72.6690   141.0280   126.1100   185.8170    25.1130     2.1940    -9.2190 
  222.2500    74.7330   131.3180   117.6070   165.0360    25.1030     2.1910    -9.1800 
  222.3750    76.0620   122.0580   109.8210   122.8850    25.0480     2.1900    -9.1670 
  222.5000    75.4460   116.0780   105.3980   106.7910    24.9050     2.1880    -9.1430 
  222.6250    74.1180   116.3910   106.9470   131.3320    24.7180     2.1810    -9.1380 
  222.7500    73.5850   121.7460   113.0950   159.8480    24.5790     2.1740    -9.1740 
  222.8750    71.6700   129.3110   121.0680   192.6380    24.5050     2.1730    -9.2270 
  223.0000    68.9070   135.0330   126.9400   205.8060    24.4820     2.1760    -9.3570 
  223.1250    68.3340   135.9380   128.0450   176.6150    24.4820     2.1740    -9.5310 
  223.2500    69.2400   134.9890   127.6580   186.1680    24.4820     2.1670    -9.7320 
  223.3750    71.0070   135.6880   129.1440   224.0470    24.4820     2.1610    -9.9290 
  223.5000    74.6070   139.3830   133.5120   334.3340    24.4820     2.1610   -10.1560 
  223.6250    79.2530   144.3520   138.8580   406.6830    24.4820     2.1680   -10.3670 
  223.7500    80.0810   147.4860   142.1650   399.1950    24.4820     2.1730   -10.5440 
  223.8750    76.2540   147.3190   142.0570   317.9410    24.4820     2.1710   -10.7210 
  224.0000    72.6850   143.9460   138.7200   230.2680    24.4740     2.1610   -10.8520 
  224.1250    73.8190   138.0820   132.8660   172.4750    24.4530     2.1520   -10.9560 
  224.2500    75.6850   130.9230   125.6930   175.2880    24.4260     2.1570   -11.0110 
  224.3750    76.5310   123.0430   117.8830   229.3250    24.4170     2.1740   -11.0560 
  224.5000    77.3690   115.2000   110.2870   222.2710    24.4270     2.1880   -11.0410 
  224.6250    78.5480   108.4230   103.9160   173.7090    24.4830     2.1850   -11.0000 
  224.7500    78.1510   103.0650    98.9330   133.8430    24.5870     2.1750   -10.9590 
  224.8750    76.3150    99.0550    95.1870   113.4910    24.6710     2.1710   -10.8760 
  225.0000    75.6490    96.0790    92.3980    98.0580    24.7020     2.1780   -10.7730 
  225.1250    76.2880    93.8870    90.4030    97.7320    24.7040     2.1900   -10.6160 
  225.2500    76.4350    91.9920    88.7280    98.9970    24.7020     2.1990   -10.4740 
  225.3750    76.4940    89.9870    86.8940   100.2800    24.6990     2.2060   -10.3230 
  225.5000    77.1090    87.4280    84.3460   107.0390    24.6980     2.2100   -10.1930 
  225.6250    77.7320    83.7720    80.4650   108.9130    24.6980     2.2100   -10.0570 
  225.7500    78.0350    79.2860    75.7000    97.7160    24.6980     2.2110    -9.9120 
  225.8750    77.3970    74.8290    71.1140    80.2900    24.6970     2.2160    -9.8040 
  226.0000    75.8820    71.7380    68.1080    71.7950    24.6960     2.2220    -9.7230 
  226.1250    74.7400    71.7860    68.2180    71.2670    24.6950     2.2200    -9.6970 
  226.2500    74.4740    74.8660    70.8990    80.5580    24.6950     2.2110    -9.6560 
  226.3750    73.9740    79.8160    74.6620    96.9470    24.6940     2.1990    -9.6240 
  226.5000    74.1260    84.0340    76.9060   102.3110    24.6870     2.1900    -9.5700 
  226.6250    74.7460    83.2610    74.0030    99.4130    24.6630     2.1830    -9.5200 
  226.7500    72.4570    76.3490    65.9560   110.6960    24.6250     2.1800    -9.4600 
  226.8750    68.8270    64.2520    54.3810   135.0520    24.5860     2.1810    -9.3600 
  227.0000    69.3190    49.6600    41.6560   130.8990    24.5650     2.1920    -9.2280 
  227.1250    75.4220    36.1380    30.2160    62.8680    24.5580     2.2210    -9.0390 
  227.2500    82.7040    25.6450    21.2490    26.5070    24.5570     2.2660    -8.8500 
  227.3750    88.4210    18.5640    15.1910    13.9730    24.5560     2.3180    -8.6290 
  227.5000    90.9900    14.4660    11.8610    11.3930    24.5570     2.3650    -8.4170 
  227.6250    92.0210    12.9440    10.9700    12.8900    24.5550     2.4080    -8.2350 
  227.7500    92.7220    12.9740    11.4620    15.2040    24.5540     2.4470    -8.0900 
  227.8750    92.4340    14.0730    12.7410    16.7310    24.5540     2.4720    -8.0180 
  228.0000    91.4770    15.7120    14.2400    16.2140    24.5520     2.4660    -7.9960 
  228.1250    92.4930    17.3930    15.6570    14.4860    24.5410     2.4210    -8.0730 
  228.2500    93.0790    19.2940    17.5000    14.4950    24.5190     2.3610    -8.2060 
  228.3750    89.2910    22.2670    20.6440    18.8390    24.5000     2.3050    -8.4030 
  228.5000    83.3460    27.1870    25.6400    29.4550    24.4910     2.2600    -8.6180 
  228.6250    80.8230    34.4730    32.2570    39.5110    24.4910     2.2320    -8.8360 
  228.7500    81.6110    42.0110    38.3940    43.3270    24.4900     2.2180    -9.0550 
  228.8750    84.2860    46.8140    41.8540    41.5850    24.4880     2.2140    -9.2360 
  229.0000    86.0240    47.1900    41.8300    40.1750    24.4840     2.2150    -9.4120 
  229.1250    86.7260    44.5260    39.8020    41.7460    24.4770     2.2140    -9.5290 
  229.2500    86.8260    41.9730    38.2040    43.8620    24.4610     2.2150    -9.6160 
  229.3750    85.7670    40.3600    37.5780    45.0420    24.4420     2.2200    -9.6620 
  229.5000    83.9550    39.4060    37.5540    45.2790    24.4410     2.2310    -9.7170 
  229.6250    82.0200    38.6870    37.7030    44.5100    24.4900     2.2440    -9.7670 
  229.7500    81.8700    38.1190    37.9670    43.0560    24.5940     2.2470    -9.8240 
  229.8750    82.2900    38.4980    37.9310    42.6310    24.7570     2.2430    -9.9030 
  230.0000    81.1220    39.6350    38.1840    41.9740    24.8660     2.2370    -9.9850 
  230.1250    77.7540    41.5420    39.2860    43.2060    24.8960     2.2390   -10.1150 
  230.2500    74.8170    44.2190    41.1650    46.8360    24.8960     2.2430   -10.2570 
  230.3750    75.2150    47.5580    43.7670    50.6400    24.8960     2.2440   -10.4450 
  230.5000    78.3550    51.2430    46.8490    53.5810    24.8960     2.2420   -10.6320 
  230.6250    79.3230    54.7440    49.9290    53.5390    24.8960     2.2390   -10.8350 
  230.7500    75.1230    57.9030    52.6890    52.1120    24.8960     2.2320   -11.0380 
  230.8750    70.4950    61.2780    55.4770    53.4660    24.8960     2.2210   -11.2140 
  231.0000    70.4600    65.8390    59.1430    65.3440    24.8960     2.2100   -11.3770 
  231.1250    72.6110    72.4980    64.6110    80.1470    24.8960     2.2070   -11.4930 
  231.2500    72.7190    80.3580    71.2540    87.3950    24.8960     2.2110   -11.6060 
  231.3750    72.1730    87.9320    77.8850    85.7810    24.8960     2.2180   -11.6820 
  231.5000    73.3960    93.6970    83.2630    85.7700    24.8960     2.2310   -11.7550 
  231.6250    74.7640    96.7070    86.5850    91.2530    24.8960     2.2500   -11.7950 
  231.7500    73.5490    97.8770    88.4850   101.9260    24.8940     2.2610   -11.8190 
  231.8750    70.8250    97.4460    89.1230   106.8440    24.8790     2.2500   -11.8440 
  232.0000    68.7920    94.9220    88.0240   105.2570    24.8320     2.2290   -11.8590 
  232.1250    70.4540    89.3600    84.1280   106.0590    24.7410     2.2240   -11.8990 
  232.2500    74.2840    81.5950    77.9050   105.8220    24.6170     2.2320   -11.9140 
  232.3750    77.7900    72.5640    70.0710    97.2270    24.4300     2.2380   -11.9290 
  232.5000    79.9640    63.2560    61.5630    76.3330    24.1910     2.2320   -11.9140 
  232.6250    79.5630    54.8680    53.5290    56.7910    24.0870     2.2300   -11.9160 
  232.7500    79.2180    48.2670    46.9080    43.1650    24.0620     2.2410   -11.9110 
  232.8750    81.2660    44.0570    42.3170    38.2320    24.0760     2.2560   -11.8930 
