~V
VERS. 2.00: Ver 2.00
~W
STRT.M 50.0000:
STOP.M 275.0000:
STEP.M 0.1250:
NULL. -999.2500:
UWI. F11033:
~C
DEPT.M :
DEN.GM/CC :
GR.API :
RML.OHMM :
RI. :
RXO.OHMM :
CALI.CM :
SP.MV :
~A
# ...
  151.2500     2.3370    77.7680     4.5610     4.1440     4.3840    24.9930   -20.7980 
  151.3750     2.3420    77.5230     4.5570     4.1140     4.1940    25.0320   -20.9180 
  151.5000     2.3390    76.2180     4.5860     4.1030     4.1380    25.0740   -21.0330 
  151.6250     2.3390    76.6200     4.6590     4.1400     4.0450    25.0990   -21.1580 
  151.7500     2.3420    79.2590     4.7830     4.2260     3.9810    25.1600   -21.3010 
  151.8750     2.3450    83.4470     4.9550     4.3490     4.0380    25.2610   -21.4580 
  152.0000     2.3430    87.0260     5.1310     4.4760     4.2470    25.2910   -21.6250 
  152.1250     2.3360    85.5600     5.2010     4.5420     4.5600    25.1910   -21.7850 
  152.2500     2.3300    81.1930     5.1190     4.5100     4.8210    25.1570   -21.9480 
  152.3750     2.3260    80.5400     4.9300     4.3930     4.7240    25.1910   -22.1300 
  152.5000     2.3200    83.6020     4.7560     4.2560     4.3420    25.2750   -22.3200 
  152.6250     2.3080    80.2620     4.7770     4.2220     4.2460    25.3410   -22.4970 
  152.7500     2.3010    75.0740     5.0630     4.3690     4.4520    25.3020   -22.6130 
  152.8750     2.3030    75.2170     5.6290     4.7330     5.0180    25.2230   -22.6290 
  153.0000     2.3100    79.1910     6.4090     5.2900     5.9670    25.1980   -22.5770 
  153.1250     2.3100    81.0260     7.2090     5.9260     7.0380    25.2540   -22.5080 
  153.2500     2.3030    81.1440     7.7660     6.4360     7.6830    25.3220   -22.4360 
  153.3750     2.2950    81.6120     7.9210     6.6910     7.7440    25.3670   -22.3650 
  153.5000     2.2930    81.7820     7.6890     6.6680     6.8560    25.3650   -22.3080 
  153.6250     2.3010    82.5230     7.2220     6.4280     6.4780    25.3180   -22.2550 
  153.7500     2.3090    84.5610     6.7460     6.1210     6.3070    25.2700   -22.2170 
  153.8750     2.3080    85.6380     6.3720     5.8330     6.4810    25.2220   -22.2290 
  154.0000     2.2960    84.2880     6.1850     5.6400     6.6560    25.1830   -22.2780 
  154.1250     2.2770    80.4800     6.3220     5.6580     5.8690    25.1700   -22.3310 
  154.2500     2.2590    78.7430     6.8010     5.9260     5.6900    25.1620   -22.3910 
  154.3750     2.2460    79.5400     7.6270     6.4710     6.6910    25.1270   -22.4550 
  154.5000     2.2370    78.5290     8.7270     7.2660     8.7960    25.0370   -22.5040 
  154.6250     2.2340    74.3450     9.8990     8.2040    10.9850    24.9510   -22.5430 
  154.7500     2.2320    70.4720    10.8430     9.0510    11.7230    24.9960   -22.6010 
  154.8750     2.2250    69.2360    11.3690     9.6320    11.2870    25.1290   -22.6960 
  155.0000     2.2130    70.2170    11.4430     9.8630    10.6770    25.2590   -22.8210 
  155.1250     2.2040    72.2240    11.1780     9.7610    11.0060    25.3330   -22.9640 
  155.2500     2.2060    72.8160    10.8790     9.5560    11.2880    25.3300   -23.0960 
  155.3750     2.2180    71.3370    10.7390     9.4280    11.5700    25.2930   -23.2180 
  155.5000     2.2290    70.5480    10.8790     9.5090    11.3350    25.2480   -23.3460 
  155.6250     2.2270    72.1690    11.4370     9.9380    11.1330    25.2140   -23.4910 
  155.7500     2.2160    74.0320    12.3750    10.6980    12.8660    25.1980   -23.6240 
  155.8750     2.2020    73.0310    13.6180    11.7520    15.8470    25.2310   -23.7010 
  156.0000     2.1920    68.4390    15.0140    12.9970    17.3590    25.2850   -23.7000 
  156.1250     2.1890    64.8690    16.3260    14.2590    16.9640    25.3250   -23.6370 
  156.2500     2.1920    65.8880    17.2870    15.3030    17.2560    25.3190   -23.5660 
  156.3750     2.1980    69.4550    17.6540    15.8870    18.3530    25.3100   -23.4800 
  156.5000     2.2040    70.4200    17.2980    15.8300    19.2580    25.3120   -23.3760 
  156.6250     2.2150    66.3490    16.1890    15.0290    18.8790    25.3290   -23.2470 
  156.7500     2.2290    63.6180    14.7200    13.8230    16.7790    25.3470   -23.1290 
  156.8750     2.2420    65.5130    13.2920    12.5590    13.5390    25.3260   -23.0480 
  157.0000     2.2480    68.8590    12.2950    11.5820    11.6950    25.2890   -23.0100 
  157.1250     2.2510    68.8280    12.0660    11.2010    11.4890    25.2710   -23.0210 
  157.2500     2.2600    67.0120    12.4750    11.3750    11.9700    25.2840   -23.0470 
  157.3750     2.2810    65.1820    13.3390    12.0230    12.7260    25.3000   -23.0770 
  157.5000     2.3060    63.4960    14.3140    12.9280    14.2200    25.3040   -23.1260 
  157.6250     2.3280    64.6770    14.7320    13.5740    17.0430    25.2870   -23.2010 
  157.7500     2.3390    68.1230    14.1830    13.4620    19.1190    25.2450   -23.2630 
  157.8750     2.3330    70.2060    12.6990    12.4600    18.9830    25.1980   -23.3260 
  158.0000     2.3080    71.2830    10.7360    10.8750    16.9080    25.1820   -23.4250 
  158.1250     2.2770    73.0380     8.9440     9.2710    12.8570    25.2000   -23.5550 
  158.2500     2.2590    73.9130     7.6810     8.0510     8.8980    25.2230   -23.6910 
  158.3750     2.2540    73.1250     7.0220     7.3390     6.7510    25.2170   -23.8540 
  158.5000     2.2570    73.8000     6.9170     7.1270     6.5100    25.1870   -24.0360 
  158.6250     2.2590    77.6020     7.3070     7.4070     7.2540    25.1670   -24.2200 
  158.7500     2.2590    79.8970     7.9220     7.9530     7.7750    25.1470   -24.4140 
  158.8750     2.2550    78.8990     8.5080     8.5420     8.0480    25.1190   -24.6030 
  159.0000     2.2500    77.5560     8.7910     8.9100     8.3640    25.0990   -24.7500 
  159.1250     2.2490    77.9710     8.5130     8.7700     8.7050    25.0980   -24.8440 
  159.2500     2.2510    78.8390     7.7970     8.1760     8.0290    25.1280   -24.9080 
  159.3750     2.2510    77.9150     6.8540     7.2900     6.4530    25.1910   -24.9500 
  159.5000     2.2440    77.9680     5.9420     6.3520     5.6030    25.2380   -24.9820 
  159.6250     2.2300    80.9050     5.3010     5.6160     5.2810    25.1870   -24.9920 
  159.7500     2.2210    82.3280     4.9830     5.1730     4.9940    25.0900   -24.9720 
  159.8750     2.2200    79.4680     5.0390     5.0740     4.9490    25.0260   -24.9390 
  160.0000     2.2200    74.4530     5.5380     5.3650     5.8970    25.0710   -24.9140 
  160.1250     2.2100    70.7400     6.6980     6.2120     7.6420    25.2000   -24.8960 
  160.2500     2.1920    68.1980     8.5440     7.6750     9.0130    25.2880   -24.9080 
  160.3750     2.1720    67.6080    11.0840     9.8610    12.0260    25.3330   -24.9390 
  160.5000     2.1570    68.3100    14.1430    12.7460    18.2420    25.3740   -24.9510 
  160.6250     2.1510    66.3170    17.2290    16.0060    30.5290    25.4130   -24.9540 
  160.7500     2.1530    62.3250    19.7640    18.9380    37.1660    25.4360   -24.9720 
  160.8750     2.1610    59.6070    21.5030    21.1080    35.4380    25.4250   -24.9820 
  161.0000     2.1700    59.2020    22.4660    22.3860    29.3430    25.3970   -24.9880 
  161.1250     2.1750    58.7050    22.5550    22.6000    24.6310    25.3830   -25.0200 
  161.2500     2.1790    57.7090    21.7850    21.8360    26.5840    25.3810   -25.0580 
  161.3750     2.1870    57.6520    20.1060    20.1180    29.1510    25.3820   -25.1050 
  161.5000     2.2010    59.1020    17.7310    17.7230    26.4670    25.3760   -25.1950 
  161.6250     2.2160    61.8300    15.2120    15.2040    19.2530    25.3400   -25.3430 
  161.7500     2.2230    65.1610    13.2480    13.1640    13.0660    25.2890   -25.5580 
  161.8750     2.2190    68.0940    12.2430    11.9260    11.7900    25.2740   -25.8380 
  162.0000     2.2080    69.8010    12.3620    11.6400    12.7920    25.3250   -26.1470 
  162.1250     2.1930    68.7390    13.7630    12.5320    13.1000    25.4250   -26.4510 
  162.2500     2.1840    66.0450    15.9880    14.3560    16.3760    25.5090   -26.7420 
  162.3750     2.1840    63.8300    18.4210    16.7130    23.7380    25.5380   -27.0020 
