~V
VERS. 2.00: Ver 2.00
~W
STRT.M 55.0000:
STOP.M 281.0000:
STEP.M 0.1250:
NULL. -999.2500:
UWI. F11051:
~C
DEPT.M :
SP.MV :
GR.API :
RML.OHMM :
RI. :
RXO.OHMM :
CALI.CM :
DEN.GM/CC :
~A
# ...
  201.2500   -16.0640    53.6510    80.4950    72.4500    87.7660    25.0020     2.2090 
  201.3750   -15.9720    56.4070    68.6840    61.6460    54.0330    25.0280     2.2180 
  201.5000   -15.8640    59.3350    58.9710    52.3040    32.3630    25.0680     2.2170 
  201.6250   -15.7620    62.1750    53.6330    46.6760    27.3940    25.0530     2.2140 
  201.7500   -15.6640    63.6800    51.7210    44.0380    32.6090    25.0040     2.2220 
  201.8750   -15.5560    62.7700    52.4100    43.6450    40.1210    24.9720     2.2460 
  202.0000   -15.4390    61.5050    54.8530    44.8270    47.1490    24.8620     2.2810 
  202.1250   -15.2780    60.9280    58.1270    46.9750    48.7780    24.6360     2.3110 
  202.2500   -15.0950    59.5130    61.0460    49.1350    50.7840    24.4120     2.3240 
  202.3750   -14.8670    58.6150    62.8810    50.6880    53.9770    24.4280     2.3200 
  202.5000   -14.5990    59.6960    63.2470    51.2570    56.6250    24.4540     2.3040 
  202.6250   -14.2960    62.8540    62.0900    50.6810    58.4060    24.4840     2.2800 
  202.7500   -13.9320    63.5100    60.4070    49.5860    51.5750    24.4970     2.2480 
  202.8750   -13.5860    63.2110    58.8870    48.4630    45.5570    24.5000     2.2160 
  203.0000   -13.1920    63.6910    57.4270    47.2870    44.0330    24.4870     2.2060 
  203.1250   -12.7990    64.5150    54.4360    44.8540    47.2060    24.5300     2.2610 
  203.2500   -12.4210    64.4200    48.5520    40.0860    51.9070    24.6560     2.3780 
  203.3750   -12.0340    63.1700    39.7880    33.0110    50.4160    24.5900     2.5110 
  203.5000   -11.6860    62.7360    29.8990    25.0970    35.9850    24.4790     2.5900 
  203.6250   -11.3450    65.5320    21.6100    18.4720    20.4770    24.3890     2.5760 
  203.7500   -11.0380    70.7610    15.8590    13.7580    12.0920    24.3190     2.5220 
  203.8750   -10.7530    77.0700    12.4180    10.7640     8.8660    24.3430     2.4620 
  204.0000   -10.5110    82.6700    10.6540     9.0570     7.8790    24.3840     2.4190 
  204.1250   -10.3570    86.6150    10.0840     8.3380     7.8460    24.4580     2.3950 
  204.2500   -10.2710    89.2090    10.0580     8.1330     8.1060    24.5160     2.3820 
  204.3750   -10.2670    90.9080    10.2710     8.2130     8.2930    24.5700     2.3790 
  204.5000   -10.3240    91.2140    10.5250     8.4170     8.1870    24.5990     2.3840 
  204.6250   -10.4180    89.9310    10.7430     8.6550     7.9990    24.6130     2.3980 
  204.7500   -10.5420    88.8620    10.9730     8.8950     8.0220    24.6110     2.4120 
  204.8750   -10.6660    89.7070    11.2700     9.1330     8.5330    24.5870     2.4220 
  205.0000   -10.7720    90.6540    11.6550     9.3560     9.1420    24.5640     2.4230 
  205.1250   -10.8320    89.4920    12.0340     9.4920     9.4860    24.5790     2.4170 
  205.2500   -10.8280    86.5240    12.2230     9.4560     9.5320    24.6060     2.4100 
  205.3750   -10.7640    85.5210    12.0980     9.1880     9.5740    24.6070     2.4050 
  205.5000   -10.6030    88.4040    11.6630     8.7150     9.4890    24.5940     2.4060 
  205.6250   -10.3810    90.3070    11.0400     8.1740     9.2150    24.5870     2.4150 
  205.7500   -10.1130    89.0590    10.4940     7.7520     8.5360    24.6020     2.4300 
  205.8750    -9.7950    88.7420    10.2700     7.5730     7.6250    24.6410     2.4500 
  206.0000    -9.5010    90.3600    10.6170     7.7390     7.7290    24.7070     2.4670 
  206.1250    -9.1920    90.1950    10.8520     7.8640     7.9700    24.6960     2.4630 
  206.2500    -8.9010    87.9890    12.4180     8.6890     9.5080    24.6430     2.4410 
  206.3750    -8.6470    84.1010    15.3620    10.2370    11.6090    24.6020     2.4100 
  206.5000    -8.4110    82.1120    20.0990    12.8220    14.7060    24.6000     2.3910 
  206.6250    -8.2020    78.2030    26.7340    16.8520    21.4130    24.5760     2.4190 
  206.7500    -8.0000    71.9460    33.1640    21.3840    32.4950    24.5260     2.4930 
  206.8750    -7.7930    68.7900    36.1050    24.2820    45.1910    24.4960     2.5810 
  207.0000    -7.5710    70.2330    32.8410    23.1810    54.0940    24.5200     2.6290 
  207.1250    -7.3270    70.7600    24.3470    18.1340    45.2720    24.5190     2.6010 
  207.2500    -7.0650    66.5470    16.1410    12.7880    24.8290    24.4930     2.5270 
  207.3750    -6.7990    60.3980    10.5370     8.7800    10.3370    24.4730     2.4410 
  207.5000    -6.5480    56.7680     7.4960     6.3030     5.1150    24.3830     2.3730 
  207.6250    -6.3290    58.2780     6.3250     5.1120     4.1350    24.1730     2.3470 
  207.7500    -6.1460    64.3540     6.0170     4.6150     4.1940    23.9440     2.3490 
  207.8750    -6.0140    72.3510     6.2090     4.5790     4.2040    23.8350     2.3590 
  208.0000    -5.9090    79.7520     6.6250     4.8180     4.2650    23.7870     2.3630 
  208.1250    -5.8350    82.4200     7.0280     5.1770     4.5390    23.6100     2.3540 
  208.2500    -5.8190    79.3730     7.3270     5.5250     4.9830    23.4710     2.3410 
  208.3750    -5.7980    75.1060     7.5150     5.8040     5.3210    23.5780     2.3360 
  208.5000    -5.8080    75.5400     7.5670     5.9660     5.5790    23.8700     2.3410 
  208.6250    -5.8360    79.7830     7.4200     5.9550     5.5820    24.2300     2.3430 
  208.7500    -5.8520    79.0690     7.1560     5.8110     5.2250    24.4690     2.3340 
  208.8750    -5.8950    75.3270     6.9000     5.5820     4.9340    24.6820     2.3160 
  209.0000    -5.9320    77.0530     6.7700     5.3250     4.7550    24.9250     2.2970 
  209.1250    -5.9750    83.3350     6.8080     5.1020     4.5280    24.9960     2.2890 
  209.2500    -6.0400    83.9420     6.8930     4.9490     4.5400    24.8600     2.2940 
  209.3750    -6.1370    78.8900     6.9270     4.8880     4.7250    24.8590     2.3090 
  209.5000    -6.2270    75.5890     6.9080     4.9280     4.9510    24.9230     2.3290 
  209.6250    -6.3520    77.6930     6.9680     5.0770     5.2100    25.0390     2.3460 
  209.7500    -6.4970    80.8120     7.1960     5.2890     5.5840    24.8330     2.3580 
  209.8750    -6.6430    82.1260     7.5730     5.5230     6.1900    24.6150     2.3650 
  210.0000    -6.8100    80.4710     8.0280     5.7560     6.8170    24.4840     2.3660 
  210.1250    -6.9800    77.5920     8.5590     6.0250     7.7850    24.4550     2.3610 
  210.2500    -7.1370    76.3740     9.2260     6.3850     7.9030    24.4410     2.3530 
  210.3750    -7.2810    76.0630    10.1230     6.8850     7.8580    24.4250     2.3460 
  210.5000    -7.4410    75.9760    11.2780     7.5550     9.2520    24.3890     2.3440 
  210.6250    -7.5790    75.8930    12.5590     8.3840    13.3430    24.3640     2.3510 
  210.7500    -7.7100    76.1790    13.6420     9.1960    15.7440    24.3370     2.3660 
  210.8750    -7.8330    75.6000    14.2870     9.8070    14.4880    24.2710     2.3810 
  211.0000    -7.9370    73.7640    14.4580    10.1140    12.3670    24.1800     2.3870 
  211.1250    -8.0770    72.0400    14.3720    10.1580    12.9850    24.1810     2.3800 
  211.2500    -8.1980    70.2550    14.4170    10.1890    12.5710    24.3520     2.3650 
  211.3750    -8.3190    68.8220    14.7740    10.3860    11.4760    24.5180     2.3490 
  211.5000    -8.4520    69.2120    15.4340    10.8210    12.5430    24.5690     2.3340 
  211.6250    -8.5660    73.1120    16.2760    11.4720    15.4390    24.5250     2.3200 
  211.7500    -8.6980    76.0410    17.1440    12.2120    17.5490    24.4840     2.3080 
  211.8750    -8.8430    73.8960    18.0500    13.0020    17.8530    24.4790     2.3030 
  212.0000    -8.9980    68.1530    19.1580    13.8700    16.9590    24.4570     2.3140 
  212.1250    -9.1630    64.9120    20.8710    14.9610    17.1000    24.4570     2.3420 
  212.2500    -9.3380    64.8300    23.3500    16.4090    20.1950    24.4900     2.3680 
  212.3750    -9.5170    64.3580    26.5790    18.3060    24.3860    24.4760     2.3740 
