~V
VERS. 2.00: Ver 2.00
~W
STRT.M 55.0000:
STOP.M 280.0000:
STEP.M 0.1250:
NULL. -999.2500:
UWI. F11032:
~C
DEPT.M :
DEN.GM/CC :
GR.API :
RML.OHMM :
RI. :
RXO.OHMM :
CALI.CM :
SP.MV :
~A
# ...
  201.2500     2.1980    48.9950   142.4210   132.7260   122.9680    23.7570   -21.3600 
  201.3750     2.1840    48.3890   157.7920   151.4310   117.3830    23.9180   -21.2600 
  201.5000     2.1740    50.0700   157.6600   155.5020   106.3560    24.3420   -21.0720 
  201.6250     2.1670    51.8250   150.5440   150.4390   102.0510    24.5170   -20.8130 
  201.7500     2.1670    51.4270   143.7020   143.3070   114.0750    24.3090   -20.5700 
  201.8750     2.1750    49.9180   138.1970   136.2270   125.2150    24.1330   -20.2770 
  202.0000     2.1920    49.8180   132.6290   129.4760   123.1470    24.0900   -19.8860 
  202.1250     2.2210    51.2500   121.6880   119.6450   109.1950    24.0180   -19.4960 
  202.2500     2.2650    51.3970   101.7320   102.2290   102.6630    23.8590   -19.0910 
  202.3750     2.3300    49.3840    74.3090    76.6300   113.1720    23.7940   -18.6270 
  202.5000     2.4190    46.7590    46.6580    49.1590   128.3830    23.7810   -18.1620 
  202.6250     2.5200    47.6580    27.2070    27.5900    80.7860    23.7620   -17.7440 
  202.7500     2.6000    50.6610    15.7660    12.2410    33.7680    23.6910   -17.3500 
  202.8750     2.6270    51.8520     9.1310     7.6480    14.6740    23.4910   -17.0240 
  203.0000     2.5860    51.5040     6.2800     5.4610     9.8540    23.3580   -16.8180 
  203.1250     2.4930    53.2970     5.2910     4.6010    13.2990    23.1190   -16.7300 
  203.2500     2.3920    55.8840     4.9160     4.2740    16.0650    22.9580   -16.7250 
  203.3750     2.3100    54.9340     4.8960     4.2570    10.8810    22.9290   -16.8110 
  203.5000     2.2620    50.4800     5.1080     4.4420     6.3020    22.9200   -17.0110 
  203.6250     2.2540    48.2400     5.4770     4.7630     4.7910    22.8930   -17.2970 
  203.7500     2.2710    50.0260     5.8550     5.0910     4.7800    22.9210   -17.6200 
  203.8750     2.3000    52.7120     6.1670     5.3620     5.2630    23.1710   -17.9930 
  204.0000     2.3270    53.8070     6.4100     5.5740     5.4830    23.2910   -18.4490 
  204.1250     2.3430    54.1920     6.5930     5.7330     5.2920    23.3110   -19.0190 
  204.2500     2.3530    54.9620     6.7400     5.8610     5.3430    23.3110   -19.6930 
  204.3750     2.3600    55.6750     6.8590     5.9640     5.6000    23.3060   -20.5230 
  204.5000     2.3680    56.6320     6.9650     6.0570     5.7100    23.2870   -21.5110 
  204.6250     2.3760    60.6840     7.1460     6.2140     5.6350    23.3460   -22.6440 
  204.7500     2.3800    68.8000     7.4960     6.5190     5.8370    23.6620   -23.9020 
  204.8750     2.3810    79.8770     8.0750     7.0220     6.6740    24.0880   -25.2200 
  205.0000     2.3790    89.0880     8.8540     7.6990     7.9740    24.5350   -26.4530 
  205.1250     2.3810    90.1610     9.7290     7.9120     9.5120    24.6290   -27.5630 
  205.2500     2.3830    84.0310    10.5670     8.4720    11.4510    24.6490   -28.6150 
  205.3750     2.3830    74.8740    11.3820     8.9970    13.2890    24.6480   -29.5530 
  205.5000     2.3750    68.9470    12.3430     9.6150    12.5800    24.6280   -30.2770 
  205.6250     2.3650    70.9940    13.7340    10.5470    11.7510    24.5040   -30.7330 
  205.7500     2.3650    76.4530    15.4790    11.7680    12.8570    24.2740   -31.0390 
  205.8750     2.3830    80.1680    17.2100    13.0690    17.3760    24.1820   -31.2950 
  206.0000     2.4130    80.2910    18.2540    14.0000    22.7350    24.1110   -31.5140 
  206.1250     2.4340    78.5740    17.6480    13.8250    22.7520    24.0680   -31.5780 
  206.2500     2.4240    77.1050    15.6560    12.6140    17.4890    23.9270   -31.4920 
  206.3750     2.3820    76.2860    13.1030    10.8750    12.6640    23.6690   -31.2590 
  206.5000     2.3270    76.9580    10.9090     9.2260    10.2690    23.5710   -30.9320 
  206.6250     2.2910    79.3320     9.7750     8.1720     8.7160    23.6030   -30.6250 
  206.7500     2.2880    83.4480     9.6390     7.7670     7.4800    23.8130   -30.2780 
  206.8750     2.3160    87.2990    10.3370     7.9840     7.5500    24.0330   -29.8170 
  207.0000     2.3580    88.5940    11.5340     8.6850     8.8340    24.0870   -29.3370 
  207.1250     2.3930    86.9190    12.5770     9.5220    10.6350    24.0790   -28.9080 
  207.2500     2.4130    87.4070    12.7530     9.9130    12.0440    24.0190   -28.4240 
  207.3750     2.4210    89.2710    11.7570     9.4910    11.7330    23.9560   -27.8940 
  207.5000     2.4200    87.4270     9.9030     8.3650     9.3150    23.9360   -27.2910 
  207.6250     2.4130    78.5490     7.9770     7.0500     6.5810    23.8980   -26.4710 
  207.7500     2.3980    68.4150     6.5500     6.0120     5.3320    23.9870   -25.4800 
  207.8750     2.3770    60.5880     5.7630     5.3660     5.1400    24.0960   -24.3970 
  208.0000     2.3550    54.0400     5.5650     5.0730     5.1840    24.1330   -23.2420 
  208.1250     2.3390    50.5600     5.8470     5.0540     5.1950    23.9860   -22.0310 
  208.2500     2.3320    56.0950     6.2960     5.1340     5.1880    23.9330   -20.9180 
  208.3750     2.3370    69.4400     6.6910     5.2210     5.2550    23.9720   -19.9470 
  208.5000     2.3480    82.7580     6.8770     5.2670     5.3220    24.1080   -19.1080 
  208.6250     2.3590    88.2430     6.8140     5.2760     5.0300    23.9220   -18.4250 
  208.7500     2.3600    89.4620     6.6720     5.2890     4.7360    23.4290   -17.8860 
  208.8750     2.3520    89.4310     6.5760     5.3330     4.7650    23.1400   -17.4930 
  209.0000     2.3390    86.8160     6.5720     5.4090     5.1110    23.0690   -17.1890 
  209.1250     2.3300    80.9960     6.6640     5.4910     5.6460    23.1830   -16.9950 
  209.2500     2.3290    75.0630     6.7990     5.5650     5.9210    23.3710   -16.8710 
  209.3750     2.3360    70.9080     6.9210     5.6380     6.0440    23.9330   -16.7740 
  209.5000     2.3470    70.0470     6.9970     5.7100     6.2340    24.4200   -16.7110 
  209.6250     2.3590    72.9270     7.0150     5.7740     6.4380    24.6160   -16.7730 
  209.7500     2.3690    75.8790     6.9810     5.8270     6.4850    24.6460   -16.8990 
  209.8750     2.3770    74.8690     6.9120     5.8720     6.4500    24.6470   -16.9930 
  210.0000     2.3830    70.1540     6.8380     5.9080     6.2260    24.6380   -17.0750 
  210.1250     2.3890    65.5880     6.7870     5.9180     6.0680    24.5830   -17.1280 
  210.2500     2.3940    63.9860     6.7190     5.8800     6.0180    24.5750   -17.0770 
  210.3750     2.3980    65.2470     6.5940     5.7820     5.9600    24.5720   -16.9070 
  210.5000     2.3930    66.8300     6.4000     5.6260     5.6630    24.5530   -16.6460 
  210.6250     2.3700    64.3230     6.1550     5.4150     5.0410    24.4450   -16.2320 
  210.7500     2.3300    60.1250     5.9110     5.1760     4.5210    24.2850   -15.7660 
  210.8750     2.2830    56.7160     5.6970     4.9330     4.3250    24.2490   -15.3500 
  211.0000     2.2440    54.4990     5.5310     4.7210     4.3410    24.1950   -15.0500 
  211.1250     2.2300    53.4640     5.4600     4.5960     4.3530    23.9680   -14.9110 
  211.2500     2.2410    54.4800     5.5350     4.5830     4.3860    24.0080   -14.8660 
  211.3750     2.2660    57.3860     5.8430     4.7190     4.5580    24.0120   -14.9180 
  211.5000     2.2940    61.1800     6.4780     5.0650     5.0290    24.0140   -15.0420 
  211.6250     2.3110    65.4130     7.6090     5.7740     6.1470    24.0140   -15.2100 
  211.7500     2.3180    68.7940     9.2320     6.8760     8.8410    24.0190   -15.3830 
  211.8750     2.3150    70.5140    11.3460     8.3920    13.6670    24.0510   -15.5430 
  212.0000     2.3050    71.0260    13.8580    10.2760    16.2000    24.1990   -15.6020 
  212.1250     2.2860    70.3610    16.5710    12.4050    14.0550    24.3860   -15.4870 
  212.2500     2.2640    69.5560    19.2170    14.5420    14.4670    24.4390   -15.3560 
  212.3750     2.2480    69.8210    21.6800    16.5650    18.8440    24.5280   -15.2310 
