~V
VERS. 2.00: Ver 2.00
~W
STRT.M 57.0000:
STOP.M 272.0000:
STEP.M 0.1250:
NULL. -999.2500:
UWI. F11045:
~C
DEPT.M :
DEN.GM/CC :
GR.API :
RML.OHMM :
RI. :
RXO.OHMM :
CALI.CM :
SP.MV :
~A
# ...
  248.2500     2.5020    55.5200    19.8530    18.1200    28.1690    23.8570     7.2390 
  248.3750     2.4120    58.5510    13.5680    12.4180    14.7670    23.6940     7.4000 
  248.5000     2.3500    65.1100    10.2300     9.2630    10.0790    23.5280     7.5870 
  248.6250     2.3360    66.8100     8.9220     7.8430     9.5380    23.3540     7.7710 
  248.7500     2.3490    65.6500     8.5250     7.2600     9.6990    23.3000     7.9160 
  248.8750     2.3670    66.3820     8.5830     7.8070     9.8570    23.4430     8.0110 
  249.0000     2.3770    68.0220     8.7850     8.1650    10.1730    23.6830     8.0570 
  249.1250     2.3750    66.1020     8.9290     8.3450    10.3950    23.7980     8.0540 
  249.2500     2.3670    62.2230     8.9700     8.4550     9.9450    23.7810     8.0320 
  249.3750     2.3600    61.1700     8.9310     8.4890     9.6580    23.7830     7.9560 
  249.5000     2.3590    63.9390     8.8490     8.4600     9.5800    23.7960     7.8060 
  249.6250     2.3650    67.6030     8.7570     8.3660     9.4630    23.7890     7.5870 
  249.7500     2.3730    69.5870     8.6730     8.2130     9.2240    23.7920     7.3460 
  249.8750     2.3770    69.2920     8.5900     8.0030     9.0560    23.7850     7.1140 
  250.0000     2.3710    68.1480     8.4940     7.7550     9.0730    23.7330     6.8910 
  250.1250     2.3540    68.2280     8.3930     7.5120     9.0690    23.6900     6.6700 
  250.2500     2.3400    69.3020     8.3220     7.3210     9.1010    23.6860     6.4480 
  250.3750     2.3370    70.5860     7.7440     7.2130     9.0680    23.7400     6.2500 
  250.5000     2.3480    69.8810     7.6090     7.1970     8.9100    23.8270     6.0910 
  250.6250     2.3710    66.9080     7.7220     7.2710     8.8470    23.8900     6.0490 
  250.7500     2.3930    63.9910     7.8630     7.3880     8.9490    23.8740     6.0880 
  250.8750     2.4090    63.8790     8.0110     7.5140     9.3760    23.8390     6.1420 
  251.0000     2.4180    65.2020     8.1570     7.6180    10.0450    23.8140     6.1770 
  251.1250     2.4200    63.4650     8.2980     7.6890    10.2770    23.8060     6.2230 
  251.2500     2.4170    61.0980     8.4360     7.7390     9.8700    23.8540     6.2710 
  251.3750     2.4100    61.3120     8.5730     7.7790     9.5570    23.9480     6.3430 
  251.5000     2.3970    64.6030     8.6990     7.8150     9.4680    24.0510     6.4510 
  251.6250     2.3860    68.5580     8.7880     7.8490     9.3720    24.0920     6.5520 
  251.7500     2.3860    71.3310     8.8350     7.8900     9.1300    24.1240     6.6250 
  251.8750     2.3950    73.7110     8.8590     7.9420     9.0770    24.2080     6.6990 
  252.0000     2.4120    74.7940     8.8980     8.0060     9.3500    24.3060     6.7990 
  252.1250     2.4270    73.7580     8.9870     8.0790    10.0300    24.3140     6.9080 
  252.2500     2.4350    71.1550     9.1120     8.1470    10.8250    24.2680     7.0250 
  252.3750     2.4310    68.7330     9.2280     8.2000    10.8360    24.2440     7.1150 
  252.5000     2.4210    67.5290     9.2880     8.2310     9.9050    24.2430     7.1410 
  252.6250     2.4130    66.5610     9.2670     8.2290     9.7070    24.2440     7.1400 
  252.7500     2.4110    64.9860     9.1970     8.1900    10.4710    24.2630     7.1320 
  252.8750     2.4080    64.6460     9.0930     8.1090    11.0850    24.3060     7.1240 
  253.0000     2.4000    67.4490     8.9590     7.9850    10.6260    24.3500     7.1170 
  253.1250     2.3860    68.6220     8.7900     7.8220     9.9860    24.3380     7.1180 
  253.2500     2.3710    64.7730     8.6110     7.6410     9.9620    24.2940     7.1290 
  253.3750     2.3620    60.4600     8.4550     7.4630    10.1890    24.2730     7.1670 
  253.5000     2.3610    60.9240     8.3540     7.3100     9.9940    24.2590     7.2570 
  253.6250     2.3660    63.7340     8.3180     7.2090     8.8360    24.2170     7.3790 
  253.7500     2.3700    64.6000     8.3030     7.1620     7.5960    24.1890     7.5410 
  253.8750     2.3680    63.6580     8.2800     7.1680     7.2460    24.2210     7.7350 
  254.0000     2.3640    61.6630     8.2420     7.2110     7.8440    24.2290     7.9470 
  254.1250     2.3610    61.8890     8.1920     7.2620     8.6720    24.1950     8.1540 
  254.2500     2.3560    66.7390     8.1410     7.2890     8.7920    24.2300     8.3650 
  254.3750     2.3480    72.2920     8.0940     7.2800     7.9800    24.3580     8.5710 
  254.5000     2.3410    72.5630     8.0530     7.2420     7.2800    24.5690     8.7520 
  254.6250     2.3380    68.1580     8.0280     7.2020     7.3160    24.6960     8.8500 
  254.7500     2.3440    65.6570     8.0390     7.1920     7.6610    24.5910     8.8620 
  254.8750     2.3590    65.2340     8.0920     7.2290     8.5960    24.4640     8.8200 
  255.0000     2.3830    64.3530     8.1700     7.3070     8.2360    24.4170     8.7520 
  255.1250     2.4040    62.8580     8.2390     7.4040     8.0810    24.4170     8.7160 
  255.2500     2.4180    63.9670     8.2770     7.4860     8.0780    24.3990     8.6820 
  255.3750     2.4220    67.4900     8.2800     7.5390     8.2220    24.3620     8.6210 
  255.5000     2.4190    68.4610     8.2730     7.5620     8.3730    24.3670     8.5330 
  255.6250     2.4140    64.7800     8.2930     7.5690     8.5160    24.3700     8.4520 
  255.7500     2.4120    63.2150     8.3540     7.5780     8.7390    24.3750     8.3860 
  255.8750     2.4150    65.9550     8.4470     7.6070     9.0350    24.3950     8.3300 
  256.0000     2.4200    68.7860     8.5630     7.6630     9.3050    24.4240     8.2700 
  256.1250     2.4200    67.0170     8.6800     7.7380     9.3770    24.4590     8.1740 
  256.2500     2.4130    63.9030     8.7700     7.8100     9.2790    24.5460     8.0630 
  256.3750     2.4000    62.2060     8.8180     7.8670     9.0350    24.7540     7.9740 
  256.5000     2.3890    63.1600     8.8260     7.9020     8.7600    25.0510     7.9160 
  256.6250     2.3840    66.1330     8.8140     7.9120     8.7080    25.0280     7.9360 
  256.7500     2.3880    68.7300     8.8090     7.9050     8.8340    24.6760     8.0050 
  256.8750     2.3950    70.6480     8.8210     7.8890     9.0540    24.4340     8.0730 
  257.0000     2.3970    71.9990     8.8500     7.8690     9.2560    24.3670     8.1300 
  257.1250     2.3910    71.5290     8.9100     7.8610     9.4100    24.3550     8.1680 
  257.2500     2.3870    68.3960     9.0090     7.8800     9.5520    24.3540     8.2030 
  257.3750     2.3910    63.9430     9.1470     7.9470     9.7180    24.3130     8.2290 
  257.5000     2.4020    61.9240     9.3240     8.0800     9.7960    24.2670     8.2400 
  257.6250     2.4140    63.9450     9.5740     8.3080     9.7860    24.2330     8.1890 
  257.7500     2.4240    67.8920     9.9020     8.6110     9.9660    24.2010     8.0780 
  257.8750     2.4280    71.0480    10.2820     8.9540    10.4310    24.1880     7.9390 
  258.0000     2.4270    71.2430    10.6360     9.2800    10.6920    24.2190     7.8000 
  258.1250     2.4240    69.1920    10.8490     9.5180    10.4200    24.2410     7.6780 
  258.2500     2.4190    66.7870    10.9270     9.6700    11.0770    24.2480     7.5500 
  258.3750     2.4150    65.6140    10.9460     9.7770    12.0280    24.2470     7.4080 
  258.5000     2.4130    66.1540    11.0180     9.9060    12.5010    24.2470     7.2750 
  258.6250     2.4070    67.3340    11.2250    10.1260    12.3610    24.2510     7.2070 
  258.7500     2.3950    68.6950    11.5110    10.4190    12.3220    24.2510     7.1810 
  258.8750     2.3800    68.7930    11.7950    10.7160    13.0730    24.2470     7.1870 
  259.0000     2.3710    67.2160    11.9730    10.9190    13.4780    24.2350     7.2080 
  259.1250     2.3690    66.6330    11.9360    10.9260    12.8620    24.2270     7.2300 
  259.2500     2.3710    68.5450    11.7320    10.7730    12.1380    24.2200     7.2480 
  259.3750     2.3820    70.7440    11.4430    10.5270    11.4240    24.2200     7.2750 
