~V
VERS. 2.00: Ver 2.00
~W
STRT.M 53.0000:
STOP.M 279.0000:
STEP.M 0.1250:
NULL. -999.2500:
UWI. F11057:
~C
DEPT.M :
GR.API :
RML.OHMM :
RI. :
RXO.OHMM :
CALI.CM :
DEN.GM/CC :
SP.MV :
~A
# ...
   98.0000   103.1240     7.7620     5.6710     6.8950    25.2960     2.2880   -13.7510 
   98.1250   102.3820     7.9770     5.7670     7.0460    25.2390     2.2780   -14.1220 
   98.2500    95.1180     8.3450     5.9660     7.5820    25.1300     2.2640   -14.5390 
   98.3750    85.0650     8.7760     6.2330     8.0850    24.9860     2.2530   -14.9790 
   98.5000    80.1370     9.1160     6.4760     8.2050    24.8060     2.2530   -15.4300 
   98.6250    84.0280     9.1900     6.5660     8.0170    24.7130     2.2620   -15.8840 
   98.7500    88.4760     9.0720     6.5120     7.8550    24.6820     2.2690   -16.3490 
   98.8750    88.5580     8.9350     6.4060     7.8170    24.6780     2.2710   -16.8520 
   99.0000    85.2970     8.9810     6.3760     7.8350    24.6550     2.2670   -17.3780 
   99.1250    82.9860     9.4080     6.5680     8.0890    24.5900     2.2540   -17.9400 
   99.2500    82.8860    10.1610     6.9910     8.8560    24.5110     2.2380   -18.5050 
   99.3750    83.6500    11.1020     7.6000    10.0300    24.4730     2.2250   -19.0600 
   99.5000    82.7680    11.9940     8.2710    11.2960    24.4670     2.2200   -19.6130 
   99.6250    79.9640    12.4450     8.7550    12.0570    24.4700     2.2160   -20.1520 
   99.7500    76.9240    12.3230     8.8870    11.7910    24.4700     2.2020   -20.6510 
   99.8750    74.3060    11.7290     8.6600    11.0490    24.4670     2.1840   -21.0860 
  100.0000    75.0210    10.9660     8.2270    10.5000    24.4640     2.1740   -21.4200 
  100.1250    79.0840    10.4070     7.8170    10.1140    24.4640     2.1810   -21.6590 
  100.2500    81.6520    10.1730     7.5650     9.7630    24.4650     2.2030   -21.8510 
  100.3750    82.2530    10.2100     7.4820     9.4650    24.4670     2.2310   -22.0250 
  100.5000    83.5210    10.3600     7.5020     9.3700    24.4650     2.2500   -22.1780 
  100.6250    85.4690    10.4490     7.5270     9.4720    24.4640     2.2380   -22.3110 
  100.7500    83.7360    10.4500     7.5130     9.6880    24.4640     2.2090   -22.4380 
  100.8750    78.3310    10.4280     7.4870     9.9080    24.4640     2.1830   -22.5280 
  101.0000    74.0770    10.4490     7.4860    10.0980    24.4660     2.1660   -22.5880 
  101.1250    75.1910    10.5210     7.5270    10.2830    24.4700     2.1550   -22.6090 
  101.2500    77.6770    10.5740     7.5670    10.4060    24.4720     2.1480   -22.5610 
  101.3750    77.2530    10.5480     7.5640    10.4840    24.4700     2.1470   -22.4430 
  101.5000    73.6970    10.4290     7.4960    10.5310    24.4660     2.1520   -22.2650 
  101.6250    70.9960    10.2450     7.3740    10.4010    24.4640     2.1640   -22.0270 
  101.7500    72.1230    10.0620     7.2460    10.0980    24.4640     2.1790   -21.7740 
  101.8750    74.9530     9.9390     7.1540     9.7810    24.4640     2.1930   -21.5390 
  102.0000    77.4510     9.9430     7.1470     9.9010    24.4640     2.2000   -21.3560 
  102.1250    78.0690    10.1360     7.2840    11.3140    24.4650     2.1980   -21.2160 
  102.2500    78.0130    10.4380     7.5300    13.8670    24.4660     2.1920   -21.1310 
  102.3750    77.7280    10.7210     7.8120    15.3570    24.4660     2.1870   -21.0870 
  102.5000    77.0220    10.8460     8.0240    12.9730    24.4660     2.1870   -21.0640 
  102.6250    76.3790    10.7090     8.0560    11.0430    24.4670     2.1870   -21.0090 
  102.7500    77.0410    10.4100     7.9350    10.2930    24.4740     2.1870   -20.9180 
  102.8750    78.3600    10.0580     7.7200    10.0240    24.5130     2.1840   -20.7580 
  103.0000    78.5780     9.7240     7.4710     9.9530    24.6080     2.1810   -20.5030 
  103.1250    77.3410     9.3940     7.1980     9.9340    24.7010     2.1790   -20.1360 
  103.2500    77.1830     9.0040     6.8810     9.7360    24.7650     2.1780   -19.7010 
  103.3750    80.5620     8.5240     6.5000     9.2380    24.8480     2.1800   -19.2440 
  103.5000    87.3440     7.9890     6.0750     8.4530    24.9840     2.1860   -18.8440 
  103.6250    93.1980     7.5190     5.6800     7.5870    25.1080     2.1900   -18.5920 
  103.7500    96.4550     7.2310     5.3990     6.9380    25.1380     2.1840   -18.5120 
  103.8750    97.5930     7.2140     5.2970     6.7200    25.0560     2.1690   -18.6230 
  104.0000    97.9590     7.5320     5.4300     6.8520    24.8490     2.1500   -18.9300 
  104.1250    95.1030     8.2320     5.8670     7.5540    24.6380     2.1380   -19.3820 
  104.2500    88.6000     9.1200     6.5140     8.5840    24.5520     2.1360   -19.9130 
  104.3750    80.8120     9.9520     7.2270     9.1280    24.5360     2.1440   -20.4900 
  104.5000    75.1370    10.4530     7.7970     9.2870    24.5360     2.1580   -21.0430 
  104.6250    76.0530    10.3920     7.9910     9.4620    24.5360     2.1720   -21.5190 
  104.7500    79.4250     9.9870     7.8760     9.3460    24.5360     2.1840   -21.8950 
  104.8750    81.3690     9.5100     7.6100     9.2050    24.5360     2.1900   -22.1600 
  105.0000    80.0480     9.1900     7.3630     9.4290    24.5360     2.1890   -22.3310 
  105.1250    77.6740     9.1330     7.2420    10.1350    24.5360     2.1810   -22.4460 
  105.2500    78.5360     9.2070     7.2120    10.5720    24.5360     2.1720   -22.5330 
  105.3750    80.9080     9.2770     7.2000    10.6110    24.5360     2.1640   -22.5880 
  105.5000    81.1500     9.2450     7.1410    10.2770    24.5360     2.1600   -22.6440 
  105.6250    78.9330     9.1310     7.0260     9.7530    24.5360     2.1650   -22.7310 
  105.7500    79.2090     9.1150     6.9590     9.6640    24.5360     2.1770   -22.8540 
  105.8750    81.9480     9.3430     7.0480    10.0480    24.5360     2.1880   -22.9870 
  106.0000    81.3050     9.8370     7.3410    11.0730    24.5360     2.1940   -23.1140 
  106.1250    76.7140    10.4650     7.7970    11.5270    24.5360     2.1960   -23.2300 
  106.2500    73.2960    10.9900     8.2530    11.5270    24.5360     2.2000   -23.3370 
  106.3750    71.8210    11.2900     8.6010    11.4330    24.5360     2.2060   -23.4350 
  106.5000    70.6350    11.3750     8.8050    11.4620    24.5360     2.2130   -23.5120 
  106.6250    71.2130    11.3430     8.8970    11.5610    24.5360     2.2180   -23.5330 
  106.7500    73.7990    11.3070     8.9540    11.7210    24.5350     2.2220   -23.4790 
  106.8750    75.8290    11.2860     8.9970    11.8510    24.5290     2.2300   -23.3600 
  107.0000    75.1090    11.2360     9.0090    11.7200    24.5100     2.2450   -23.2130 
  107.1250    75.5960    11.0720     8.9260    11.3580    24.4800     2.2560   -23.0660 
  107.2500    78.2670    10.8010     8.7390    11.0830    24.4680     2.2480   -22.9270 
  107.3750    79.7170    10.4980     8.4920    11.0220    24.4670     2.2310   -22.8020 
  107.5000    78.2710    10.2730     8.2670    11.1160    24.4670     2.2200   -22.6890 
  107.6250    76.4010    10.2310     8.1650    11.2070    24.4670     2.2180   -22.5960 
  107.7500    76.8340    10.3250     8.1820    11.2540    24.4650     2.2150   -22.5250 
  107.8750    79.4350    10.4650     8.2690    11.1730    24.4640     2.2090   -22.4810 
  108.0000    82.4500    10.5600     8.3540    11.0130    24.4640     2.2040   -22.4340 
  108.1250    83.9830    10.5670     8.3870    10.7850    24.4640     2.2030   -22.3960 
  108.2500    83.5550    10.5300     8.3860    10.6180    24.4640     2.2030   -22.3820 
  108.3750    81.5330    10.4700     8.3650    10.5290    24.4640     2.2000   -22.3780 
  108.5000    79.0800    10.3900     8.3330    10.4820    24.4730     2.1940   -22.3610 
  108.6250    77.2380    10.2910     8.2870    10.4130    24.5260     2.1900   -22.3400 
  108.7500    76.6570    10.1770     8.2300    10.4190    24.6340     2.1870   -22.3130 
  108.8750    75.9540    10.0520     8.1570    10.5070    24.7450     2.1830   -22.2860 
  109.0000    74.4610     9.9140     8.0660    10.5730    24.8030     2.1770   -22.2580 
  109.1250    73.8150     9.7700     7.9620    10.6690    24.8150     2.1720   -22.2250 
