~V
VERS. 2.00: Ver 2.00
~W
STRT.M 59.0000:
STOP.M 230.0000:
STEP.M 0.1250:
NULL. -999.2500:
UWI. F11001:
~C
DEPT.M :
GR.API :
RML.OHMM :
RI. :
RXO.OHMM :
CALI.CM :
SP.MV :
DEN.GM/CC :
~A
# ...
   70.2500    94.9860     8.9860     7.1950     5.9160    24.9380    -5.1990     2.2520 
   70.3750    92.1730     9.3450     7.4980     6.3350    24.9100    -5.5700     2.2460 
   70.5000    89.8580     9.6500     7.7490     7.5300    24.8820    -5.9320     2.2610 
   70.6250    93.1970     9.7710     7.8330     7.9230    24.7670    -6.2370     2.2910 
   70.7500    98.7720     9.5830     7.6300     7.2330    24.5530    -6.4570     2.3160 
   70.8750    99.9460     9.1510     7.2130     6.4180    24.5120    -6.5680     2.3240 
   71.0000    98.6630     8.5580     6.6770     6.0240    24.6160    -6.5940     2.3180 
   71.1250   100.4060     7.9050     6.1120     5.9800    24.6840    -6.5490     2.3090 
   71.2500   106.3270     7.3440     5.6160     6.0980    24.6160    -6.4410     2.3100 
   71.3750   109.9790     7.0520     5.2990     6.0770    24.4240    -6.4380     2.3290 
   71.5000   109.3770     7.2400     5.2910     5.8040    24.2220    -6.7170     2.3670 
   71.6250   105.8850     8.1020     5.7050     5.6780    24.0300    -7.3880     2.4180 
   71.7500    99.2950     9.8090     6.7000     7.2140    23.9350    -8.5820     2.4550 
   71.8750    91.8080    11.9320     8.1370    12.8950    23.9650   -10.2140     2.4540 
   72.0000    86.0650    13.8370     9.6850    24.3030    24.0680   -12.2360     2.4030 
   72.1250    82.5860    14.8100    10.7360    27.0710    24.1550   -14.5750     2.3170 
   72.2500    79.1850    14.3100    10.6570    17.3280    24.1850   -17.1560     2.2270 
   72.3750    74.8390    12.9780     9.8830    12.7940    24.2170   -19.7670     2.1600 
   72.5000    71.4940    11.5400     8.9840    11.4790    24.3200   -22.2840     2.1220 
   72.6250    71.0940    10.5560     8.3630    11.2630    24.5760   -24.6100     2.1090 
   72.7500    72.6210    10.2860     8.2130    11.1900    25.0000   -26.6060     2.1180 
   72.8750    73.8320    10.4220     8.3660    11.9700    25.4270   -28.2760     2.1390 
   73.0000    75.1230    10.6780     8.6360    13.4730    25.5570   -29.6350     2.1630 
   73.1250    77.1560    10.8250     8.8430    15.2660    25.4140   -30.6830     2.1790 
   73.2500    78.1930    10.7210     8.8430    12.0360    25.2950   -31.3940     2.1790 
   73.3750    75.4460    10.4480     8.6760    11.1400    25.2920   -31.8740     2.1730 
   73.5000    70.1450    10.1130     8.4200    11.2500    25.3350   -32.0870     2.1710 
   73.6250    67.0580     9.7980     8.1530    11.5200    25.3720   -31.9710     2.1750 
   73.7500    70.0760     9.5130     7.8990    10.7930    25.4080   -31.3620     2.1790 
   73.8750    75.5890     9.1950     7.6180     9.1880    25.5120   -30.1560     2.1760 
   74.0000    78.3250     8.7970     7.2700     8.3890    25.7080   -28.1440     2.1730 
   74.1250    79.4810     8.3260     6.8490     9.0530    25.8430   -25.2820     2.1840 
   74.2500    85.2430     7.8480     6.4080     8.2170    25.5680   -21.7740     2.2200 
   74.3750    95.3930     7.4420     6.0220     6.5190    25.1050   -18.1150     2.2690 
   74.5000   105.5780     7.1430     5.7280     5.5730    24.7870   -14.5190     2.3140 
   74.6250   111.2170     6.9540     5.5330     5.3650    24.7000   -11.1250     2.3410 
   74.7500   111.5780     6.8830     5.4450     5.5040    24.8140    -8.1680     2.3460 
   74.8750   112.0670     6.9090     5.4470     5.5750    24.9310    -5.8430     2.3400 
   75.0000   114.2300     7.0300     5.5410     5.6040    24.9520    -4.4330     2.3270 
   75.1250   113.9210     7.2160     5.7130     5.5050    24.9160    -4.0680     2.3080 
   75.2500   106.7100     7.3940     5.9200     5.7840    24.7970    -4.5100     2.2820 
   75.3750    98.1240     7.4830     6.0820     6.7820    24.6420    -5.0110     2.2580 
   75.5000    94.5190     7.4560     6.1580     7.7630    24.4840    -5.2850     2.2470 
   75.6250    96.7640     7.3640     6.1590     7.4590    24.3250    -5.3420     2.2580 
   75.7500   103.7360     7.3440     6.1740     5.8330    24.1360    -5.2780     2.2920 
   75.8750   110.1840     7.4900     6.2820     5.2260    23.9610    -5.1780     2.3310 
   76.0000   110.1210     7.7950     6.4980     5.6100    23.8340    -4.9690     2.3590 
   76.1250   104.2000     8.1500     6.7580     6.9420    23.6810    -4.5400     2.3660 
   76.2500    98.8380     8.3460     6.9030     7.3780    23.5690    -3.9060     2.3540 
   76.3750    98.2570     8.2720     6.8220     6.7070    23.4890    -3.3510     2.3400 
   76.5000   100.8300     7.9290     6.5030     5.8460    23.4150    -3.0240     2.3370 
   76.6250   101.4880     7.4050     6.0310     5.4580    23.3610    -2.8680     2.3470 
   76.7500   102.0690     6.8420     5.5270     5.3960    23.4550    -2.7430     2.3640 
   76.8750   104.6820     6.3960     5.1050     5.4570    23.6450    -2.5850     2.3790 
   77.0000   108.0370     6.2000     4.8620     5.5290    23.8980    -2.5260     2.3950 
   77.1250   109.4540     6.3820     4.8830     5.3260    24.1850    -2.8040     2.4180 
   77.2500   106.0660     7.0920     5.2840     5.1600    24.5370    -3.7450     2.4430 
   77.3750    98.6580     8.1730     6.0080     6.3090    24.8880    -5.4150     2.4530 
   77.5000    87.6740     9.3640     6.9470    10.0590    25.0710    -7.8020     2.4300 
   77.6250    75.4150    10.2800     7.8530    17.5370    25.0400   -10.7420     2.3730 
   77.7500    68.2150    10.4860     8.3130    14.9240    25.0090   -13.9830     2.2960 
   77.8750    66.4120    10.0870     8.2780    12.2360    25.2860   -17.1800     2.2310 
   78.0000    66.9660     9.3850     7.9420    10.9300    25.6560   -20.0960     2.1930 
   78.1250    67.1960     8.7590     7.5830    10.7030    25.9240   -22.4910     2.1810 
   78.2500    65.9220     8.5350     7.4560    10.4570    26.1520   -24.0160     2.1840 
   78.3750    64.0580     8.6550     7.5680    10.3500    26.4120   -24.5820     2.1820 
   78.5000    62.2690     8.9490     7.8050    10.2920    26.5020   -24.1340     2.1710 
   78.6250    61.1980     9.2090     7.9920    10.1320    26.2360   -22.7240     2.1570 
   78.7500    63.8180     9.2430     7.9490    10.1680    25.8440   -20.4310     2.1580 
   78.8750    70.7570     9.0450     7.6740     9.9040    25.5260   -17.7190     2.1780 
   79.0000    79.7530     8.6690     7.2330     8.5390    25.3020   -14.8780     2.2120 
   79.1250    85.7220     8.1920     6.7230     6.9090    25.1730   -12.1460     2.2470 
   79.2500    85.9920     7.6950     6.2410     6.3570    25.1230    -9.7590     2.2680 
   79.3750    86.7410     7.2780     5.8480     6.2660    25.1340    -7.8200     2.2720 
   79.5000    90.8750     7.0980     5.6280     6.3010    25.1430    -6.4540     2.2620 
   79.6250    93.5830     7.4180     5.7150     6.4950    25.1330    -5.7940     2.2510 
   79.7500    89.7550     8.8020     6.4170     7.0540    25.1130    -5.9770     2.2620 
   79.8750    83.4490    11.4670     7.9410     8.4650    25.1090    -6.7280     2.3100 
   80.0000    77.8470    15.4010    10.5270    12.8340    25.0310    -7.9130     2.3960 
   80.1250    73.4040    19.8870    14.1080    26.3090    24.8020    -9.4540     2.4930 
   80.2500    70.5990    22.9630    17.4440    43.7690    24.5480   -11.3340     2.5520 
   80.3750    69.3470    23.2130    18.4610    40.9520    24.3280   -13.4500     2.5480 
   80.5000    67.8830    20.6280    16.6490    24.0020    24.1730   -15.6950     2.4820 
   80.6250    64.7590    16.5740    13.4780    14.5110    24.1980   -17.9010     2.3840 
   80.7500    62.3150    12.9750    10.7200    12.2710    24.3460   -19.9050     2.2900 
   80.8750    63.0260    10.6750     8.8800    11.7620    24.5310   -21.6560     2.2170 
   81.0000    65.2460     9.6040     7.8780    11.6060    24.8620   -23.0600     2.1560 
   81.1250    68.6420     9.3960     7.5160    11.2760    25.2080   -24.0790     2.1010 
   81.2500    72.9070     9.7010     7.6360    11.0380    25.4590   -24.6340     2.0580 
   81.3750    75.6980    10.1340     7.9480    10.8050    25.7330   -24.7560     2.0430 
