~V
VERS. 2.00: Ver 2.00
~W
STRT.M 50.0000:
STOP.M 257.0000:
STEP.M 0.1250:
NULL. -999.2500:
UWI. F11021:
~C
DEPT.M :
GR.API :
RML.OHMM :
RI. :
RXO.OHMM :
CALI.CM :
SP.MV :
DEN.GM/CC :
~A
# ...
  140.0000    64.6590    14.4550    14.0360    14.3530    24.6500    -1.9140     2.4840 
  140.1250    66.3850    13.7300    13.3440    13.5700    24.6850    -1.9810     2.4920 
  140.2500    70.4330    13.0840    12.6760    12.7790    24.8240    -2.0700     2.5110 
  140.3750    77.0380    12.5920    12.1080    11.5860    25.1530    -2.1080     2.5290 
  140.5000    82.0460    12.2850    11.6860    10.3970    25.4860    -2.0420     2.5360 
  140.6250    84.1780    12.2020    11.4610    10.1170    25.5870    -1.9050     2.5270 
  140.7500    82.5020    12.3020    11.4130    10.6690    25.5360    -1.7770     2.5110 
  140.8750    75.2180    12.5680    11.5360    10.9320    25.4960    -1.6940     2.4960 
  141.0000    63.7850    12.9580    11.7990    11.5820    25.5420    -1.6580     2.4890 
  141.1250    57.3120    13.3890    12.1440    12.6500    25.7110    -1.5840     2.4880 
  141.2500    58.4020    13.7330    12.4560    13.9560    25.8830    -1.4530     2.4880 
  141.3750    61.0930    13.9000    12.6490    14.9290    25.9720    -1.3220     2.4860 
  141.5000    62.4100    13.8720    12.6810    14.8040    25.9280    -1.2490     2.4840 
  141.6250    61.7160    13.7280    12.5770    13.6820    25.7100    -1.2690     2.4880 
  141.7500    59.9510    13.6140    12.4560    12.6220    25.5530    -1.2850     2.4950 
  141.8750    57.3930    13.5560    12.3610    12.2720    25.6850    -1.2290     2.4990 
  142.0000    54.7410    13.4410    12.2400    12.5410    26.1040    -1.1330     2.4920 
  142.1250    52.6870    12.9860    11.8890    12.6520    26.4680    -1.1110     2.4710 
  142.2500    54.2410    12.0880    11.1980    13.0110    26.4990    -1.1760     2.4450 
  142.3750    62.2480    10.8260    10.1930    12.1390    26.3180    -1.2810     2.4200 
  142.5000    75.3310     9.4450     9.0450     9.8100    26.0200    -1.3770     2.4000 
  142.6250    87.8360     8.2680     7.9970     7.4550    25.7160    -1.4260     2.3830 
  142.7500    94.9120     7.4150     7.1740     6.8070    25.5900    -1.5110     2.3670 
  142.8750    97.0040     6.8890     6.6020     6.7850    25.5780    -1.6520     2.3500 
  143.0000    95.3110     6.6260     6.2550     6.6770    25.6560    -1.7860     2.3320 
  143.1250    92.5080     6.5770     6.1180     6.3430    25.6970    -1.8260     2.3150 
  143.2500    91.6240     6.6480     6.1190     6.1080    25.5850    -1.8070     2.3010 
  143.3750    93.9520     6.7870     6.2160     6.0330    25.3450    -1.7930     2.2950 
  143.5000    99.6990     6.9280     6.3500     6.0450    25.0560    -1.8100     2.2950 
  143.6250   103.7020     6.9540     6.4160     6.6320    24.8980    -1.8010     2.2980 
  143.7500   104.9990     6.7750     6.3220     7.0990    24.9490    -1.6880     2.3020 
  143.8750   104.7800     6.3530     6.0260     6.6330    25.1280    -1.4840     2.3070 
  144.0000   105.8960     5.7490     5.5670     5.4100    25.3060    -1.2370     2.3140 
  144.1250   108.6590     5.1280     5.0630     4.7350    25.4490    -1.0030     2.3230 
  144.2500   109.6820     4.6560     4.6390     4.4990    25.5690    -0.7730     2.3290 
  144.3750   110.3890     4.4040     4.3580     4.4050    25.5310    -0.4920     2.3320 
  144.5000   110.5590     4.3710     4.2330     4.3820    25.2170    -0.1440     2.3360 
  144.6250   109.1000     4.5070     4.2550     4.5100    24.8230     0.1580     2.3460 
  144.7500   106.4070     4.6860     4.3440     4.7210    24.6590     0.3440     2.3600 
  144.8750   103.5100     4.8370     4.4460     4.9020    24.6270     0.4160     2.3720 
  145.0000   103.8030     4.9240     4.5200     4.9820    24.6280     0.4420     2.3780 
  145.1250   107.3950     4.9240     4.5310     4.9440    24.6290     0.4770     2.3790 
  145.2500   111.5410     4.8660     4.4860     4.8970    24.6310     0.4720     2.3820 
  145.3750   114.2320     4.7850     4.4090     4.8620    24.6310     0.3670     2.3930 
  145.5000   113.0260     4.7250     4.3350     4.8660    24.6230     0.1860     2.4080 
  145.6250   108.6420     4.7420     4.3060     4.8570    24.6140     0.0390     2.4240 
  145.7500   106.4520     4.8430     4.3340     4.8800    24.6100    -0.0920     2.4320 
  145.8750   108.3210     5.0150     4.4120     5.0340    24.6200    -0.2600     2.4320 
  146.0000   109.9300     5.2180     4.5200     5.3360    24.6270    -0.4800     2.4260 
  146.1250   107.7530     5.3910     4.6190     5.5090    24.6270    -0.7470     2.4160 
  146.2500   108.0900     5.4880     4.6820     5.5280    24.6270    -0.9770     2.4060 
  146.3750   112.7460     5.4940     4.6940     5.4510    24.6220    -1.0930     2.3990 
  146.5000   114.6430     5.4190     4.6560     5.3040    24.6070    -1.1630     2.3940 
  146.6250   110.6680     5.2920     4.5760     5.1880    24.5670    -1.2620     2.3920 
  146.7500   109.3120     5.1510     4.4810     5.1240    24.5360    -1.3370     2.3930 
  146.8750   112.4460     5.0200     4.3870     5.0640    24.5250    -1.3430     2.3960 
  147.0000   116.2460     4.9220     4.3110     4.9730    24.5270    -1.3040     2.4020 
  147.1250   118.4510     4.8910     4.2680     4.9640    24.5420    -1.2230     2.4070 
  147.2500   118.2390     4.9280     4.2550     4.9770    24.5460    -1.1420     2.4060 
  147.3750   115.4640     5.0150     4.2680     4.9720    24.5470    -1.1070     2.3980 
  147.5000   113.4840     5.1130     4.2950     4.9700    24.5320    -1.0530     2.3840 
  147.6250   116.5740     5.1720     4.3190     4.9850    24.5030    -0.9650     2.3700 
  147.7500   118.6970     5.1850     4.3320     5.0710    24.4870    -0.9130     2.3640 
  147.8750   114.9190     5.1770     4.3350     5.1180    24.4860    -0.9250     2.3670 
  148.0000   108.4750     5.1820     4.3340     5.0920    24.4980    -0.9740     2.3800 
  148.1250   104.4680     5.2200     4.3440     5.0720    24.5130    -1.0050     2.3950 
  148.2500   105.6480     5.2730     4.3700     5.0990    24.5170    -0.9920     2.4060 
  148.3750   110.4100     5.3210     4.4110     5.1190    24.5130    -0.9710     2.4090 
  148.5000   112.4330     5.3420     4.4590     5.1000    24.4930    -0.9860     2.4020 
  148.6250   107.6660     5.3240     4.4990     5.0970    24.5310    -0.9730     2.3900 
  148.7500   104.4710     5.2850     4.5220     5.0730    24.6220    -0.8730     2.3770 
  148.8750   106.9190     5.2410     4.5250     5.0810    24.6820    -0.7190     2.3660 
  149.0000   111.2760     5.2090     4.5140     5.0990    24.6990    -0.5960     2.3550 
  149.1250   113.4220     5.1900     4.4920     5.1320    24.6900    -0.5820     2.3450 
  149.2500   115.6340     5.1670     4.4580     5.1290    24.6630    -0.6450     2.3370 
  149.3750   117.9460     5.1160     4.4060     5.1680    24.6260    -0.7160     2.3320 
  149.5000   119.8320     5.0240     4.3290     5.2500    24.5770    -0.8090     2.3350 
  149.6250   120.9750     4.8850     4.2220     4.9880    24.5120    -1.0320     2.3460 
  149.7500   120.9880     4.7260     4.0960     4.7230    24.4110    -1.3340     2.3630 
  149.8750   120.5910     4.5720     3.9690     4.4950    24.3050    -1.6320     2.3830 
  150.0000   118.7310     4.4490     3.8550     4.2960    24.2230    -1.8530     2.4020 
  150.1250   113.0820     4.3760     3.7750     4.2330    24.1720    -1.9610     2.4170 
  150.2500   107.6220     4.3340     3.7330     4.1880    24.1550    -2.0150     2.4250 
  150.3750   108.6200     4.3040     3.7230     4.1240    24.1490    -2.0860     2.4260 
  150.5000   114.1540     4.2810     3.7380     4.1390    24.1370    -2.1640     2.4240 
  150.6250   113.9020     4.2920     3.7750     4.3220    24.0850    -2.1630     2.4200 
  150.7500   110.7960     4.3680     3.8330     4.5060    24.0420    -2.1180     2.4170 
  150.8750   110.6420     4.5230     3.9210     4.4550    24.0120    -2.0740     2.4150 
  151.0000   112.3450     4.7430     4.0420     4.3900    23.9960    -2.0420     2.4160 
  151.1250   112.2940     4.9750     4.1830     4.5050    24.0490    -2.0180     2.4220 
