~V
VERS. 2.00: Ver 2.00
~W
STRT.M 63.0000:
STOP.M 273.0000:
STEP.M 0.1250:
NULL. -999.2500:
UWI. F11030:
~C
DEPT.M :
DEN.GM/CC :
GR.API :
RML.OHMM :
RI. :
RXO.OHMM :
CALI.CM :
SP.MV :
~A
# ...
  243.0000     2.2910    68.4500    28.7560    27.8460    26.5010    24.9680    -8.6890 
  243.1250     2.2940    63.2800    28.0810    27.0880    23.3240    24.9020    -8.5290 
  243.2500     2.2930    60.5220    27.4740    26.3300    22.2490    24.8090    -8.5560 
  243.3750     2.2850    60.3220    27.0410    25.7340    22.5440    24.6720    -8.7070 
  243.5000     2.2700    61.7560    26.7460    25.2620    22.9010    24.4620    -8.8720 
  243.6250     2.2530    64.0110    26.5360    24.8070    22.7680    24.0730    -9.0960 
  243.7500     2.2430    66.4760    26.4660    24.3920    21.8010    23.6450    -9.3800 
  243.8750     2.2440    68.3890    26.7480    24.2220    19.8070    23.4210    -9.6600 
  244.0000     2.2590    70.0610    27.6370    24.5800    18.4660    23.6520    -9.9490 
  244.1250     2.2810    72.7060    29.4150    25.8430    19.6450    24.1190   -10.1740 
  244.2500     2.3410    75.7590    31.7820    27.8650    25.6870    24.5070   -10.2850 
  244.3750     2.3760    78.7940    34.2600    30.2870    32.7980    24.7020   -10.3530 
  244.5000     2.3970    80.6920    36.1970    32.4660    36.1590    24.7030   -10.4580 
  244.6250     2.3960    79.4940    36.8240    33.4540    34.0010    24.6180   -10.5030 
  244.7500     2.3730    75.1060    36.2680    33.1250    30.1530    24.3650   -10.4850 
  244.8750     2.3300    70.3350    34.9560    31.8710    28.2490    24.2410   -10.4480 
  245.0000     2.2830    68.2260    33.4710    30.3590    27.8060    24.4120   -10.3380 
  245.1250     2.2460    67.4160    32.3230    29.1450    27.5850    24.7480   -10.1690 
  245.2500     2.2370    64.9440    31.6220    28.3180    27.6190    24.9020    -9.9860 
  245.3750     2.2630    60.8630    31.3700    27.8700    28.6190    24.8800    -9.7560 
  245.5000     2.3050    58.1550    31.5480    27.8450    28.7720    24.8400    -9.4670 
  245.6250     2.3400    59.2720    32.0820    28.3460    27.4810    24.8700    -9.1930 
  245.7500     2.3530    61.9140    32.5590    29.0710    26.7410    24.9800    -8.9010 
  245.8750     2.3480    64.4040    32.4650    29.4860    29.7600    25.1020    -8.5770 
  246.0000     2.3420    65.2570    31.3350    28.9330    37.9920    25.1710    -8.2860 
  246.1250     2.3430    65.5890    28.9110    26.8980    42.0420    25.1030    -7.9800 
  246.2500     2.3460    68.6500    25.8850    24.0710    34.7510    24.9280    -7.6710 
  246.3750     2.3440    73.4470    22.9470    21.2160    22.3700    24.8010    -7.4280 
  246.5000     2.3370    75.8240    20.6510    18.9100    16.9440    24.7690    -7.3550 
  246.6250     2.3350    72.7750    19.3330    17.4880    16.9280    24.8170    -7.4360 
  246.7500     2.3420    66.8420    18.6650    16.6990    17.7930    24.8680    -7.5180 
  246.8750     2.3530    62.9390    18.3220    16.2740    16.8180    24.8530    -7.5530 
  247.0000     2.3550    64.8280    18.0270    15.9310    15.9450    24.8570    -7.5640 
  247.1250     2.3410    71.4880    17.6590    15.5040    15.3870    24.8850    -7.5910 
  247.2500     2.3110    75.8010    17.3140    15.0730    14.8080    24.9190    -7.5980 
  247.3750     2.2790    73.4830    17.1190    14.7850    14.4150    24.9490    -7.5180 
  247.5000     2.2700    68.8390    17.1180    14.7340    14.0920    24.9660    -7.2680 
  247.6250     2.3020    68.2930    17.2210    14.8500    14.1550    24.9630    -6.8540 
  247.7500     2.3720    70.6550    17.2380    14.8400    14.2900    24.9250    -6.5260 
  247.8750     2.4570    71.7900    17.0870    14.5400    13.2010    24.8550    -6.3680 
  248.0000     2.5230    68.3160    16.8150    14.0190    12.8880    24.8710    -6.2900 
  248.1250     2.5640    63.2980    16.5980    13.6010    13.6710    24.8720    -6.2320 
  248.2500     2.5870    56.2300    16.2730    13.1110    11.2270    24.9080    -6.2140 
  248.3750     2.6030    51.4830    15.8640    12.8750    12.9300    24.8600    -6.3270 
  248.5000     2.6090    46.5870    15.0120    12.3170    18.3410    24.8000    -6.5630 
  248.6250     2.5910    46.1690    13.6470    11.2510    16.8180    24.7850    -6.8240 
  248.7500     2.5390    51.0760    11.8500     9.8250    10.1060    24.8190    -6.9520 
  248.8750     2.4610    54.8220     9.9400     8.4380     6.0540    24.7710    -6.9470 
  249.0000     2.3850    55.1840     8.4110     7.3650     4.9150    24.9760    -6.8920 
  249.1250     2.3320    54.9900     7.5280     6.6880     4.6480    25.4240    -6.8620 
  249.2500     2.3130    55.9080     7.2260     6.3770     4.7070    25.8240    -6.8120 
  249.3750     2.3240    58.2600     7.2450     6.3500     4.7830    25.8750    -6.6210 
  249.5000     2.3440    60.7130     7.3410     6.4250     4.8100    25.8090    -6.2940 
  249.6250     2.3580    61.3160     7.4470     6.5160     4.7860    25.4180    -5.9160 
  249.7500     2.3580    59.9200     7.5160     6.5790     4.7880    24.9570    -5.6150 
  249.8750     2.3490    60.5270     7.5330     6.5880     4.8090    24.9030    -5.4240 
  250.0000     2.3410    64.3430     7.5160     6.5570     4.8110    25.1240    -5.2890 
  250.1250     2.3410    66.2310     7.4880     6.5040     4.8050    25.2010    -5.2440 
  250.2500     2.3500    61.7120     7.4730     6.4420     4.7880    25.0160    -5.2690 
  250.3750     2.3640    55.2750     7.4970     6.3860     4.7860    24.8380    -5.3510 
  250.5000     2.3780    55.4420     7.5530     6.3410     4.7690    24.6890    -5.4920 
  250.6250     2.3900    60.3500     7.6290     6.3090     4.8280    24.6420    -5.6080 
  250.7500     2.3970    62.1100     7.7090     6.2920     4.9810    24.7540    -5.7610 
  250.8750     2.3950    58.8000     7.7860     6.2960     5.2800    24.9000    -5.9790 
  251.0000     2.3890    56.9020     7.8630     6.3200     5.5930    25.0580    -6.0910 
  251.1250     2.3840    58.6550     7.9470     6.3610     5.6810    25.1430    -6.1320 
  251.2500     2.3860    61.5760     8.0360     6.4160     5.7830    25.0730    -6.1870 
  251.3750     2.3950    63.3170     8.1220     6.4770     6.1530    24.8210    -6.2170 
  251.5000     2.4040    62.3740     8.1910     6.5280     6.2520    24.7310    -6.2870 
  251.6250     2.4040    59.9970     8.2320     6.5570     5.9170    24.7920    -6.3920 
  251.7500     2.3940    59.2130     8.2460     6.5590     5.6800    24.9820    -6.5200 
  251.8750     2.3810    60.4390     8.2390     6.5340     5.7280    25.2530    -6.6380 
  252.0000     2.3730    64.3360     8.2260     6.4990     5.7390    25.2690    -6.6760 
  252.1250     2.3760    70.1580     8.2180     6.4650     5.7960    25.1710    -6.6840 
  252.2500     2.3860    74.2390     8.2180     6.4400     5.9360    25.0100    -6.6790 
  252.3750     2.3920    72.3090     8.2310     6.4300     6.1110    24.8910    -6.5180 
  252.5000     2.3910    67.3910     8.2590     6.4370     6.3100    24.7880    -6.2440 
  252.6250     2.3850    63.6610     8.3060     6.4580     6.4040    24.7350    -5.9490 
  252.7500     2.3810    61.1580     8.3820     6.4940     6.4530    24.7840    -5.5090 
  252.8750     2.3930    60.7410     8.5070     6.5580     6.4650    24.9430    -5.0350 
  253.0000     2.4170    62.7390     8.6870     6.6670     6.6180    25.0160    -4.6770 
  253.1250     2.4460    64.0370     8.9250     6.8290     6.9150    24.9550    -4.3540 
  253.2500     2.4700    62.8490     9.2100     7.0420     7.1070    24.8210    -4.1380 
  253.3750     2.4820    59.6220     9.5120     7.2840     7.1150    24.7920    -4.0850 
  253.5000     2.4840    57.5410     9.7890     7.5180     7.1220    24.8190    -4.0480 
  253.6250     2.4820    57.4140    10.0170     7.7190     7.2440    24.8950    -4.0470 
  253.7500     2.4790    59.8680    10.1830     7.8790     7.3500    24.9140    -4.0720 
  253.8750     2.4790    62.0310    10.2830     7.9950     7.5000    24.8670    -4.0680 
  254.0000     2.4800    63.8710    10.3420     8.0780     7.5710    24.7810    -4.1150 
  254.1250     2.4830    66.0220    10.3810     8.1380     7.5870    24.7550    -4.0670 
