~V
VERS. 2.00: Ver 2.00
~W
STRT.M 47.0000:
STOP.M 270.0000:
STEP.M 0.1250:
NULL. -999.2500:
UWI. F11075:
~C
DEPT.M :
GR.API :
RML.OHMM :
RI. :
RXO.OHMM :
CALI.CM :
DEN.GM/CC :
SP.MV :
~A
# ...
   58.2500    83.0550     6.1810     5.5670     7.1080    25.0220     2.2480   -21.2810 
   58.3750    84.6660     6.6550     5.8690     7.2310    25.0250     2.2560   -21.2550 
   58.5000    86.6090     7.3700     6.2730     7.6110    25.0260     2.2500   -21.3210 
   58.6250    83.8230     8.2030     6.7070     8.4480    25.0230     2.2300   -21.4860 
   58.7500    76.6360     8.9770     7.0860     9.6650    25.0240     2.1970   -21.6840 
   58.8750    72.9270     9.4040     7.2930    10.3040    25.0350     2.1670   -21.8400 
   59.0000    74.3880     9.3570     7.2860    10.2220    25.0720     2.1500   -21.8890 
   59.1250    77.6550     8.8430     7.0680     9.4410    25.1390     2.1540   -21.8180 
   59.2500    80.7360     8.0280     6.7060     8.0790    25.1870     2.1740   -21.6630 
   59.3750    84.7230     7.1970     6.3120     6.8690    25.1950     2.2010   -21.4480 
   59.5000    89.6180     6.5990     6.0020     6.3400    25.1690     2.2250   -21.2530 
   59.6250    91.6470     6.3510     5.8350     6.3310    25.1240     2.2430   -21.1120 
   59.7500    89.2120     6.4860     5.8500     6.5550    25.0830     2.2550   -21.0700 
   59.8750    84.3560     7.0120     6.0950     6.7430    25.0480     2.2560   -21.1780 
   60.0000    79.1490     7.7350     6.5000     7.4170    25.0280     2.2450   -21.3960 
   60.1250    74.2770     8.4510     6.9670     8.4820    25.0490     2.2230   -21.6520 
   60.2500    71.1460     8.9230     7.3490     9.0310    25.1020     2.1970   -21.8690 
   60.3750    71.3980     8.8950     7.4510     9.4260    25.1400     2.1800   -21.9400 
   60.5000    73.3770     8.4490     7.2740     8.8790    25.1900     2.1780   -21.8470 
   60.6250    76.8970     7.7620     6.9040     7.6870    25.2400     2.1880   -21.5890 
   60.7500    82.4190     7.0670     6.4990     6.7480    25.2380     2.2010   -21.2390 
   60.8750    86.5270     6.6010     6.2300     6.5560    25.1970     2.2080   -20.8290 
   61.0000    88.0970     6.4210     6.1550     6.5600    25.1230     2.2120   -20.4080 
   61.1250    88.8600     6.5150     6.2700     6.7180    25.0500     2.2160   -20.0260 
   61.2500    88.9520     6.8080     6.5060     6.4610    25.0020     2.2210   -19.7160 
   61.3750    87.3810     7.1540     6.7240     6.9560    24.9600     2.2230   -19.5170 
   61.5000    85.4190     7.3480     6.7740     7.5490    24.9120     2.2210   -19.3940 
   61.6250    85.3540     7.2520     6.5640     7.2770    24.8420     2.2190   -19.3160 
   61.7500    88.3610     6.8460     6.0980     6.4120    24.8480     2.2250   -19.2340 
   61.8750    92.8750     6.2610     5.5060     5.8180    24.9990     2.2480   -19.1480 
   62.0000    96.7810     5.7720     5.0130     5.2480    25.1990     2.2810   -19.0650 
   62.1250    97.5220     5.5750     4.7690     4.8620    25.2980     2.3140   -19.0270 
   62.2500    93.3990     5.8190     4.8790     5.0710    25.3140     2.3410   -19.0730 
   62.3750    86.1010     6.7660     5.5420     7.4270    25.3130     2.3630   -19.2120 
   62.5000    79.4230     8.5290     6.8650    12.8380    25.3280     2.3850   -19.4510 
   62.6250    74.6260    11.3380     9.0980    19.8150    25.3530     2.4140   -19.7880 
   62.7500    70.9720    15.2910    12.4960    24.8250    25.3640     2.4560   -20.1580 
   62.8750    67.6000    19.8910    17.0850    30.7050    25.3610     2.5150   -20.5460 
   63.0000    64.6440    23.4650    21.4000    46.9400    25.3510     2.5790   -20.9780 
   63.1250    61.9980    24.4780    23.4350    64.5890    25.3090     2.6290   -21.4270 
   63.2500    59.7240    22.4750    22.0760    53.3110    25.1820     2.6380   -21.8570 
   63.3750    59.5660    18.4520    18.2430    27.8160    25.0440     2.5760   -22.2790 
   63.5000    62.5580    14.5740    14.3760    14.8090    25.0090     2.4640   -22.6520 
   63.6250    68.2620    11.8000    11.4230    11.2810    25.0780     2.3340   -22.9600 
   63.7500    72.3140    10.2970     9.5660    10.7830    25.1890     2.2220   -23.2490 
   63.8750    71.6130     9.9280     8.7750    11.5610    25.3360     2.1610   -23.4730 
   64.0000    71.1940    10.1150     8.6310    12.5810    25.3670     2.1420   -23.5760 
   64.1250    73.5150    10.5060     8.8790    12.4110    25.2600     2.1460   -23.5470 
   64.2500    73.9780    10.8050     9.2360    11.6260    25.1440     2.1520   -23.3670 
   64.3750    69.5340    10.7730     9.4060    11.4770    25.1580     2.1470   -23.0270 
   64.5000    68.6100    10.4320     9.2980    11.5160    25.1550     2.1400   -22.6020 
   64.6250    76.2830     9.8720     8.9390    10.9060    25.0050     2.1450   -22.1280 
   64.7500    87.1520     9.2410     8.4370     9.4090    24.8530     2.1720   -21.6320 
   64.8750    91.6930     8.7370     7.9330     8.2440    24.8770     2.2130   -21.2050 
   65.0000    91.3630     8.4790     7.5420     7.8540    24.9500     2.2460   -20.8850 
   65.1250    89.9200     8.5120     7.3260     7.7890    24.9260     2.2550   -20.7080 
   65.2500    87.6840     8.8080     7.3000     7.8720    24.7580     2.2410   -20.7020 
   65.3750    82.1780     9.2690     7.4570     8.6820    24.5750     2.2140   -20.8750 
   65.5000    77.3210     9.7170     7.6930     9.7490    24.5150     2.1880   -21.1640 
   65.6250    75.1270    10.0450     7.9120    10.5810    24.5220     2.1730   -21.5520 
   65.7500    73.5090    10.2360     8.0630    10.9530    24.5430     2.1700   -21.9920 
   65.8750    71.1520    10.3990     8.1890    10.9910    24.5700     2.1810   -22.4330 
   66.0000    69.5280    10.7340     8.4170    11.0740    24.5900     2.1990   -22.8450 
   66.1250    69.1980    11.3780     8.8650    11.3030    24.5960     2.2140   -23.2080 
   66.2500    69.2480    12.3370     9.5800    11.5960    24.5950     2.2140   -23.5010 
   66.3750    69.4330    13.3740    10.4770    13.5640    24.6250     2.1910   -23.7340 
   66.5000    67.9900    14.0520    11.2370    20.9580    24.6870     2.1540   -23.9520 
   66.6250    65.4390    14.0660    11.5600    35.5550    24.7300     2.1170   -24.1480 
   66.7500    64.8760    13.3840    11.3190    38.2850    24.6690     2.0900   -24.3220 
   66.8750    66.8110    12.2690    10.6250    24.4120    24.4300     2.0750   -24.4610 
   67.0000    67.5540    11.2240     9.8600    14.4840    24.1510     2.0640   -24.5790 
   67.1250    66.8520    10.4960     9.2290    11.5280    24.0030     2.0510   -24.6740 
   67.2500    65.4230    10.1340     8.8070    11.9510    24.1000     2.0410   -24.7470 
   67.3750    62.4210    10.0650     8.5770    13.0630    24.2530     2.0430   -24.7820 
   67.5000    59.6660    10.0870     8.4220    12.8470    24.3610     2.0620   -24.7770 
   67.6250    59.6770    10.1140     8.2850    11.2610    24.3790     2.0900   -24.7440 
   67.7500    63.8850    10.1340     8.1510    10.5100    24.3310     2.1170   -24.7040 
   67.8750    68.6640    10.1910     8.0560    10.4740    24.2470     2.1330   -24.6550 
   68.0000    69.5590    10.3070     8.0110    10.7320    24.2180     2.1400   -24.6050 
   68.1250    67.6650    10.4570     8.0080    11.0920    24.2160     2.1420   -24.5450 
   68.2500    66.8160    10.5950     8.0230    11.1380    24.2140     2.1430   -24.4780 
   68.3750    70.2410    10.6650     8.0220    11.0250    24.1990     2.1430   -24.4210 
   68.5000    72.8280    10.6730     8.0030    11.0040    24.1760     2.1420   -24.3750 
   68.6250    71.8520    10.6350     7.9790    11.0240    24.1550     2.1390   -24.3410 
   68.7500    69.3830    10.5660     7.9550    11.0400    24.1470     2.1340   -24.3170 
   68.8750    68.0390    10.4650     7.9350    10.9200    24.1460     2.1300   -24.3020 
   69.0000    68.0600    10.3440     7.9040    10.8940    24.1430     2.1300   -24.2770 
   69.1250    67.6320    10.2180     7.8580    10.6560    24.1450     2.1330   -24.2410 
   69.2500    66.3120    10.1040     7.8030    10.2820    24.1680     2.1380   -24.2000 
   69.3750    65.4710    10.0100     7.7570    10.0590    24.2530     2.1390   -24.1800 
