~V
VERS. 2.00: Ver 2.00
~W
STRT.M 57.0000:
STOP.M 283.0000:
STEP.M 0.1250:
NULL. -999.2500:
UWI. F11039:
~C
DEPT.M :
SP.MV :
GR.API :
RML.OHMM :
RI. :
RXO.OHMM :
CALI.CM :
DEN.GM/CC :
~A
# ...
  158.2500    -5.9170    55.1770    69.5810    60.4240    73.0570    24.8690     2.1950 
  158.3750    -5.9800    51.0290    68.8080    60.2460    77.3490    24.7930     2.1930 
  158.5000    -6.0520    49.5840    64.7770    57.3510    77.9520    24.7350     2.1930 
  158.6250    -6.1100    53.5730    58.2480    52.2020    74.8490    24.7660     2.1980 
  158.7500    -6.1500    59.8420    51.0450    46.2270    69.5330    24.8350     2.2090 
  158.8750    -6.1740    62.4200    45.7600    41.5740    54.4370    24.8590     2.2210 
  159.0000    -6.2030    61.7680    43.4840    39.2830    38.1710    24.8500     2.2300 
  159.1250    -6.2510    61.9940    44.2660    39.5340    30.6770    24.8350     2.2300 
  159.2500    -6.3050    63.7830    47.3440    41.8840    34.1410    24.8250     2.2250 
  159.3750    -6.3630    62.7640    51.3110    45.3970    45.4000    24.8150     2.2190 
  159.5000    -6.4160    59.1130    54.2530    48.4160    59.4250    24.7950     2.2170 
  159.6250    -6.5000    57.2410    54.9060    49.6730    64.9160    24.7570     2.2200 
  159.7500    -6.6120    59.3290    52.8150    48.4830    54.9500    24.6980     2.2270 
  159.8750    -6.7370    62.0680    48.4170    44.9380    47.0370    24.6730     2.2310 
  160.0000    -6.8750    63.2860    43.5020    40.6260    43.9620    24.6800     2.2330 
  160.1250    -7.0090    64.0000    39.1550    36.5880    41.9970    24.7000     2.2340 
  160.2500    -7.1260    64.4910    35.9890    33.4470    37.5670    24.7130     2.2350 
  160.3750    -7.2340    65.4270    34.4990    31.6820    33.4480    24.7290     2.2370 
  160.5000    -7.3200    65.8680    34.4140    31.1180    30.9040    24.7610     2.2390 
  160.6250    -7.3600    65.3250    35.4950    31.6200    31.2310    24.8070     2.2400 
  160.7500    -7.3730    64.6360    37.3350    32.9230    34.1820    24.8680     2.2410 
  160.8750    -7.3620    64.6750    39.4300    34.6830    39.3320    24.9420     2.2410 
  161.0000    -7.3280    64.2050    41.3600    36.4720    44.1690    25.0000     2.2400 
  161.1250    -7.2700    62.0520    43.0710    38.1400    46.2230    25.0190     2.2380 
  161.2500    -7.1850    60.4570    44.7360    39.7290    46.3840    25.0040     2.2360 
  161.3750    -7.0710    61.0230    46.5910    41.3810    46.4030    24.9770     2.2360 
  161.5000    -6.9730    61.3540    48.5420    43.0690    48.3260    24.9370     2.2360 
  161.6250    -6.8880    60.5100    50.2140    44.5290    53.3330    24.8870     2.2380 
  161.7500    -6.7900    59.0420    51.1140    45.3630    56.5890    24.8370     2.2400 
  161.8750    -6.7040    58.2020    50.6800    45.0530    54.8260    24.8140     2.2430 
  162.0000    -6.6050    59.7390    49.1310    43.7290    48.7370    24.7920     2.2480 
  162.1250    -6.5060    63.2130    46.7800    41.6370    42.9120    24.7600     2.2560 
  162.2500    -6.4380    65.5660    43.9900    39.1090    38.8040    24.7280     2.2630 
  162.3750    -6.4230    63.8900    41.0530    36.4300    37.4590    24.7050     2.2660 
  162.5000    -6.4150    61.5790    38.2430    33.8660    37.5210    24.6940     2.2650 
  162.6250    -6.4340    60.9880    35.8170    31.6430    36.8650    24.6700     2.2620 
  162.7500    -6.4770    60.9250    34.0600    29.9990    33.8150    24.6160     2.2590 
  162.8750    -6.5280    60.6480    33.3560    29.2600    30.0040    24.5830     2.2560 
  163.0000    -6.6150    61.5410    33.5760    29.3370    28.3370    24.5970     2.2530 
  163.1250    -6.7300    64.5530    34.5080    30.0940    29.0280    24.6500     2.2500 
  163.2500    -6.8330    65.9380    35.7890    31.2610    31.2570    24.6800     2.2500 
  163.3750    -6.9060    63.3610    36.9280    32.4550    33.3970    24.6780     2.2550 
  163.5000    -6.9590    62.1050    37.5930    33.3300    35.2180    24.6640     2.2650 
  163.6250    -6.9930    63.6390    37.6740    33.7370    35.2660    24.6300     2.2740 
  163.7500    -7.0300    65.9180    37.2170    33.6680    34.6720    24.5570     2.2780 
  163.8750    -7.0670    66.7130    36.2320    33.1010    34.2150    24.4360     2.2750 
  164.0000    -7.0860    67.4360    34.8000    32.1060    33.8550    24.2720     2.2710 
  164.1250    -7.0820    68.5860    32.9120    30.6770    33.4240    24.0690     2.2700 
  164.2500    -7.1110    67.9670    30.6690    28.9000    32.5310    23.8620     2.2730 
  164.3750    -7.1760    68.7180    28.3710    27.0230    30.2580    23.9140     2.2790 
  164.5000    -7.2400    71.9460    26.4040    25.3820    26.7790    24.1790     2.2810 
  164.6250    -7.2910    74.8000    24.9900    24.1670    23.9210    24.4980     2.2790 
  164.7500    -7.3330    75.1860    24.1490    23.4100    22.4390    24.6910     2.2750 
  164.8750    -7.3580    74.1370    23.7450    23.0240    23.0490    24.7350     2.2710 
  165.0000    -7.3890    73.9120    23.4390    22.7370    23.6050    24.7350     2.2720 
  165.1250    -7.4290    74.9940    23.0500    22.3880    23.8400    24.7250     2.2770 
  165.2500    -7.4320    77.4100    22.5240    21.9130    23.2660    24.7130     2.2830 
  165.3750    -7.4140    79.7550    21.9480    21.3760    22.4880    24.6950     2.2870 
  165.5000    -7.4330    79.2070    21.5110    20.9500    21.5990    24.6870     2.2860 
  165.6250    -7.4890    77.4320    21.3880    20.7860    21.1380    24.6830     2.2820 
  165.7500    -7.5750    77.0280    21.7740    21.0300    21.9770    24.6840     2.2780 
  165.8750    -7.6910    76.3210    23.0990    22.0020    22.9080    24.6800     2.2760 
  166.0000    -7.8290    73.7780    25.6080    23.8980    23.9940    24.6710     2.2750 
  166.1250    -7.9890    70.2910    29.5740    27.0030    25.3660    24.6510     2.2710 
  166.2500    -8.1750    66.9440    34.9870    31.4470    28.7240    24.6200     2.2620 
  166.3750    -8.3690    63.9340    41.2400    36.9710    35.7850    24.5970     2.2490 
  166.5000    -8.5540    62.0490    46.7300    42.2530    47.0050    24.5910     2.2380 
  166.6250    -8.7480    62.2550    49.9310    45.8550    60.1150    24.6040     2.2350 
  166.7500    -8.9390    64.7160    49.8900    46.5880    63.3180    24.6190     2.2410 
  166.8750    -9.1200    67.1440    46.9170    44.2110    59.5680    24.6280     2.2540 
  167.0000    -9.2760    67.7830    44.0810    41.3920    53.4410    24.6410     2.2680 
  167.1250    -9.4140    67.5500    44.6330    40.7260    45.4180    24.6630     2.2780 
  167.2500    -9.5580    66.6100    50.7730    44.3470    39.5300    24.6800     2.2770 
  167.3750    -9.6800    64.2700    65.1320    54.7590    45.0560    24.6840     2.2640 
  167.5000    -9.7820    60.7370    85.2410    70.7240    68.6540    24.6740     2.2440 
  167.6250    -9.8460    58.7210   105.8460    89.2960   109.4080    24.6530     2.2230 
  167.7500    -9.9010    59.3980   120.4900   105.2430   171.2840    24.6030     2.2070 
  167.8750    -9.9400    60.0520   121.5140   110.2100   233.4600    24.5050     2.2020 
  168.0000    -9.9600    61.1910   109.5470   102.8390   185.6680    24.4150     2.2070 
  168.1250    -9.9670    64.0440    91.2910    87.8460   100.5810    24.3830     2.2210 
  168.2500    -9.9770    66.8260    75.2160    73.0290    56.2660    24.3510     2.2400 
  168.3750    -9.9980    66.0010    66.2840    63.9910    39.8860    24.3030     2.2600 
  168.5000   -10.0540    63.4810    62.9560    60.1340    32.6100    24.2790     2.2750 
  168.6250   -10.1180    61.2620    63.9110    60.3690    32.9650    24.2750     2.2810 
  168.7500   -10.1620    58.7120    68.0370    63.7270    41.3090    24.2770     2.2780 
  168.8750   -10.2460    56.6870    74.7100    69.7340    50.5960    24.2800     2.2690 
  169.0000   -10.3820    57.1250    82.7370    77.2230    57.7870    24.2910     2.2580 
  169.1250   -10.5510    59.3010    91.4600    85.4670    65.9310    24.3200     2.2490 
  169.2500   -10.7310    59.9340   100.2240    93.6930    76.7350    24.3810     2.2420 
  169.3750   -10.9120    60.2230   108.2440   100.9490    88.5300    24.4830     2.2390 
