~V
VERS. 2.00: Ver 2.00
~W
STRT.M 55.0000:
STOP.M 281.0000:
STEP.M 0.1250:
NULL. -999.2500:
UWI. F11051:
~C
DEPT.M :
SP.MV :
GR.API :
RML.OHMM :
RI. :
RXO.OHMM :
CALI.CM :
DEN.GM/CC :
~A
   55.0000    19.6730  -999.2500  -999.2500  -999.2500  -999.2500  -999.2500  -999.2500 
   55.1250    19.8420  -999.2500  -999.2500  -999.2500  -999.2500  -999.2500  -999.2500 
   55.2500    20.3070  -999.2500  -999.2500  -999.2500  -999.2500  -999.2500  -999.2500 
   55.3750    21.0320  -999.2500  -999.2500  -999.2500  -999.2500  -999.2500  -999.2500 
   55.5000    21.9170  -999.2500  -999.2500  -999.2500  -999.2500  -999.2500  -999.2500 
   55.6250    22.8270  -999.2500  -999.2500  -999.2500  -999.2500  -999.2500  -999.2500 
   55.7500    23.7310  -999.2500  -999.2500  -999.2500  -999.2500  -999.2500  -999.2500 
   55.8750    24.6400     0.0000     0.0000     0.0000     0.0000     0.0000  -999.2500 
   56.0000    25.5580     0.0000     0.0000     0.0000     0.0000     0.0000  -999.2500 
   56.1250    26.4440     0.0000     0.0000     0.0000     0.0000     0.0000  -999.2500 
   56.2500    27.2630     0.0000     0.0000     0.0000     0.0000     0.0000  -999.2500 
   56.3750    28.0090    31.1320    -0.4510     0.0840     0.1250    19.0460  -999.2500 
   56.5000    28.7110    42.6740    -0.5620     0.1170     0.1650    25.4020  -999.2500 
   56.6250    29.3900    43.5380    -0.4980     0.1240     0.1590    25.4030  -999.2500 
   56.7500    29.9800    43.9210    -0.4400     0.1310     0.1450    25.4050  -999.2500 
   56.8750    30.4370    43.7870    -0.4120     0.1350     0.1360    25.4070  -999.2500 
   57.0000    30.7350    42.6780    -0.4280     0.1350     0.1430    25.4050  -999.2500 
   57.1250    30.8710    41.0910    -0.4500     0.1330     0.1560    25.4000  -999.2500 
   57.2500    30.8810    40.2310    -0.3780     0.1310     0.1630    25.4040  -999.2500 
   57.3750    30.7990    39.8090    -0.1480     0.1350     0.1670    25.4140     2.0350 
   57.5000    30.6840    38.8080     0.1950     0.1440     0.1790    25.4190     2.0350 
   57.6250    30.5910    36.9950     0.4700     0.1510     0.2240    25.4030     2.0410 
   57.7500    30.5610    36.7810     0.5320     0.1490     0.3630    25.3910     2.0440 
   57.8750    30.6140    38.5920     0.3610     0.1420     0.6400    25.3680     2.0470 
   58.0000    30.7120    40.1410     0.0480     0.1380     0.8730    25.3330     2.0480 
   58.1250    30.7300    39.6230    -0.2500     0.1440     0.8020    25.3390     2.0460 
   58.2500    30.5950    40.5420    -0.4330     0.1580     0.5870    25.3700     2.0390 
   58.3750    30.2910    43.4250    -0.4960     0.1690     0.5170    25.3870     2.0280 
   58.5000    29.7820    45.3230    -0.4810     0.1710     0.6030    25.3890     2.0130 
   58.6250    28.9820    45.8540    -0.4370     0.1610     0.7310    25.3440     2.0010 
   58.7500    27.9380    48.9350    -0.4230     0.1450     0.8220    25.2430     1.9990 
   58.8750    26.6420    55.1450    -0.4730     0.1220     0.8870    25.1410     2.0170 
   59.0000    25.0620    60.3040    -0.5790     0.0960     0.8850    25.1370     2.0830 
   59.1250    23.1530    60.0520    -0.6820     0.0700     0.9330    25.1990     2.2300 
   59.2500    20.8890    57.2550    -0.7440     0.0490     1.0670    25.2820     2.4040 
   59.3750    18.1310    54.2300    -0.7740     0.0350     1.4840    25.3360     2.5260 
   59.5000    14.8000    53.2750    -0.7790     0.0330     1.8290    25.3550     2.5490 
   59.6250    10.8490    54.9740    -0.7370     0.0710     2.5470    25.3440     2.4810 
   59.7500     6.5990    57.9570    -0.6010     0.1910     3.7210    25.4050     2.3830 
   59.8750     2.3300    59.7560    -0.2820     0.4650     5.0490    25.6540     2.2910 
   60.0000    -1.7610    57.7040     0.3490     0.9860     5.5330    26.0560     2.2040 
   60.1250    -5.4810    53.9470     1.4840     1.8980     6.0650    26.3060     2.1070 
   60.2500    -8.6840    52.8300     2.9100     3.1130     8.6030    26.4480     1.9990 
   60.3750   -11.1820    56.7350     4.2710     4.4600    12.1200    26.4760     1.9030 
   60.5000   -12.8660    64.5430     5.3620     5.7420     9.2500    25.8350     1.8650 
   60.6250   -13.6740    70.5230     6.1780     6.7670     8.3670    24.6930     1.9400 
   60.7500   -13.9990    73.6460     6.7490     7.4390    10.0390    23.8840     2.0890 
   60.8750   -14.1330    76.7490     6.9810     7.6810    11.0820    23.5650     2.2260 
   61.0000   -14.2050    80.2970     6.8770     7.5490     8.6960    23.5390     2.2810 
   61.1250   -14.2380    82.8280     6.5470     7.2210     7.1760    23.5340     2.2630 
   61.2500   -14.2700    85.6170     6.1840     6.9080     6.6970    23.6170     2.2390 
   61.3750   -14.3400    89.2820     5.9230     6.6900     6.8040    23.6470     2.2310 
   61.5000   -14.4640    88.6370     5.8520     6.5910     6.9290    23.6430     2.2350 
   61.6250   -14.6120    81.2760     5.9490     6.5850     6.4140    23.6170     2.2400 
   61.7500   -14.7550    76.3220     6.0810     6.5850     6.2400    23.5640     2.2420 
   61.8750   -14.8560    78.5640     6.1820     6.5540     6.1260    23.5140     2.2400 
   62.0000   -14.8990    84.6470     6.2110     6.4890     6.1790    23.5280     2.2420 
   62.1250   -14.8980    88.1570     6.1350     6.3950     6.1800    23.6390     2.2540 
   62.2500   -14.8820    89.7790     6.0070     6.2890     5.9770    23.7710     2.2760 
   62.3750   -14.8980    90.9150     5.9020     6.1880     5.8950    23.9400     2.2980 
   62.5000   -14.9750    92.5730     5.8660     6.1060     5.9520    24.0920     2.3060 
   62.6250   -15.0810    93.8800     5.8620     6.0600     5.8650    24.2340     2.2960 
   62.7500   -15.1990    92.5390     5.8200     6.0460     5.7770    24.3310     2.2820 
   62.8750   -15.3350    89.6600     5.7250     6.0610     5.9450    24.3110     2.2730 
   63.0000   -15.5140    87.6020     5.6370     6.1000     6.1600    24.2030     2.2740 
   63.1250   -15.7160    88.7460     5.6750     6.1740     5.8600    24.1530     2.2750 
   63.2500   -15.9550    91.5510     5.8830     6.2740     5.6810    24.1510     2.2670 
   63.3750   -16.1750    91.8260     6.2310     6.3940     5.9350    24.0950     2.2490 
   63.5000   -16.3590    89.3310     6.6320     6.5250     6.2300    23.9740     2.2270 
   63.6250   -16.5400    88.0270     6.9930     6.6690     6.5700    23.8920     2.2090 
   63.7500   -16.6990    89.8330     7.2780     6.8230     6.3400    23.8800     2.1950 
   63.8750   -16.8580    91.4770     7.4510     6.9700     6.1980    23.8820     2.1850 
   64.0000   -17.0020    90.8820     7.5000     7.0700     6.4470    23.8140     2.1830 
   64.1250   -17.1680    91.1410     7.4160     7.0530     6.9080    23.7090     2.1960 
   64.2500   -17.3060    92.8610     7.2360     6.8920     7.2850    23.6700     2.2220 
   64.3750   -17.4530    93.5230     6.9690     6.5870     6.7980    23.7030     2.2530 
   64.5000   -17.6090    94.0370     6.6490     6.1780     6.2290    23.7800     2.2790 
   64.6250   -17.8090    94.2710     6.3620     5.7540     6.0510    23.8150     2.2960 
   64.7500   -18.0430    93.8060     6.1960     5.4140     5.9520    23.8490     2.3060 
   64.8750   -18.3090    93.1250     6.2110     5.2260     5.7050    23.9000     2.3060 
   65.0000   -18.6000    91.5140     6.4770     5.2460     5.6770    23.8990     2.2970 
   65.1250   -18.9220    87.0580     7.2400     5.6300     6.3830    23.7960     2.2790 
   65.2500   -19.2760    81.1620     8.8050     6.5320     7.9470    23.6720     2.2660 
   65.3750   -19.6470    76.6960    11.6760     8.2480    10.0380    23.5730     2.2800 
   65.5000   -20.0430    74.5220    16.3450    11.1320    10.9830    23.5210     2.3400 
   65.6250   -20.4280    73.3980    22.8840    15.5070    16.6500    23.5610     2.4560 
   65.7500   -20.8190    71.3080    29.0300    20.1600    33.4530    23.6480     2.5730 
   65.8750   -21.2060    67.3500    31.5340    22.8460    63.7020    23.7430     2.6260 
   66.0000   -21.5650    62.6300    28.5500    21.8340    54.2090    23.7950     2.5960 
   66.1250   -21.8870    60.9030    21.9980    17.9200    26.4150    23.7580     2.4980 
