~V
VERS. 2.00: Ver 2.00
~W
STRT.M 50.0000:
STOP.M 257.0000:
STEP.M 0.1250:
NULL. -999.2500:
UWI. F11021:
~C
DEPT.M :
GR.API :
RML.OHMM :
RI. :
RXO.OHMM :
CALI.CM :
SP.MV :
DEN.GM/CC :
~A
# ...
   72.5000    83.7230     8.8820     7.4350     9.2800    24.0290   -23.5270     2.3230 
   72.6250    83.5860     8.8020     7.3660     9.1850    24.0470   -23.1860     2.2900 
   72.7500    81.8230     8.5720     7.2000     8.9750    24.1030   -22.8340     2.2430 
   72.8750    82.2030     8.2210     6.9500     8.8340    24.1650   -22.4030     2.1930 
   73.0000    86.0270     7.8140     6.6540     8.6910    24.2010   -21.9340     2.1570 
   73.1250    92.6360     7.4460     6.3670     8.6240    24.2030   -21.5470     2.1580 
   73.2500    99.2400     7.2100     6.1460     7.9380    24.1990   -21.3170     2.1940 
   73.3750   100.1010     7.1660     6.0390     7.3990    24.2170   -21.2560     2.2470 
   73.5000    95.9020     7.3290     6.0740     7.5730    24.2770   -21.3720     2.2920 
   73.6250    88.3760     7.7100     6.2810     8.3680    24.4030   -21.5860     2.2990 
   73.7500    79.5420     8.2230     6.6230     9.0880    24.5370   -21.9180     2.2740 
   73.8750    74.3820     8.7890     7.0580     9.9380    24.6200   -22.4390     2.2350 
   74.0000    75.7630     9.3060     7.5080    10.4840    24.7070   -23.1110     2.2030 
   74.1250    79.4290     9.6380     7.8480    10.9500    24.8090   -23.7650     2.1950 
   74.2500    80.4600     9.7410     8.0110    11.4610    24.7750   -24.2930     2.2020 
   74.3750    80.4820     9.6220     7.9790    10.9150    24.6210   -24.6600     2.2080 
   74.5000    80.6210     9.3600     7.8020     9.8810    24.4830   -24.9000     2.2040 
   74.6250    78.7120     9.0760     7.5700     9.4660    24.3960   -25.1100     2.1900 
   74.7500    77.0370     8.8720     7.3720     9.5470    24.3480   -25.3360     2.1780 
   74.8750    76.7380     8.7850     7.2420     9.6910    24.3630   -25.5390     2.1760 
   75.0000    75.9790     8.8100     7.1860     9.7430    24.4530   -25.7120     2.1820 
   75.1250    72.6060     8.9090     7.1970     9.7090    24.5580   -25.9080     2.1890 
   75.2500    68.3260     9.0180     7.2380     9.5960    24.6000   -26.1360     2.1860 
   75.3750    65.6180     9.1040     7.2880     9.4610    24.5510   -26.3810     2.1710 
   75.5000    65.8940     9.1480     7.3330     9.2940    24.4130   -26.6520     2.1490 
   75.6250    67.4440     9.1250     7.3470     9.0680    24.3090   -26.8940     2.1270 
   75.7500    67.5400     9.0470     7.3220     9.0020    24.2000   -27.0360     2.1140 
   75.8750    66.8380     8.9240     7.2570     9.2130    24.0400   -27.1050     2.1130 
   76.0000    66.8140     8.7660     7.1590     9.4510    23.8570   -27.1460     2.1240 
   76.1250    66.5800     8.5760     7.0300     9.3710    23.7470   -27.1490     2.1380 
   76.2500    65.9430     8.3660     6.8840     9.1580    23.6750   -27.0640     2.1440 
   76.3750    66.0610     8.1510     6.7270     8.8990    23.6180   -26.8320     2.1390 
   76.5000    66.6910     7.9530     6.5690     8.7870    23.5940   -26.4130     2.1250 
   76.6250    67.6570     7.8070     6.4280     8.9600    23.6510   -25.8440     2.1120 
   76.7500    70.1160     7.7300     6.3200     9.2650    23.8070   -25.2660     2.1090 
   76.8750    71.6950     7.7310     6.2620     9.4690    23.9950   -24.6920     2.1210 
   77.0000    70.2310     7.8090     6.2660     9.6690    24.1190   -24.0760     2.1460 
   77.1250    68.3790     7.9520     6.3430     9.7660    24.1490   -23.3740     2.1750 
   77.2500    68.4520     8.1170     6.4590     9.7830    24.1330   -22.6510     2.1980 
   77.3750    68.7870     8.2650     6.5810     9.7730    24.0550   -22.0100     2.2130 
   77.5000    69.8070     8.3650     6.6750     9.7590    23.9070   -21.5310     2.2170 
   77.6250    73.3960     8.3750     6.7000     9.6020    23.8350   -21.1690     2.2110 
   77.7500    75.6330     8.3030     6.6640     9.3920    23.7750   -20.8260     2.1960 
   77.8750    73.9920     8.1670     6.5850     9.3440    23.7050   -20.5050     2.1760 
   78.0000    70.7090     8.0040     6.4880     9.4940    23.6120   -20.2550     2.1550 
   78.1250    70.1280     7.8670     6.4020     9.8320    23.5620   -20.1190     2.1400 
   78.2500    72.6420     7.8020     6.3450    10.0160    23.5650   -20.0660     2.1330 
   78.3750    76.0810     7.8320     6.3320    10.0090    23.5990   -20.0080     2.1330 
   78.5000    78.2950     7.9550     6.3700     9.6940    23.6420   -19.8770     2.1390 
   78.6250    78.6900     8.1480     6.4640     9.4980    23.6580   -19.6920     2.1490 
   78.7500    78.6780     8.3490     6.5920     9.7390    23.6680   -19.5010     2.1610 
   78.8750    79.7500     8.5020     6.7210    10.3990    23.6890   -19.3010     2.1740 
   79.0000    81.9830     8.5500     6.8080    10.7420    23.7540   -19.0710     2.1810 
   79.1250    83.3470     8.4250     6.7910    10.2770    23.8540   -18.7860     2.1800 
   79.2500    81.6610     8.1670     6.6670    10.0760    23.9520   -18.4270     2.1720 
   79.3750    78.1250     7.8990     6.4830    10.1910    24.0140   -17.9680     2.1600 
   79.5000    77.1250     7.8410     6.3670    10.0880    24.0360   -17.3800     2.1470 
   79.6250    84.4470     8.2970     6.5350     9.7160    24.0970   -16.6430     2.1380 
   79.7500    92.9550     9.2320     7.0410     9.3930    24.2390   -15.7750     2.1470 
   79.8750    92.6540    10.4280     7.8290    10.6590    24.4420   -14.7150     2.1890 
   80.0000    83.7200    11.4350     8.6680    15.6530    24.6070   -13.4310     2.2670 
   80.1250    81.6680    11.4970     9.0260    29.0480    24.6390   -12.0080     2.3610 
   80.2500    92.3530    10.4900     8.6310    24.1460    24.5470   -10.5960     2.4290 
   80.3750   107.4180     8.7930     7.6260    11.2400    24.4670    -9.3130     2.4480 
   80.5000   117.1030     7.0440     6.4180     6.2220    24.5000    -8.1950     2.4200 
   80.6250   119.4930     5.7990     5.4070     5.1300    24.5540    -7.2870     2.3760 
   80.7500   120.6410     5.1110     4.7200     4.9690    24.6010    -6.6500     2.3490 
   80.8750   120.3440     4.9120     4.3690     4.8740    24.6470    -6.4350     2.3460 
   81.0000   116.5600     5.0880     4.3160     4.7720    24.6940    -6.7420     2.3570 
   81.1250   110.6590     5.6020     4.5510     4.9610    24.6830    -7.5960     2.3590 
   81.2500   105.0210     6.3860     5.0120     5.5310    24.5840    -8.8350     2.3380 
   81.3750    96.8760     7.4420     5.7050     6.8890    24.5240   -10.3400     2.2840 
   81.5000    84.7290     8.7160     6.6170     8.3660    24.7480   -12.0090     2.2020 
   81.6250    74.6060    10.0300     7.6760     9.2450    25.5570   -13.7750     2.1230 
   81.7500    70.0180    11.1010     8.6600     9.4310    26.4290   -15.5220     2.0930 
   81.8750    69.8770    11.6890     9.3420     9.1300    26.7620   -17.1180     2.1360 
   82.0000    72.6900    11.6880     9.5600     7.9350    26.5240   -18.4550     2.2390 
   82.1250    74.0010    11.1600     9.2700     7.0560    25.8480   -19.4420     2.3390 
   82.2500    70.7680    10.4890     8.7470     7.3190    25.0430   -20.0780     2.3770 
   82.3750    66.3410     9.9250     8.1940     8.4040    24.4490   -20.4080     2.3360 
   82.5000    65.3870     9.6040     7.7460     9.1810    24.1930   -20.5540     2.2430 
   82.6250    67.0830     9.5590     7.4890     9.4100    24.1280   -20.5790     2.1520 
   82.7500    68.1590     9.6370     7.3720     9.5040    24.0900   -20.4690     2.0990 
   82.8750    69.5730     9.7150     7.3330     9.7360    24.1100   -20.2310     2.0880 
   83.0000    72.5930     9.7220     7.3100     9.9880    24.1360   -19.9250     2.1030 
   83.1250    74.4670     9.6590     7.2760    10.5060    24.1610   -19.6360     2.1260 
   83.2500    73.9980     9.5900     7.2370    10.7880    24.1770   -19.4370     2.1450 
   83.3750    73.5490     9.5450     7.2010    10.9170    24.1820   -19.2890     2.1560 
   83.5000    75.1570     9.5340     7.1730    10.8370    24.1670   -19.1140     2.1630 
   83.6250    76.6130     9.5530     7.1600    10.6420    24.1700   -18.9600     2.1700 
