~V
VERS. 2.00: Ver 2.00
~W
STRT.M 62.0000:
STOP.M 273.0000:
STEP.M 0.1250:
NULL. -999.2500:
UWI. F11050:
~C
DEPT.M :
SP.MV :
GR.API :
RML.OHMM :
RI. :
RXO.OHMM :
CALI.CM :
DEN.GM/CC :
~A
# ...
  208.2500    -9.8960    77.3000     5.1940     4.5150     5.1820    24.5080     2.4050 
  208.3750    -9.6790    74.5780     5.2910     4.5440     5.0520    24.4640     2.4070 
  208.5000    -9.4190    72.5670     5.4880     4.6330     5.1790    24.4550     2.4100 
  208.6250    -9.1800    74.7220     5.7660     4.7710     5.4960    24.4200     2.4100 
  208.7500    -8.9620    77.3860     6.0700     4.9350     6.0510    24.4170     2.4130 
  208.8750    -8.7910    78.3080     6.3640     5.1110     6.6400    24.4850     2.4180 
  209.0000    -8.6650    80.6470     6.6250     5.2850     6.9420    24.5810     2.4220 
  209.1250    -8.6170    86.4900     6.8240     5.4320     6.7680    24.6900     2.4200 
  209.2500    -8.6110    90.5740     6.9680     5.5390     7.0290    24.7240     2.4140 
  209.3750    -8.6610    89.0180     7.1100     5.6280     7.5810    24.7280     2.4080 
  209.5000    -8.7350    85.2030     7.3920     5.7850     8.2560    24.7310     2.4110 
  209.6250    -8.8620    83.7730     8.1320     6.2200     8.8680    24.7510     2.4290 
  209.7500    -8.9780    82.8420     9.5110     7.0870     9.3990    24.7680     2.4550 
  209.8750    -9.1060    79.6620    11.6260     8.5170    11.2850    24.7870     2.4820 
  210.0000    -9.2570    74.1790    14.3590    10.5400    16.1160    24.7890     2.5090 
  210.1250    -9.4090    68.9840    17.2750    13.0190    24.3940    24.7660     2.5340 
  210.2500    -9.5540    66.6190    19.7350    15.4190    26.8800    24.7430     2.5390 
  210.3750    -9.7140    67.9090    21.4500    17.3290    23.8860    24.7280     2.5100 
  210.5000    -9.8700    71.4190    22.5890    18.6570    21.0040    24.7370     2.4560 
  210.6250   -10.0310    72.0790    23.6730    19.6660    22.5030    24.7510     2.4130 
  210.7500   -10.2230    67.3690    25.0130    20.7270    29.9680    24.7470     2.3950 
  210.8750   -10.4370    64.0950    26.4160    21.8340    37.1130    24.7130     2.3870 
  211.0000   -10.6540    67.0210    27.4780    22.7560    37.0200    24.6410     2.3620 
  211.1250   -10.8580    71.4830    27.8830    23.2180    31.8420    24.5580     2.3140 
  211.2500   -11.0860    72.4460    28.0280    23.4170    30.1320    24.5990     2.2780 
  211.3750   -11.2730    71.7790    28.5280    23.7620    29.6800    24.6880     2.2630 
  211.5000   -11.4750    72.3000    30.0330    24.7620    30.6800    24.7420     2.2610 
  211.6250   -11.6360    71.6850    33.2820    27.0950    34.4020    24.7570     2.2560 
  211.7500   -11.7970    68.0340    38.0860    30.7860    38.6170    24.7280     2.2470 
  211.8750   -11.9260    63.6920    44.0680    35.6770    41.5370    24.6240     2.2390 
  212.0000   -12.0700    61.9040    50.3620    41.1750    47.3090    24.5100     2.2350 
  212.1250   -12.2010    63.4880    55.0630    45.8020    58.9700    24.4030     2.2350 
  212.2500   -12.3310    65.9250    56.7780    48.1840    59.7280    24.3660     2.2390 
  212.3750   -12.4340    67.9760    55.3310    47.8880    53.5110    24.3200     2.2460 
  212.5000   -12.5370    70.3050    51.9390    45.6560    48.1900    24.2930     2.2570 
  212.6250   -12.6230    72.6030    48.7240    43.0580    45.1530    24.2930     2.2650 
  212.7500   -12.6940    75.0350    47.4910    41.7500    42.7200    24.2800     2.2700 
  212.8750   -12.7380    75.9610    49.3440    42.8480    41.2170    24.2530     2.2700 
  213.0000   -12.7420    72.7800    55.0840    47.2920    44.3710    24.2540     2.2660 
  213.1250   -12.7030    68.3270    79.4100    56.8530    56.1020    24.4110     2.2550 
  213.2500   -12.6360    67.2220    98.2100    71.2220    92.2350    24.6140     2.2430 
  213.3750   -12.5790    67.3900   119.9340    88.6790   188.9970    24.7460     2.2340 
  213.5000   -12.5070    64.0460   137.5530   104.2430   268.1690    24.7970     2.2320 
  213.6250   -12.4130    58.3530   138.4000   108.7680   259.7910    24.8420     2.2360 
  213.7500   -12.3100    57.1260   123.5050   101.0420   218.6280    24.8960     2.2410 
  213.8750   -12.1930    60.0300   101.5980    85.6300   154.9820    24.9250     2.2470 
  214.0000   -12.0700    63.1450    81.4700    69.3120    77.2280    24.9290     2.2530 
  214.1250   -11.9700    64.6270    68.0250    57.3190    54.1630    24.9180     2.2610 
  214.2500   -11.8860    63.9160    60.2400    49.8650    47.4310    24.8920     2.2690 
  214.3750   -11.8240    60.4440    57.1370    46.2670    47.7580    24.8610     2.2770 
  214.5000   -11.7930    55.6390    57.8560    45.8710    48.5610    24.7930     2.2870 
  214.6250   -11.7950    53.3850    62.3740    48.8430    53.8210    24.6620     2.3050 
  214.7500   -11.8400    54.2850    70.1700    54.8140    66.2870    24.4520     2.3190 
  214.8750   -11.9310    55.7410    81.9350    64.3740    94.5810    24.3030     2.3140 
  215.0000   -12.0580    56.5670    98.9180    78.5660   153.8200    24.3220     2.2820 
  215.1250   -12.2370    57.4720   123.9710    99.7830   174.9860    24.4450     2.2410 
  215.2500   -12.4170    58.9380   156.8710   127.6240   203.8930    24.5720     2.2100 
  215.3750   -12.6100    60.6640   195.8170   160.2440   222.2350    24.6950     2.1940 
  215.5000   -12.7870    59.7900   234.5710   192.4410   239.1560    24.7730     2.1920 
  215.6250   -12.9590    56.6470   261.3580   215.1220   252.9620    24.7850     2.1980 
  215.7500   -13.1250    55.4720   275.3670   227.2630   258.3240    24.7860     2.2030 
  215.8750   -13.2810    57.3370   285.0890   234.9240   242.2730    24.7930     2.2020 
  216.0000   -13.4310    59.8990   302.1500   247.8360   251.3460    24.7970     2.1970 
  216.1250   -13.5740    59.7120   339.4280   277.9700   327.0660    24.7990     2.1910 
  216.2500   -13.7130    58.2170   396.6300   326.2400   531.7280    24.8180     2.1860 
  216.3750   -13.8300    56.2780   459.9880   383.8920   696.7080    24.8340     2.1830 
  216.5000   -13.9710    54.0200   491.7580   425.9250   716.0950    24.8280     2.1810 
  216.6250   -14.1170    54.5790   444.1090   411.0780   625.1390    24.7990     2.1800 
  216.7500   -14.2510    57.7050   355.0910   349.0090   506.2620    24.8070     2.1800 
  216.8750   -14.3700    60.7370   269.8520   272.2030   435.3450    24.8540     2.1800 
  217.0000   -14.4630    62.3660   207.9680   207.8110   332.3830    24.8750     2.1820 
  217.1250   -14.5410    62.1680   180.0490   167.6630   186.6150    24.8580     2.1900 
  217.2500   -14.5860    61.0160   156.3420   143.5350   159.9870    24.8110     2.1980 
  217.3750   -14.6360    60.7700   140.8090   128.7960   149.8270    24.7970     2.2040 
  217.5000   -14.6370    63.5230   129.2300   118.6220   141.3110    24.7970     2.2090 
  217.6250   -14.6560    66.9000   120.0120   110.9630   154.5360    24.7840     2.2180 
  217.7500   -14.6350    65.6830   112.9090   105.0950   158.2480    24.7500     2.2340 
  217.8750   -14.6190    62.1050   108.8990   101.6610   141.3040    24.6700     2.2600 
  218.0000   -14.5970    61.8080   109.0810   101.6150   146.4370    24.5860     2.2950 
  218.1250   -14.5690    64.8280   114.8230   106.3230   212.1610    24.5180     2.3350 
  218.2500   -14.5310    65.0010   125.0490   114.9810   197.3710    24.5320     2.3760 
  218.3750   -14.4890    61.5480   139.3280   127.2880   154.9100    24.5630     2.4260 
  218.5000   -14.4290    59.8920   157.3150   143.1930   141.6940    24.5590     2.4770 
  218.6250   -14.3210    62.2150   177.9360   162.2200   182.1620    24.5130     2.4790 
  218.7500   -14.2320    62.1060   196.9570   180.7040   216.0320    24.5310     2.4070 
  218.8750   -14.1340    59.9510   208.9580   193.8280   280.9520    24.6060     2.3050 
  219.0000   -14.0410    60.0960   208.4460   196.4330   321.9430    24.7160     2.2330 
  219.1250   -13.9550    62.6240   191.2490   183.7300   278.9870    24.7700     2.2150 
  219.2500   -13.8600    63.7700   165.1160   161.3490   212.1590    24.7720     2.2210 
  219.3750   -13.7870    64.7580   137.7270   135.9680   155.1010    24.7560     2.2340 
