~V
VERS. 2.00: Ver 2.00
~W
STRT.M 63.0000:
STOP.M 273.0000:
STEP.M 0.1250:
NULL. -999.2500:
UWI. F11030:
~C
DEPT.M :
DEN.GM/CC :
GR.API :
RML.OHMM :
RI. :
RXO.OHMM :
CALI.CM :
SP.MV :
~A
# ...
  265.5000     2.4860    70.0100    11.0440     9.2830     8.4560    24.3970    -4.3710 
  265.6250     2.4710    70.0100    11.0520     9.3270     8.8460    24.4980    -4.1360 
  265.7500     2.4660    70.0100    11.0260     9.3360     9.0210    24.6090    -3.8320 
  265.8750     2.4710    70.0100    10.9520     9.2910     9.5370    24.6930    -3.5330 
  266.0000     2.4780    70.0100    10.8330     9.1950    10.3350    24.7900    -3.2270 
  266.1250     2.4770    70.0100    10.6700     9.0550    10.8990    24.9520    -2.9750 
  266.2500     2.4680    70.0100    10.4710     8.8820    10.7110    25.1690    -2.8610 
  266.3750     2.4560    70.0100    10.2480     8.6860     9.2210    25.2730    -2.7130 
  266.5000     2.4500    70.0100    10.0220     8.4840     7.8480    25.1650    -2.5410 
  266.6250     2.4510    70.0100     9.8140     8.2870     6.9950    24.9360    -2.4950 
  266.7500     2.4560    70.0100     9.6470     8.1070     6.5040    24.8250    -2.4950 
  266.8750     2.4580    70.0100     9.5590     7.9620     6.4500    24.8030    -2.4980 
  267.0000     2.4570    70.0100     9.5460     7.8470     6.4570    24.8230    -2.5280 
  267.1250     2.4540    70.0100     9.5820     7.7610     6.7230    24.8610    -2.5780 
  267.2500     2.4520    70.0100     9.6160     7.7060     7.0850    24.8860    -2.6350 
  267.3750     2.4570    70.0100     9.5940     7.6830     7.2240    24.8310    -2.7430 
  267.5000     2.4670    70.0100     9.5180     7.6820     7.4940    24.7630    -2.7680 
  267.6250     2.4800    70.0100     9.4210     7.6930     8.2380    24.7110    -2.7230 
  267.7500     2.4900    70.0100     9.3410     7.7040     9.2060    24.6680    -2.7880 
  267.8750     2.4890    70.0100     9.3000     7.7070     9.5520    24.6240    -2.9260 
  268.0000     2.4820    70.0100     9.2810     7.7080     8.9470    24.5870    -3.0500 
  268.1250     2.4740    70.0100     9.2710     7.7140     7.9470    24.5650    -3.1800 
  268.2500     2.4690    70.0100     9.2650     7.7280     7.2210    24.5520    -3.2930 
  268.3750     2.4630    70.0100     9.2620     7.7460     7.0760    24.5740    -3.4350 
  268.5000     2.4500    70.0100     9.2630     7.7630     7.0930    24.5830    -3.6020 
  268.6250     2.4310    70.0100     9.2660     7.7740     7.1070    24.5710    -3.7060 
  268.7500     2.4120    70.0100     9.2680     7.7800     7.2200    24.5590    -3.6920 
  268.8750     2.4050    70.0100     9.2700     7.7800     7.4240    24.5780    -3.6560 
  269.0000     2.4140    70.0100     9.2700     7.7800     7.5840    24.5930    -3.5860 
  269.1250     2.4320    70.0100     9.2700     7.7800     7.6050    24.6060    -3.5160 
  269.2500     2.4510    70.0100     9.2700     7.7800     7.4510    24.6250    -3.4860 
  269.3750     2.4570    70.0100     9.2700     7.7800     7.0010    24.6490    -3.3950 
  269.5000     2.4490    70.0100     9.2700     7.7800     7.0150    24.6260    -3.3800 
  269.6250     2.4290    70.0100     9.2700     7.7800     7.6630    24.5980    -3.4840 
  269.7500     2.4080    70.0100     9.2700     7.7800     8.4080    24.5930    -3.6190 
  269.8750     2.3980    70.0100     9.2700     7.7800     8.1330    24.6260    -3.6890 
  270.0000     2.4050    70.0100     9.2700     7.7800     8.0530    24.6570    -3.8720 
  270.1250     2.4260    70.0100     9.2700     7.7800     8.7940    24.7010    -4.0750 
  270.2500     2.4550    70.0100     9.2700     7.7800     9.6680    24.7620    -4.2710 
  270.3750     2.4780    70.0100     9.2700     7.7800    10.1710    24.7870    -4.4910 
  270.5000     2.4910    70.0100     9.2700     7.7800    11.0050    24.7930    -4.6100 
  270.6250     2.4940    70.0100     9.2700     7.7800    12.5510    24.8260    -4.6100 
  270.7500     2.4940    70.0100     9.2700     7.7800    13.8080    24.8720    -4.6100 
  270.8750     2.5000    70.0100     9.2700     7.7800    13.6470    24.7360  -999.2500 
  271.0000     2.5090    70.0100     9.2700     7.7800    12.4600    24.3830  -999.2500 
  271.1250     2.5150    70.0100     9.2700     7.7800    11.8130    23.9750  -999.2500 
  271.2500     2.5110    70.0100     9.2700     7.7800    12.2060    23.9490  -999.2500 
  271.3750     2.4980    70.0100     9.2700     7.7800    12.0740    24.2830  -999.2500 
  271.5000     2.4890    70.0100     9.2700     7.7800    10.7390    24.4650  -999.2500 
  271.6250     2.4870    70.0100     9.2700     7.7800     8.6300    24.4920  -999.2500 
  271.7500     2.4850    70.0100     9.2700     7.7800     7.3880    24.2260  -999.2500 
  271.8750     2.4670    70.0100     9.2700     7.7800     6.4570    22.5510  -999.2500 
  272.0000     2.4280    70.0100     9.2700     7.7800     5.3640    19.2530  -999.2500 
  272.1250     2.3740    70.0100     9.2700     7.7800     4.6300    16.3900  -999.2500 
  272.2500     2.3210    70.0100     9.2700     7.7800     4.4050    15.2170  -999.2500 
  272.3750     2.2630    70.0100     9.2700     7.7800     4.4020    15.1650  -999.2500 
  272.5000     2.2530    70.0100     9.2700     7.7800     4.4030    15.1660  -999.2500 
  272.6250     2.2470    70.0100     9.2700     7.7800     4.4050    15.1670  -999.2500 
  272.7500     2.2500    70.0100     9.2700     7.7800     4.4050    15.1660  -999.2500 
  272.8750  -999.2500    70.0100     9.2700     7.7800     4.4030    15.1640  -999.2500 
  273.0000  -999.2500    70.0100     9.2700     7.7800     4.4010    15.1620  -999.2500 
