~V
VERS. 2.00: Ver 2.00
~W
STRT.M 50.0000:
STOP.M 270.0000:
STEP.M 0.1250:
NULL. -999.2500:
UWI. F11070:
~C
DEPT.M :
DEN.GM/CC :
GR.API :
RML.OHMM :
RI. :
RXO.OHMM :
CALI.CM :
SP.MV :
~A
# ...
  151.2500     2.2790    84.5500     7.1900     6.0900     9.2190    23.7770   -16.0590 
  151.3750     2.2670    81.8980     7.6960     6.6320    10.9120    23.4320   -16.4960 
  151.5000     2.2630    83.3100     7.7200     6.8680     9.6870    23.1410   -16.9210 
  151.6250     2.2700    88.3180     7.1760     6.6000     6.9630    23.0090   -17.1730 
  151.7500     2.2820    93.9590     6.4350     6.0550     5.7010    22.9740   -17.3620 
  151.8750     2.2930    98.9730     5.7610     5.4580     5.3740    22.9590   -17.5420 
  152.0000     2.3030   101.9140     5.2790     4.9670     5.4550    22.9010   -17.6910 
  152.1250     2.3190   103.2160     5.0430     4.6910     5.4170    22.8070   -17.7640 
  152.2500     2.3440   102.8080     5.0120     4.6160     5.1920    22.7840   -17.8100 
  152.3750     2.3730    99.2120     5.1760     4.7290     4.9790    22.8510   -17.8870 
  152.5000     2.4030    93.7300     5.5000     4.9910     5.0810    22.9760   -18.0090 
  152.6250     2.4260    90.2230     5.8760     5.3290     6.0880    23.0850   -18.1580 
  152.7500     2.4370    90.2510     6.1250     5.6030     7.3670    23.3290   -18.3410 
  152.8750     2.4260    91.3600     6.1360     5.7080     6.8940    23.7970   -18.5510 
  153.0000     2.3900    90.7690     5.9360     5.6230     5.7430    24.2800   -18.7300 
  153.1250     2.3470    90.0280     5.6990     5.4390     5.2870    24.5230   -18.8740 
  153.2500     2.3200    89.6070     5.6120     5.3240     5.4190    24.6010   -19.0410 
  153.3750     2.3090    88.6000     5.7430     5.3670     5.7830    24.6290   -19.2250 
  153.5000     2.3050    85.0510     6.0630     5.5820     6.3210    24.6320   -19.3450 
  153.6250     2.3040    83.1620     6.4560     5.9040     6.8540    24.6070   -19.3620 
  153.7500     2.3130    86.5480     6.7630     6.1840     7.3630    24.5570   -19.3700 
  153.8750     2.3360    90.7320     6.8960     6.3270     7.6370    24.4360   -19.4160 
  154.0000     2.3660    89.5330     6.8410     6.3050     7.3180    24.2700   -19.5040 
  154.1250     2.3940    85.0300     6.6940     6.1850     7.2980    24.2620   -19.6140 
  154.2500     2.4140    84.5860     6.6910     6.1530     7.5550    24.3900   -19.7360 
  154.3750     2.4290    87.0030     7.0640     6.3840     7.5570    24.4470   -19.8750 
  154.5000     2.4480    85.3120     7.9600     7.0110     7.7750    24.4190   -20.0250 
  154.6250     2.4810    76.8010     9.3840     8.1030     9.4890    24.3930   -20.2210 
  154.7500     2.5230    66.1440    10.8830     9.3730    14.4260    24.4430   -20.5730 
  154.8750     2.5610    57.1330    11.9580    10.4480    18.9330    24.5490   -21.0570 
  155.0000     2.5790    52.6070    12.2780    11.0000    18.4170    24.6310   -21.4890 
  155.1250     2.5690    55.9930    11.9720    10.9840    13.6950    24.6710   -21.6940 
  155.2500     2.5540    62.7590    11.7820    10.9070    10.4190    24.6600   -21.7630 
  155.3750     2.5560    65.7960    12.2190    11.1930    10.4830    24.6490   -21.7960 
  155.5000     2.5830    61.5360    13.4980    12.1140    14.8600    24.6750   -21.8070 
  155.6250     2.6260    54.5450    15.5900    13.8390    19.6220    24.6630   -21.8120 
  155.7500     2.6580    50.8520    17.9090    15.9960    22.0920    24.6130   -21.8230 
  155.8750     2.6680    50.9830    19.9020    18.0980    21.9380    24.5740   -21.8170 
  156.0000     2.6620    52.3390    21.1900    19.6680    20.4410    24.5550   -21.7760 
  156.1250     2.6440    52.5850    21.6410    20.4060    19.2410    24.5470   -21.7460 
  156.2500     2.6220    51.3240    21.5260    20.5210    19.5740    24.5450   -21.7670 
  156.3750     2.6020    49.5510    20.8120    20.0230    20.1690    24.5260   -21.8320 
  156.5000     2.5890    48.4030    19.3620    18.8130    19.7390    24.4840   -21.9620 
  156.6250     2.5800    49.4150    17.1690    16.8800    19.0710    24.4260   -22.5010 
  156.7500     2.5640    52.8980    14.8580    14.7770    16.3320    24.4810   -22.5420 
  156.8750     2.5420    58.0960    13.0180    13.0110    12.7610    24.4850   -22.5650 
  157.0000     2.5210    61.5000    12.0420    11.9270    11.5520    24.3850   -22.6180 
  157.1250     2.5110    60.8330    12.1760    11.7800    10.5550    24.3100   -22.6550 
  157.2500     2.5170    59.8230    13.0880    12.3780    12.3840    24.3920   -22.6520 
  157.3750     2.5350    58.7720    14.4590    13.5360    16.4830    24.4780   -22.6390 
  157.5000     2.5600    54.9630    15.8820    14.9540    19.7220    24.5010   -22.6120 
  157.6250     2.5770    49.4690    16.9340    16.2260    17.6680    24.5460   -22.5720 
  157.7500     2.5820    48.2920    17.5960    17.1590    15.0910    24.6010   -22.5390 
  157.8750     2.5850    51.5500    18.0340    17.7970    15.4920    24.5490   -22.5370 
  158.0000     2.5930    54.4840    18.4340    18.2800    18.0960    24.4880   -22.5200 
  158.1250     2.5970    55.1700    18.8430    18.6840    21.6210    24.5230   -22.4900 
  158.2500     2.5910    54.6980    19.1080    18.9410    23.0930    24.5140   -22.5020 
  158.3750     2.5700    54.6850    19.0680    18.9120    20.5780    24.4980   -22.5370 
  158.5000     2.5390    56.2390    18.7260    18.5760    17.7990    24.5580   -22.5690 
  158.6250     2.5160    58.2950    18.3080    18.1030    17.0650    24.6020   -22.5920 
  158.7500     2.5140    58.9080    18.1060    17.7810    18.0920    24.5380   -22.6080 
  158.8750     2.5320    59.8770    18.2340    17.7620    18.9190    24.3990   -22.6020 
  159.0000     2.5570    61.8950    18.6510    18.0640    18.8810    24.2150   -22.5990 
  159.1250     2.5680    62.4380    19.1900    18.5910    19.1200    24.2130   -22.6110 
  159.2500     2.5680    61.8730    19.6330    19.1140    19.7990    24.3460   -22.5990 
  159.3750     2.5690    62.2350    19.8790    19.4830    20.9810    24.5580   -22.5640 
  159.5000     2.5730    62.3780    19.9200    19.6280    21.9940    24.6580   -22.5250 
  159.6250     2.5720    60.8030    19.8070    19.5630    22.4670    24.6390   -22.4640 
  159.7500     2.5610    60.0560    19.6810    19.4560    24.2920    24.6540   -22.4150 
  159.8750     2.5470    60.7530    19.6460    19.4330    25.8380    24.6880   -22.3800 
  160.0000     2.5370    60.7360    19.7600    19.5660    22.9380    24.7070   -22.3120 
  160.1250     2.5340    59.0170    19.9890    19.8320    20.9990    24.7130   -22.2440 
  160.2500     2.5360    57.9830    20.1500    20.0520    19.5190    24.7140   -22.1770 
  160.3750     2.5470    57.8820    20.0640    20.0580    19.6380    24.6950   -22.0960 
  160.5000     2.5690    58.5790    19.6460    19.7640    20.3220    24.6040   -22.0180 
  160.6250     2.5890    59.2870    18.9630    19.2040    18.8300    24.3850   -21.9570 
  160.7500     2.5890    58.7470    18.2750    18.5940    16.3050    24.1990   -21.8840 
  160.8750     2.5710    57.3180    17.7410    18.0860    14.7380    24.1950   -21.7920 
  161.0000     2.5480    56.3610    17.4290    17.7610    14.9880    24.2940   -21.7190 
  161.1250     2.5300    58.2700    17.3280    17.6290    16.9030    24.4450   -21.6240 
  161.2500     2.5190    60.7960    17.2850    17.5530    18.9170    24.6240   -21.5270 
  161.3750     2.5160    62.8290    17.1840    17.4220    19.5880    24.8090   -21.4470 
  161.5000     2.5200    64.9560    16.9570    17.1670    17.3420    24.9350   -21.3590 
  161.6250     2.5240    67.5020    16.6000    16.7880    15.7680    24.9700   -21.2290 
  161.7500     2.5230    68.2480    16.2250    16.4030    14.9780    24.8950   -21.1140 
  161.8750     2.5220    67.0710    15.9400    16.1060    14.7990    24.7460   -21.0000 
  162.0000     2.5220    66.3000    15.8310    15.9630    14.9450    24.6240   -20.8270 
  162.1250     2.5220    66.6660    15.9610    16.0330    15.8470    24.6180   -20.6760 
  162.2500     2.5210    66.2850    16.2450    16.2480    16.8220    24.6550   -20.5100 
  162.3750     2.5220    65.7370    16.5690    16.5090    17.9070    24.6600   -20.3020 
