~V
VERS. 2.00: Ver 2.00
~W
STRT.M 50.0000:
STOP.M 220.0000:
STEP.M 0.1250:
NULL. -999.2500:
UWI. F11004:
~C
DEPT.M :
SP.MV :
GR.API :
RML.OHMM :
RI. :
RXO.OHMM :
CALI.CM :
DEN.GM/CC :
~A
# ...
   72.5000   -12.4410   107.0320     5.3030     4.8930     4.0950    24.7230     2.3050 
   72.6250   -11.8110   104.3910     5.3760     4.7990     4.3250    24.8920     2.3160 
   72.7500   -11.4230    99.0810     5.7900     4.9860     4.5140    24.9070     2.3150 
   72.8750   -11.2550    92.5800     6.3680     5.3700     4.9160    24.7570     2.3030 
   73.0000   -11.3800    86.7650     6.8010     5.7560     5.5580    24.4310     2.2920 
   73.1250   -11.7330    85.6870     6.8720     5.9250     5.6910    24.1900     2.2930 
   73.2500   -12.2430    89.5390     6.5860     5.8190     5.1230    24.2350     2.3000 
   73.3750   -12.9080    94.7070     6.1550     5.5550     4.5490    24.4900     2.3020 
   73.5000   -13.7150    94.9790     5.9260     5.3680     4.7040    24.6710     2.2870 
   73.6250   -14.5640    90.1080     6.0840     5.4190     5.3700    24.5810     2.2690 
   73.7500   -15.4280    83.2560     6.6760     5.7750     6.3700    24.2360     2.2550 
   73.8750   -16.2640    77.0210     7.6120     6.4180     7.5960    23.9020     2.2460 
   74.0000   -17.0060    71.6220     8.6570     7.2260     8.3480    23.8310     2.2380 
   74.1250   -17.6670    67.9700     9.5010     7.9350     8.0560    23.7540     2.2340 
   74.2500   -18.3230    67.2100     9.9840     8.3720     7.2180    23.4780     2.2350 
   74.3750   -18.9480    69.1420    10.0820     8.4810     6.8310    23.1730     2.2330 
   74.5000   -19.4130    70.8470     9.8510     8.2990     7.5200    23.1070     2.2170 
   74.6250   -19.7200    71.3240     9.4730     7.9950     8.8760    23.1270     2.1970 
   74.7500   -19.9390    69.5420     9.0630     7.6750    10.2270    23.1060     2.1880 
   74.8750   -20.1310    66.1640     8.7640     7.4450    10.8280    23.0960     2.1940 
   75.0000   -20.2890    65.0630     8.8860     7.4950    10.3750    23.0860     2.2210 
   75.1250   -20.3990    65.2950     9.7010     7.9810     9.8220    22.9810     2.2880 
   75.2500   -20.4490    64.4470    11.5330     9.1110    10.5000    22.8390     2.4040 
   75.3750   -20.4600    62.4720    14.6260    11.1120    13.8320    22.8810     2.5470 
   75.5000   -20.5460    64.6180    19.0820    14.3330    21.2110    23.2150     2.6420 
   75.6250   -20.7400    68.8320    23.8330    18.3100    29.8710    23.5410     2.6620 
   75.7500   -20.9970    70.4450    27.2270    21.8610    37.8700    23.6420     2.6380 
   75.8750   -21.3310    69.8910    27.5040    23.1570    46.2120    23.5300     2.5920 
   76.0000   -21.8650    69.3170    23.9160    20.9160    42.3030    23.3110     2.5230 
   76.1250   -22.4960    68.0720    18.9120    17.1130    25.8610    23.0570     2.4330 
   76.2500   -23.1230    67.5700    14.2830    13.3560    14.2000    22.8100     2.3360 
   76.3750   -23.7530    69.8730    10.8960    10.4250     9.7120    22.6250     2.2540 
   76.5000   -24.3150    71.7690     9.0680     8.6080     9.0860    22.5540     2.2110 
   76.6250   -24.7840    69.0220     8.2960     7.5880     9.3760    22.5760     2.1950 
   76.7500   -25.1900    64.8820     8.2280     7.1690     9.7480    22.6450     2.1910 
   76.8750   -25.5280    63.4870     8.4930     7.1370    10.0350    22.7540     2.1870 
   77.0000   -25.7450    62.6380     8.7520     7.2750    10.0070    22.9530     2.1830 
   77.1250   -25.9310    62.1230     8.8430     7.3800     9.6690    23.1860     2.1830 
   77.2500   -26.1210    65.1280     8.7810     7.3960     9.3060    23.3480     2.1840 
   77.3750   -26.2110    70.6680     8.6500     7.3410     9.1520    23.3930     2.1840 
   77.5000   -26.1800    71.9160     8.5410     7.2700     9.1430    23.3670     2.1830 
   77.6250   -26.1070    67.7660     8.4950     7.2240     9.1410    23.3170     2.1810 
   77.7500   -25.9600    65.0060     8.4990     7.2030     9.1240    23.2360     2.1820 
   77.8750   -25.7640    66.3410     8.5210     7.1900     9.1170    23.1280     2.1860 
   78.0000   -25.5900    66.2880     8.5260     7.1650     9.1030    23.0140     2.1900 
   78.1250   -25.4370    63.4650     8.5140     7.1320     9.0800    22.9310     2.1910 
   78.2500   -25.3160    62.6090     8.5110     7.0980     8.9870    22.9030     2.1900 
   78.3750   -25.2500    66.0740     8.5420     7.0650     8.7590    22.9120     2.1900 
   78.5000   -25.2390    70.4630     8.6200     7.0390     8.4880    22.9070     2.1940 
   78.6250   -25.2320    71.9280     8.7310     7.0290     8.4250    22.8980     2.2040 
   78.7500   -25.3020    71.3720     8.8600     7.0400     8.6580    22.9530     2.2140 
   78.8750   -25.4510    69.3480     8.9870     7.0660     8.9960    23.0910     2.2180 
   79.0000   -25.5330    67.7230     9.1010     7.0980     9.0990    23.2630     2.2130 
   79.1250   -25.5880    68.4670     9.2010     7.1330     9.0940    23.4230     2.2040 
   79.2500   -25.6470    70.0780     9.2870     7.1760     9.1730    23.5630     2.1950 
   79.3750   -25.7060    70.1260     9.3630     7.2260     9.3220    23.6680     2.1880 
   79.5000   -25.7500    68.3060     9.4350     7.2840     9.4590    23.7050     2.1820 
   79.6250   -25.7850    66.3530     9.5150     7.3500     9.6550    23.6840     2.1770 
   79.7500   -25.7740    64.8950     9.5920     7.4140     9.9000    23.6250     2.1770 
   79.8750   -25.7230    64.7210     9.6390     7.4560    10.1220    23.5540     2.1820 
   80.0000   -25.6790    65.8310     9.5960     7.4260    10.3550    23.5140     2.1920 
   80.1250   -25.5790    66.2310     9.4340     7.3060    10.4200    23.5070     2.2000 
   80.2500   -25.4200    67.9190     9.1640     7.0990    10.0470    23.5040     2.2070 
   80.3750   -25.2950    72.2470     8.8430     6.8450     9.3650    23.4960     2.2120 
   80.5000   -25.2120    75.2500     8.5730     6.6130     8.9000    23.4920     2.2130 
   80.6250   -25.1480    75.5610     8.4160     6.4490     8.8240    23.4990     2.2100 
   80.7500   -25.1110    76.0900     8.3850     6.3730     8.9750    23.5020     2.2030 
   80.8750   -25.1230    77.6390     8.4610     6.3910     9.1670    23.5210     2.1960 
   81.0000   -25.2310    75.2370     8.6170     6.5040     9.2840    23.6530     2.1880 
   81.1250   -25.3910    70.3690     8.8050     6.6710     9.3140    23.8740     2.1810 
   81.2500   -25.5330    66.7800     9.0070     6.8600     9.3550    24.0160     2.1750 
   81.3750   -25.5800    65.2850     9.1970     7.0330     9.4950    23.9420     2.1760 
   81.5000   -25.5490    65.2220     9.3070     7.1480     9.6830    23.7410     2.1830 
   81.6250   -25.4910    65.9860     9.2960     7.1940     9.7880    23.6400     2.1920 
   81.7500   -25.4000    68.4940     9.1550     7.1750     9.7760    23.6780     2.2000 
   81.8750   -25.2000    72.9100     8.9300     7.1000     9.5990    23.7660     2.2060 
   82.0000   -24.8600    76.3010     8.7270     6.9960     9.3590    23.7730     2.2110 
   82.1250   -24.4550    75.7800     8.6150     6.9020     9.2690    23.6930     2.2160 
   82.2500   -23.9590    70.6670     8.5860     6.8400     9.3400    23.6170     2.2190 
   82.3750   -23.3440    64.9820     8.5720     6.8100     9.3270    23.6960     2.2180 
   82.5000   -22.6350    63.6860     8.4820     6.7820     9.1140    24.0760     2.2120 
   82.6250   -21.8450    67.7180     8.2870     6.7180     8.8350    24.5890     2.2020 
   82.7500   -20.9530    74.2750     7.9900     6.5950     8.3690    24.9920     2.1910 
   82.8750   -19.9920    77.8330     7.6440     6.4280     7.8730    25.1510     2.1830 
   83.0000   -18.9280    77.2710     7.3220     6.2540     7.4250    25.1990     2.1800 
   83.1250   -17.8030    75.2030     7.0560     6.0960     6.8920    25.3340     2.1740 
   83.2500   -16.7330    75.7520     6.8580     5.9550     6.2800    25.4400     2.1630 
   83.3750   -15.7370    79.3450     6.7240     5.8340     5.8100    25.2620     2.1550 
   83.5000   -14.7380    81.7830     6.6400     5.7300     5.5400    24.7810     2.1720 
   83.6250   -13.7920    81.8190     6.5610     5.6230     5.2860    24.3720     2.2120 
