~V
VERS. 2.00: Ver 2.00
~W
STRT.M 55.0000:
STOP.M 280.0000:
STEP.M 0.1250:
NULL. -999.2500:
UWI. F11032:
~C
DEPT.M :
DEN.GM/CC :
GR.API :
RML.OHMM :
RI. :
RXO.OHMM :
CALI.CM :
SP.MV :
~A
# ...
  122.5000     2.2820    71.2620     7.4760     7.4580     8.2820    22.7290   -16.1310 
  122.6250     2.3080    72.1110     6.4970     6.4510     6.2210    23.0490   -15.5720 
  122.7500     2.3280    70.5770     6.0930     5.8550     5.6530    23.2840   -15.0950 
  122.8750     2.3480    70.3120     6.3390     5.8020     5.6130    23.4680   -14.7830 
  123.0000     2.3700    71.0210     7.2240     6.3420     6.2180    23.5140   -14.6030 
  123.1250     2.3880    69.8840     8.7320     7.5560     8.4100    23.5100   -14.5850 
  123.2500     2.3880    66.0370    10.5160     9.1890    12.9570    23.5090   -14.6170 
  123.3750     2.3580    60.5930    12.2220    10.9380    16.2250    23.5100   -14.6070 
  123.5000     2.3000    56.3530    13.5340    12.4600    15.9840    23.5220   -14.5640 
  123.6250     2.2290    56.7680    14.1940    13.4080    14.5020    23.5560   -14.4250 
  123.7500     2.1730    58.5530    14.2630    13.7560    14.4350    23.6600   -14.2000 
  123.8750     2.1510    56.9120    13.7730    13.5070    15.1760    23.7240   -13.9060 
  124.0000     2.1730    52.0280    12.8540    12.7740    16.2500    23.7460   -13.5490 
  124.1250     2.2350    50.7900    11.8300    11.8170    15.9260    23.8390   -13.1300 
  124.2500     2.3100    53.0200    11.1940    11.0500    13.6820    24.0890   -12.7420 
  124.3750     2.3810    53.9360    11.3430    10.8100    10.2310    24.1290   -12.4040 
  124.5000     2.4380    51.4000    12.5250    11.3590    10.3170    24.1340   -12.1060 
  124.6250     2.4810    47.1520    16.8860    13.0250    15.2390    24.1340   -11.8710 
  124.7500     2.5180    44.4530    20.4840    15.6330    22.5760    24.1340   -11.6930 
  124.8750     2.5490    44.2740    24.2360    18.8340    26.9270    24.1340   -11.5520 
  125.0000     2.5710    45.9810    27.1570    21.8460    27.4030    24.1340   -11.4450 
  125.1250     2.5810    46.1380    28.2330    23.5300    25.0570    24.1340   -11.3860 
  125.2500     2.5850    43.3710    27.9930    23.9180    25.3000    24.1350   -11.3190 
  125.3750     2.5810    41.3090    27.2360    23.5790    27.6300    24.1410   -11.2600 
  125.5000     2.5700    43.5700    26.5740    23.0830    26.2340    24.1710   -11.1740 
  125.6250     2.5500    47.5830    26.3000    22.7620    22.8960    24.2140   -11.1200 
  125.7500     2.5280    48.6000    26.3000    22.6440    21.5840    24.2210   -11.0910 
  125.8750     2.5140    46.1210    26.4540    22.6590    22.8690    24.2220   -11.0430 
  126.0000     2.5110    42.2480    26.6860    22.7590    25.1400    24.2220   -11.0320 
  126.1250     2.5160    40.4580    27.0780    23.0240    24.1110    24.2220   -11.0160 
  126.2500     2.5220    41.6140    27.7450    23.5410    22.6970    24.2170   -10.9630 
  126.3750     2.5240    44.4160    28.7650    24.3600    21.8760    24.1900   -10.9200 
  126.5000     2.5260    45.3220    30.0690    25.4360    23.1080    24.1340   -10.9500 
  126.6250     2.5350    41.9100    31.3310    26.5720    27.7780    24.0790   -10.9710 
  126.7500     2.5520    38.1130    32.1060    27.4080    32.1940    24.0700   -10.9670 
  126.8750     2.5710    36.3440    32.1520    27.6830    31.1070    24.0680   -10.9870 
  127.0000     2.5870    37.5020    31.5450    27.3870    26.7510    24.0680   -11.0150 
  127.1250     2.5910    41.5410    30.6110    26.7270    23.5100    24.0680   -11.0470 
  127.2500     2.5870    45.6920    29.7150    26.0310    23.2980    24.0680   -11.1000 
  127.3750     2.5780    47.7970    28.9040    25.3920    25.3730    24.0680   -11.1620 
  127.5000     2.5680    47.1350    28.0670    24.7720    27.7840    24.0680   -11.2020 
  127.6250     2.5560    45.4280    27.1060    24.0990    25.7960    24.0680   -11.2170 
  127.7500     2.5410    45.5700    26.1650    23.4230    21.8950    24.0680   -11.2380 
  127.8750     2.5260    47.7950    25.4360    22.8460    19.8620    24.0670   -11.2270 
  128.0000     2.5140    49.9120    25.0070    22.4310    19.3580    24.0590   -11.1330 
  128.1250     2.5100    49.3230    24.7590    22.1100    20.4140    24.0580   -11.0000 
  128.2500     2.5150    47.0890    24.3540    21.6750    21.8060    24.0580   -10.8910 
  128.3750     2.5260    44.8650    23.5920    21.0040    20.9930    24.0590   -10.7550 
  128.5000     2.5400    42.2740    22.5130    20.1160    18.7710    24.0670   -10.6060 
  128.6250     2.5480    39.7630    21.4380    19.2210    17.0590    24.0670   -10.4900 
  128.7500     2.5490    40.4220    20.7180    18.5730    16.1940    24.0630   -10.3670 
  128.8750     2.5450    42.5680    20.5050    18.3280    15.9350    24.0590   -10.2350 
  129.0000     2.5390    43.8310    20.7880    18.5460    16.8410    24.0590   -10.1650 
  129.1250     2.5340    44.2700    21.4660    19.1910    18.2780    24.0660   -10.1630 
  129.2500     2.5330    46.0570    22.2720    20.0060    19.5490    24.0630   -10.1300 
  129.3750     2.5370    47.9530    23.0070    20.7900    21.0540    24.0630   -10.1290 
  129.5000     2.5430    49.2360    23.4680    21.3300    22.1130    24.0520   -10.1620 
  129.6250     2.5500    49.8480    23.3920    21.3820    22.0890    24.0600   -10.2050 
  129.7500     2.5570    48.4010    22.8040    20.9720    21.3840    24.0620   -10.2380 
  129.8750     2.5610    44.5290    21.8140    20.1900    20.5780    24.0640   -10.2940 
  130.0000     2.5620    41.3710    20.6430    19.2050    18.8640    24.0590   -10.3800 
  130.1250     2.5580    41.5060    19.5980    18.2410    16.2730    24.0580   -10.4270 
  130.2500     2.5490    42.5800    18.8560    17.4890    15.0680    24.0550   -10.5010 
  130.3750     2.5370    41.7180    18.4710    17.0230    15.3480    24.0390   -10.5980 
  130.5000     2.5230    39.2350    18.4300    16.8360    16.0000    23.9710   -10.6890 
  130.6250     2.5090    38.3270    18.7500    16.9650    15.9160    23.8620   -10.7710 
  130.7500     2.4960    40.7550    19.3670    17.3860    16.1090    23.7530   -10.8650 
  130.8750     2.4850    44.5520    20.2700    18.1160    16.0120    23.7080   -10.9780 
  131.0000     2.4780    45.7910    21.4140    19.1440    16.3090    23.6690   -11.0720 
  131.1250     2.4770    44.8720    22.6920    20.4160    17.1680    23.6370   -11.2080 
  131.2500     2.4790    44.0470    23.8930    21.7030    19.0980    23.5090   -11.3360 
  131.3750     2.4790    42.8670    24.8220    22.7630    22.0170    23.2780   -11.4360 
  131.5000     2.4740    41.0920    25.3290    23.4100    23.6540    23.1760   -11.5330 
  131.6250     2.4610    40.2260    25.3340    23.5290    21.9110    23.0380   -11.6290 
  131.7500     2.4460    41.6070    25.0570    23.3100    20.4180    22.9670   -11.7610 
  131.8750     2.4340    42.7880    24.6850    22.9320    20.0130    22.8470   -11.9160 
  132.0000     2.4280    42.6100    24.3710    22.5640    20.4420    22.8020   -12.0560 
  132.1250     2.4310    43.6130    24.1880    22.3150    20.2540    22.7990   -12.1230 
  132.2500     2.4370    46.1300    24.0660    22.1460    19.6440    22.8280   -12.1500 
  132.3750     2.4440    47.9120    23.9550    22.0120    19.2300    22.9790   -12.1580 
  132.5000     2.4490    46.7160    23.8740    21.9190    19.3460    23.2240   -12.1520 
  132.6250     2.4480    45.2700    23.9450    21.9610    19.5680    23.4450   -12.1240 
  132.7500     2.4440    46.0220    24.2400    22.1920    20.0600    23.7020   -12.0710 
  132.8750     2.4420    48.0190    24.7440    22.6170    21.2130    23.8220   -11.9870 
  133.0000     2.4440    49.1450    25.3290    23.1390    23.2980    23.8760   -11.8990 
  133.1250     2.4520    48.6090    25.7370    23.5510    24.1200    24.0450   -11.8170 
  133.2500     2.4630    48.6700    25.7810    23.6810    24.6960    23.9730   -11.7550 
  133.3750     2.4710    49.3890    25.3800    23.4420    23.9310    23.8800   -11.6800 
  133.5000     2.4740    49.2030    24.5960    22.8630    22.0350    23.7040   -11.5860 
  133.6250     2.4700    48.4370    23.5840    22.0260    20.3570    23.6950   -11.4940 
