~V
VERS. 2.00: Ver 2.00
~W
STRT.M 51.0000:
STOP.M 277.0000:
STEP.M 0.1250:
NULL. -999.2500:
UWI. F11053:
~C
DEPT.M :
GR.API :
RML.OHMM :
RI. :
RXO.OHMM :
CALI.CM :
DEN.GM/CC :
SP.MV :
~A
# ...
  264.7500    77.9130    18.7330    17.4030    12.7970    24.1510     2.5220     3.3610 
  264.8750    75.9700    18.3710    17.0550    11.8450    23.9780     2.5340     3.3210 
  265.0000    73.3770    18.0620    16.7530    13.3700    23.9950     2.5260     3.2860 
  265.1250    71.9190    17.8320    16.5290    14.5690    24.1740     2.5000     3.2690 
  265.2500    72.0580    17.7070    16.4100    15.4690    24.3720     2.4680     3.2790 
  265.3750    73.4030    17.6840    16.3980    16.6700    24.5490     2.4400     3.3230 
  265.5000    74.0720    17.7420    16.4700    17.9770    24.6420     2.4230     3.3690 
  265.6250    72.6310    17.8200    16.5570    18.8430    24.6530     2.4150     3.4060 
  265.7500    71.1480    17.8800    16.6150    18.4790    24.5700     2.4170     3.4620 
  265.8750    71.2770    17.9210    16.6390    18.0280    24.3920     2.4310     3.5000 
  266.0000    71.5750    17.9860    16.6810    17.9780    24.2140     2.4570     3.5140 
  266.1250    71.6240    18.1140    16.7990    17.9470    24.2020     2.4890     3.5140 
  266.2500    71.6240    18.3140    17.0000    17.7640    24.3180     2.5130     3.5080 
  266.3750    71.6240    18.5470    17.2420    17.7040    24.4480     2.5210     3.5130 
  266.5000    71.6240    18.7370    17.4400    18.1160    24.4840     2.5150     3.5300 
  266.6250    71.6240    18.8210    17.5270    18.3180    24.4910     2.5050     3.5660 
  266.7500    71.6240    18.7760    17.4790    17.7700    24.4780     2.5000     3.6190 
  266.8750    71.6240    18.6140    17.3120    16.9770    24.4770     2.5010     3.6930 
  267.0000    71.6240    18.3710    17.0700    18.1140    24.4280     2.5030     3.8030 
  267.1250    71.6240    18.1090    16.8120    19.3600    24.3350     2.5010     3.9200 
  267.2500    71.6240    17.8670    16.5780    19.7440    24.2370     2.4960     4.0420 
  267.3750    71.6240    17.6700    16.3900    18.5330    24.2030     2.4890     4.1560 
  267.5000    71.6240    17.5370    16.2670    17.3080    24.2920     2.4800     4.2580 
  267.6250    71.6240    17.4590    16.1970    16.3270    24.4670     2.4730     4.3410 
  267.7500    71.6240    17.4270    16.1700    15.7470    24.6390     2.4700     4.3830 
  267.8750    71.6240    17.4260    16.1730    15.5610    24.7580     2.4760     4.4200 
  268.0000    71.6240    17.4490    16.1960    16.0470    24.7730     2.4890     4.4330 
  268.1250    71.6240    17.4890    16.2310    16.7390    24.7620     2.5000     4.4440 
  268.2500    71.6240    17.5400    16.2810    16.7900    24.7460     2.5020     4.4740 
  268.3750    71.6240    17.5980    16.3410    16.5180    24.7410     2.4920     4.4970 
  268.5000    71.6240    17.6520    16.3940    16.4020    24.7730     2.4760     4.5190 
  268.6250    71.6240    17.7000    16.4340    16.1170    24.7990     2.4610     4.5490 
  268.7500    71.6240    17.7510    16.4750    15.7380    24.7780     2.4560     4.5730 
  268.8750    71.6240    17.8200    16.5380    15.3850    24.7260     2.4620     4.6020 
  269.0000    71.6240    17.9130    16.6330    15.2560    24.6950     2.4760     4.6330 
  269.1250    71.6240    18.0050    16.7310    15.0190    24.6840     2.4890     4.6520 
  269.2500    71.6240    18.0670    16.7950    14.8840    24.6850     2.4980     4.6490 
  269.3750    71.6240    18.0800    16.8060    14.8580    24.6610     2.5060     4.6110 
  269.5000    71.6240    18.0360    16.7600    15.3440    24.6840     2.5110     4.5430 
  269.6250    71.6240    17.9570    16.6800    16.8170    24.7150     2.5140     4.4580 
  269.7500    71.6240    17.8640    16.5860    18.6450    24.7430     2.5110     4.4070 
  269.8750    71.6240    17.7800    16.5010    19.4290    24.7560     2.5040     4.3680 
  270.0000    71.6240    17.7350    16.4520    18.0450    24.7750     2.4970     4.3020 
  270.1250    71.6240    17.7420    16.4580    16.2820    24.8050     2.4890     4.2300 
  270.2500    71.6240    17.7930    16.5160    16.2000    24.8410     2.4840     4.1580 
  270.3750    71.6240    17.8620    16.5960    17.4390    24.8330     2.4800     4.1290 
  270.5000    71.6240    17.9110    16.6460    18.3090    24.8250     2.4770     4.1170 
  270.6250    71.6240    17.9360    16.6570    18.6370    24.7970     2.4730     4.0910 
  270.7500    71.6240    17.9640    16.6670    18.9750    24.7670     2.4670     4.0240 
  270.8750    71.6240    18.0370    16.7270    20.1370    24.7370     2.4640     3.9190 
  271.0000    71.6240    18.1820    16.8730    21.7340    24.6840     2.4710     3.8750 
  271.1250    71.6240    18.3630    17.0640    24.1630    24.5620     2.4910     3.8760 
  271.2500    71.6240    18.5260    17.2330    24.2780    24.4140     2.5180     3.8940 
  271.3750    71.6240    18.6310    17.3310    22.4790    24.3900     2.5400     3.8920 
  271.5000    71.6240    18.6660    17.3520    20.2560    24.4520     2.5430     3.9220 
  271.6250    71.6240    18.6620    17.3390    19.0280    24.5170     2.5330     3.9950 
  271.7500    71.6240    18.6490    17.3230    19.6380    24.5420     2.5200     4.1160 
  271.8750    71.6240    18.6410    17.3180    21.7110    24.5220     2.5090     4.2570 
  272.0000    71.6240    18.6390    17.3180    24.1080    24.4680     2.4970     4.3430 
  272.1250    71.6240    18.6390    17.3180    24.1230    24.4120     2.4790     4.3890 
  272.2500    71.6240    18.6390    17.3180    21.9810    24.4510     2.4560     4.4050 
  272.3750    71.6240    18.6390    17.3180    20.6930    24.5440     2.4370     4.4450 
  272.5000    71.6240    18.6390    17.3180    20.7310    24.6360     2.4390     4.4780 
  272.6250    71.6240    18.6390    17.3180    21.3000    24.6560     2.4560     4.5060 
  272.7500    71.6240    18.6390    17.3180    20.3190    24.5780     2.4770     4.5450 
  272.8750    71.6240    18.6390    17.3180    17.3040    24.4020     2.4870     4.5760 
  273.0000    71.6240    18.6390    17.3180    14.6430    24.3320     2.4810     4.6180 
  273.1250    71.6240    18.6390    17.3180    13.6270    24.4010     2.4680     4.6690 
  273.2500    71.6240    18.6390    17.3180    13.9290    24.5360     2.4620     4.7250 
  273.3750    71.6240    18.6390    17.3180    13.5370    24.5840     2.4710     4.7680 
  273.5000    71.6240    18.6390    17.3180    12.4060    24.5560     2.4920     4.7940 
  273.6250    71.6240    18.6390    17.3180    11.8690    24.5180     2.5120     4.8180 
  273.7500    71.6240    18.6390    17.3180    13.7390    24.5070     2.5220     4.8230 
  273.8750    71.6240    18.6390    17.3180    16.2330    24.5270     2.5220     4.8230 
  274.0000    71.6240    18.6390    17.3180    17.7740    24.5300     2.5210     4.8230 
  274.1250    71.6240    18.6390    17.3180    19.1550    24.5550     2.5220  -999.2500 
  274.2500    71.6240    18.6390    17.3180    19.9130    24.5700     2.5180  -999.2500 
  274.3750    71.6240    18.6390    17.3180    20.1640    24.5870     2.5030  -999.2500 
  274.5000    71.6240    18.6390    17.3180    19.3040    24.6050     2.4730  -999.2500 
  274.6250    71.6240    18.6390    17.3180    18.5710    24.6020     2.4450  -999.2500 
  274.7500    71.6240    18.6390    17.3180    18.4500    24.5670     2.4340  -999.2500 
  274.8750    71.6240    18.6390    17.3180    18.9010    24.4410     2.4470  -999.2500 
  275.0000    71.6240    18.6390    17.3180    19.1400    24.2610     2.4750  -999.2500 
  275.1250    71.6240    18.6390    17.3180    18.3250    24.1410     2.5070  -999.2500 
  275.2500    71.6240    18.6390    17.3180    17.4430    24.1790     2.5380  -999.2500 
  275.3750    71.6240    18.6390    17.3180    17.5470    24.2210     2.5540  -999.2500 
  275.5000    71.6240    18.6390    17.3180    18.0540    24.1220     2.5460  -999.2500 
  275.6250    71.6240    18.6390    17.3180    19.1970    24.0150     2.5180  -999.2500 
  275.7500    71.6240    18.6390    17.3180    18.7210    23.9510     2.4650  -999.2500 
  275.8750    71.6240    18.6390    17.3180    17.9060    23.7250     2.3880  -999.2500 
