~V
VERS. 2.00: Ver 2.00
~W
STRT.M 51.0000:
STOP.M 282.0000:
STEP.M 0.1250:
NULL. -999.2500:
UWI. F11065:
~C
DEPT.M :
GR.API :
RML.OHMM :
RI. :
RXO.OHMM :
CALI.CM :
DEN.GM/CC :
SP.MV :
~A
# ...
   84.7500   101.8200     8.2870     6.1920     6.4030    25.1750     2.3890    -3.9160 
   84.8750    95.2790    10.4070     7.9210     9.7130    25.2340     2.4650    -4.5400 
   85.0000    86.2300    12.4560     9.9970    19.1920    25.1870     2.5220    -5.3250 
   85.1250    78.2080    13.7600    11.7860    27.2250    24.9830     2.5220    -6.1690 
   85.2500    72.3190    13.8380    12.4830    18.8180    24.6810     2.4570    -7.0850 
   85.3750    66.7900    12.6750    11.7590    12.2110    24.3920     2.3490    -8.0710 
   85.5000    62.6120    11.1820    10.5310    10.2440    24.2310     2.2500    -9.0230 
   85.6250    62.5130     9.9880     9.4090    10.0440    24.1670     2.1830    -9.9570 
   85.7500    65.7520     9.3540     8.6790    10.0980    24.1290     2.1510   -10.7770 
   85.8750    69.8090     9.2340     8.4020    10.0600    24.1120     2.1430   -11.4410 
   86.0000    72.0440     9.2850     8.3350    10.1900    24.1470     2.1440   -12.0100 
   86.1250    73.8590     9.3380     8.3020    10.0000    24.2930     2.1510   -12.4770 
   86.2500    76.8950     9.3450     8.2160     9.4000    24.5210     2.1630   -12.8920 
   86.3750    78.9950     9.3630     8.0980     9.0360    24.7360     2.1760   -13.2570 
   86.5000    78.7890     9.4630     8.0160     8.7060    24.8770     2.1830   -13.5940 
   86.6250    77.4040     9.6630     8.0090     8.5070    24.9380     2.1800   -13.9230 
   86.7500    76.1370     9.9070     8.0840     9.1900    24.9470     2.1640   -14.3030 
   86.8750    74.3820    10.0490     8.1980     9.7270    24.9630     2.1380   -14.6850 
   87.0000    72.0480     9.9750     8.2580    10.0160    25.0310     2.1140   -14.9600 
   87.1250    70.2120     9.6550     8.1900     9.9240    25.1230     2.1030   -15.1140 
   87.2500    70.7610     9.1750     7.9660     9.4060    25.1030     2.1160   -15.0920 
   87.3750    77.6050     8.7330     7.6420     8.5400    24.9150     2.1540   -14.9920 
   87.5000    85.8010     8.5030     7.3690     7.8400    24.7250     2.1970   -14.9570 
   87.6250    88.0430     8.5680     7.2590     7.6940    24.6890     2.2300   -15.0230 
   87.7500    83.3040     8.9310     7.3600     8.4120    24.7700     2.2430   -15.1230 
   87.8750    77.5610     9.5550     7.6500     9.4940    24.8300     2.2360   -15.2760 
   88.0000    73.4130    10.2510     7.9910    10.1320    24.8260     2.2210   -15.4900 
   88.1250    69.5660    10.8420     8.2780    10.3780    24.7900     2.2060   -15.7830 
   88.2500    66.5690    11.1680     8.4550    10.3030    24.7210     2.1930   -16.2450 
   88.3750    67.1990    11.1230     8.5220    10.1650    24.6710     2.1830   -16.6700 
   88.5000    69.6940    10.8610     8.5290     9.8950    24.6410     2.1740   -16.9790 
   88.6250    71.9300    10.5300     8.4920     9.6270    24.6570     2.1640   -17.1300 
   88.7500    72.2160    10.2420     8.4110     9.7090    24.7190     2.1520   -17.1080 
   88.8750    69.2970    10.0430     8.2870     9.9070    24.7700     2.1420   -17.0590 
   89.0000    66.1040     9.9160     8.1500    10.0740    24.7640     2.1370   -16.9910 
   89.1250    64.6550     9.8820     8.0470    10.2460    24.7310     2.1400   -16.9000 
   89.2500    64.7460     9.9820     8.0310    10.5690    24.7500     2.1520   -16.7380 
   89.3750    64.5510    10.2390     8.1550    10.8020    24.7750     2.1670   -16.4730 
   89.5000    63.4080    10.5410     8.3670    11.0550    24.7430     2.1770   -16.1310 
   89.6250    61.5570    10.7620     8.5850    12.4970    24.7170     2.1760   -15.6920 
   89.7500    59.6040    10.7870     8.7040    17.1360    24.7040     2.1650   -15.1970 
   89.8750    61.2700    10.5350     8.6160    23.3060    24.6410     2.1490   -14.6980 
   90.0000    66.2330    10.1050     8.3610    19.4850    24.5870     2.1340   -14.2140 
   90.1250    69.9100     9.6150     8.0090    11.7490    24.5690     2.1260   -13.7760 
   90.2500    69.2000     9.1740     7.6420     9.0930    24.4920     2.1240   -13.4280 
   90.3750    66.0550     8.8670     7.3470     9.2230    24.4350     2.1260   -13.1950 
   90.5000    65.5270     8.6670     7.1500     9.6250    24.3940     2.1280   -13.0640 
   90.6250    66.2520     8.5560     7.0460     9.2640    24.3650     2.1270   -13.0770 
   90.7500    66.0980     8.5410     7.0070     8.9210    24.3260     2.1210   -13.2060 
   90.8750    66.4400     8.6880     7.0200     8.8630    24.2470     2.1110   -13.3540 
   91.0000    69.8060     8.9820     7.0880     9.0450    24.1390     2.1040   -13.4990 
   91.1250    74.0580     9.3620     7.2400     9.6430    24.0350     2.1130   -13.6950 
   91.2500    73.4680     9.7240     7.4980     9.9500    23.9560     2.1400   -13.8590 
   91.3750    67.4820     9.9490     7.8340     9.6600    23.8920     2.1790   -14.0550 
   91.5000    63.3080    10.0290     8.1280     9.6720    23.8640     2.2060   -14.2660 
   91.6250    63.1690     9.9920     8.2760     9.9330    23.9080     2.2080   -14.4310 
   91.7500    64.3790     9.8730     8.2310    10.1460    24.0230     2.1830   -14.5990 
   91.8750    64.3460     9.6950     8.0230    10.2380    24.0660     2.1470   -14.6590 
   92.0000    64.4970     9.5050     7.7860    10.0400    24.0150     2.1200   -14.7130 
   92.1250    66.6210     9.3520     7.6050     9.5060    23.9020     2.1110   -14.7120 
   92.2500    70.7180     9.2770     7.5210     9.1750    23.8070     2.1190   -14.6670 
   92.3750    77.1350     9.3030     7.5370     9.5220    23.7560     2.1370   -14.6280 
   92.5000    82.9930     9.3880     7.6090     9.6450    23.7240     2.1570   -14.5680 
   92.6250    85.5980     9.4910     7.7180     9.4910    23.6610     2.1760   -14.5590 
   92.7500    83.3570     9.5800     7.8390     9.1750    23.5910     2.1920   -14.5870 
   92.8750    77.6310     9.6260     7.9420     8.9560    23.5280     2.1960   -14.6500 
   93.0000    73.6980     9.6250     8.0040     9.1790    23.5700     2.1870   -14.7690 
   93.1250    72.6770     9.5850     8.0100     9.6470    23.6880     2.1650   -14.9240 
   93.2500    71.5760     9.5400     7.9690    10.0460    23.8320     2.1390   -15.0550 
   93.3750    67.8890     9.5440     7.9250    10.1660    23.8400     2.1220   -15.1090 
   93.5000    65.6880     9.5960     7.9130    10.0960    23.7740     2.1250   -15.0430 
   93.6250    67.2190     9.6420     7.9180     9.8130    23.6940     2.1510   -14.7960 
   93.7500    70.4410     9.5960     7.8830     9.6800    23.6410     2.1930   -14.4020 
   93.8750    71.8200     9.3740     7.7150     9.8900    23.6050     2.2330   -13.8810 
   94.0000    72.8890     9.0320     7.4110     9.7690    23.6290     2.2560   -13.2950 
   94.1250    75.3010     8.6610     7.0310     8.5890    23.7100     2.2580   -12.7100 
   94.2500    78.7730     8.3650     6.6810     7.6060    23.7870     2.2430   -12.2570 
   94.3750    81.0170     8.2480     6.4880     7.1030    23.8430     2.2220   -11.9890 
   94.5000    79.1260     8.3020     6.4770     6.9520    23.8920     2.2050   -11.9610 
   94.6250    74.2270     8.4900     6.6380     7.3900    23.9620     2.1940   -12.2150 
   94.7500    71.5420     8.7400     6.9100     8.4430    24.0350     2.1840   -12.6450 
   94.8750    73.0500     8.9630     7.1940     9.0880    24.0920     2.1730   -13.2970 
   95.0000    73.8630     9.1290     7.4090     9.3080    24.1470     2.1600   -13.9330 
   95.1250    71.7630     9.2570     7.5460     9.2860    24.1810     2.1460   -14.5240 
   95.2500    68.7990     9.3850     7.6340     9.1200    24.1630     2.1330   -15.0490 
   95.3750    67.1790     9.5280     7.7090     8.9890    24.1300     2.1260   -15.4300 
   95.5000    65.3270     9.6540     7.7810     8.7800    24.1000     2.1240   -15.6960 
   95.6250    64.1980     9.7230     7.8130     8.6360    24.0570     2.1280   -15.7500 
   95.7500    65.2820     9.7110     7.7570     8.6750    24.0470     2.1380   -15.6410 
   95.8750    68.3730     9.5930     7.5590     8.8980    24.0760     2.1580   -15.3310 
