~V
VERS. 2.00: Ver 2.00
~W
STRT.M 54.0000:
STOP.M 281.0000:
STEP.M 0.1250:
NULL. -999.2500:
UWI. F11055:
~C
DEPT.M :
SP.MV :
GR.API :
RML.OHMM :
RI. :
RXO.OHMM :
CALI.CM :
DEN.GM/CC :
~A
# ...
  155.2500    -1.6090    89.3120     2.4530     1.9210     2.0260    24.6440     2.1960 
  155.3750    -1.6890    89.3140     2.7100     1.9320     2.2250    24.4400     2.2250 
  155.5000    -1.7750    84.0660     3.2270     2.1880     3.0670    24.3950     2.2470 
  155.6250    -1.9530    79.7880     3.7930     2.5790     5.4160    24.3500     2.2680 
  155.7500    -2.0780    78.7920     4.1270     2.9050     8.3220    24.3200     2.2850 
  155.8750    -2.2320    79.2940     4.1150     3.0500     8.3480    24.3460     2.2910 
  156.0000    -2.3450    80.9120     3.9030     3.0420     5.6060    24.4550     2.2870 
  156.1250    -2.4620    82.5920     3.8760     3.0770     3.8290    24.4820     2.2810 
  156.2500    -2.5660    80.7000     4.2900     3.3650     4.5860    24.4560     2.2730 
  156.3750    -2.6520    75.8450     5.2360     4.0390     7.5670    24.4570     2.2610 
  156.5000    -2.6840    69.7140     6.6650     5.1570    10.1590    24.5150     2.2470 
  156.6250    -2.6250    65.5310     8.2610     6.6120    11.5240    24.5310     2.2340 
  156.7500    -2.5780    64.8230     9.3410     7.8290    12.3430    24.5110     2.2260 
  156.8750    -2.4400    66.4080     9.3810     8.2220    12.1380    24.4940     2.2220 
  157.0000    -2.3080    68.5390     8.3950     7.6300    10.4930    24.5160     2.2130 
  157.1250    -2.0770    68.7020     6.8950     6.4050     7.9460    24.6060     2.1770 
  157.2500    -1.8240    70.7440     5.5150     5.1570     5.5760    24.9250     2.1180 
  157.3750    -1.5620    76.3180     4.4820     4.1270     4.1040    25.5800     2.0560 
  157.5000    -1.3400    82.2030     3.8370     3.3970     3.5060    26.3020     1.9990 
  157.6250    -1.1740    83.3910     3.5700     3.0030     3.4110    26.9460     1.9440 
  157.7500    -0.9960    80.6600     3.5590     2.8550     3.4540    27.1370     1.9120 
  157.8750    -0.9150    79.6050     3.7650     2.9240     3.6350    26.6900     1.9400 
  158.0000    -0.8300    83.1460     4.1720     3.1990     4.4770    25.7330     2.0340 
  158.1250    -0.8520    86.1300     5.5200     3.7050     5.8750    24.9480     2.1620 
  158.2500    -0.8860    84.1480     6.4330     4.3870     7.0810    24.6470     2.2590 
  158.3750    -0.9480    79.7410     7.4560     5.1910     8.2080    24.5940     2.3040 
  158.5000    -1.0280    77.8440     8.4520     6.0240     9.7890    24.5960     2.3190 
  158.6250    -1.0870    78.6500     9.2480     6.7550    11.2660    24.5990     2.3290 
  158.7500    -1.2120    79.4640     9.8510     7.3400    12.3530    24.5870     2.3340 
  158.8750    -1.3110    80.9840    10.3780     7.8210    12.3030    24.5450     2.3310 
  159.0000    -1.4700    82.9970    11.0200     8.3020    12.1050    24.4460     2.3270 
  159.1250    -1.5680    83.2760    12.0260     8.9450    13.0290    24.3500     2.3250 
  159.2500    -1.7060    81.8160    13.4350     9.8260    15.3260    24.3050     2.3150 
  159.3750    -1.7850    79.5470    15.1940    10.9620    16.2230    24.2940     2.2960 
  159.5000    -1.8450    76.9630    17.1370    12.2880    16.1190    24.2940     2.2750 
  159.6250    -1.9020    73.9030    18.9770    13.6490    16.8310    24.2940     2.2650 
  159.7500    -1.8740    72.3770    20.5070    14.8700    17.2940    24.2940     2.2640 
  159.8750    -1.8770    71.4180    21.6740    15.8750    17.3770    24.2940     2.2680 
  160.0000    -1.8230    68.6070    22.5500    16.6700    17.6290    24.2940     2.2700 
  160.1250    -1.7780    63.5980    23.2370    17.2880    18.7010    24.2940     2.2710 
  160.2500    -1.6780    61.1420    23.8910    17.8350    21.7240    24.2940     2.2710 
  160.3750    -1.6370    62.7210    24.6020    18.3850    23.7990    24.2940     2.2680 
  160.5000    -1.5750    65.9160    25.4080    18.9940    25.1630    24.2940     2.2610 
  160.6250    -1.4980    67.5880    26.2580    19.6730    25.1860    24.2940     2.2520 
  160.7500    -1.4910    68.5140    27.0230    20.3440    24.8160    24.2930     2.2470 
  160.8750    -1.4250    68.4150    27.5950    20.9140    25.5840    24.2910     2.2450 
  161.0000    -1.3950    67.8360    27.9310    21.3140    26.7120    24.2880     2.2440 
  161.1250    -1.3620    67.2550    28.1000    21.5490    27.2450    24.2880     2.2440 
  161.2500    -1.3600    66.7080    28.3120    21.7600    26.6890    24.2920     2.2470 
  161.3750    -1.3160    66.2660    28.7240    22.0740    26.1640    24.2930     2.2500 
  161.5000    -1.2940    66.0210    29.4330    22.5860    26.7640    24.2930     2.2530 
  161.6250    -1.3100    65.3310    30.4580    23.3500    28.8580    24.2920     2.2520 
  161.7500    -1.2560    62.6910    31.5860    24.2380    30.7110    24.2930     2.2510 
  161.8750    -1.2420    59.1600    32.6120    25.1020    31.4870    24.2930     2.2500 
  162.0000    -1.1870    58.6960    33.4000    25.8260    30.9010    24.2920     2.2500 
  162.1250    -1.1510    62.6910    33.9680    26.3820    29.9860    24.2950     2.2520 
  162.2500    -1.0960    67.8190    34.5640    26.9240    29.8900    24.3000     2.2570 
  162.3750    -1.0880    71.0770    35.3750    27.5940    31.0570    24.3140     2.2600 
  162.5000    -1.0490    71.7430    36.4280    28.4410    33.6270    24.3220     2.2590 
  162.6250    -0.9990    70.5090    37.5300    29.3650    34.9400    24.3170     2.2590 
  162.7500    -1.0040    68.9190    38.4190    30.1740    35.4930    24.3110     2.2620 
  162.8750    -0.9680    67.5330    39.0210    30.7940    35.0900    24.3170     2.2650 
  163.0000    -0.9840    66.9100    39.4760    31.2950    33.6320    24.3220     2.2670 
  163.1250    -0.9700    67.9380    40.1490    31.8980    31.4020    24.3130     2.2690 
  163.2500    -0.9830    68.8550    41.2970    32.8020    30.3160    24.2990     2.2670 
  163.3750    -0.9360    67.2620    42.9580    34.0880    32.1890    24.3000     2.2630 
  163.5000    -0.9380    65.8750    44.9440    35.6870    34.5590    24.3170     2.2570 
  163.6250    -0.9110    67.9940    46.8460    37.3610    33.9480    24.3200     2.2520 
  163.7500    -0.8510    71.7090    48.3090    38.8030    33.1800    24.3110     2.2500 
  163.8750    -0.8500    74.0190    49.2060    39.8480    33.7900    24.3050     2.2490 
  164.0000    -0.8000    73.3740    49.6630    40.5140    34.5970    24.3170     2.2500 
  164.1250    -0.7960    71.0870    49.9990    40.9950    33.7410    24.3200     2.2540 
  164.2500    -0.7590    69.8500    50.5570    41.5870    32.5680    24.3090     2.2570 
  164.3750    -0.7760    70.2920    51.4660    42.4320    32.8020    24.2980     2.2560 
  164.5000    -0.7540    69.6620    52.6900    43.5340    34.6260    24.3010     2.2510 
  164.6250    -0.7990    67.7970    54.0780    44.7840    37.1830    24.3130     2.2420 
  164.7500    -0.8590    69.0260    55.4250    46.0060    38.9630    24.3090     2.2340 
  164.8750    -0.8740    72.4900    56.6670    47.1280    40.1060    24.3050     2.2300 
  165.0000    -0.9400    74.8110    57.8870    48.1840    40.1450    24.3170     2.2320 
  165.1250    -0.9630    74.1310    59.3520    49.3710    38.3210    24.3200     2.2350 
  165.2500    -1.0360    71.0060    61.2530    50.8790    38.0710    24.3090     2.2370 
  165.3750    -1.0440    68.1240    63.6330    52.7840    38.9520    24.2950     2.2430 
  165.5000    -1.1070    67.8250    66.3660    55.0150    41.2530    24.2980     2.2500 
  165.6250    -1.1160    68.9940    69.1650    57.4300    44.3270    24.3480     2.2480 
  165.7500    -1.1150    69.2140    71.6990    59.7900    45.0300    24.4270     2.2340 
  165.8750    -1.1600    68.1370    73.7630    61.8950    44.1640    24.4640     2.2190 
  166.0000    -1.1710    65.8800    75.2950    63.6150    44.6770    24.4730     2.2090 
  166.1250    -1.2450    62.1620    76.3060    64.8820    46.3540    24.4900     2.2060 
  166.2500    -1.2730    59.8980    77.0080    65.8490    47.6640    24.5120     2.2100 
  166.3750    -1.3880    61.3580    77.5580    66.6410    46.2410    24.4900     2.2190 
