~V
VERS. 2.00: Ver 2.00
~W
STRT.M 51.0000:
STOP.M 252.0000:
STEP.M 0.1250:
NULL. -999.2500:
UWI. F11020:
~C
DEPT.M :
DEN.GM/CC :
GR.API :
RML.OHMM :
RI. :
RXO.OHMM :
CALI.CM :
SP.MV :
~A
# ...
  242.2500     2.4860    57.5170    12.0930    10.8250    12.9070    25.1250    -6.5420 
  242.3750     2.4900    57.5170    12.3960    11.1350    14.7520    25.1220    -6.5920 
  242.5000     2.4980    57.5170    12.5240    11.3270    16.1790    25.1210    -6.6320 
  242.6250     2.5090    57.5170    12.4990    11.3930    15.8440    25.1240    -6.6560 
  242.7500     2.5140    57.5170    12.3840    11.3640    14.3830    25.1260    -6.7050 
  242.8750     2.5110    57.5170    12.2580    11.2950    13.2680    25.1210    -6.7760 
  243.0000     2.5000    57.5170    12.1380    11.1990    12.9930    25.1010    -6.8430 
  243.1250     2.4850    57.5170    12.0060    11.0680    13.7290    25.0690    -6.9230 
  243.2500     2.4680    57.5170    11.8240    10.8920    14.2020    25.0540    -7.0570 
  243.3750     2.4530    57.5170    11.5970    10.6940    14.7470    25.0500    -7.2170 
  243.5000     2.4430    57.5170    11.3760    10.5090    15.2660    25.0590    -7.4400 
  243.6250     2.4390    57.5170    11.2490    10.3830    14.6700    25.0800    -7.7220 
  243.7500     2.4320    57.5170    11.3090    10.3680    14.9400    25.1040    -8.0430 
  243.8750     2.4250    57.5170    11.5600    10.4800    14.7460    25.0970    -8.4330 
  244.0000     2.4190    57.5170    11.9630    10.7170    14.6850    25.0730    -8.8870 
  244.1250     2.4140    57.5170    12.4430    11.0560    14.4960    25.0630    -9.3820 
  244.2500     2.4090    57.5170    12.9090    11.4390    14.5840    25.0630    -9.8770 
  244.3750     2.4140    57.5170    13.2920    11.7880    14.9120    25.0470   -10.3770 
  244.5000     2.4280    57.5170    13.5680    12.0510    15.1130    25.0080   -10.8580 
  244.6250     2.4480    57.5170    13.7240    12.2090    16.2140    24.9760   -11.3500 
  244.7500     2.4680    57.5170    13.7110    12.2760    16.6460    24.9350   -11.8170 
  244.8750     2.4840    57.5170    13.4960    12.3130    16.9770    24.8640   -12.2280 
  245.0000     2.4870    57.5170    13.1200    12.3500    15.7900    24.7820   -12.5690 
  245.1250     2.4670    57.5170    12.7320    12.3800    14.1370    24.7310   -12.8070 
  245.2500     2.4330    57.5170    12.5470    12.3810    13.4580    24.7460   -12.9520 
  245.3750     2.4120    57.5170    12.6390    12.3570    12.6820    24.8110   -13.0250 
  245.5000     2.4160    57.5170    12.9290    12.3270    11.2200    24.8650   -13.0400 
  245.6250     2.4380    57.5170    13.2620    12.3070     9.6010    24.8670   -12.9960 
  245.7500     2.4520    57.5170    13.4870    12.2890     8.6400    24.8410   -12.9380 
  245.8750     2.4460    57.5170    13.5820    12.2440     8.4940    24.8230   -12.8640 
  246.0000     2.4240    57.5170    13.5860    12.1600     8.6310    24.8190   -12.7650 
  246.1250     2.3900    57.5170    13.5590    12.0670     8.7610    24.8490   -12.6720 
  246.2500     2.3490    57.5170    13.5360    12.0200     8.7590    24.8880   -12.6190 
  246.3750     2.3130    57.5170    13.5020    12.0170     8.4760    24.9270   -12.5680 
  246.5000     2.2950    57.5170    13.4240    12.0280     7.9240    24.9840   -12.5270 
  246.6250     2.3010    57.5170    13.2880    12.0250     7.6890    25.0290   -12.4790 
  246.7500     2.3270    57.5170    13.1010    11.9980     7.9710    25.0460   -12.4370 
  246.8750     2.3570    57.5170    12.9410    11.9640     8.3370    25.0470   -12.4100 
  247.0000     2.3840    57.5170    12.8600    11.9390     8.1390    25.0470   -12.3970 
  247.1250     2.4080    57.5170    12.8510    11.9310     7.9240    25.0470   -12.4160 
  247.2500     2.4390    57.5170    12.8610    11.9330     8.1020    25.0470   -12.4260 
  247.3750     2.4710    57.5170    12.8610    11.9330     8.5280    25.0470   -12.4500 
  247.5000     2.4920    57.5170    12.8610    11.9330     9.0410    25.0470   -12.4670 
  247.6250     2.4950    57.5170    12.8610    11.9330     9.4240    25.0470   -12.5120 
  247.7500     2.4810    57.5170    12.8610    11.9330     9.3790    25.0470   -12.5360 
  247.8750     2.4630    57.5170    12.8610    11.9330     8.7340    25.0470   -12.5350 
  248.0000     2.4510    57.5170    12.8610    11.9330     7.9760    25.0470   -12.5570 
  248.1250     2.4500    57.5170    12.8610    11.9330     8.0990    25.0470   -12.5710 
  248.2500     2.4570    57.5170    12.8610    11.9330     9.4080    25.0480   -12.5920 
  248.3750     2.4620    57.5170    12.8610    11.9330    11.2250    25.0530   -12.6170 
  248.5000     2.4650    57.5170    12.8610    11.9330    12.9090    25.0700   -12.5750 
  248.6250     2.4720    57.5170    12.8610    11.9330    14.3020    25.0990   -12.4050 
  248.7500     2.4780    57.5170    12.8610    11.9330    15.8440    25.1160   -12.2110 
  248.8750     2.4760    57.5170    12.8610    11.9330    18.5070    25.1260   -12.0400 
  249.0000     2.4550    57.5170    12.8610    11.9330    19.1240    25.1070   -11.8430 
  249.1250     2.4250    57.5170    12.8610    11.9330    15.8390    25.0240   -11.6430 
  249.2500     2.3780    57.5170    12.8610    11.9330    13.5400    24.9060   -11.4140 
  249.3750     2.3100    57.5170    12.8610    11.9330    12.2700    24.8290   -11.2060 
  249.5000     2.2130    57.5170    12.8610    11.9330    11.4960    24.7680   -11.1330 
  249.6250     2.0880    57.5170    12.8610    11.9330    10.0760    24.5290   -11.2550 
  249.7500     1.9230    57.5170    12.8610    11.9330     8.0200    23.7850  -999.2500 
  249.8750     1.7390    57.5170    12.8610    11.9330     5.5980    22.4150  -999.2500 
  250.0000     1.6010    57.5170    12.8610    11.9330     4.2720    20.7760  -999.2500 
  250.1250     1.5340    57.5170    12.8610    11.9330     3.8710    20.1060  -999.2500 
  250.2500     1.5150    57.5170    12.8610    11.9330     3.8340    19.9680  -999.2500 
  250.3750     1.5150    57.5170    12.8610    11.9330     3.8340    19.9670  -999.2500 
  250.5000     1.5160    57.5170    12.8610    11.9330     3.8350    19.9670  -999.2500 
  250.6250     1.5140    57.5170    12.8610    11.9330     3.8350    19.9670  -999.2500 
  250.7500     1.5130    57.5170    12.8610    11.9330     3.8350    19.9670  -999.2500 
  250.8750     1.5150    57.5170    12.8610    11.9330     3.8350    19.9670  -999.2500 
  251.0000     1.5170    57.5170    12.8610    11.9330     3.8340    19.9660  -999.2500 
  251.1250     1.3940    57.5170    12.8610    11.9330     3.8330    19.9650  -999.2500 
  251.2500  -999.2500    57.5170    12.8610    11.9330     3.8320    19.9660  -999.2500 
  251.3750  -999.2500    57.5170    12.8610    11.9330     3.8310    19.9660  -999.2500 
  251.5000  -999.2500    57.5170    12.8610    11.9330     3.8320    19.9670  -999.2500 
  251.6250  -999.2500    57.5170    12.8610    11.9330     3.8330    19.9650  -999.2500 
  251.7500  -999.2500    57.5170    12.8610    11.9330     3.8320    19.9630  -999.2500 
  251.8750  -999.2500    57.4560    12.8000    11.8720     3.7720    19.9010  -999.2500 
  252.0000  -999.2500  -948.1340  -988.3250  -989.1600  -996.4490  -981.9350  -999.2500 
