~V
VERS. 2.00: Ver 2.00
~W
STRT.M 57.0000:
STOP.M 226.0000:
STEP.M 0.1250:
NULL. -999.2500:
UWI. F11011:
~C
DEPT.M :
GR.API :
RML.OHMM :
RI. :
RXO.OHMM :
CALI.CM :
SP.MV :
DEN.GM/CC :
~A
# ...
  203.2500    87.4220     7.8720     8.0550     8.5510    24.7180   -16.4390     2.4400 
  203.3750    94.1620     8.2790     8.3840     9.0210    24.5650   -17.0420     2.4510 
  203.5000    97.0150     8.6370     8.7110     9.1610    24.5190   -17.6390     2.4530 
  203.6250    99.2750     8.8670     8.9390     9.0910    24.5110   -18.1580     2.4460 
  203.7500   102.4530     8.9790     9.0520     9.0250    24.5100   -18.5950     2.4400 
  203.8750   104.3780     9.0090     9.0740     8.9690    24.5130   -19.0070     2.4370 
  204.0000   105.3870     9.0040     9.0440     8.9250    24.5150   -19.3920     2.4370 
  204.1250   106.2980     9.0060     9.0010     8.8370    24.5140   -19.7020     2.4370 
  204.2500   105.1120     9.0350     8.9650     8.8340    24.5020   -19.9490     2.4370 
  204.3750   102.8290     9.0930     8.9390     8.7510    24.4770   -20.1570     2.4350 
  204.5000   102.0050     9.1780     8.9220     8.5670    24.4590   -20.3350     2.4340 
  204.6250   104.6760     9.2790     8.9030     8.4650    24.4600   -20.5210     2.4360 
  204.7500   109.5040     9.3650     8.8650     8.4670    24.4760   -20.7140     2.4400 
  204.8750   112.0210     9.4070     8.7880     8.5360    24.4930   -20.8330     2.4440 
  205.0000   110.4410     9.3970     8.6620     8.5670    24.4890   -20.8560     2.4460 
  205.1250   105.2450     9.3880     8.5290     8.6030    24.4870   -20.8330     2.4410 
  205.2500   100.8190     9.5230     8.4960     8.6920    24.5020   -20.8230     2.4310 
  205.3750    99.3890     9.9980     8.7050     8.7920    24.5250   -20.8330     2.4160 
  205.5000   101.5600    11.0580     9.3240     9.1360    24.5260   -20.8820     2.3980 
  205.6250   106.1650    13.1410    10.7010    10.6420    24.5170   -20.9530     2.3780 
  205.7500   107.5610    16.3280    13.0010    14.4670    24.5210   -21.0170     2.3650 
  205.8750   103.0110    20.6230    16.4130    20.5000    24.4960   -21.1110     2.3660 
  206.0000    94.9630    25.7150    20.8960    27.3150    24.4590   -21.2050     2.3860 
  206.1250    87.1270    30.7720    25.8950    34.8190    24.3830   -21.2180     2.4160 
  206.2500    81.6190    34.7590    30.1830    41.6620    24.3180   -21.1090     2.4350 
  206.3750    78.6330    37.0340    32.8960    45.1590    24.3000   -20.8670     2.4290 
  206.5000    77.0180    37.4960    33.8380    43.2670    24.3250   -20.4340     2.3960 
  206.6250    76.2750    36.3900    33.2530    41.1170    24.4030   -19.7470     2.3570 
  206.7500    77.8100    34.5880    31.9310    37.9150    24.4500   -18.9080     2.3350 
  206.8750    82.7660    32.5250    30.2520    35.5440    24.4690   -17.9700     2.3420 
  207.0000    86.5820    30.4110    28.4610    32.6450    24.4480   -16.9800     2.3770 
  207.1250    83.1880    28.1810    26.5210    28.5760    24.4100   -15.9650     2.4240 
  207.2500    76.7700    25.6410    24.2050    24.8360    24.4020   -14.9460     2.4630 
  207.3750    72.5990    22.6670    21.3650    22.2070    24.4080   -13.9670     2.4830 
  207.5000    73.3760    19.3550    18.1470    20.8210    24.4040   -13.1240     2.4790 
  207.6250    77.5490    16.0850    15.0150    18.5540    24.4170   -12.4860     2.4580 
  207.7500    81.6610    13.3020    12.3990    12.9110    24.4370   -11.9600     2.4340 
  207.8750    83.2740    11.2810    10.5120     9.3430    24.4790   -11.4990     2.4180 
  208.0000    82.1800    10.1140     9.3960     8.2190    24.4970   -11.0730     2.4170 
  208.1250    80.9230     9.8430     9.0770     7.5800    24.4530   -10.6760     2.4310 
  208.2500    81.3750    10.1420     9.2990     7.6750    24.4150   -10.3250     2.4490 
  208.3750    83.9690    10.7950     9.9070     9.0640    24.3880   -10.0390     2.4660 
  208.5000    87.5340    11.5790    10.7050    12.1800    24.3110    -9.8080     2.4770 
  208.6250    89.0380    12.2660    11.4460    17.1710    24.2270    -9.6070     2.4840 
  208.7500    88.4990    12.7390    11.9650    23.5370    24.0820    -9.4350     2.4870 
  208.8750    87.3690    12.9640    12.2130    25.5240    23.9120    -9.2840     2.4800 
  209.0000    86.2940    12.9610    12.1930    28.3900    23.9220    -9.1490     2.4600 
  209.1250    84.6230    12.7730    11.9350    24.7980    23.9880    -9.0890     2.4230 
  209.2500    81.8730    12.5250    11.5890    16.3590    23.9520    -9.0960     2.3840 
  209.3750    81.0840    12.3040    11.2530    10.6140    23.8300    -9.0730     2.3620 
  209.5000    82.4400    12.1740    10.9920     9.1900    23.8530    -8.9710     2.3680 
  209.6250    85.4060    12.1820    10.8720     9.8010    24.0240    -8.8700     2.4000 
  209.7500    87.9170    12.2800    10.8760    10.2410    24.2210    -8.7960     2.4380 
  209.8750    87.6940    12.4190    10.9540     9.9350    24.3620    -8.7320     2.4710 
  210.0000    85.4300    12.5760    11.0620     9.4840    24.3710    -8.7200     2.4950 
  210.1250    83.3990    12.7990    11.2240    10.0600    24.2930    -8.7050     2.5070 
  210.2500    84.2780    13.1480    11.4960    11.5420    24.2850    -8.6280     2.5070 
  210.3750    85.7310    13.6330    11.8960    12.9200    24.3880    -8.5600     2.4870 
  210.5000    86.4880    14.1770    12.3720    13.9770    24.4820    -8.5090     2.4460 
  210.6250    86.8020    14.5920    12.7760    12.8870    24.5010    -8.4610     2.3950 
  210.7500    85.8970    14.7350    12.9650    12.4360    24.5820    -8.3940     2.3580 
  210.8750    83.4180    14.5830    12.8930    13.6170    24.6540    -8.3610     2.3520 
  211.0000    80.9350    14.2600    12.6520    14.0680    24.5920    -8.3050     2.3770 
  211.1250    79.9880    14.0330    12.4610    13.9550    24.6460    -8.2010     2.4200 
  211.2500    79.8530    14.1110    12.5050    12.1740    24.6340    -8.1100     2.4530 
  211.3750    79.5230    14.5520    12.8610    12.0520    24.5140    -8.0400     2.4670 
  211.5000    78.5500    15.2540    13.4920    15.1250    24.3320    -8.0150     2.4640 
  211.6250    78.9400    15.9580    14.2160    20.1000    24.2560    -8.0130     2.4570 
  211.7500    81.7040    16.3970    14.7440    20.2510    24.2110    -8.0450     2.4580 
  211.8750    85.0610    16.4440    14.9100    17.3700    24.1600    -8.0710     2.4710 
  212.0000    85.0120    16.1170    14.6970    15.4460    24.2550    -8.0740     2.4930 
  212.1250    80.0310    15.5320    14.1960    13.9780    24.4180    -8.0540     2.5140 
  212.2500    74.7420    14.9110    13.6270    13.0370    24.4900    -8.0280     2.5250 
  212.3750    71.9680    14.3720    13.1100    12.0630    24.4000    -8.0070     2.5180 
  212.5000    74.9250    13.9630    12.7040    10.6430    24.2720    -7.9230     2.4930 
  212.6250    81.6690    13.6950    12.4370     9.0990    24.1290    -7.7480     2.4590 
  212.7500    87.4600    13.5140    12.2700     8.3570    23.9670    -7.5800     2.4350 
  212.8750    90.6210    13.3930    12.1790     7.7070    23.9070    -7.4360     2.4320 
  213.0000    91.5210    13.3250    12.1470     7.2950    23.9860    -7.2960     2.4450 
  213.1250    89.7640    13.3190    12.1740     7.5760    24.0270    -7.2470     2.4530 
  213.2500    85.9840    13.3640    12.2440     8.1620    23.9480    -7.2600     2.4400 
  213.3750    80.6040    13.4440    12.3430     8.5040    23.8670    -7.2630     2.4070 
  213.5000    75.2170    13.5350    12.4470     8.9210    23.9880    -7.3030     2.3680 
  213.6250    71.8310    13.6120    12.5330     9.5370    24.3350    -7.4220     2.3440 
  213.7500    72.0650    13.6760    12.5960    10.3720    24.5320    -7.5240     2.3420 
  213.8750    74.0440    13.7460    12.6550    11.1270    24.6030    -7.5270     2.3560 
  214.0000    75.6560    13.8560    12.7380    11.4050    24.6140    -7.4680     2.3790 
  214.1250    77.4810    14.0470    12.8870    11.6740    24.5920    -7.3690     2.4010 
  214.2500    79.5880    14.3080    13.1000    12.5150    24.5650    -7.3030     2.4190 
  214.3750    80.2580    14.6050    13.3510    13.7380    24.5180    -7.3360     2.4320 
