~V
VERS. 2.00: Ver 2.00
~W
STRT.M 55.0000:
STOP.M 274.0000:
STEP.M 0.1250:
NULL. -999.2500:
UWI. F11049:
~C
DEPT.M :
SP.MV :
GR.API :
RML.OHMM :
RI. :
RXO.OHMM :
CALI.CM :
DEN.GM/CC :
~A
# ...
  235.0000   -10.8130    76.1670    45.4400    38.7990    29.9280    24.2160     2.2400 
  235.1250   -10.7880    74.2120    39.8910    34.1720    26.0880    24.2120     2.2390 
  235.2500   -10.6410    75.2790    35.7520    30.5960    24.5770    24.2000     2.2380 
  235.3750   -10.5310    78.6900    33.3350    28.3460    24.1630    24.2180     2.2370 
  235.5000   -10.5060    81.9180    32.7720    27.5220    24.9480    24.2320     2.2380 
  235.6250   -10.3620    82.4110    34.4790    28.4660    28.0480    24.2160     2.2440 
  235.7500   -10.2300    79.7730    38.1650    31.0370    32.3750    24.1880     2.2550 
  235.8750   -10.1580    76.2640    43.7630    35.2810    36.1610    24.1900     2.2710 
  236.0000   -10.0090    72.8190    51.0300    41.0960    39.9280    24.2160     2.2950 
  236.1250    -9.8180    69.0320    59.2760    48.0820    54.4750    24.2120     2.3180 
  236.2500    -9.7270    67.1360    66.7760    54.8190    74.5900    24.2040     2.3150 
  236.3750    -9.6740    69.0810    71.9300    59.8870    67.3370    24.2250     2.2770 
  236.5000    -9.5070    72.6210    73.9570    62.3890    59.2350    24.2420     2.2270 
  236.6250    -9.4010    72.8310    73.1320    62.1760    56.6750    24.2060     2.2020 
  236.7500    -9.3810    70.9010    71.0740    60.5630    58.9890    24.2070     2.2010 
  236.8750    -9.3140    70.3320    68.2660    58.1450    61.5890    24.2440     2.2140 
  237.0000    -9.2420    71.7120    64.5290    55.0310    65.7180    24.2540     2.2290 
  237.1250    -9.3060    74.0400    59.5620    51.0870    65.7160    24.2250     2.2430 
  237.2500    -9.3660    74.5250    54.4100    46.9600    63.3910    24.2380     2.2550 
  237.3750    -9.3540    73.2060    50.5300    43.6500    50.9850    24.2520     2.2650 
  237.5000    -9.4290    72.7150    49.2710    42.1930    38.8940    24.2110     2.2720 
  237.6250    -9.5540    73.3550    52.1200    43.8730    37.3250    24.2030     2.2710 
  237.7500    -9.5870    72.9620    58.6130    48.6310    46.7370    24.2360     2.2680 
  237.8750    -9.6930    69.7380    67.9150    56.1120    66.6990    24.2570     2.2730 
  238.0000    -9.8850    65.4000    77.8700    64.8660    85.5610    24.2240     2.2890 
  238.1250    -9.9520    63.8910    84.0580    71.5310    86.6740    24.2480     2.2930 
  238.2500   -10.0220    65.0150    84.2270    73.6790    79.8850    24.3210     2.2780 
  238.3750   -10.2190    67.6040    79.4260    71.3690    73.1990    24.3530     2.2570 
  238.5000   -10.3840    70.2190    73.0870    66.8720    65.2420    24.3500     2.2460 
  238.6250   -10.4780    72.9720    68.9420    63.2480    59.9370    24.3450     2.2430 
  238.7500   -10.6910    73.2940    68.1530    62.0530    56.0030    24.3430     2.2430 
  238.8750   -10.8540    70.7380    70.7030    63.6330    56.2320    24.3420     2.2470 
  239.0000   -10.9070    68.0610    75.8350    67.6240    60.3690    24.3640     2.2520 
  239.1250   -11.0450    68.6090    82.1650    73.1060    70.3070    24.3820     2.2600 
  239.2500   -11.2230    70.6990    87.9470    78.5720    75.7530    24.3610     2.2760 
  239.3750   -11.2910    71.2090    92.5870    83.3680    79.1100    24.2870     2.3040 
  239.5000   -11.3070    68.3520    96.3640    87.4670    80.7960    24.2220     2.3370 
  239.6250   -11.4270    63.6330   100.1140    91.2760    80.6850    24.1940     2.3690 
  239.7500   -11.4560    62.4300   104.4660    95.3260    90.1100    24.1780     2.3940 
  239.8750   -11.4710    66.1320   109.3970    99.7390   116.9970    24.1750     2.4050 
  240.0000   -11.6290    71.2770   114.5720   104.3460   129.4000    24.1820     2.3900 
  240.1250   -11.6960    71.9650   120.0510   109.1300   109.3710    24.1800     2.3410 
  240.2500   -11.6160    68.5430   126.7240   114.7510    98.7210    24.1880     2.2840 
  240.3750   -11.5820    64.5070   135.7370   122.2340    98.6980    24.1930     2.2420 
  240.5000   -11.5780    62.9110   147.6230   132.3170   112.3930    24.1900     2.2270 
  240.6250   -11.3430    63.2260   161.4850   144.7390   137.1080    24.2010     2.2490 
  240.7500   -11.0800    63.0700   173.6140   156.5640   161.7900    24.2170     2.3020 
  240.8750   -10.8070    62.9640   179.9940   164.4730   188.3050    24.2050     2.3620 
  241.0000   -10.3430    63.1840   178.0720   165.9400   217.6280    24.1660     2.3870 
  241.1250    -9.8560    64.0980   168.2130   160.2190   187.1070    24.1510     2.3530 
  241.2500    -9.4750    65.7460   156.1080   151.4900   155.5830    24.1600     2.3100 
  241.3750    -9.0630    68.2250   145.2740   142.8090   143.1560    24.1810     2.2850 
  241.5000    -8.5830    71.4780   137.4080   136.0170   132.5100    24.2000     2.2740 
  241.6250    -8.2640    72.6610   133.0090   131.9690   130.6380    24.2240     2.2530 
  241.7500    -8.0090    70.4970   130.3410   129.5230   145.1260    24.2250     2.2280 
  241.8750    -7.7170    67.0380   127.9500   127.5240   153.8750    24.2110     2.2130 
  242.0000    -7.5560    65.3910   124.9760   125.0910   140.4570    24.2280     2.2100 
  242.1250    -7.5660    65.3490   121.5720   122.0850   122.8940    24.2910     2.2120 
  242.2500    -7.5460    64.2270   118.2050   118.8140   116.7420    24.3000     2.2120 
  242.3750    -7.5020    62.0320   114.6320   115.0800   115.0870    24.2550     2.2120 
  242.5000    -7.6210    61.2370   110.2730   110.5200   112.1110    24.2450     2.2180 
  242.6250    -7.7330    62.3010   104.7730   105.0420    98.1160    24.2690     2.2290 
  242.7500    -7.7700    62.7080    99.0050    99.4500    79.2210    24.3020     2.2450 
  242.8750    -7.9200    63.0020    94.1200    94.6300    67.7290    24.3060     2.2610 
  243.0000    -8.0890    64.4940    91.1100    91.3470    69.8250    24.2760     2.2690 
  243.1250    -8.1070    67.0350    90.5190    90.1050    83.7950    24.2590     2.2590 
  243.2500    -8.1490    67.7680    91.1710    90.0300   101.7690    24.2340     2.2440 
  243.3750    -8.2640    67.0540    91.9890    90.2890   108.8210    24.2310     2.2430 
  243.5000    -8.2640    66.6250    92.2580    90.2960    98.4460    24.2220     2.2610 
  243.6250    -8.2510    66.6380    91.9810    89.9650    91.1090    24.2010     2.2900 
  243.7500    -8.3240    67.4140    92.0550    89.8630    88.4440    24.2080     2.3160 
  243.8750    -8.2870    68.9190    93.2660    90.6070    93.6330    24.2150     2.3280 
  244.0000    -8.1830    70.0770    95.8690    92.5070   100.9150    24.2010     2.3190 
  244.1250    -8.2160    69.3200    99.3310    95.2580   112.9010    24.2050     2.2890 
  244.2500    -8.1970    66.4600   102.4020    97.8050   120.5930    24.2150     2.2680 
  244.3750    -8.0500    63.4520   104.4690    99.5340   116.3700    24.2050     2.2740 
  244.5000    -7.9300    62.4560   105.6740   100.4350   107.5520    24.2010     2.3050 
  244.6250    -7.8340    64.8250   106.7100   100.9770   100.1320    24.2240     2.3460 
  244.7500    -7.6300    66.8640   108.1250   101.6710    97.3900    24.2250     2.3880 
  244.8750    -7.4630    68.1220   109.6350   102.3940   102.8090    24.2060     2.4260 
  245.0000    -7.3730    69.3470   110.1280   102.3850   106.9750    24.2010     2.4500 
  245.1250    -7.1480    71.3610   107.4510   100.0080   101.4050    24.2150     2.4460 
  245.2500    -6.8590    74.1300   101.2440    94.8010   100.3600    24.2090     2.4320 
  245.3750    -6.6620    76.9480    92.6440    87.3880   103.6460    24.2030     2.4310 
  245.5000    -6.4980    79.6810    84.0660    79.5490   111.7230    24.2260     2.4480 
  245.6250    -6.2320    80.0660    78.7690    74.0440    86.6410    24.2510     2.4660 
  245.7500    -6.0330    77.3560    78.3010    72.6740    64.4990    24.2780     2.4810 
  245.8750    -5.8210    74.2410    83.4770    76.7160    64.7480    24.2880     2.5100 
  246.0000    -5.4580    72.9820    93.5060    85.8960    77.8480    24.2540     2.5610 
  246.1250    -5.1740    72.8480   102.7950    95.5140    99.8980    24.2290     2.6140 
