~V
VERS. 2.00: Ver 2.00
~W
STRT.M 55.0000:
STOP.M 283.0000:
STEP.M 0.1250:
NULL. -999.2500:
UWI. F11062:
~C
DEPT.M :
SP.MV :
GR.API :
RML.OHMM :
RI. :
RXO.OHMM :
CALI.CM :
DEN.GM/CC :
~A
# ...
  223.7500   -13.4460    53.5000   124.6400   116.6850    54.9080    23.3210     2.2170 
  223.8750   -13.4150    54.3460   132.9850   124.6620    63.3510    23.3150     2.2120 
  224.0000   -13.3810    57.1730   142.9200   134.6270    72.0840    23.3050     2.2080 
  224.1250   -13.3790    58.1370   151.1440   143.3690    73.4620    23.2830     2.2060 
  224.2500   -13.3670    56.6810   155.5560   148.6330    72.0450    23.2650     2.2090 
  224.3750   -13.3470    54.8890   155.5330   149.5730    71.4460    23.2600     2.2160 
  224.5000   -13.3290    54.7210   151.9570   146.7650    70.7020    23.2580     2.2260 
  224.6250   -13.3360    55.1790   146.6420   141.6990    68.5650    23.2530     2.2360 
  224.7500   -13.3550    54.8880   141.9780   136.7540    66.6280    23.2460     2.2430 
  224.8750   -13.3660    53.0460   139.5900   133.5540    64.7740    23.2310     2.2440 
  225.0000   -13.3630    51.0950   140.6470   133.3380    62.2660    23.2040     2.2380 
  225.1250   -13.3470    51.2760   145.8590   136.9970    61.3090    23.1870     2.2270 
  225.2500   -13.3350    51.5760   153.2260   142.8940    62.9570    23.1820     2.2150 
  225.3750   -13.3170    51.5850   160.4510   149.0510    68.0920    23.1910     2.2060 
  225.5000   -13.3000    52.7650   165.0160   153.2050    75.2290    23.2170     2.1990 
  225.6250   -13.2900    55.0140   164.4510   153.0180    76.0480    23.2380     2.1970 
  225.7500   -13.2530    54.0180   160.0770   149.3230    70.8000    23.2390     2.1990 
  225.8750   -13.2150    49.4570   154.3150   144.0240    63.8200    23.2120     2.2040 
  226.0000   -13.1630    47.1050   149.9240   139.5730    59.1120    23.1440     2.2130 
  226.1250   -13.0950    50.7700   149.2160   138.3410    56.5030    23.0180     2.2230 
  226.2500   -13.0090    53.6120   151.5210   140.1070    55.7560    22.8650     2.2310 
  226.3750   -12.9140    52.7290   155.3690   143.7200    57.5540    22.7110     2.2330 
  226.5000   -12.8430    50.6120   158.7220   147.3540    62.3240    22.6150     2.2290 
  226.6250   -12.7320    51.1620   158.9590   148.5760    66.1420    22.6450     2.2180 
  226.7500   -12.6250    53.7680   155.2210   146.3210    63.0240    22.7680     2.2060 
  226.8750   -12.5490    55.1920   147.4390   140.2700    57.5540    22.8650     2.1940 
  227.0000   -12.4800    54.0460   136.4190   130.9200    51.9660    22.9230     2.1850 
  227.1250   -12.4180    52.1230   123.3710   119.1840    48.5010    23.0220     2.1840 
  227.2500   -12.3690    52.8490   110.1450   106.8790    46.8760    23.1700     2.1900 
  227.3750   -12.3240    57.2280    97.9470    95.2410    45.8550    23.3120     2.2010 
  227.5000   -12.2390    60.4410    87.7380    85.3050    44.0700    23.3420     2.2130 
  227.6250   -12.1670    59.0490    80.5460    78.1690    40.7100    23.1910     2.2200 
  227.7500   -12.1100    57.4110    75.9780    73.5630    36.9550    23.0000     2.2240 
  227.8750   -12.0070    58.7980    73.7050    71.2210    35.0900    22.9010     2.2270 
  228.0000   -11.9010    60.8850    73.2130    70.6890    36.6520    22.9010     2.2310 
  228.1250   -11.8240    59.3160    74.0290    71.5470    39.9380    22.9600     2.2370 
  228.2500   -11.7470    57.4250    75.3870    73.0170    43.6780    23.0480     2.2410 
  228.3750   -11.6840    58.4920    76.9360    74.7110    45.2270    23.0730     2.2420 
  228.5000   -11.6480    61.7560    78.4740    76.3710    45.7620    23.0660     2.2400 
  228.6250   -11.6280    62.8870    79.8740    77.8140    47.3490    23.0920     2.2360 
  228.7500   -11.5980    61.1890    81.0680    78.9790    49.3760    23.1280     2.2290 
  228.8750   -11.6140    59.0640    81.9040    79.7450    51.1900    23.1660     2.2210 
  229.0000   -11.6450    58.2540    82.1530    79.9170    52.0620    23.2100     2.2140 
  229.1250   -11.6450    57.9040    81.4390    79.1370    51.4690    23.2550     2.2100 
  229.2500   -11.6990    56.5180    79.8600    77.4770    50.9480    23.2920     2.2100 
  229.3750   -11.7850    56.2120    77.6790    75.1390    50.6680    23.3090     2.2120 
  229.5000   -11.8810    56.5890    75.4400    72.6020    49.5320    23.3090     2.2150 
  229.6250   -11.9810    55.8650    74.0260    70.6810    46.3280    23.3000     2.2180 
  229.7500   -12.1210    55.4900    73.8530    69.8600    42.2800    23.2770     2.2190 
  229.8750   -12.2510    57.0780    74.9350    70.2560    39.7610    23.2390     2.2180 
  230.0000   -12.3850    59.5490    76.8290    71.5500    40.1350    23.2190     2.2170 
  230.1250   -12.5200    60.2890    78.5670    72.9310    43.8430    23.2280     2.2180 
  230.2500   -12.5760    59.4560    79.1410    73.3970    47.1370    23.2430     2.2200 
  230.3750   -12.5950    57.6440    77.9770    72.3220    47.9640    23.2360     2.2230 
  230.5000   -12.5710    55.8500    75.0840    69.6010    46.2770    23.2100     2.2260 
  230.6250   -12.5110    55.2850    71.1290    65.7340    43.6450    23.1850     2.2280 
  230.7500   -12.4330    55.7860    67.5760    62.0650    41.3840    23.1670     2.2300 
  230.8750   -12.3270    56.8340    65.5470    59.6440    38.6930    23.1570     2.2320 
  231.0000   -12.2090    58.8900    65.8430    59.2460    35.6610    23.1510     2.2350 
  231.1250   -12.1130    60.7060    69.2700    61.6950    33.6660    23.1120     2.2470 
  231.2500   -12.0450    59.7620    75.0440    66.4340    33.6520    23.0040     2.2710 
  231.3750   -12.0050    55.9250    82.1360    72.6860    35.5550    22.8130     2.3050 
  231.5000   -12.0110    51.7870    88.9560    79.1010    38.6140    22.5990     2.3360 
  231.6250   -12.0430    50.2520    93.1540    83.5610    43.2660    22.4240     2.3440 
  231.7500   -12.0700    51.7090    93.8230    84.9890    46.4790    22.2840     2.3270 
  231.8750   -12.1150    54.5360    91.0480    83.2210    42.7810    22.1830     2.3000 
  232.0000   -12.1540    56.1310    85.8460    78.9860    38.9110    22.1870     2.2790 
  232.1250   -12.1630    55.2450    79.3880    73.2400    40.0460    22.4000     2.2770 
  232.2500   -12.1590    52.7600    72.7600    67.1060    46.2270    22.7520     2.2830 
  232.3750   -12.1420    51.4500    66.5110    61.1610    52.6110    23.1900     2.2880 
  232.5000   -12.0970    52.8890    61.2360    55.9740    52.9980    23.6650     2.2840 
  232.6250   -12.0320    53.9720    57.8640    52.3780    46.7250    24.0390     2.2770 
  232.7500   -11.9860    54.9420    56.4670    50.4760    42.3050    24.2550     2.2750 
  232.8750   -11.9160    57.3670    56.8820    50.1890    42.8460    24.3310     2.2830 
  233.0000   -11.8320    60.6060    58.5630    51.1270    48.8960    24.3580     2.3030 
  233.1250   -11.7640    60.5400    60.7790    52.7470    55.5220    24.3650     2.3290 
  233.2500   -11.7080    58.5950    62.8780    54.4300    57.2220    24.3560     2.3560 
  233.3750   -11.6480    58.5560    64.8800    56.0870    53.0900    24.3350     2.3860 
  233.5000   -11.5670    60.9890    67.3400    58.0760    46.6520    24.3200     2.4240 
  233.6250   -11.4820    63.0520    71.4510    61.3690    41.8480    24.2970     2.4790 
  233.7500   -11.3640    61.5380    77.6770    66.4850    43.8480    24.2410     2.5430 
  233.8750   -11.2180    57.9820    86.0350    73.6120    53.8760    24.1520     2.6050 
  234.0000   -11.0760    55.5340    95.9140    82.3910    73.7890    24.0730     2.6540 
  234.1250   -10.9010    55.1630   105.6990    91.6210    92.9690    24.0390     2.6790 
  234.2500   -10.6990    55.5050   112.7740    98.9240   100.3200    24.0310     2.6910 
  234.3750   -10.4830    56.4670   114.2580   101.5630    99.6000    24.0380     2.6930 
  234.5000   -10.2860    57.7470   107.6020    96.9940   102.5600    24.0400     2.6890 
  234.6250   -10.0760    58.5100    90.3800    82.5310   118.6720    24.0170     2.6780 
  234.7500    -9.8690    59.9310    67.1400    61.8030   110.5260    23.9730     2.6500 
  234.8750    -9.6810    60.2740    43.9100    40.4640    88.5660    23.9300     2.6000 
