~V
VERS. 2.00: Ver 2.00
~W
STRT.M 53.0000:
STOP.M 257.0000:
STEP.M 0.1250:
NULL. -999.2500:
UWI. F11022:
~C
DEPT.M :
GR.API :
RML.OHMM :
RI. :
RXO.OHMM :
CALI.CM :
SP.MV :
DEN.GM/CC :
~A
# ...
  131.7500    46.1300    20.4130    20.7130    20.3540    24.9850   -19.9420     2.3570 
  131.8750    48.2020    20.4680    20.7640    21.3070    25.0450   -19.9670     2.3920 
  132.0000    48.9450    20.7350    21.0230    21.5990    25.1570   -19.8670     2.4300 
  132.1250    46.2630    21.1380    21.4230    22.0150    25.2670   -19.9120     2.4430 
  132.2500    44.8040    21.5210    21.8240    22.3490    25.3180   -19.9840     2.4400 
  132.3750    47.1680    21.7580    22.1140    22.3100    25.2910   -19.9780     2.4320 
  132.5000    50.2420    21.7630    22.2120    21.6180    25.2040   -19.9910     2.4250 
  132.6250    50.1490    21.5010    22.0670    21.4720    25.1120   -20.0570     2.4250 
  132.7500    49.1140    21.1290    21.7920    22.0100    25.0620   -20.0830     2.4300 
  132.8750    49.2920    20.8040    21.5120    20.6800    25.0310   -20.0550     2.4310 
  133.0000    49.3340    20.6530    21.3470    19.2880    25.0350   -20.1150     2.4250 
  133.1250    47.5560    20.7300    21.3680    19.5330    25.0830   -20.1790     2.4200 
  133.2500    46.4460    20.8910    21.4750    21.6990    25.1310   -20.1180     2.4170 
  133.3750    47.8860    20.9940    21.5500    24.8630    25.2120   -20.0990     2.4110 
  133.5000    49.6470    20.9230    21.4840    25.5820    25.4230   -20.2140     2.3980 
  133.6250    47.2450    20.6290    21.2070    23.5360    25.7730   -20.2050     2.3810 
  133.7500    41.7290    20.2470    20.8250    20.9680    26.0040   -20.1170     2.3740 
  133.8750    38.4170    19.9140    20.4720    20.2270    26.0670   -20.1940     2.3820 
  134.0000    40.4460    19.7240    20.2520    20.7160    26.0390   -20.2710     2.3990 
  134.1250    44.4640    19.7300    20.2260    20.9820    26.0060   -20.2070     2.4060 
  134.2500    45.6930    19.8790    20.3420    20.1450    25.9710   -20.2500     2.3950 
  134.3750    44.6170    20.1260    20.5550    19.7280    25.9500   -20.3210     2.3810 
  134.5000    44.0670    20.3990    20.8010    20.4800    25.9360   -20.2420     2.3740 
  134.6250    46.0500    20.5870    20.9910    20.9320    25.9160   -20.2630     2.3760 
  134.7500    48.2650    20.6200    21.0580    21.9880    25.8940   -20.3770     2.3890 
  134.8750    48.3080    20.4600    20.9450    22.8640    25.8970   -20.3390     2.4170 
  135.0000    46.7000    20.1250    20.6360    23.5740    25.9470   -20.2430     2.4560 
  135.1250    46.9490    19.6960    20.1750    21.8220    26.0970   -20.3110     2.4790 
  135.2500    49.0970    19.3060    19.7060    20.5090    26.2970   -20.3600     2.4690 
  135.3750    50.5620    19.0140    19.3170    19.5130    26.5590   -20.3040     2.4390 
  135.5000    49.4780    18.8140    19.0360    19.0160    26.8210   -20.3240     2.4180 
  135.6250    46.8290    18.6190    18.8070    19.0850    27.0150   -20.3970     2.4180 
  135.7500    45.6630    18.3190    18.5060    18.5830    27.1890   -20.3710     2.4230 
  135.8750    46.4090    17.8630    18.0580    18.2540    27.3390   -20.3550     2.4210 
  136.0000    47.9870    17.2860    17.4800    17.9550    27.4530   -20.4540     2.4100 
  136.1250    48.6790    16.6990    16.8810    16.4380    27.5200   -20.4930     2.3930 
  136.2500    47.1780    16.2240    16.3910    15.5280    27.5340   -20.4310     2.3690 
  136.3750    42.7750    15.9300    16.0730    15.4260    27.4420   -20.4920     2.3500 
  136.5000    37.5280    15.8440    15.9430    16.0250    27.2660   -20.5960     2.3540 
  136.6250    37.3340    15.9580    15.9770    16.5050    27.0390   -20.5240     2.3900 
  136.7500    41.4930    16.1490    16.0620    17.2050    26.8120   -20.5090     2.4350 
  136.8750    45.3790    16.3180    16.1220    17.3500    26.6760   -20.6170     2.4700 
  137.0000    45.7150    16.4010    16.1140    17.2470    26.6560   -20.5980     2.4860 
  137.1250    43.3150    16.3810    16.0340    16.8320    26.6920   -20.5860     2.4820 
  137.2500    41.8080    16.3270    15.9340    16.3640    26.7510   -20.7000     2.4680 
  137.3750    41.3220    16.3070    15.8650    16.3240    26.8470   -20.7030     2.4460 
  137.5000    41.7550    16.3840    15.8740    16.2370    26.9570   -20.6970     2.4160 
  137.6250    42.6430    16.5970    15.9940    16.6800    26.9010   -20.8280     2.3930 
  137.7500    42.6450    16.8590    16.1600    17.3950    26.6240   -20.8780     2.3940 
  137.8750    40.6890    17.0460    16.2800    18.3780    26.3080   -20.8650     2.4200 
  138.0000    38.0060    17.0190    16.2460    18.3600    26.1410   -20.9980     2.4520 
  138.1250    37.9890    16.6200    15.9280    17.3520    26.1270   -21.0860     2.4640 
  138.2500    41.6840    15.9170    15.3590    15.9920    26.1290   -21.0510     2.4630 
  138.3750    45.6920    15.0090    14.6010    14.9270    26.0910   -21.1170     2.4600 
  138.5000    48.0630    14.0140    13.7300    14.4240    26.0700   -21.2320     2.4540 
  138.6250    49.7000    13.0790    12.8570    13.5070    26.1530   -21.2490     2.4440 
  138.7500    50.9580    12.3540    12.1300    12.7980    26.3160   -21.2630     2.4350 
  138.8750    51.0600    11.9580    11.6760    12.3580    26.5160   -21.3190     2.4320 
  139.0000    49.4660    11.9190    11.5440    12.0160    26.7050   -21.3560     2.4340 
  139.1250    50.1390    12.1130    11.6580    11.9600    26.8140   -21.3300     2.4270 
  139.2500    54.1620    12.1770    11.7170    12.1910    26.8910   -21.3750     2.4020 
  139.3750    61.4110    11.7950    11.4390    12.8160    26.9690   -21.4700     2.3560 
  139.5000    69.9920    10.8320    10.6710    12.8770    27.0880   -21.4240     2.2960 
  139.6250    75.2730     9.4380     9.4950    10.1190    27.2550   -21.3930     2.2510 
  139.7500    76.0740     8.0780     8.2950     7.1270    27.3160   -21.4990     2.2350 
  139.8750    75.5400     7.0250     7.3040     5.5990    27.0790   -21.5400     2.2420 
  140.0000    76.4640     6.3760     6.6260     5.2030    26.6780   -21.4570     2.2520 
  140.1250    78.2900     6.1360     6.2950     5.2010    26.4980   -21.5230     2.2560 
  140.2500    79.0680     6.1170     6.1680     5.2120    26.4810   -21.6130     2.2630 
  140.3750    79.3100     6.2050     6.1400     5.2510    26.5580   -21.5430     2.2720 
  140.5000    79.9150     6.3200     6.1400     5.3620    26.6730   -21.5560     2.2810 
  140.6250    81.5400     6.4170     6.1470     5.4410    26.7600   -21.6740     2.2860 
  140.7500    83.2920     6.5040     6.1850     5.4230    26.8470   -21.6540     2.2890 
  140.8750    83.4310     6.6170     6.2760     5.5140    26.8870   -21.6580     2.2860 
  141.0000    81.2670     6.8030     6.4270     5.8350    26.7430   -21.7900     2.2720 
  141.1250    78.2200     7.0980     6.6350     6.2870    26.5430   -21.7960     2.2490 
  141.2500    74.9900     7.4570     6.8730     6.7660    26.3600   -21.7110     2.2300 
  141.3750    72.9600     7.8210     7.1180     7.3410    26.2060   -21.7680     2.2220 
  141.5000    73.0510     8.1480     7.3540     7.8220    26.0930   -21.8580     2.2200 
  141.6250    76.7250     8.4320     7.5710     8.1740    26.0120   -21.7920     2.2170 
  141.7500    79.5830     8.7100     7.7780     8.4540    25.9440   -21.7460     2.2150 
  141.8750    79.7090     8.9890     7.9780     8.7260    25.8940   -21.7790     2.2150 
  142.0000    77.9150     9.2330     8.1600     9.1260    25.8880   -21.7500     2.2170 
  142.1250    73.3090     9.3520     8.2740     9.5960    25.9300   -21.6850     2.2160 
  142.2500    68.2300     9.3190     8.2790     9.9960    25.9730   -21.7210     2.2160 
  142.3750    65.4280     9.1370     8.1550    10.1600    25.9790   -21.7330     2.2210 
  142.5000    66.3970     8.8380     7.9190     9.6570    25.9300   -21.6120     2.2340 
  142.6250    72.0110     8.4710     7.6220     8.3550    25.8940   -21.5660     2.2560 
  142.7500    78.9610     8.1130     7.3340     7.0890    25.9310   -21.6220     2.2750 
  142.8750    83.5250     7.8060     7.0800     6.6060    26.0150   -21.5300     2.2850 
