~V
VERS. 2.00: Ver 2.00
~W
STRT.M 55.0000:
STOP.M 283.0000:
STEP.M 0.1250:
NULL. -999.2500:
UWI. F11062:
~C
DEPT.M :
SP.MV :
GR.API :
RML.OHMM :
RI. :
RXO.OHMM :
CALI.CM :
DEN.GM/CC :
~A
# ...
  201.2500   -19.6730    49.0680   170.0980   162.9690    76.0910    23.7230     2.2110 
  201.3750   -19.3770    51.3050   162.5580   155.2740    77.1590    23.7100     2.2090 
  201.5000   -19.0460    53.0960   157.4160   149.9120    78.2900    23.6680     2.2070 
  201.6250   -18.7530    53.7070   154.4140   146.6800    74.6430    23.6160     2.2070 
  201.7500   -18.4900    52.1820   153.2820   145.2000    69.9750    23.5890     2.2080 
  201.8750   -18.2220    50.7240   154.3540   145.6920    66.8660    23.5830     2.2100 
  202.0000   -17.9690    50.9670   157.7440   148.2330    66.2340    23.5810     2.2110 
  202.1250   -17.7150    51.9760   162.9610   152.4120    70.5650    23.5820     2.2100 
  202.2500   -17.4650    52.5500   168.1210   156.5750    74.1270    23.5920     2.2090 
  202.3750   -17.2040    53.4080   171.6340   159.3190    76.1800    23.6100     2.2050 
  202.5000   -16.9470    54.5270   172.5300   159.7790    77.4080    23.6430     2.2010 
  202.6250   -16.7060    53.3360   170.7800   157.8870    78.3260    23.7010     2.1960 
  202.7500   -16.4360    50.5620   168.2620   155.2650    78.5360    23.7670     2.1930 
  202.8750   -16.1630    48.7130   166.2140   153.0620    77.8360    23.8320     2.1900 
  203.0000   -15.8770    48.7900   164.9640   151.6950    75.9850    23.8710     2.1860 
  203.1250   -15.5540    49.3550   163.8060   150.6740    71.7570    23.8620     2.1810 
  203.2500   -15.2070    48.2900   161.6790   148.9630    70.6320    23.8050     2.1760 
  203.3750   -14.8550    45.7710   157.9670   145.8450    69.6790    23.6790     2.1740 
  203.5000   -14.4820    43.9080   152.4200   140.9020    66.5610    23.4680     2.1760 
  203.6250   -14.0450    44.5470   144.2250   133.2870    61.9080    23.2060     2.1870 
  203.7500   -13.5810    46.3460   132.5500   122.4340    59.7220    23.0940     2.2060 
  203.8750   -13.1210    47.5120   116.0820   107.3170    61.8040    23.1450     2.2380 
  204.0000   -12.6790    48.8740    94.7750    87.8560    65.6720    23.2520     2.2820 
  204.1250   -12.2100    51.8750    71.6590    66.5820    66.3680    23.2990     2.3310 
  204.2500   -11.7650    53.8900    52.1300    48.4350    61.5580    23.2440     2.3730 
  204.3750   -11.3250    56.0170    38.8890    35.9550    44.2240    23.1410     2.4020 
  204.5000   -10.8700    61.4170    31.9690    29.1060    24.0140    23.1000     2.4220 
  204.6250   -10.4270    67.2780    30.3950    26.9000    17.7610    23.1500     2.4500 
  204.7500    -9.9870    68.6090    31.1990    26.7930    18.9350    23.1700     2.4910 
  204.8750    -9.5470    67.4840    32.4680    27.2860    23.5330    23.1460     2.5330 
  205.0000    -9.1160    68.0680    32.5500    27.0880    27.5420    23.1130     2.5590 
  205.1250    -8.7630    66.2830    30.0190    24.9880    24.8180    23.0940     2.5490 
  205.2500    -8.4460    59.1680    25.5460    21.3760    17.1770    23.1180     2.5180 
  205.3750    -8.3230    52.3750    20.4370    17.2920    12.2810    23.1850     2.4840 
  205.5000    -8.0890    51.2240    16.0320    13.7800    10.3590    23.2490     2.4600 
  205.6250    -7.8810    53.6740    13.2410    11.4830    10.0800    23.2390     2.4540 
  205.7500    -7.7250    54.4620    11.8200    10.2120     9.6420    23.1510     2.4620 
  205.8750    -7.6240    53.5280    11.5850     9.8600     8.7970    23.0120     2.4820 
  206.0000    -7.5800    53.1670    12.3620    10.3360     7.9210    22.8660     2.5100 
  206.1250    -7.5720    53.4320    14.0210    11.6110     8.0960    22.7550     2.5440 
  206.2500    -7.5760    53.5440    15.9960    13.2770     9.3340    22.5830     2.5720 
  206.3750    -7.5840    53.8080    17.7110    14.8840    11.7010    22.2860     2.5840 
  206.5000    -7.5960    53.1130    18.5580    15.8800    15.0380    21.9280     2.5720 
  206.6250    -7.5940    52.2260    17.8790    15.5850    17.5670    21.6410     2.5330 
  206.7500    -7.5730    55.0690    15.9520    14.1750    18.3710    21.4420     2.4840 
  206.8750    -7.5160    60.0370    13.3900    12.1340    16.5110    21.2950     2.4410 
  207.0000    -7.4160    61.8130    10.8770    10.0730    12.5180    21.2150     2.4170 
  207.1250    -7.2720    58.0610     8.8290     8.4740     8.6180    21.2970     2.4150 
  207.2500    -7.1040    54.6300     7.8500     7.3690     6.6240    21.5900     2.4240 
  207.3750    -6.9260    54.4750     7.3340     6.7020     5.7270    22.0510     2.4330 
  207.5000    -6.7790    54.3930     7.1660     6.3890     5.4060    22.4560     2.4360 
  207.6250    -6.6590    54.3250     7.2830     6.3880     5.3200    22.3200     2.4300 
  207.7500    -6.5850    58.0220     7.5690     6.5780     5.3840    21.8970     2.4220 
  207.8750    -6.5890    64.5510     7.9650     6.8980     5.7750    21.6970     2.4170 
  208.0000    -6.6660    71.8210     8.4160     7.2860     6.4850    21.9220     2.4150 
  208.1250    -6.8320    76.7450     8.8720     7.6870     7.0190    22.4250     2.4130 
  208.2500    -7.1170    79.1700     9.3100     8.0660     7.3000    22.8930     2.4090 
  208.3750    -7.4650    79.6190     9.7350     8.4200     7.4700    23.0990     2.4020 
  208.5000    -7.8420    78.4570    10.1460     8.7500     7.6100    23.1050     2.3910 
  208.6250    -8.2540    76.3300    10.5170     9.0370     7.8960    23.0400     2.3760 
  208.7500    -8.6700    74.0680    10.8120     9.2580     8.4440    22.9610     2.3610 
  208.8750    -9.0500    74.7260    11.0000     9.3870     8.8500    22.8780     2.3430 
  209.0000    -9.4010    78.8790    11.0790     9.4140     8.8910    22.7980     2.3210 
  209.1250    -9.7150    82.9190    11.0660     9.3420     8.5370    22.7160     2.2920 
  209.2500    -9.9520    86.6740    11.0050     9.2100     8.2250    22.6280     2.2680 
  209.3750   -10.1350    88.8210    10.9050     9.0340     8.0960    22.5750     2.2600 
  209.5000   -10.2780    86.8870    10.7600     8.8190     8.0590    22.6160     2.2750 
  209.6250   -10.3530    83.4560    10.5100     8.5670     7.9190    22.7780     2.3110 
  209.7500   -10.4010    83.5180    10.2260     8.3070     7.8640    23.0070     2.3490 
  209.8750   -10.4720    86.7310     9.9630     8.0860     7.9100    23.1980     2.3730 
  210.0000   -10.5440    88.6460     9.7620     7.9680     7.7570    23.3220     2.3770 
  210.1250   -10.6360    86.2790    10.0430     8.0710     7.5360    23.3870     2.3710 
  210.2500   -10.7500    80.3360    10.6950     8.4570     7.4810    23.3710     2.3680 
  210.3750   -10.8820    74.3080    11.8250     9.2150     7.9230    23.2750     2.3720 
  210.5000   -11.0170    72.9420    13.5470    10.4430     9.0150    23.1800     2.3860 
  210.6250   -11.1380    76.3270    16.1220    12.3530    10.5190    23.1020     2.4110 
  210.7500   -11.2230    77.8110    19.5370    14.9470    12.3720    23.0220     2.4430 
  210.8750   -11.2260    74.2230    23.7180    18.2050    14.6210    22.9280     2.4850 
  211.0000   -11.1360    68.3570    28.2070    21.8290    17.2360    22.8130     2.5350 
  211.1250   -10.9300    66.4440    31.6960    24.8800    20.7000    22.7170     2.5880 
  211.2500   -10.6250    66.9280    32.8220    26.2470    24.2860    22.6530     2.6320 
  211.3750   -10.1790    65.2630    30.6260    25.0370    26.8330    22.6040     2.6440 
  211.5000    -9.5900    62.4270    25.2660    21.1780    26.5160    22.5520     2.6040 
  211.6250    -8.8520    63.8120    18.4890    15.9550    21.8930    22.5240     2.5030 
  211.7500    -8.0110    66.2050    12.7720    11.4010    14.5450    22.5560     2.3850 
  211.8750    -7.1050    64.8940     8.9540     8.1890     8.5230    22.6410     2.2900 
  212.0000    -6.1870    60.6210     6.9000     6.2550     5.3320    22.7340     2.2420 
  212.1250    -5.3440    58.6090     6.2210     5.3930     4.5430    22.8150     2.2550 
  212.2500    -4.5530    59.2440     6.1750     5.1120     4.4230    22.8050     2.3020 
  212.3750    -3.8680    61.0540     6.4210     5.1830     4.5310    22.6330     2.3590 
