~V
VERS. 2.00: Ver 2.00
~W
STRT.M 7.0000:
STOP.M 259.0000:
STEP.M 0.1250:
NULL. -999.2500:
UWI. F11018:
~C
DEPT.M :
DEN.GM/CC :
SP.MV :
GR.API :
RML.OHMM :
RI. :
RXO.OHMM :
CALI.CM :
~A
# ...
  119.5000     2.1900   -11.8510    76.2750     8.5590     6.8570     9.3720    23.2720 
  119.6250     2.1990   -11.9420    76.8180     8.6020     6.9300     9.2910    23.2960 
  119.7500     2.2050   -12.0330    76.5440     8.6220     6.9720     9.2950    23.3160 
  119.8750     2.2070   -12.1460    77.3910     8.6410     7.0000     9.2600    23.3240 
  120.0000     2.2070   -12.2400    77.4870     8.6790     7.0280     9.4200    23.3340 
  120.1250     2.2060   -12.2860    73.4680     8.7350     7.0590     9.5190    23.3560 
  120.2500     2.2050   -12.2860    66.7660     8.8000     7.0900     9.5410    23.3760 
  120.3750     2.2010   -12.2850    63.5520     8.8580     7.1160     9.5750    23.3840 
  120.5000     2.1940   -12.3040    66.7180     8.8780     7.1390     9.7210    23.3850 
  120.6250     2.1880   -12.3220    70.8980     8.8540     7.1610     9.7660    23.3860 
  120.7500     2.1880   -12.3310    72.9880     8.7960     7.1800     9.7590    23.3860 
  120.8750     2.1910   -12.3090    73.8790     8.7230     7.1870     9.7380    23.3850 
  121.0000     2.1960   -12.2310    74.1420     8.6650     7.1760     9.6810    23.3790 
  121.1250     2.2010   -12.1410    70.9770     8.6480     7.1610     9.5410    23.3480 
  121.2500     2.2040   -12.0640    67.4750     8.6970     7.1670     9.3530    23.2700 
  121.3750     2.2040   -11.9720    70.3350     8.8180     7.2190     9.2750    23.1550 
  121.5000     2.2000   -11.8060    77.6710     9.0100     7.3320     9.5030    23.0160 
  121.6250     2.1950   -11.5290    79.6800     9.2340     7.4830    10.1770    22.8730 
  121.7500     2.1940   -11.1200    72.8860     9.4550     7.6450    11.1900    22.7770 
  121.8750     2.2010   -10.5670    64.4480     9.6410     7.7840    11.9460    22.7880 
  122.0000     2.2170    -9.8820    62.6190     9.7740     7.8740    11.8720    23.1400 
  122.1250     2.2360    -9.0840    64.0180     9.9050     7.9500    11.3970    23.7050 
  122.2500     2.2570    -8.1570    63.2080    10.1150     8.0790    11.1840    24.1310 
  122.3750     2.2880    -7.1360    59.4280    10.5020     8.3420    11.3120    24.3410 
  122.5000     2.3330    -6.0660    57.3890    11.1810     8.8460    11.6230    24.4860 
  122.6250     2.3900    -5.0270    57.1150    12.1030     9.5760    12.2000    24.6000 
  122.7500     2.4550    -4.0560    56.2570    13.1710    10.4820    14.1270    24.6800 
  122.8750     2.5200    -3.2110    56.4880    14.2230    11.4530    16.4130    24.7630 
  123.0000     2.5650    -2.5730    58.9160    15.0330    12.3100    17.0090    24.8850 
  123.1250     2.5830    -2.1210    58.6990    15.5480    12.9550    16.4990    24.9440 
  123.2500     2.5820    -1.8520    55.0100    15.8110    13.3730    15.3350    24.9020 
  123.3750     2.5780    -1.7510    51.6270    15.9170    13.6130    14.5330    24.7410 
  123.5000     2.5750    -1.8550    51.5260    15.8990    13.6970    14.4090    24.5660 
  123.6250     2.5710    -2.1560    52.1580    15.7420    13.6380    14.4220    24.4120 
  123.7500     2.5610    -2.6410    52.7280    15.3980    13.4020    14.5580    24.2990 
  123.8750     2.5460    -3.2330    55.4640    14.8830    12.9940    14.2620    24.2070 
  124.0000     2.5260    -3.9170    59.7630    14.3200    12.4850    13.3340    24.1300 
  124.1250     2.4950    -4.7010    62.6760    13.8720    12.0190    12.7330    24.0160 
  124.2500     2.4440    -5.5900    63.0690    13.6090    11.6860    12.6570    24.1160 
  124.3750     2.3800    -6.5830    62.5540    13.5160    11.5140    13.0250    24.3370 
  124.5000     2.3260    -7.6420    63.5300    13.4920    11.4700    13.4680    24.3120 
  124.6250     2.2900    -8.7000    63.3780    13.3930    11.4360    13.2800    24.0510 
  124.7500     2.2700    -9.7130    62.1610    13.1540    11.3320    12.0860    23.6160 
  124.8750     2.2570   -10.6770    62.7760    12.7930    11.1300    10.6170    23.0950 
  125.0000     2.2450   -11.5500    66.3470    12.3780    10.8440    10.0780    22.7010 
  125.1250     2.2310   -12.3280    68.3010    11.9920    10.5290    10.1110    22.5050 
  125.2500     2.2150   -13.0050    67.0780    11.6440    10.2050    10.4020    22.4380 
  125.3750     2.2020   -13.5880    65.1910    11.3070     9.8710    11.1080    22.4430 
  125.5000     2.1940   -14.0610    67.1020    10.9490     9.5220    11.9430    22.6270 
  125.6250     2.1900   -14.4330    70.2670    10.5880     9.1780    11.9670    23.0260 
  125.7500     2.1900   -14.7500    70.2440    10.2700     8.8740    11.7540    23.4780 
  125.8750     2.1920   -15.0330    67.5550    10.0350     8.6430    11.9080    23.8310 
  126.0000     2.1960   -15.2940    67.2940     9.9000     8.4990    12.1360    23.9810 
  126.1250     2.1980   -15.5390    68.9600     9.8030     8.4000    12.2620    24.1170 
  126.2500     2.1970   -15.7250    69.5670     9.6920     8.3030    12.3530    24.2780 
  126.3750     2.1950   -15.8260    70.2410     9.5530     8.1830    12.2370    24.3730 
  126.5000     2.1990   -15.8870    72.9930     9.4490     8.0670    11.4680    24.3380 
  126.6250     2.2060   -15.9320    73.9380     9.4570     8.0210    10.7090    24.2050 
  126.7500     2.2080   -15.9820    71.2120     9.6130     8.0890    10.4190    24.0490 
  126.8750     2.2030   -16.0510    66.7920     9.8820     8.2650    10.8710    23.9510 
  127.0000     2.1970   -16.0580    64.0900    10.1260     8.4700    12.0800    23.9860 
  127.1250     2.1990   -16.0260    63.2430    10.1780     8.5680    12.7980    23.9280 
  127.2500     2.2100   -16.0120    63.6070     9.9540     8.4670    12.1820    23.6830 
  127.3750     2.2190   -16.0070    64.4330     9.5110     8.1660    10.5470    23.3920 
  127.5000     2.2180   -16.0170    64.8670     9.0520     7.7830     9.1100    23.1030 
  127.6250     2.2100   -16.0550    66.2700     8.7980     7.5010     8.4100    22.7140 
  127.7500     2.2020   -16.0470    68.2750     8.8550     7.4340     8.5530    22.3690 
  127.8750     2.1940   -16.0000    70.0180     9.2290     7.6230     9.1700    22.3480 
  128.0000     2.1830   -15.9800    69.1040     9.8460     8.0660    10.4110    22.7140 
  128.1250     2.1710   -15.8990    64.9580    10.4750     8.6050    12.0730    23.1600 
  128.2500     2.1660   -15.7630    60.3820    10.9090     9.0790    13.6580    23.5040 
  128.3750     2.1720   -15.6270    59.1920    10.9930     9.3320    14.1980    23.7430 
  128.5000     2.1800   -15.4070    62.7530    10.6700     9.2490    13.5290    23.9030 
  128.6250     2.1810   -15.0650    65.4230    10.1610     8.9470    13.1010    24.0500 
  128.7500     2.1750   -14.6950    64.9860     9.6490     8.5560    12.7640    24.0880 
  128.8750     2.1750   -14.3260    63.6730     9.2610     8.1910    12.1490    23.9590 
  129.0000     2.1880   -13.9160    64.1490     9.0760     7.9430    11.2800    23.6940 
  129.1250     2.2060   -13.5160    66.1100     9.0400     7.8140    10.8000    23.5490 
  129.2500     2.2210   -13.1160    68.2950     9.1000     7.7850    10.7890    23.5070 
  129.3750     2.2300   -12.6460    69.5160     9.1800     7.8120    11.0520    23.5050 
  129.5000     2.2410   -12.1130    70.8020     9.1580     7.8130    11.1950    23.5140 
  129.6250     2.2570   -11.5470    70.8020     8.9660     7.7120    11.2140    23.5350 
  129.7500     2.2740   -10.8750    68.8090     8.6240     7.4910    11.1340    23.5540 
  129.8750     2.2940   -10.0940    67.5300     8.2630     7.2240    10.4200    23.5690 
  130.0000     2.3180    -9.2130    71.2800     8.1170     7.0790     9.0090    23.5610 
  130.1250     2.3480    -8.2470    75.1070     8.3030     7.1640     7.9610    23.4930 
  130.2500     2.3810    -7.2210    74.4860     8.8690     7.5400     8.6510    23.3430 
  130.3750     2.4180    -6.1990    70.7470     9.7880     8.2220    11.9610    23.3290 
  130.5000     2.4530    -5.2160    65.5660    10.9420     9.1790    16.8170    23.6900 
  130.6250     2.4790    -4.3400    58.5170    12.0450    10.1940    17.8800    24.2670 
