~V
VERS. 2.00: Ver 2.00
~W
STRT.M 55.0000:
STOP.M 286.0000:
STEP.M 0.1250:
NULL. -999.2500:
UWI. F11067:
~C
DEPT.M :
GR.API :
RML.OHMM :
RI. :
RXO.OHMM :
CALI.CM :
DEN.GM/CC :
SP.MV :
~A
# ...
  190.0000    69.8940   129.0850   133.7190    62.1240    25.2000     2.2270    -3.5250 
  190.1250    68.4260   136.2770   135.0530    74.3060    25.3110     2.2300    -3.5210 
  190.2500    63.4330   136.9250   131.1780    81.6550    25.3650     2.2360    -3.5260 
  190.3750    60.7250   133.0650   125.1730    81.3110    25.3760     2.2420    -3.5250 
  190.5000    61.1710   127.5350   119.4170    79.1580    25.3740     2.2450    -3.5280 
  190.6250    61.8340   123.0210   115.8680    73.5120    25.3690     2.2460    -3.5520 
  190.7500    61.3550   120.9380   115.3960    71.7130    25.3670     2.2440    -3.5530 
  190.8750    60.3460   122.1500   118.7440    76.1630    25.3540     2.2430    -3.5540 
  191.0000    58.7160   127.2150   126.2800    81.4960    25.3160     2.2420    -3.5500 
  191.1250    57.7150   136.7280   138.1630    92.0030    25.2690     2.2410    -3.5070 
  191.2500    57.6760   148.7040   151.5680   100.5080    25.2310     2.2400    -3.4550 
  191.3750    57.0160   160.2970   162.5920   103.9380    25.2180     2.2370    -3.4040 
  191.5000    56.4030   167.4850   166.5390   105.4810    25.2140     2.2360    -3.3520 
  191.6250    58.0440   164.8110   158.7340   104.5610    25.2080     2.2390    -3.2860 
  191.7500    60.0810   153.6550   142.8720    95.1720    25.1980     2.2460    -3.2070 
  191.8750    59.5770   137.7580   123.8660    79.6230    25.1660     2.2570    -3.1280 
  192.0000    58.0940   121.0690   106.1170    61.0820    25.0980     2.2670    -3.0530 
  192.1250    59.8890   105.9740    92.2330    54.6540    25.0390     2.2770    -2.9810 
  192.2500    63.1320    93.0060    81.5260    50.8950    25.0190     2.2860    -2.9220 
  192.3750    62.6180    82.6920    73.3600    50.0160    25.0300     2.2950    -2.8570 
  192.5000    59.4280    75.0880    67.3010    43.7400    25.0660     2.3030    -2.7450 
  192.6250    59.9660    70.0860    63.7230    31.6410    25.1090     2.3050    -2.6130 
  192.7500    64.0350    67.4040    62.6790    28.8880    25.1380     2.3010    -2.4810 
  192.8750    67.5250    67.2620    64.3320    39.2240    25.0920     2.2910    -2.3360 
  193.0000    68.1190    69.5880    68.2250    64.2340    25.0030     2.2810    -2.1900 
  193.1250    67.4570    73.7850    73.0750    85.0810    24.9630     2.2800    -2.0630 
  193.2500    66.6060    78.0220    76.9070   107.6410    24.9830     2.2860    -1.9040 
  193.3750    66.1150    80.8950    78.5780   102.5180    25.0350     2.2970    -1.7650 
  193.5000    67.1560    81.6910    78.1270    79.9190    25.0840     2.3060    -1.6630 
  193.6250    67.8090    80.5850    76.6390    68.1740    25.1250     2.3090    -1.5740 
  193.7500    66.3780    78.9670    75.3240    72.6320    25.1470     2.3080    -1.5320 
  193.8750    64.5890    77.4680    74.1660    94.5840    25.1600     2.3040    -1.5030 
  194.0000    64.5960    75.9480    72.4770   105.4070    25.2030     2.2980    -1.4830 
  194.1250    67.8890    73.4670    69.1460    87.6710    25.2450     2.2910    -1.4720 
  194.2500    71.0060    69.5090    64.1630    68.3510    25.2710     2.2860    -1.5080 
  194.3750    70.8300    64.1710    58.1730    61.3550    25.3210     2.2870    -1.5630 
  194.5000    67.7390    58.1710    52.2530    61.8130    25.3900     2.2950    -1.6050 
  194.6250    65.2390    52.6480    47.5400    60.2050    25.4300     2.3080    -1.6660 
  194.7500    66.2810    48.2960    44.2580    54.6610    25.4590     2.3200    -1.7120 
  194.8750    68.4080    45.3750    42.4470    52.6620    25.4860     2.3280    -1.7730 
  195.0000    70.1930    43.9340    42.1020    55.1340    25.5050     2.3300    -1.8470 
  195.1250    71.4970    44.2510    43.5240    57.9240    25.4890     2.3250    -1.9000 
  195.2500    71.9570    46.0930    46.4600    59.4240    25.4800     2.3130    -1.9580 
  195.3750    70.5600    49.3180    50.6260    64.9130    25.4800     2.2980    -2.0030 
  195.5000    67.0730    53.4490    55.2320    79.9140    25.5100     2.2850    -2.0520 
  195.6250    64.5170    57.4260    58.7210    96.5110    25.5320     2.2830    -2.1030 
  195.7500    65.1920    60.0850    60.0870   107.3560    25.5210     2.2930    -2.1500 
  195.8750    67.5030    60.8030    59.2000   102.6390    25.4770     2.3090    -2.1820 
  196.0000    68.9060    59.6950    56.8100    85.2130    25.4450     2.3230    -2.2110 
  196.1250    68.8580    57.5670    54.2220    71.4580    25.4390     2.3280    -2.2250 
  196.2500    68.2750    55.7260    52.4810    68.3030    25.4430     2.3260    -2.2350 
  196.3750    67.5550    54.8580    51.9200    66.7580    25.4440     2.3190    -2.2450 
  196.5000    67.4040    55.2270    52.5770    62.5680    25.4220     2.3090    -2.2320 
  196.6250    68.5190    57.1510    54.8360    60.4850    25.3890     2.2950    -2.2170 
  196.7500    70.3500    60.7690    59.0880    63.2060    25.3740     2.2770    -2.2110 
  196.8750    70.5620    66.9370    66.5060    69.3880    25.3850     2.2590    -2.1980 
  197.0000    67.0950    77.0370    78.8110    78.2610    25.4270     2.2430    -2.1990 
  197.1250    61.1190    93.6340    98.5570   100.8760    25.4710     2.2340    -2.2090 
  197.2500    57.1190   115.6380   122.9630   141.2840    25.5080     2.2300    -2.1870 
  197.3750    56.0630   138.6390   144.7680   183.1540    25.5370     2.2300    -2.1720 
  197.5000    56.2670   153.7270   152.0820   190.4600    25.5550     2.2310    -2.1750 
  197.6250    57.2300   148.7110   134.3060   160.6720    25.5610     2.2370    -2.1810 
  197.7500    59.5340   126.9310   104.7870   112.1840    25.5490     2.2520    -2.1910 
  197.8750    63.6330    97.8770    77.0350    67.7630    25.5150     2.2740    -2.2140 
  198.0000    68.8810    71.9230    57.6670    50.5620    25.4560     2.2980    -2.2430 
  198.1250    71.9750    55.8000    48.0000    37.2870    25.4440     2.3170    -2.2850 
  198.2500    71.7210    47.5260    44.3300    33.0650    25.4780     2.3270    -2.3410 
  198.3750    69.7520    44.9400    44.7900    39.9900    25.4860     2.3300    -2.4170 
  198.5000    68.6250    46.0320    47.7530    53.1470    25.4700     2.3310    -2.5020 
  198.6250    67.6410    49.0600    51.4930    57.9820    25.4700     2.3300    -2.5880 
  198.7500    67.6160    52.0080    54.2630    54.1330    25.4790     2.3280    -2.6740 
  198.8750    68.6470    53.8850    55.4010    50.2150    25.4840     2.3230    -2.7590 
  199.0000    69.0110    54.4980    55.3050    47.2590    25.4800     2.3150    -2.8260 
  199.1250    70.0900    54.5320    55.3170    48.1150    25.4820     2.3060    -2.9190 
  199.2500    72.4670    55.2780    56.6630    50.3640    25.5090     2.2960    -3.0250 
  199.3750    73.6770    57.6350    59.9290    51.9860    25.5700     2.2860    -3.0970 
  199.5000    70.7200    62.1450    65.3340    52.9130    25.6170     2.2740    -3.1870 
  199.6250    66.1500    69.4040    73.1670    53.3780    25.6250     2.2610    -3.2820 
  199.7500    65.3720    78.8820    82.5240    56.4500    25.6170     2.2520    -3.3720 
  199.8750    68.1190    89.3520    92.3900    55.8420    25.6010     2.2470    -3.4750 
  200.0000    70.1830    99.0100   101.4680    56.4460    25.5800     2.2500    -3.5930 
  200.1250    68.1010   106.4750   108.1420    53.9530    25.5650     2.2550    -3.6850 
  200.2500    66.4450   112.2200   112.2940    51.2660    25.5580     2.2580    -3.7690 
  200.3750    67.1520   116.4230   114.4620    54.4260    25.5780     2.2560    -3.8790 
  200.5000    67.3970   119.0690   115.5810    66.3430    25.6130     2.2490    -3.9720 
  200.6250    64.6500   120.5410   116.4880    72.0380    25.6300     2.2410    -4.0390 
  200.7500    62.7510   121.7170   117.4430    71.7800    25.6340     2.2370    -4.1200 
  200.8750    63.0860   122.5880   118.1640    70.2660    25.6390     2.2360    -4.1800 
  201.0000    63.2980   122.9010   118.2730    71.1970    25.6440     2.2380    -4.2410 
  201.1250    61.4250   122.3770   117.6690    71.5860    25.6600     2.2410    -4.3010 
