~V
VERS. 2.00: Ver 2.00
~W
STRT.M 60.0000:
STOP.M 273.0000:
STEP.M 0.1250:
NULL. -999.2500:
UWI. F11028:
~C
DEPT.M :
DEN.GM/CC :
GR.API :
RML.OHMM :
RI. :
RXO.OHMM :
CALI.CM :
SP.MV :
~A
   60.0000     2.1580    58.5060     0.1200     0.2140    44.1150    24.9270   104.5290 
   60.1250     2.1990    60.5410     0.0620     0.1920    46.5600    24.8880   102.2920 
   60.2500     2.2520    59.0420     0.0280     0.1580    44.3350    24.7870    99.2670 
   60.3750     2.3160    55.1910     0.0210     0.1210    33.9380    24.6250    95.1580 
   60.5000     2.3860    50.5930     0.0270     0.0910    25.4500    24.5830    89.6970 
   60.6250     2.4470    48.3790     0.0350     0.0740    18.0640    24.5730    82.2340 
   60.7500     2.4770    52.4560     0.0510     0.0790     7.8270    24.5990    72.8150 
   60.8750     2.4590    61.2640     0.0930     0.1250     3.6140    24.8720    61.4780 
   61.0000     2.3970    68.7710     0.1950     0.2510     3.0830    25.5530    48.7790 
   61.1250     2.3090    71.0770     0.4610     0.5510     4.2660    27.9880    35.7380 
   61.2500     2.2240    71.8830     0.9950     1.0860     4.9240    31.2490    23.1930 
   61.3750     2.1450    72.7780     1.8910     1.8940     5.4460    33.1250    11.6560 
   61.5000     2.0700    71.7650     2.9980     2.8770     6.3490    33.5290     1.6170 
   61.6250     1.9920    67.4300     3.7440     3.7700     7.8950    34.7180    -6.1740 
   61.7500     1.9140    65.2830     4.0070     4.4380     8.9420    37.1680   -11.7980 
   61.8750     1.8560    67.3300     4.0300     4.9280     8.4060    38.3180   -15.3300 
   62.0000     1.8340    71.0050     4.0280     5.3660     7.3830    35.8490   -17.3100 
   62.1250     1.8660    71.0430     4.1330     5.9050     7.4210    28.6510   -18.4740 
   62.2500     1.9380    67.7440     4.4090     6.6470     8.7860    25.4230   -19.4670 
   62.3750     2.0300    63.7170     4.9120     7.6220    10.3340    24.4110   -20.4650 
   62.5000     2.1190    61.7640     5.6640     8.7450    13.1360    24.1710   -21.5270 
   62.6250     2.1780    65.0030     6.5580     9.6930    19.0960    24.2570   -22.6550 
   62.7500     2.2080    69.0910     7.1760    10.0970    22.8930    24.0660   -23.6940 
   62.8750     2.2180    70.0390     7.1730     9.8190    16.5430    23.8030   -24.5540 
   63.0000     2.2200    70.4990     6.6440     9.0620    11.0720    23.6490   -25.1950 
   63.1250     2.2190    75.6270     6.0240     8.2290     8.7360    23.6460   -25.5920 
   63.2500     2.2230    83.2450     5.6380     7.6190     7.4380    23.7880   -25.8570 
   63.3750     2.2330    86.7860     5.5500     7.3060     7.2480    23.8980   -26.0450 
   63.5000     2.2470    84.7080     5.6930     7.2230     8.0570    23.5320   -26.2330 
   63.6250     2.2590    84.1490     5.9210     7.2100     8.7700    23.0190   -26.3640 
   63.7500     2.2650    87.4650     6.0910     7.1400     7.9960    22.9520   -26.4860 
   63.8750     2.2620    90.0590     6.1780     7.0220     7.2010    23.0970   -26.6630 
   64.0000     2.2530    88.9210     6.2340     6.9420     6.7920    23.2130   -26.9100 
   64.1250     2.2380    85.9020     6.3550     7.0180     6.7840    23.3410   -27.2540 
   64.2500     2.2200    83.1280     6.5690     7.2550     7.2980    23.0810   -27.6180 
   64.3750     2.2020    79.8770     6.8460     7.5990     8.1610    22.3790   -27.9560 
   64.5000     2.1870    77.6460     7.1140     7.9470     8.6860    21.5990   -28.2590 
   64.6250     2.1770    76.8230     7.2540     8.1620     8.7230    21.2600   -28.5260 
   64.7500     2.1710    73.7480     7.2490     8.2010     8.5460    21.1030   -28.7930 
   64.8750     2.1690    68.9850     7.1260     8.0650     8.6610    21.0800   -29.0240 
   65.0000     2.1680    65.8880     6.9390     7.7910     8.9880    21.1060   -29.1870 
   65.1250     2.1720    68.0450     6.7880     7.4620     8.9820    21.3010   -29.3360 
   65.2500     2.1860    73.0250     6.8300     7.2550     8.4990    21.7160   -29.4680 
   65.3750     2.2140    77.4530     7.2250     7.3720     7.9070    22.1400   -29.6040 
   65.5000     2.2580    78.7730     8.0870     7.9910     8.0810    22.2130   -29.7850 
   65.6250     2.3130    75.9360     9.5200     9.2900     9.8390    21.9100   -30.0380 
   65.7500     2.3660    72.2630    11.2300    11.0010    14.1710    21.8560   -30.3920 
   65.8750     2.4050    71.0240    12.6370    12.6080    23.4730    22.2500   -30.8430 
   66.0000     2.4180    70.9250    12.9270    13.3120    31.1670    22.7770   -31.4210 
   66.1250     2.3940    70.0460    11.6670    12.4390    23.2150    22.7270   -32.0770 
   66.2500     2.3490    68.4050     9.8940    10.7820    14.2780    22.5840   -32.7670 
   66.3750     2.2980    67.9900     8.3300     9.1080    10.6430    22.5760   -33.5480 
   66.5000     2.2530    68.9290     7.2650     7.8510     9.8490    22.6590   -34.3500 
   66.6250     2.2200    68.8780     6.7570     7.1950     9.7540    22.9850   -35.1730 
   66.7500     2.1920    66.0930     6.5650     6.9470     9.7170    23.9340   -35.9530 
   66.8750     2.1660    60.5140     6.5150     6.9450     9.8180    24.9880   -36.6410 
   67.0000     2.1400    56.9900     6.4960     7.0360    10.0920    25.7410   -37.2500 
   67.1250     2.1170    59.1290     6.5010     7.1100    10.2890    27.2860   -37.7170 
   67.2500     2.0950    60.5830     6.5720     7.1330    10.2510    28.9540   -38.1010 
   67.3750     2.0760    58.7820     6.7180     7.1050     9.9800    30.1940   -38.3710 
   67.5000     2.0590    56.4900     6.8890     7.0420     9.7330    30.8960   -38.5010 
   67.6250     2.0500    58.1600     6.9900     6.9640     9.5930    30.9420   -38.5240 
   67.7500     2.0490    61.0250     6.9970     6.8960     9.5750    30.4840   -38.4610 
   67.8750     2.0560    62.8120     6.9670     6.8560     9.6990    29.8850   -38.3530 
   68.0000     2.0670    63.1290     6.9950     6.8430     9.8410    29.4480   -38.2020 
   68.1250     2.0780    62.1500     7.1340     6.8410     9.8760    29.1650   -38.0310 
   68.2500     2.0860    62.3680     7.3010     6.8220     9.7660    28.9000   -37.8630 
   68.3750     2.0890    63.6600     7.3950     6.7700     9.5980    28.6170   -37.6630 
   68.5000     2.0860    64.4850     7.3600     6.6920     9.4170    28.7390   -37.5000 
   68.6250     2.0820    64.1340     7.2180     6.6130     9.1410    28.5090   -37.3290 
   68.7500     2.0770    64.7140     7.0660     6.5550     8.9080    27.7160   -37.1180 
   68.8750     2.0740    66.8520     6.9450     6.5220     9.2230    27.3690   -36.8990 
   69.0000     2.0720    68.5380     6.8600     6.5070     9.4830    27.5840   -36.6330 
   69.1250     2.0710    68.7110     6.8210     6.4940     9.5920    27.8190   -36.3390 
   69.2500     2.0760    67.5150     6.8440     6.4720     9.4120    27.5120   -35.9830 
   69.3750     2.0890    65.8260     6.9500     6.4410     9.2530    26.0680   -35.6460 
   69.5000     2.1120    64.9670     7.1410     6.4200     9.3480    25.0670   -35.3580 
   69.6250     2.1370    65.4450     7.3880     6.4380     9.5830    24.8640   -35.1100 
   69.7500     2.1560    67.2490     7.6420     6.5110     9.7280    24.8570   -34.9760 
   69.8750     2.1610    69.5060     7.8850     6.6450     9.7830    24.9610   -34.9150 
   70.0000     2.1550    70.6970     8.1180     6.8300     9.8330    25.1320   -34.9430 
   70.1250     2.1420    69.2720     8.3370     7.0430    10.0810    25.5130   -35.0680 
   70.2500     2.1280    66.7320     8.5250     7.2400    10.2540    25.6940   -35.2570 
   70.3750     2.1180    66.0560     8.6630     7.3830    10.5770    25.5900   -35.4640 
   70.5000     2.1170    68.2020     8.7230     7.4400    10.7880    25.2870   -35.6140 
   70.6250     2.1250    68.9590     8.6560     7.3840    10.5800    25.1220   -35.7150 
   70.7500     2.1390    66.5340     8.4810     7.2560    10.2110    25.1110   -35.7570 
   70.8750     2.1530    64.3150     8.2370     7.0960    10.1720    25.1630   -35.7130 
   71.0000     2.1630    65.0340     7.9830     6.9400    10.3050    25.1960   -35.6140 
   71.1250     2.1680    66.3000     7.7890     6.8240    10.2770    25.2350   -35.4170 
