~V
VERS. 2.00: Ver 2.00
~W
STRT.M 54.0000:
STOP.M 281.0000:
STEP.M 0.1250:
NULL. -999.2500:
UWI. F11055:
~C
DEPT.M :
SP.MV :
GR.API :
RML.OHMM :
RI. :
RXO.OHMM :
CALI.CM :
DEN.GM/CC :
~A
# ...
  110.2500    -3.9910    73.2380     7.4040     5.9990     6.6980    24.2740     2.2450 
  110.3750    -4.2980    70.2540     7.8840     6.3720     7.3390    24.2740     2.2450 
  110.5000    -4.6390    69.4230     8.4500     6.8260     8.2520    24.2740     2.2450 
  110.6250    -5.0080    71.2700     9.0030     7.2910     9.1340    24.2740     2.2420 
  110.7500    -5.3880    72.6130     9.4390     7.6950     9.8670    24.2740     2.2300 
  110.8750    -5.7320    71.8700     9.7070     7.9910    10.4620    24.2740     2.2090 
  111.0000    -6.0760    69.4320     9.8120     8.1630    10.9370    24.2740     2.1870 
  111.1250    -6.3870    68.1310     9.8050     8.2170    11.1010    24.2740     2.1760 
  111.2500    -6.6700    68.9210     9.7780     8.2200    11.0730    24.2740     2.1740 
  111.3750    -6.9250    70.2870     9.7670     8.2120    11.1130    24.2740     2.1800 
  111.5000    -7.1650    70.4980     9.7830     8.2070    11.1910    24.2770     2.1870 
  111.6250    -7.3490    69.8480     9.8170     8.2060    11.1730    24.2820     2.1900 
  111.7500    -7.4990    68.7260     9.8470     8.2020    11.1300    24.2830     2.1910 
  111.8750    -7.6540    65.4490     9.8620     8.1930    11.0770    24.2800     2.1920 
  112.0000    -7.7300    61.6480     9.8630     8.1820    10.9530    24.2840     2.1950 
  112.1250    -7.7680    60.4630     9.8650     8.1660    10.8160    24.2940     2.1980 
  112.2500    -7.7490    59.4990     9.8710     8.1400    10.7210    24.2870     2.1970 
  112.3750    -7.7160    58.1920     9.8750     8.1010    10.6480    24.2760     2.1890 
  112.5000    -7.6410    59.5110     9.8650     8.0490    10.5750    24.2750     2.1790 
  112.6250    -7.6080    64.5310     9.8240     7.9800    10.5340    24.2850     2.1690 
  112.7500    -7.5200    67.9700     9.7630     7.8980    10.5540    24.2920     2.1630 
  112.8750    -7.4640    66.6120     9.6940     7.8120    10.5950    24.2860     2.1600 
  113.0000    -7.4110    64.0530     9.6320     7.7390    10.7770    24.2830     2.1550 
  113.1250    -7.3400    64.4950     9.5860     7.6970    10.9200    24.2880     2.1500 
  113.2500    -7.2940    65.4350     9.5510     7.6800    11.1030    24.2810     2.1470 
  113.3750    -7.2190    64.6830     9.5170     7.6780    11.2330    24.2730     2.1510 
  113.5000    -7.1450    63.5490     9.4770     7.6830    11.3180    24.2800     2.1590 
  113.6250    -6.9800    64.7030     9.4370     7.6960    11.2340    24.3000     2.1670 
  113.7500    -6.8290    65.5700     9.4160     7.7250    11.2110    24.3140     2.1730 
  113.8750    -6.5640    64.7200     9.4410     7.7850    11.3370    24.3220     2.1750 
  114.0000    -6.2690    63.0730     9.5220     7.8790    11.3380    24.3570     2.1760 
  114.1250    -5.8680    61.5060     9.6460     7.9920    11.0960    24.3580     2.1810 
  114.2500    -5.3950    60.1750     9.7300     8.0650    10.7770    24.3350     2.1930 
  114.3750    -4.8430    60.2660     9.6660     8.0190    10.5470    24.3260     2.2110 
  114.5000    -4.2210    63.6540     9.3520     7.7780    10.3250    24.3780     2.2330 
  114.6250    -3.6020    70.8640     8.7070     7.2810     9.8070    24.4090     2.2580 
  114.7500    -2.9040    78.4350     7.8740     6.6330     8.6310    24.4200     2.2840 
  114.8750    -2.2740    84.3580     7.0170     5.9450     6.6020    24.4230     2.3060 
  115.0000    -1.6540    88.8720     6.2920     5.3250     5.3090    24.4160     2.3170 
  115.1250    -1.1650    92.8740     5.8320     4.8660     4.6190    24.3800     2.3130 
  115.2500    -0.7520    96.6210     5.6170     4.5790     4.5570    24.3240     2.3040 
  115.3750    -0.4760    99.9880     5.6120     4.4590     4.6680    24.2900     2.3000 
  115.5000    -0.3140   103.1970     5.7540     4.4770     4.8590    24.2920     2.3010 
  115.6250    -0.2370   104.0480     5.9600     4.5900     4.6530    24.3220     2.3030 
  115.7500    -0.3330   100.9270     6.1190     4.7040     5.0680    24.3230     2.3040 
  115.8750    -0.4530    95.9120     6.1630     4.7590     5.5640    24.3060     2.3000 
  116.0000    -0.6520    94.2860     6.0770     4.7310     5.3720    24.3070     2.2890 
  116.1250    -0.8620    97.9960     5.9250     4.6510     5.1570    24.3410     2.2710 
  116.2500    -1.1050   100.8840     5.8190     4.5970     4.7200    24.3480     2.2530 
  116.3750    -1.3480    99.8660     5.8340     4.6240     4.6220    24.3140     2.2410 
  116.5000    -1.6130    96.1040     6.0110     4.7620     4.9200    24.2890     2.2370 
  116.6250    -1.8170    93.8600     6.3500     5.0200     5.7500    24.2990     2.2400 
  116.7500    -1.9650    93.1400     6.7270     5.3260     6.2360    24.3150     2.2470 
  116.8750    -2.1050    90.9050     7.0240     5.5970     6.5050    24.3000     2.2520 
  117.0000    -2.1340    86.5490     7.1410     5.7470     6.5960    24.2870     2.2550 
  117.1250    -2.1640    83.8330     7.0120     5.6950     6.5980    24.3000     2.2590 
  117.2500    -2.1110    83.8190     6.7450     5.5010     6.1970    24.3250     2.2670 
  117.3750    -2.0220    85.0030     6.4530     5.2460     5.3790    24.3250     2.2740 
  117.5000    -1.8560    87.2110     6.2380     5.0210     4.6330    24.2990     2.2730 
  117.6250    -1.7560    87.9560     6.1800     4.9020     5.0650    24.2910     2.2640 
  117.7500    -1.6170    85.0240     6.2480     4.8820     5.9660    24.3050     2.2580 
  117.8750    -1.4720    82.1450     6.3930     4.9290     6.6210    24.3190     2.2610 
  118.0000    -1.4010    83.4900     6.5670     5.0130     5.8560    24.3140     2.2730 
  118.1250    -1.2870    86.7800     6.7580     5.1380     5.6610    24.3270     2.2890 
  118.2500    -1.2380    88.8050     6.9640     5.3020     5.5770    24.3230     2.3050 
  118.3750    -1.1650    90.7610     7.1630     5.4850     5.8680    24.2940     2.3240 
  118.5000    -1.1470    91.5430     7.3020     5.6420     6.7590    24.2830     2.3460 
  118.6250    -1.0600    90.3900     7.2730     5.6820     8.0290    24.3060     2.3580 
  118.7500    -0.9960    91.8880     7.0590     5.5790     7.4820    24.3330     2.3450 
  118.8750    -0.9370    95.4490     6.7200     5.3630     5.5310    24.3180     2.3120 
  119.0000    -0.8570    96.5710     6.3710     5.1120     4.9470    24.3130     2.2830 
  119.1250    -0.8100    94.9350     6.1170     4.9020     5.4600    24.3340     2.2770 
  119.2500    -0.7300    94.7440     5.9620     4.7510     5.4920    24.3180     2.2840 
  119.3750    -0.6820    95.5400     5.8640     4.6510     5.1040    24.2930     2.2960 
  119.5000    -0.5670    94.5040     5.7700     4.5770     5.0060    24.3020     2.3080 
  119.6250    -0.5370    94.0240     5.6520     4.5030     4.9440    24.3340     2.3190 
  119.7500    -0.4770    94.8500     5.5550     4.4360     4.7840    24.3180     2.3290 
  119.8750    -0.4020    95.7090     5.5310     4.4070     4.5380    24.2930     2.3320 
  120.0000    -0.3440    97.0050     5.6070     4.4390     4.6200    24.3020     2.3240 
  120.1250    -0.2730    99.2480     5.7800     4.5460     4.9340    24.3340     2.3070 
  120.2500    -0.2350   100.2120     5.9820     4.6930     5.2940    24.3180     2.2930 
  120.3750    -0.2020    97.9490     6.1470     4.8280     5.6630    24.2890     2.2890 
  120.5000    -0.2120    92.9250     6.2160     4.8980     5.8700    24.2810     2.2950 
  120.6250    -0.1390    87.7520     6.1490     4.8560     5.4620    24.2910     2.3050 
  120.7500    -0.1460    85.3470     6.0040     4.7410     5.0560    24.2840     2.3150 
  120.8750    -0.1480    85.1900     5.8480     4.6050     4.6670    24.2730     2.3210 
  121.0000    -0.1410    85.1430     5.7440     4.5020     4.5570    24.2760     2.3230 
  121.1250    -0.1940    85.5850     5.7280     4.4730     4.6330    24.2900     2.3240 
  121.2500    -0.2430    88.3360     5.7700     4.4980     4.8420    24.2830     2.3250 
  121.3750    -0.3250    90.6540     5.8400     4.5530     5.0530    24.2700     2.3210 
