~V
VERS. 2.00: Ver 2.00
~W
STRT.M 47.0000:
STOP.M 272.0000:
STEP.M 0.1250:
NULL. -999.2500:
UWI. F11040:
~C
DEPT.M :
DEN.GM/CC :
GR.API :
RML.OHMM :
RI. :
RXO.OHMM :
CALI.CM :
SP.MV :
~A
# ...
   58.2500     2.2170    76.9260     4.0530     5.4360     6.3320    22.5740   -10.9010 
   58.3750     2.2050    68.4630     4.3240     5.7810     6.9280    22.1510   -11.8750 
   58.5000     2.1960    63.1490     4.6450     6.2070     7.4330    21.7270   -12.7670 
   58.6250     2.1910    64.9350     4.9660     6.6430     7.6140    21.6310   -13.6410 
   58.7500     2.1890    67.3000     5.2260     6.9970     7.7060    21.6780   -14.4130 
   58.8750     2.1900    66.4830     5.3830     7.2140     7.7430    21.7240   -15.0050 
   59.0000     2.1950    65.1140     5.4150     7.2730     7.6110    21.7190   -15.3320 
   59.1250     2.2000    67.3460     5.3160     7.1670     7.5040    21.6880   -15.3040 
   59.2500     2.2040    69.6160     5.1350     6.9570     7.3900    21.6930   -15.0560 
   59.3750     2.2060    70.3030     4.9080     6.6870     7.2000    21.7690   -14.6110 
   59.5000     2.2070    70.1520     4.6810     6.4170     7.0360    21.9090   -14.0100 
   59.6250     2.2150    72.3540     4.5520     6.2570     6.9380    22.1430   -13.2650 
   59.7500     2.2380    78.5220     4.5910     6.2890     6.8420    22.5010   -12.4920 
   59.8750     2.2810    83.8350     4.8290     6.5540     7.1310    22.9770   -11.7370 
   60.0000     2.3440    84.0840     5.2270     7.0090     8.1120    23.4550   -11.0340 
   60.1250     2.4140    81.2550     5.6330     7.4900    10.7320    23.7790   -10.4640 
   60.2500     2.4640    80.2000     5.8420     7.7620    15.0600    23.8950    -9.9820 
   60.3750     2.4780    82.2280     5.7190     7.6640    18.4230    23.9090    -9.6430 
   60.5000     2.4570    87.8100     5.2650     7.1720    15.9240    23.9070    -9.4740 
   60.6250     2.4190    96.6440     4.6590     6.4270     9.6840    23.9110    -9.4760 
   60.7500     2.3870   101.6730     4.1700     5.7290     7.0850    23.8990    -9.5670 
   60.8750     2.3660    99.3590     3.9180     5.2410     6.1620    23.8800    -9.7860 
   61.0000     2.3530    95.6790     3.9170     5.0230     5.9640    23.8590   -10.1050 
   61.1250     2.3440    95.3650     4.1460     5.1010     6.0030    23.8200   -10.5390 
   61.2500     2.3390    95.0040     4.5080     5.3790     6.1570    23.7580   -11.0710 
   61.3750     2.3450    92.7410     4.9510     5.8040     6.5190    23.6650   -11.6800 
   61.5000     2.3650    90.5920     5.4260     6.3140     7.2100    23.5460   -12.3110 
   61.6250     2.3940    89.1710     5.8630     6.8210     8.3250    23.5000   -12.9390 
   61.7500     2.4120    85.8290     6.2030     7.2340     9.3640    23.5070   -13.6000 
   61.8750     2.4060    81.2340     6.4050     7.4870    10.9660    23.3980   -14.2840 
   62.0000     2.3710    78.8200     6.4640     7.5620    10.4620    23.0800   -14.9740 
   62.1250     2.3180    77.4090     6.4270     7.4940     8.4020    22.5770   -15.6200 
   62.2500     2.2700    74.1430     6.3910     7.4110     7.5920    22.1040   -16.2270 
   62.3750     2.2370    69.6940     6.4160     7.4020     7.3830    21.7950   -16.7740 
   62.5000     2.2170    66.5110     6.5230     7.5160     7.4360    21.5570   -17.2960 
   62.6250     2.2090    65.2180     6.7110     7.7610     7.4960    21.3730   -17.8240 
   62.7500     2.2070    65.3900     6.9400     8.0590     7.6300    21.2570   -18.3190 
   62.8750     2.2090    67.3610     7.1930     8.3460     7.8420    21.1960   -18.7180 
   63.0000     2.2130    68.4160     7.4520     8.5690     8.0150    21.1840   -19.0560 
   63.1250     2.2150    66.8840     7.6840     8.6820     8.0720    21.1860   -19.3560 
   63.2500     2.2120    64.5100     7.8540     8.7010     8.0400    21.1870   -19.5940 
   63.3750     2.2030    64.1670     7.9420     8.6490     7.8920    21.1820   -19.7640 
   63.5000     2.1910    66.5440     7.9450     8.5580     7.7300    21.1690   -19.9130 
   63.6250     2.1800    67.7420     7.8510     8.4530     7.4900    21.1440   -20.0460 
   63.7500     2.1710    66.9410     7.6740     8.3450     7.2520    21.1150   -20.1400 
   63.8750     2.1670    64.6240     7.4240     8.2290     7.0650    21.0920   -20.2060 
   64.0000     2.1650    64.1640     7.1450     8.1070     7.0160    21.0690   -20.2450 
   64.1250     2.1670    68.0960     6.9520     8.0030     6.9860    21.0540   -20.2390 
   64.2500     2.1700    71.3550     6.9500     7.9470     6.8880    21.0380   -20.2130 
   64.3750     2.1740    69.8530     7.2100     7.9590     6.7020    21.0060   -20.2220 
   64.5000     2.1780    64.8270     7.7100     8.0400     6.6500    20.9390   -20.1800 
   64.6250     2.1790    61.9950     8.3180     8.1650     7.0340    20.8260   -20.0390 
   64.7500     2.1770    60.1160     8.8330     8.2710     7.2650    20.7080   -19.8580 
   64.8750     2.1740    57.0280     9.1560     8.3130     7.3610    20.6430   -19.6590 
   65.0000     2.1730    55.6210     9.2630     8.2590     7.4180    20.6380   -19.4620 
   65.1250     2.1740    57.1550     9.1870     8.1120     7.4060    20.6760   -19.2740 
   65.2500     2.1810    59.2380     9.1140     7.9780     7.3550    20.7400   -19.1130 
   65.3750     2.1960    61.4200     9.3000     8.0230     7.3490    20.8710   -18.9610 
   65.5000     2.2260    64.9070    10.0950     8.4860     7.5710    21.1200   -18.8360 
   65.6250     2.2840    68.5510    12.0520     9.7820     8.7110    21.6110   -18.7630 
   65.7500     2.3660    69.2990    15.1160    11.9540    11.8480    22.3310   -18.7400 
   65.8750     2.4580    66.9230    18.8540    14.8010    18.3020    23.0560   -18.7660 
   66.0000     2.5360    62.0230    22.2930    17.6900    29.1350    23.4960   -18.8080 
   66.1250     2.5640    57.4910    23.7490    19.3670    46.2990    23.4950   -18.8500 
   66.2500     2.5360    56.8320    22.5800    19.0510    56.6860    23.2620   -18.9310 
   66.3750     2.4610    59.8590    19.1660    16.7660    46.3520    22.8380   -18.9990 
   66.5000     2.3650    62.6340    14.9720    13.5800    25.6700    22.2090   -19.0300 
   66.6250     2.2750    59.3320    11.7280    10.8970    13.1770    21.4740   -19.0600 
   66.7500     2.2080    55.5520     9.8020     9.1360     8.8280    21.0180   -19.0980 
   66.8750     2.1660    55.9010     8.9500     8.1940     7.6610    20.8690   -19.1190 
   67.0000     2.1500    58.1190     8.7890     7.8420     7.2820    20.8550   -19.1420 
   67.1250     2.1530    58.7550     9.0040     7.8860     7.2400    20.8560   -19.2080 
   67.2500     2.1640    59.1210     9.2760     8.0600     7.2530    20.8590   -19.2290 
   67.3750     2.1760    60.4610     9.4670     8.2300     7.2510    20.8650   -19.2170 
   67.5000     2.1830    58.5940     9.5180     8.3180     7.2710    20.8720   -19.2060 
   67.6250     2.1820    53.5600     9.4200     8.2890     7.3100    20.8720   -19.2020 
   67.7500     2.1740    52.6730     9.2500     8.1900     7.2690    20.8800   -19.1910 
   67.8750     2.1650    56.0300     9.0670     8.0590     7.2100    20.8920   -19.1580 
   68.0000     2.1580    59.3560     8.9170     7.9300     7.1910    20.9220   -19.1220 
   68.1250     2.1550    58.4040     8.8340     7.8310     7.2010    20.9990   -19.0680 
   68.2500     2.1540    56.2900     8.8090     7.7620     7.2260    21.0680   -18.9990 
   68.3750     2.1540    55.4160     8.8320     7.7240     7.2520    21.0980   -18.9430 
   68.5000     2.1560    56.5720     8.8900     7.7140     7.2420    21.0970   -18.8990 
   68.6250     2.1590    60.2040     8.9650     7.7310     7.2550    21.0860   -18.8510 
   68.7500     2.1630    62.6560     9.0310     7.7550     7.3000    21.0910   -18.7660 
   68.8750     2.1660    61.6750     9.0670     7.7690     7.3780    21.1210   -18.6810 
   69.0000     2.1660    58.4790     9.0620     7.7580     7.4720    21.1620   -18.5960 
   69.1250     2.1640    56.8760     9.0190     7.7150     7.4620    21.1980   -18.4700 
   69.2500     2.1630    56.6610     8.9680     7.6550     7.3260    21.2740   -18.3410 
   69.3750     2.1620    56.5610     8.9340     7.5950     7.1700    21.3610   -18.2120 
