~V
VERS. 2.00: Ver 2.00
~W
STRT.M 55.0000:
STOP.M 249.0000:
STEP.M 0.1250:
NULL. -999.2500:
UWI. F11017:
~C
DEPT.M :
GR.API :
RML.OHMM :
RI. :
RXO.OHMM :
CALI.CM :
DEN.GM/CC :
SP.MV :
~A
# ...
  178.7500    51.0360   117.6300   104.8800   111.9210    24.7150     2.2450   -11.4610 
  178.8750    51.0690   110.2800    98.7130   100.0270    24.7200     2.2500   -11.3740 
  179.0000    55.6630   100.5160    90.3380    99.5550    24.7030     2.2580   -11.3100 
  179.1250    60.7670    85.3900    76.9640   110.8660    24.6450     2.2740   -11.2660 
  179.2500    62.7220    66.6310    60.0530   117.4340    24.5810     2.2970   -11.2220 
  179.3750    64.3740    47.7750    42.9840   102.0270    24.5180     2.3240   -11.1770 
  179.5000    68.2770    32.3380    29.1800    55.7530    24.4170     2.3520   -11.1290 
  179.6250    71.5190    22.5260    20.5420    25.6660    24.2820     2.3770   -11.1010 
  179.7500    72.3580    16.7890    15.4410    13.2360    24.1880     2.3960   -11.1060 
  179.8750    73.3580    13.9490    12.7770     9.7350    24.1430     2.4100   -11.1320 
  180.0000    75.0830    13.0460    11.7560     8.9980    24.1290     2.4170   -11.1750 
  180.1250    77.3620    13.5790    12.0420     9.0580    24.1450     2.4150   -11.2220 
  180.2500    78.5970    14.8330    13.0710     9.6050    24.1680     2.4060   -11.2570 
  180.3750    77.2180    16.3500    14.4670    10.8820    24.1540     2.3900   -11.2720 
  180.5000    72.1830    17.6380    15.7740    13.0210    24.1170     2.3700   -11.2640 
  180.6250    66.4250    18.0940    16.3830    16.0310    24.1320     2.3550   -11.2290 
  180.7500    65.7430    17.6550    16.1220    17.4880    24.1880     2.3490   -11.1830 
  180.8750    70.4560    16.5580    15.1450    15.4230    24.2640     2.3530   -11.1400 
  181.0000    77.1100    15.3640    13.9480    12.8180    24.3560     2.3630   -11.0990 
  181.1250    81.0720    14.9610    13.2910    11.4860    24.4040     2.3710   -11.0510 
  181.2500    82.4450    15.8880    13.6260    11.2710    24.4190     2.3720   -11.0090 
  181.3750    82.2680    18.5270    15.2880    12.1510    24.4300     2.3630   -10.9630 
  181.5000    80.2950    23.0810    18.5670    14.8530    24.4490     2.3500   -10.9090 
  181.6250    74.2750    29.6310    23.8890    21.5410    24.4180     2.3360   -10.8390 
  181.7500    67.7760    36.9230    30.4480    32.7610    24.3520     2.3250   -10.7490 
  181.8750    64.7900    43.3270    36.8920    45.3600    24.3380     2.3180   -10.6390 
  182.0000    65.1450    46.8560    41.2310    52.6890    24.3780     2.3140   -10.5020 
  182.1250    63.5370    45.0610    40.5970    51.7660    24.3870     2.3160   -10.3460 
  182.2500    59.5560    38.8130    35.2610    49.9540    24.3440     2.3230   -10.1680 
  182.3750    58.0910    30.1370    27.3020    45.9340    24.3010     2.3340    -9.9810 
  182.5000    61.8300    21.6420    19.5800    36.0720    24.2800     2.3450    -9.8080 
  182.6250    69.1020    15.4780    14.0730    21.2620    24.3550     2.3560    -9.6890 
  182.7500    75.5650    11.6170    10.5320    11.3930    24.4410     2.3700    -9.6510 
  182.8750    80.0520     9.6500     8.5440     7.1510    24.4960     2.3900    -9.7110 
  183.0000    83.3670     9.1310     7.7640     6.2180    24.3890     2.4150    -9.8800 
  183.1250    85.4000    10.0550     8.2120     6.4920    24.2880     2.4380   -10.1610 
  183.2500    86.0540    12.2900     9.7780     7.2050    24.2620     2.4500   -10.5350 
  183.3750    84.4950    15.9270    12.6030     8.9170    24.3040     2.4450   -10.9790 
  183.5000    80.5270    20.7380    16.6390    12.4550    24.3130     2.4240   -11.4530 
  183.6250    76.2280    25.6820    21.2090    19.2150    24.3580     2.3960   -11.8970 
  183.7500    73.5980    29.0300    24.7940    29.4660    24.4170     2.3710   -12.2640 
  183.8750    73.5560    29.3850    25.9090    39.6110    24.4480     2.3550   -12.5330 
  184.0000    75.9390    26.3330    23.6670    42.0790    24.4720     2.3470   -12.7120 
  184.1250    78.3490    21.2060    19.0280    32.5050    24.5170     2.3390   -12.8380 
  184.2500    79.5170    17.1290    15.0470    20.2950    24.6010     2.3240   -12.9630 
  184.3750    80.6820    15.9500    13.1560    11.5750    24.7700     2.3030   -13.1220 
  184.5000    82.3490    18.6490    13.9630    10.1110    24.9850     2.2800   -13.3280 
  184.6250    78.6020    26.9310    18.9460    16.9340    24.9640     2.2650   -13.5660 
  184.7500    69.1740    40.8410    28.8110    31.7660    24.6280     2.2590   -13.8370 
  184.8750    60.6610    60.1680    44.1390    58.0070    24.3570     2.2590   -14.1370 
  185.0000    58.3130    82.9080    63.9140    97.6310    24.2740     2.2600   -14.4540 
  185.1250    60.8220   104.2730    84.5530   122.8720    24.2720     2.2590   -14.7690 
  185.2500    63.2530   119.0020   100.3850   118.9080    24.2480     2.2570   -15.0540 
  185.3750    64.8080   124.7750   108.1590   112.7570    24.2020     2.2560   -15.2890 
  185.5000    63.5520   123.9220   109.1950   108.9060    24.1670     2.2530   -15.4770 
  185.6250    59.7480   121.0370   107.1390   108.9850    24.1870     2.2510   -15.6380 
  185.7500    57.3360   118.8530   104.7980   111.3180    24.2400     2.2490   -15.7750 
  185.8750    58.1990   117.4370   102.6520   108.6870    24.2790     2.2490   -15.8800 
  186.0000    59.6870   116.3980   100.7840   103.6670    24.2930     2.2510   -15.9320 
  186.1250    58.8240   115.3400    99.2490   102.1130    24.2790     2.2530   -15.8880 
  186.2500    57.2260   113.9320    97.8870   101.1000    24.2640     2.2530   -15.7640 
  186.3750    56.3450   111.8460    96.4390    98.9410    24.3080     2.2530   -15.5770 
  186.5000    55.9340   108.6960    94.4890    97.6920    24.4010     2.2540   -15.3390 
  186.6250    57.4260   103.8110    91.2900    94.8800    24.4570     2.2570   -15.0670 
  186.7500    59.3560    97.2480    86.6020    91.4180    24.4770     2.2600   -14.7870 
  186.8750    60.5050    89.2140    80.4100    86.0730    24.4870     2.2630   -14.5080 
  187.0000    60.1880    80.2390    73.0600    76.2990    24.4740     2.2650   -14.2470 
  187.1250    58.6790    71.1040    65.1620    64.8220    24.4020     2.2660   -14.0190 
  187.2500    56.7410    62.6110    57.5510    53.6160    24.2790     2.2680   -13.8060 
  187.3750    55.5360    55.2690    50.7750    45.8690    24.1700     2.2730   -13.6000 
  187.5000    56.7050    49.3830    45.1970    40.8750    24.1250     2.2820   -13.3830 
  187.6250    58.5430    45.3760    41.2430    38.0310    24.1390     2.2940   -13.1490 
  187.7500    60.9780    43.0440    38.7510    35.8340    24.1820     2.3080   -12.9200 
  187.8750    64.7200    42.4560    37.7680    35.3370    24.2450     2.3200   -12.7060 
  188.0000    67.1080    43.7470    38.3990    35.4660    24.2590     2.3280   -12.5100 
  188.1250    64.9260    47.5360    41.1940    36.8750    24.2130     2.3280   -12.3270 
  188.2500    60.8160    53.7910    46.1850    41.1460    24.1890     2.3210   -12.1400 
  188.3750    58.5580    62.7340    53.6400    48.5660    24.2080     2.3080   -11.9320 
  188.5000    58.1460    74.3320    63.5930    58.9920    24.2420     2.2910   -11.7170 
  188.6250    56.7780    88.0660    75.6610    72.5150    24.2730     2.2710   -11.4990 
  188.7500    53.1770   101.5100    87.7060    87.1590    24.2930     2.2510   -11.2560 
  188.8750    47.7600   111.6440    97.0850    99.6950    24.2930     2.2360   -10.9880 
  189.0000    44.5480   115.1220   100.8310   111.4570    24.2890     2.2360   -10.6840 
  189.1250    46.5600   108.0680    95.4330   110.8810    24.2580     2.2690   -10.3460 
  189.2500    48.9520    93.1200    82.8580   100.1040    24.0640     2.3360   -10.0070 
  189.3750    48.2950    74.5650    66.5230    81.4500    23.6580     2.4290    -9.6820 
  189.5000    47.4710    57.2270    50.7190    60.4780    23.2470     2.5260    -9.3710 
  189.6250    50.3490    44.7910    39.1280    40.1810    23.0600     2.5970    -9.0720 
  189.7500    53.4480    36.9000    31.6690    29.5230    23.1060     2.6360    -8.7870 
  189.8750    53.4780    32.8400    27.6470    26.2330    23.3310     2.6480    -8.5190 
