~V
VERS. 2.00: Ver 2.00
~W
STRT.M 50.0000:
STOP.M 257.0000:
STEP.M 0.1250:
NULL. -999.2500:
UWI. F11021:
~C
DEPT.M :
GR.API :
RML.OHMM :
RI. :
RXO.OHMM :
CALI.CM :
SP.MV :
DEN.GM/CC :
~A
# ...
  241.2500    73.1920     5.9690     6.0060     4.8310    22.2190     5.9960     2.3600 
  241.3750    73.0640     5.9900     5.9500     5.0950    22.7980     5.9720     2.3700 
  241.5000    70.7370     6.0590     5.9570     5.5460    23.1520     5.9230     2.3830 
  241.6250    69.2570     6.1540     5.9910     6.1590    23.1190     5.8440     2.3910 
  241.7500    69.4470     6.2670     6.0290     6.6250    22.9430     5.7460     2.3870 
  241.8750    70.2190     6.4190     6.0810     6.3480    22.9110     5.6210     2.3720 
  242.0000    70.8200     6.6350     6.1700     5.7830    23.0100     5.4710     2.3530 
  242.1250    71.5960     6.9420     6.3280     5.4900    23.2200     5.3770     2.3390 
  242.2500    72.7140     7.3200     6.5540     5.4280    23.4190     5.3950     2.3370 
  242.3750    73.5270     7.7420     6.8360     5.5990    23.5480     5.4770     2.3450 
  242.5000    73.1430     8.1690     7.1450     5.9630    23.6030     5.5630     2.3550 
  242.6250    71.1290     8.5310     7.4260     6.4700    23.5900     5.5920     2.3650 
  242.7500    68.9400     8.7770     7.6260     7.3440    23.5600     5.5900     2.3780 
  242.8750    68.4450     8.8710     7.7030     9.3010    23.5190     5.6570     2.4010 
  243.0000    70.5230     8.8100     7.6450    12.7580    23.4950     5.8250     2.4320 
  243.1250    73.7490     8.6270     7.4640    14.5970    23.4810     5.9590     2.4620 
  243.2500    75.8120     8.4260     7.2390    11.8800    23.4650     6.1610     2.4790 
  243.3750    76.7030     8.2780     7.0310     8.7770    23.4220     6.1610     2.4770 
  243.5000    77.5300     8.2220     6.8810     7.8260    23.3390     6.1270     2.4630 
  243.6250    78.3180     8.2650     6.8170     8.1510    23.3020     6.1120     2.4440 
  243.7500    77.9010     8.3530     6.8140     7.9350    23.3110     6.1240     2.4300 
  243.8750    76.1690     8.4550     6.8540     7.0330    23.3670     6.0620     2.4220 
  244.0000    74.2530     8.5610     6.9220     6.6070    23.4080     6.0020     2.4210 
  244.1250    73.1060     8.6950     7.0180     6.6210    23.3940     5.9150     2.4250 
  244.2500    72.3680     8.8810     7.1480     6.5910    23.3260     5.7950     2.4250 
  244.3750    72.0180     9.1200     7.3150     6.3190    23.2880     5.6740     2.4160 
  244.5000    72.3800     9.3760     7.5060     6.3520    23.2940     5.5600     2.3980 
  244.6250    73.0540     9.5680     7.6780     6.9370    23.4250     5.4910     2.3840 
  244.7500    72.9740     9.6380     7.7840     7.8470    23.6980     5.3920     2.3870 
  244.8750    72.0610     9.5750     7.7990     8.5600    23.9520     5.3490     2.4140 
  245.0000    70.9930     9.4200     7.7300     9.2260    24.0250     5.2670     2.4560 
  245.1250    70.3130     9.2560     7.6130     9.7330    23.9700     5.1840     2.4890 
  245.2500    70.0100     9.1560     7.5080     8.9820    23.9270     5.1290     2.4900 
  245.3750    70.2130     9.1400     7.4470     7.8380    23.9250     5.1110     2.4540 
  245.5000    70.9290     9.1850     7.4380     7.4940    23.9580     5.1170     2.3980 
  245.6250    71.5860     9.2410     7.4670     7.9040    24.0230     5.0820     2.3500 
  245.7500    71.6740     9.2540     7.4980     7.0490    24.0530     5.0810     2.3260 
  245.8750    71.3850     9.2030     7.5050     6.1000    24.0820     4.9980     2.3250 
  246.0000    71.2040     9.0910     7.4760     5.5190    24.0480     4.9340     2.3310 
  246.1250    71.3260     8.9380     7.4050     5.5670    23.7110     4.9340     2.3330 
  246.2500    71.4730     8.7770     7.3080     5.9100    23.2800     4.9040     2.3370 
  246.3750    71.5290     8.6160     7.1950     6.0070    23.2280     4.8930     2.3480 
  246.5000    71.5270     8.4550     7.0720     5.4960    23.5140     4.8970     2.3620 
  246.6250    71.5250     8.2860     6.9400     5.2980    23.4430     4.9660     2.3560 
  246.7500    71.5250     8.1110     6.8040     5.3210    23.2870     5.0130     2.3140 
  246.8750    71.5250     7.9410     6.6720     5.2840    23.4950     5.1170     2.2400 
  247.0000    71.5250     7.7920     6.5540     5.1400    23.7200     5.2240     2.1580 
  247.1250    71.5250     7.6890     6.4700     5.0860    23.6600     5.3350     2.1120 
  247.2500    71.5250     7.6390     6.4260     5.2860    23.5530     5.5020     2.1110 
  247.3750    71.5250     7.6460     6.4250     5.6640    23.4690     5.6710     2.1620 
  247.5000    71.5250     7.7090     6.4630     6.2340    23.4930     5.7730     2.2270 
  247.6250    71.5250     7.8160     6.5310     6.8830    23.6880     5.8020     2.2920 
  247.7500    71.5250     7.9350     6.6050     6.9700    23.8470     5.8310     2.3480 
  247.8750    71.5250     8.0390     6.6680     6.4260    23.9140     5.8070     2.3830 
  248.0000    71.5250     8.1140     6.7110     5.8540    23.8880     5.8070     2.3950 
  248.1250    71.5250     8.1540     6.7320     6.0590    23.8860     5.7750     2.3840 
  248.2500    71.5250     8.1790     6.7430     6.3050    23.9360     5.7210     2.3600 
  248.3750    71.5250     8.2100     6.7590     6.2310    24.0040     5.6300     2.3370 
  248.5000    71.5250     8.2660     6.7960     6.0200    23.8990     5.6020     2.3250 
  248.6250    71.5250     8.3710     6.8760     5.8090    23.6120     5.5930     2.3250 
  248.7500    71.5250     8.5420     7.0040     5.7960    23.4930     5.5750     2.3300 
  248.8750    71.5250     8.8030     7.1800     6.1310    23.6310     5.5990     2.3340 
  249.0000    71.5250     9.1620     7.3920     6.8690    24.0470     5.5990     2.3340 
  249.1250    71.5250     9.4840     7.5650     7.4990    24.2500     5.5900     2.3340 
  249.2500    71.5250     9.7560     7.7050     7.4940    24.3830     5.5870     2.3370 
  249.3750    71.5250     9.8930     7.7730     6.5760    24.4950     5.6050     2.3370 
  249.5000    71.5250     9.7450     7.6920     5.9630    24.6150     5.5930     2.3230 
  249.6250    71.5250     9.3090     7.4630     5.8800    24.4860     5.5630     2.2900 
  249.7500    71.5250     8.6790     7.1360     6.2650    24.1890     5.5320     2.2450 
  249.8750    71.5250     8.0710     6.8030     5.8880    24.0090     5.4910     2.2130 
  250.0000    71.5250     7.6820     6.5580     5.6360    23.9480     5.4500     2.2050 
  250.1250    71.5250     7.5670     6.4500     5.6470    24.0180     5.3810     2.2180 
  250.2500    71.5250     7.6640     6.4830     5.9000    24.0380     5.2940     2.2340 
  250.3750    71.5250     7.8660     6.6320     6.4160    24.0160     5.1740     2.2430 
  250.5000    71.5250     8.0630     6.8150     6.8360    24.0380     5.0560     2.2520 
  250.6250    71.5250     8.2160     6.9760     6.8670    24.0940     4.9390     2.2710 
  250.7500    71.5250     8.3210     7.0870     6.5220    24.1110     4.8360     2.3030 
  250.8750    71.5250     8.3920     7.1420     6.1940    23.9850     4.8030     2.3390 
  251.0000    71.5250     8.4440     7.1700     6.0350    23.6530     4.7630     2.3700 
  251.1250    71.5250     8.4770     7.1850     5.7460    23.2890     4.7420     2.3930 
  251.2500    71.5250     8.4880     7.1960     5.6560    23.2590     4.6960     2.4080 
  251.3750    71.5250     8.4840     7.2000     6.2340    23.5700     4.6780     2.4120 
  251.5000    71.5250     8.4820     7.2000     6.9320    23.9800     4.6560     2.4050 
  251.6250    71.5250     8.4840     7.1990     7.2930    24.2020     4.6580     2.3940 
  251.7500    71.5250     8.4890     7.1980     7.6590    24.2750     4.5980     2.3860 
  251.8750    71.5250     8.4920     7.1980     8.0500    24.3420     4.4670     2.3910 
  252.0000    71.5250     8.4960     7.1980     8.2740    24.4140     4.3630     2.4040 
  252.1250    71.5250     8.5000     7.1990     8.2150    24.4090     4.2460     2.4160 
  252.2500    71.5250     8.5020     7.1990     7.9400    24.3670     4.1590     2.4200 
  252.3750    71.5250     8.5020     7.1990     7.6560    24.3680     4.0810     2.4140 
