~V
VERS. 2.00: Ver 2.00
~W
STRT.M 60.0000:
STOP.M 274.0000:
STEP.M 0.1250:
NULL. -999.2500:
UWI. F11079:
~C
DEPT.M :
GR.API :
RML.OHMM :
RI. :
RXO.OHMM :
CALI.CM :
DEN.GM/CC :
SP.MV :
~A
# ...
  138.7500   106.6110     3.7890     2.9740     4.0550    24.7150     2.3460     0.4530 
  138.8750    99.5490     4.9530     3.7620     5.1350    24.6090     2.3500    -0.1610 
  139.0000    91.8950     7.0280     5.2540     8.8010    24.4500     2.3820    -0.8270 
  139.1250    84.6920    10.2050     7.7670    20.1020    24.3410     2.4520    -1.5490 
  139.2500    76.6410    13.7140    10.8810    36.2130    24.2030     2.5240    -2.2810 
  139.3750    67.8620    16.1850    13.5290    34.4910    23.9500     2.5450    -3.0080 
  139.5000    61.3500    16.2970    14.3650    18.4970    23.6010     2.4870    -3.7100 
  139.6250    60.5120    14.1410    13.0600    10.4580    23.4040     2.3770    -4.3530 
  139.7500    60.3350    11.7590    11.2210     8.1560    23.4670     2.2790    -4.8890 
  139.8750    58.7430    10.1080     9.7080     7.9050    23.8030     2.2130    -5.3110 
  140.0000    55.9220     9.3520     8.7920     8.2270    24.2070     2.1710    -5.6230 
  140.1250    55.7760     9.3380     8.5070     8.5870    24.4070     2.1370    -5.8020 
  140.2500    58.9850     9.6130     8.5730     9.0470    24.4360     2.1010    -5.8860 
  140.3750    61.9630     9.9260     8.7970     9.3880    24.3890     2.0710    -5.8750 
  140.5000    62.2940    10.1380     9.0220     9.5630    24.3700     2.0510    -5.7710 
  140.6250    59.6860    10.2030     9.1450     9.6770    24.4780     2.0430    -5.5750 
  140.7500    58.7330    10.1730     9.1770     9.5920    24.7300     2.0340    -5.3210 
  140.8750    60.3980    10.0560     9.1240     9.3650    24.9310     2.0190    -5.0070 
  141.0000    62.9220     9.8280     8.9700     8.8650    24.9450     2.0150    -4.6510 
  141.1250    63.9440     9.4560     8.6710     8.1120    24.7420     2.0460    -4.2680 
  141.2500    64.6620     9.0150     8.2720     7.7310    24.6120     2.1030    -3.8610 
  141.3750    67.9180     8.5680     7.8260     7.4540    24.7020     2.1580    -3.4500 
  141.5000    73.2940     8.1490     7.3710     7.0020    24.9590     2.1840    -3.0600 
  141.6250    77.7280     7.7540     6.9250     6.8620    25.1400     2.1790    -2.7100 
  141.7500    79.4280     7.3520     6.4830     7.4370    25.2340     2.1610    -2.3840 
  141.8750    80.7810     6.9190     6.0380     7.8240    25.2200     2.1450    -2.0760 
  142.0000    83.4990     6.4620     5.5980     7.2340    24.9970     2.1460    -1.7810 
  142.1250    84.2950     6.0550     5.2090     6.0080    24.6070     2.1740    -1.5110 
  142.2500    81.5020     5.7760     4.9170     5.6230    24.3650     2.2140    -1.3030 
  142.3750    77.3240     5.6930     4.7670     5.6170    24.1400     2.2500    -1.1670 
  142.5000    75.6660     5.8550     4.8100     5.4410    23.7790     2.2800    -1.1050 
  142.6250    77.5180     6.3260     5.1230     5.4760    23.4150     2.3010    -1.1120 
  142.7500    79.6090     7.0110     5.6500     5.8910    23.2070     2.3060    -1.1890 
  142.8750    80.1490     7.8030     6.3200     6.6400    23.0970     2.2910    -1.3390 
  143.0000    77.9550     8.5570     7.0210     7.3840    23.0140     2.2660    -1.5410 
  143.1250    74.2890     9.0830     7.5940     7.9750    23.1620     2.2440    -1.7630 
  143.2500    71.2710     9.3340     7.9620     8.1990    23.4960     2.2290    -1.9570 
  143.3750    69.6590     9.3670     8.1390     8.2730    23.7320     2.2200    -2.0970 
  143.5000    68.5700     9.3230     8.2080     8.3920    23.8050     2.2130    -2.1470 
  143.6250    67.3940     9.3520     8.2670     8.6320    23.8070     2.2070    -2.0850 
  143.7500    67.1220     9.4580     8.3440     8.8740    23.8420     2.2010    -1.9530 
  143.8750    67.4330     9.5280     8.3730     8.8190    23.9480     2.2000    -1.7520 
  144.0000    67.3300     9.3940     8.2450     8.8300    24.1040     2.2070    -1.4720 
  144.1250    66.8920     8.8700     7.8330     9.2140    24.2480     2.2290    -1.1070 
  144.2500    68.3130     8.0490     7.2000     8.9850    24.3420     2.2600    -0.6860 
  144.3750    73.1720     7.1180     6.4710     7.6440    24.4470     2.2920    -0.2470 
  144.5000    79.5310     6.2920     5.7930     6.3660    24.5810     2.3160     0.1610 
  144.6250    83.6150     5.7680     5.3110     5.8370    24.6460     2.3270     0.5100 
  144.7500    86.1710     5.5250     5.0300     5.7500    24.6640     2.3320     0.8280 
  144.8750    88.2630     5.5020     4.9260     5.8820    24.6510     2.3350     1.1330 
  145.0000    89.2530     5.5970     4.9450     6.2170    24.6210     2.3380     1.4040 
  145.1250    88.4510     5.7030     5.0200     6.2350    24.6040     2.3420     1.5820 
  145.2500    87.8700     5.7690     5.0880     5.9790    24.5990     2.3410     1.6650 
  145.3750    88.5180     5.7960     5.1240     5.7070    24.6020     2.3340     1.6850 
  145.5000    87.9610     5.7810     5.1090     5.6260    24.6150     2.3220     1.6640 
  145.6250    84.8440     5.6620     4.9940     5.5980    24.6260     2.3120     1.5720 
  145.7500    83.5820     5.3990     4.7650     5.5870    24.6390     2.3080     1.4100 
  145.8750    88.5720     5.0050     4.4350     5.5720    24.6560     2.3090     1.1880 
  146.0000    96.0620     4.5810     4.0700     5.1260    24.6760     2.3120     0.9290 
  146.1250    95.6460     4.3330     3.8170     4.5060    24.7230     2.3130     0.6370 
  146.2500    88.3990     4.4020     3.7930     4.3080    24.7500     2.3110     0.3060 
  146.3750    81.4820     4.8720     4.0880     4.7450    24.6600     2.3020    -0.0720 
  146.5000    78.2110     5.7670     4.7510     6.1000    24.4860     2.2860    -0.4770 
  146.6250    75.8220     7.0490     5.8110     7.9260    24.2570     2.2690    -0.8690 
  146.7500    73.5470     8.4000     7.0300    10.4520    24.0110     2.2530    -1.2740 
  146.8750    71.2070     9.4680     8.1100    14.5980    23.9640     2.2330    -1.7160 
  147.0000    67.9550     9.9380     8.7340    20.6090    24.1420     2.2050    -2.1820 
  147.1250    66.3840     9.6550     8.6870    19.3700    24.2530     2.1790    -2.5990 
  147.2500    67.5140     9.0420     8.2720    13.3800    24.2760     2.1690    -2.9400 
  147.3750    68.5940     8.5050     7.8130     9.9300    24.2730     2.1790    -3.2120 
  147.5000    67.4900     8.3780     7.5860     8.9490    24.2750     2.2050    -3.4170 
  147.6250    66.1950     8.9590     7.8560     8.7680    24.2450     2.2470    -3.5580 
  147.7500    64.2710    10.1570     8.6350     8.6690    24.1490     2.3060    -3.6710 
  147.8750    60.5080    11.7960     9.8790     9.5570    24.0460     2.3890    -3.8030 
  148.0000    57.9380    13.4960    11.3600    11.6430    24.1330     2.4880    -3.9500 
  148.1250    60.8130    14.5670    12.5250    13.2990    24.2960     2.5610    -4.1220 
  148.2500    63.7130    14.6830    12.9320    11.4640    24.3790     2.5690    -4.3360 
  148.3750    63.4220    13.9350    12.5230     9.8410    24.4040     2.5040    -4.5910 
  148.5000    62.1570    12.7580    11.6040     9.1770    24.4570     2.3990    -4.9050 
  148.6250    62.7950    11.6900    10.6300     9.2060    24.5320     2.2930    -5.3080 
  148.7500    64.2390    10.9780     9.8910     9.5110    24.5680     2.2110    -5.6840 
  148.8750    66.1790    10.6190     9.4410     9.7770    24.5380     2.1600    -5.9360 
  149.0000    68.3730    10.5070     9.2300     9.7880    24.4340     2.1390    -6.0790 
  149.1250    68.0010    10.5410     9.1990     9.5970    24.3320     2.1390    -6.1530 
  149.2500    64.9540    10.6070     9.2460     9.4030    24.2960     2.1490    -6.1870 
  149.3750    62.3300    10.6460     9.3060     9.2460    24.2910     2.1660    -6.1840 
  149.5000    62.5250    10.6240     9.3370     9.1400    24.2890     2.1860    -6.1540 
  149.6250    64.2790    10.5500     9.3200     9.1210    24.2810     2.2040    -6.0880 
  149.7500    65.3970    10.4730     9.2860     9.1030    24.2820     2.2190    -6.0210 
  149.8750    66.2060    10.4220     9.2590     9.3040    24.3210     2.2270    -5.9820 
