~V
VERS. 2.00: Ver 2.00
~W
STRT.M 62.0000:
STOP.M 272.0000:
STEP.M 0.1250:
NULL. -999.2500:
UWI. F11076:
~C
DEPT.M :
GR.API :
RML.OHMM :
RI. :
RXO.OHMM :
CALI.CM :
DEN.GM/CC :
SP.MV :
~A
# ...
  152.0000    79.9830    11.8230    10.8140    18.2730    25.2560     2.5030   -13.2330 
  152.1250    82.8880    11.6850    11.0170    13.0900    25.2930     2.4800   -13.6230 
  152.2500    85.0510    11.1230    10.6700     8.7750    25.3600     2.4100   -14.2630 
  152.3750    84.2610    10.4740    10.1070     8.0000    25.4490     2.3220   -15.0870 
  152.5000    78.7850    10.0220     9.6250     9.0770    25.5820     2.2500   -15.9890 
  152.6250    74.9580     9.9590     9.4500     9.7780    25.6540     2.2140   -16.8640 
  152.7500    76.4810    10.1970     9.5580     9.1150    25.4920     2.2020   -17.7050 
  152.8750    78.2000    10.6320     9.8760     8.1440    25.1740     2.1950   -18.5330 
  153.0000    76.0640    11.1470    10.2970     8.3960    24.8440     2.1810   -19.2560 
  153.1250    73.6930    11.6470    10.7080     9.7520    24.7090     2.1660   -19.6940 
  153.2500    72.4640    12.1220    11.0690    11.0060    24.6790     2.1680   -19.7710 
  153.3750    69.9790    12.6600    11.4300    11.4340    24.6130     2.2000   -19.4920 
  153.5000    69.1920    13.4360    11.9110    10.8850    24.3800     2.2610   -18.9720 
  153.6250    72.3200    14.7750    12.7780    10.0140    24.1210     2.3400   -18.3390 
  153.7500    72.8910    16.7500    14.1940    10.5540    23.9810     2.4190   -17.6560 
  153.8750    67.3750    19.2870    16.2310    13.1870    23.9310     2.4890   -16.9270 
  154.0000    59.9790    22.0620    18.7300    15.4260    23.9250     2.5440   -16.1920 
  154.1250    57.1770    24.4550    21.1750    17.0780    23.8260     2.5740   -15.5220 
  154.2500    57.6110    26.0510    22.9700    19.0790    23.7170     2.5870   -15.0120 
  154.3750    59.2920    26.7820    23.8790    20.4150    23.6790     2.5890   -14.6400 
  154.5000    60.2970    26.9100    24.1000    19.7310    23.8460     2.5870   -14.4040 
  154.6250    58.9630    26.8690    24.0710    19.1460    24.2730     2.5830   -14.2580 
  154.7500    56.6390    26.9930    24.1530    20.0540    24.7020     2.5740   -14.1610 
  154.8750    55.3660    27.3400    24.4130    22.7140    25.0240     2.5590   -14.0360 
  155.0000    56.6710    27.8350    24.8110    24.3370    25.1920     2.5400   -13.9170 
  155.1250    58.9420    28.3510    25.2680    23.9460    25.2260     2.5240   -13.8110 
  155.2500    59.7780    28.7940    25.6970    22.4470    25.2420     2.5130   -13.7200 
  155.3750    58.7860    29.1430    26.0750    21.0770    25.2540     2.5090   -13.6520 
  155.5000    57.9740    29.4170    26.4260    20.0130    25.1640     2.5130   -13.6150 
  155.6250    58.3960    29.6010    26.7670    20.3720    24.8290     2.5240   -13.5660 
  155.7500    59.0980    29.6370    27.0390    20.0450    24.4410     2.5380   -13.4700 
  155.8750    60.0150    29.4220    27.1260    19.2130    24.2280     2.5520   -13.3890 
  156.0000    61.5080    28.8790    26.9210    18.8020    24.1590     2.5600   -13.3130 
  156.1250    61.9330    27.9960    26.3450    19.9690    24.1040     2.5580   -13.2650 
  156.2500    62.5000    26.9880    25.5470    21.4540    24.1350     2.5520   -13.2210 
  156.3750    64.6270    25.9940    24.6760    22.6440    24.2970     2.5490   -13.1990 
  156.5000    66.1590    25.0630    23.8560    22.7170    24.6070     2.5540   -13.1280 
  156.6250    64.8570    24.1670    23.1350    21.0580    24.9700     2.5660   -13.1360 
  156.7500    64.2620    23.2270    22.4180    20.2160    25.2680     2.5760   -13.1930 
  156.8750    65.1980    22.3110    21.6000    19.7780    25.3880     2.5740   -13.2690 
  157.0000    65.6870    21.5090    20.6120    19.8700    25.4270     2.5590   -13.3440 
  157.1250    64.0620    20.7380    19.4560    18.1910    25.4420     2.5370   -13.4490 
  157.2500    61.7180    19.8380    18.2960    15.9270    25.4330     2.5150   -13.5570 
  157.3750    60.2660    18.8980    17.2820    14.1910    25.4130     2.4940   -13.6690 
  157.5000    60.8450    18.1710    16.5220    13.3220    25.4120     2.4720   -13.7940 
  157.6250    62.4960    17.8150    16.0890    12.9190    25.4170     2.4530   -13.8620 
  157.7500    61.8650    17.6810    15.8830    13.2350    25.3550     2.4440   -13.9080 
  157.8750    59.8970    17.6920    15.8270    13.4630    25.1540     2.4480   -13.9820 
  158.0000    59.9750    17.7910    15.8460    13.5800    24.8330     2.4620   -14.0840 
  158.1250    63.1390    17.9890    15.9290    13.2820    24.5630     2.4800   -14.1810 
  158.2500    65.1930    18.3190    16.1170    13.5330    24.3920     2.4930   -14.2630 
  158.3750    65.4140    18.8120    16.4640    14.2460    24.3040     2.5020   -14.3300 
  158.5000    66.4410    19.4550    16.9740    14.7820    24.2580     2.5110   -14.3800 
  158.6250    68.8390    20.1820    17.6000    15.5570    24.2810     2.5240   -14.4140 
  158.7500    69.2880    20.8800    18.2320    16.5030    24.3570     2.5410   -14.4110 
  158.8750    68.4850    21.4790    18.8020    17.1890    24.4350     2.5570   -14.3470 
  159.0000    69.2520    21.9300    19.2710    16.9460    24.4730     2.5680   -14.2190 
  159.1250    71.5450    22.1480    19.6010    16.5770    24.5560     2.5690   -14.0610 
  159.2500    71.9170    22.0930    19.7510    17.6550    24.7070     2.5610   -13.9020 
  159.3750    70.6500    21.6960    19.6190    18.3890    24.8250     2.5460   -13.7480 
  159.5000    71.1830    20.9380    19.1250    18.1500    24.8370     2.5270   -13.6650 
  159.6250    74.3690    19.8720    18.2500    17.0700    24.7420     2.5140   -13.6280 
  159.7500    76.0970    18.7340    17.2120    15.6500    24.6360     2.5100   -13.6550 
  159.8750    73.8270    17.7070    16.2080    14.1170    24.5720     2.5140   -13.7110 
  160.0000    70.6510    16.9150    15.3940    13.5570    24.5440     2.5210   -13.7940 
  160.1250    72.4050    16.4380    14.8870    14.2440    24.5490     2.5190   -13.8630 
  160.2500    75.9590    16.1870    14.6190    14.2480    24.6630     2.5090   -13.8770 
  160.3750    75.6910    16.1110    14.5400    14.0340    24.9560     2.4960   -13.8590 
  160.5000    69.8320    16.1800    14.6110    13.7510    25.3920     2.4850   -13.7760 
  160.6250    63.9230    16.4030    14.8310    13.4850    25.5920     2.4820   -13.6480 
  160.7500    62.9370    16.7380    15.1620    13.3650    25.6230     2.4810   -13.4770 
  160.8750    64.3950    17.1280    15.5660    14.0230    25.5980     2.4800   -13.3240 
  161.0000    65.1560    17.4720    15.9610    15.1740    25.6290     2.4760   -13.1590 
  161.1250    65.6400    17.5940    16.1760    15.7750    25.6890     2.4720   -13.0070 
  161.2500    66.7000    17.4290    16.0990    15.1350    25.7180     2.4740   -12.8910 
  161.3750    65.9820    16.9950    15.7010    14.3070    25.7430     2.4800   -12.8360 
  161.5000    63.2910    16.4300    15.0800    13.9210    25.7750     2.4900   -12.7890 
  161.6250    63.3960    16.0240    14.4910    13.2400    25.8140     2.4960   -12.8150 
  161.7500    66.7810    16.0350    14.2150    12.5420    25.8770     2.4960   -12.8850 
  161.8750    68.9160    16.6220    14.4390    12.2590    25.8970     2.4970   -12.9680 
  162.0000    68.1000    17.7970    15.2550    13.2590    25.8480     2.5060   -13.0730 
  162.1250    67.0280    19.3870    16.6740    16.3140    25.8030     2.5290   -13.2450 
  162.2500    66.8390    20.8780    18.2780    20.4070    25.7640     2.5570   -13.5170 
  162.3750    65.7140    21.8060    19.5640    23.3930    25.7350     2.5780   -13.8530 
  162.5000    64.3880    21.8600    20.0450    22.8230    25.7030     2.5830   -14.2810 
  162.6250    64.7290    20.9370    19.4310    21.2200    25.6550     2.5700   -14.7220 
  162.7500    65.9730    19.5710    18.2300    18.3560    25.6200     2.5520   -15.1600 
  162.8750    67.3950    18.1950    16.9030    15.7630    25.6230     2.5360   -15.6390 
  163.0000    69.8540    17.1140    15.7900    14.4720    25.6600     2.5240   -16.1980 
  163.1250    73.3210    16.4950    15.0880    14.0490    25.6900     2.5150   -16.7870 
