~V
VERS. 2.00: Ver 2.00
~W
STRT.M 52.0000:
STOP.M 279.0000:
STEP.M 0.1250:
NULL. -999.2500:
UWI. F11031:
~C
DEPT.M :
DEN.GM/CC :
GR.API :
RML.OHMM :
RI. :
RXO.OHMM :
CALI.CM :
SP.MV :
~A
# ...
  209.5000     2.3480    75.7530     5.9680     4.6980     4.4870    23.9150    -8.0620 
  209.6250     2.3320    77.3080     5.8300     4.5190     4.3030    24.3690    -7.6790 
  209.7500     2.3280    78.1520     5.8500     4.4640     4.3430    24.3800    -7.2560 
  209.8750     2.3360    78.8890     6.0330     4.5400     4.5950    24.2840    -6.8340 
  210.0000     2.3540    79.5870     6.3680     4.7360     5.0140    24.1540    -6.4140 
  210.1250     2.3730    78.7000     6.8410     5.0440     5.4210    24.2040    -5.9730 
  210.2500     2.3840    78.6190     7.3770     5.4090     5.8260    24.2920    -5.5560 
  210.3750     2.3830    78.5190     7.9110     5.7900     6.3180    24.3070    -5.2080 
  210.5000     2.3710    76.9640     8.3770     6.1440     7.0090    24.3260    -5.0100 
  210.6250     2.3530    77.1220     8.7240     6.4300     7.5090    24.2410    -5.0050 
  210.7500     2.3360    78.5620     9.0050     6.6670     7.7370    24.2050    -5.1040 
  210.8750     2.3290    77.7930     9.3110     6.9150     8.1740    24.1970    -5.2540 
  211.0000     2.3340    73.6310     9.7940     7.2730     8.4290    24.0720    -5.4370 
  211.1250     2.3520    70.6070    10.7290     7.9150     8.7820    23.9080    -5.6330 
  211.2500     2.3760    70.9080    12.1940     8.9060     9.6870    23.6980    -5.8000 
  211.3750     2.3970    70.7530    14.1520    10.2790    11.5290    23.5780    -5.9790 
  211.5000     2.4100    67.6300    16.3730    11.9700    14.4890    23.4180    -6.1320 
  211.6250     2.4090    64.2940    18.3390    13.7370    17.3710    23.3300    -6.2330 
  211.7500     2.3970    65.8350    19.6100    15.1960    18.8190    23.2720    -6.3390 
  211.8750     2.3770    71.7220    20.0650    16.1160    17.9440    23.2250    -6.4050 
  212.0000     2.3550    76.1680    19.9440    16.5250    16.3960    23.1900    -6.4610 
  212.1250     2.3390    76.1430    19.6230    16.6150    16.0760    23.0730    -6.5570 
  212.2500     2.3300    74.6570    19.3190    16.6070    16.1910    23.0620    -6.6470 
  212.3750     2.3310    74.3080    18.9560    16.4950    16.6810    23.0930    -6.7510 
  212.5000     2.3390    76.2210    18.3830    16.1890    16.9540    23.1390    -6.8640 
  212.6250     2.3520    78.3200    17.4940    15.5900    16.3750    23.1410    -6.9640 
  212.7500     2.3640    77.9030    16.4730    14.8260    14.7400    23.1220    -7.0860 
  212.8750     2.3710    75.1020    15.5140    14.0540    12.5760    23.0730    -7.2220 
  213.0000     2.3730    72.7930    14.7420    13.3840    11.7790    23.0470    -7.3390 
  213.1250     2.3710    72.2140    14.1390    12.8150    11.8830    23.0100    -7.4660 
  213.2500     2.3670    71.4920    13.5200    12.2090    11.7650    22.9680    -7.6170 
  213.3750     2.3630    72.1150    12.7620    11.4650    11.1110    22.9420    -7.7720 
  213.5000     2.3570    74.4300    11.8840    10.6000     9.8820    22.9330    -7.9610 
  213.6250     2.3530    76.9820    11.1940     9.8340     9.3390    22.8920    -8.1600 
  213.7500     2.3530    80.2130    11.1640     9.4890     9.2060    22.8730    -8.3370 
  213.8750     2.3570    80.9300    12.3060     9.9050     9.6060    22.8150    -8.5360 
  214.0000     2.3660    76.1730    15.1870    11.5120    11.3980    22.7370    -8.7480 
  214.1250     2.3740    67.6050    21.7540    15.4070    15.7330    22.7150    -9.0020 
  214.2500     2.3720    62.2150    33.6830    22.3130    27.0690    22.7180    -9.3650 
  214.3750     2.3570    61.5140    47.8760    32.9140    46.9000    22.7980    -9.7830 
  214.5000     2.3310    62.5760    64.7430    46.5340    63.3490    22.8600   -10.2010 
  214.6250     2.2980    63.3690    78.8390    59.2970    66.7640    22.8680   -10.6840 
  214.7500     2.2680    62.5750    85.2890    66.8770    61.2480    22.9640   -11.1770 
  214.8750     2.2440    61.2710    84.6760    68.6810    55.0360    22.9830   -11.6510 
  215.0000     2.2300    61.6750    81.4230    67.2230    51.4210    23.0010   -12.1170 
  215.1250     2.2240    63.1950    79.8220    65.6820    51.1920    23.0250   -12.4830 
  215.2500     2.2230    64.5990    80.9240    65.6860    51.9010    23.0090   -12.7390 
  215.3750     2.2230    65.2830    84.2890    67.3850    57.5560    22.9800   -12.9450 
  215.5000     2.2200    64.6350    88.7610    70.2680    75.8230    22.9770   -13.1360 
  215.6250     2.2140    62.0060    92.5360    73.3360   122.4490    22.9890   -13.3050 
  215.7500     2.2070    59.2800    94.3700    75.5470   129.2170    22.9980   -13.4500 
  215.8750     2.2060    57.5010    93.8470    76.3270    99.3680    22.9650   -13.5900 
  216.0000     2.2190    55.5470    91.1890    75.4950    71.4010    22.8800   -13.7640 
  216.1250     2.2520    53.2630    86.8520    73.0710    56.0510    22.8200   -13.9770 
  216.2500     2.2920    54.5630    81.8760    69.8000    50.0910    22.8390   -14.1940 
  216.3750     2.3190    59.3750    76.8890    66.2070    53.2600    22.7240   -14.4010 
  216.5000     2.3160    63.3140    72.3600    62.7620    54.7440    22.7030   -14.5630 
  216.6250     2.2850    62.0140    68.6540    59.8670    49.4880    22.9050   -14.6800 
  216.7500     2.2470    59.8220    65.6410    57.4880    39.4630    23.0330   -14.8160 
  216.8750     2.2180    60.4780    63.2900    55.5870    31.0620    22.9960   -14.9240 
  217.0000     2.2040    61.7560    61.6950    54.2330    28.7380    22.7780   -14.9840 
  217.1250     2.2000    59.7860    61.1330    53.6850    30.1580    22.8740   -15.0480 
  217.2500     2.2010    57.7380    61.4850    53.9270    30.5210    23.3790   -15.0780 
  217.3750     2.2060    59.3640    62.7480    55.0210    39.0490    23.8250   -15.0860 
  217.5000     2.2160    63.6490    64.9450    57.0190    50.5290    23.8870   -15.1480 
  217.6250     2.2270    67.9030    68.1460    60.0270    57.9190    23.8550   -15.2040 
  217.7500     2.2320    69.7870    71.9650    63.6940    55.9390    23.7650   -15.2640 
  217.8750     2.2290    68.4360    76.0810    67.6930    52.1280    23.7410   -15.3510 
  218.0000     2.2180    65.0480    80.1440    71.6640    54.0510    23.7910   -15.4220 
  218.1250     2.2050    61.6270    83.7850    75.2720    60.4550    23.7410   -15.4860 
  218.2500     2.1960    59.3890    86.8440    78.4340    65.6620    23.6300   -15.5660 
  218.3750     2.1910    56.7710    89.1040    80.9880    66.9720    23.3100   -15.6170 
  218.5000     2.1900    53.6920    90.4110    82.7230    61.2140    22.9810   -15.6540 
  218.6250     2.1900    53.1280    90.8630    83.5520    56.9070    23.0800   -15.7000 
  218.7500     2.1900    54.2960    91.2220    84.0810    56.2720    23.1960   -15.7090 
  218.8750     2.1920    54.4990    92.0000    84.8760    57.8640    23.3900   -15.7220 
  219.0000     2.1950    52.2220    93.2430    86.1830    58.2000    23.5740   -15.7690 
  219.1250     2.1980    51.0490    94.2520    87.5530    59.2790    23.7120   -15.7710 
  219.2500     2.1990    52.2170    94.1220    88.0880    61.6860    23.8480   -15.7750 
  219.3750     2.2010    51.8480    92.3090    87.1590    63.4660    23.9440   -15.8160 
  219.5000     2.2040    50.8700    88.8310    84.6180    58.0550    23.8190   -15.8060 
  219.6250     2.2080    53.8810    84.4330    80.9430    46.6550    23.3720   -15.7450 
  219.7500     2.2140    58.4110    80.5950    77.4860    35.8750    23.0000   -15.6900 
  219.8750     2.2200    59.7110    78.3490    75.2500    31.6490    22.7870   -15.5890 
  220.0000     2.2240    58.1340    78.4020    74.9770    30.2890    22.7110   -15.4150 
  220.1250     2.2210    56.9470    81.6720    77.7240    28.9960    22.7000   -15.2730 
  220.2500     2.2100    55.7800    87.7420    83.3110    28.6380    22.6840   -15.1370 
  220.3750     2.1910    53.5800    96.2140    91.4350    29.2440    22.6600   -14.9960 
  220.5000     2.1690    52.3000   106.2400   101.3510    29.3700    22.5920   -14.9320 
  220.6250     2.1560    53.7460   115.5240   111.2870    29.7770    22.3640   -14.9400 
