~V
VERS. 2.00: Ver 2.00
~W
STRT.M 50.0000:
STOP.M 281.0000:
STEP.M 0.1250:
NULL. -999.2500:
UWI. F11064:
~C
DEPT.M :
SP.MV :
GR.API :
RML.OHMM :
RI. :
RXO.OHMM :
CALI.CM :
DEN.GM/CC :
~A
# ...
  263.7500    -7.7930    50.9580     9.5410     8.7580    12.4940    24.0650     2.4450 
  263.8750    -7.7910    48.3770     9.4910     8.6890    14.3400    23.9920     2.4420 
  264.0000    -7.8280    47.4640     9.4290     8.6320    15.8890    23.8260     2.4340 
  264.1250    -7.8540    49.8190     9.3200     8.5470    19.7430    23.6730     2.4310 
  264.2500    -7.8730    53.6550     9.1730     8.4170    20.1000    23.7130     2.4370 
  264.3750    -7.9290    57.2830     9.0020     8.2470    16.2030    23.8640     2.4490 
  264.5000    -8.0400    59.3110     8.8250     8.0570    11.7260    24.0160     2.4590 
  264.6250    -8.1950    59.7790     8.6700     7.8830     9.6340    24.1000     2.4650 
  264.7500    -8.3710    59.7510     8.5570     7.7470     8.4010    24.0870     2.4680 
  264.8750    -8.5470    59.6450     8.4950     7.6530     7.6830    24.0640     2.4680 
  265.0000    -8.7090    60.0380     8.4670     7.5910     7.3530    24.0990     2.4650 
  265.1250    -8.8670    61.0080     8.4350     7.5410     7.2300    24.1420     2.4630 
  265.2500    -9.0280    61.1340     8.3690     7.4860     7.1560    24.1660     2.4640 
  265.3750    -9.1890    59.6920     8.2680     7.4230     6.9850    24.2460     2.4640 
  265.5000    -9.3040    58.1740     8.1500     7.3570     6.7750    24.4880     2.4580 
  265.6250    -9.3110    58.8360     8.0470     7.2950     6.6930    24.7110     2.4530 
  265.7500    -9.2540    60.0420     7.9670     7.2370     6.7790    24.8100     2.4530 
  265.8750    -9.1830    59.5950     7.9040     7.1780     6.7460    24.7990     2.4560 
  266.0000    -9.1130    56.8720     7.8480     7.1180     6.4970    24.6800     2.4540 
  266.1250    -9.0220    55.9140     7.7900     7.0590     6.2060    24.4820     2.4440 
  266.2500    -8.9100    57.4190     7.7300     7.0010     6.0910    24.2890     2.4290 
  266.3750    -8.7890    58.5650     7.6700     6.9430     6.0910    24.2030     2.4130 
  266.5000    -8.6890    57.6990     7.6090     6.8800     6.1060    24.2460     2.3990 
  266.6250    -8.6730    57.2120     7.5500     6.8090     6.2300    24.5970     2.3920 
  266.7500    -8.6910    59.0760     7.4980     6.7330     6.2850    25.0080     2.3920 
  266.8750    -8.6950    60.4710     7.4560     6.6600     6.3260    25.1840     2.3990 
  267.0000    -8.6930    60.3830     7.4240     6.5990     6.3520    25.0900     2.4100 
  267.1250    -8.6650    59.4820     7.4040     6.5600     6.2870    25.0150     2.4240 
  267.2500    -8.6240    58.3020     7.3960     6.5450     6.1520    25.0130     2.4360 
  267.3750    -8.5980    56.9870     7.4000     6.5540     6.0100    25.0230     2.4470 
  267.5000    -8.6170    56.6530     7.4180     6.5790     5.9250    24.9990     2.4560 
  267.6250    -8.6420    57.4500     7.4460     6.6110     5.8070    24.8830     2.4600 
  267.7500    -8.6680    56.8730     7.4850     6.6400     6.0350    24.7810     2.4500 
  267.8750    -8.7250    56.6630     7.5350     6.6640     6.2070    24.7680     2.4280 
  268.0000    -8.8040    58.6950     7.5950     6.6830     6.1450    24.9030     2.4050 
  268.1250    -8.9100    60.7640     7.6500     6.6990     6.0280    25.1820     2.3890 
  268.2500    -9.0190    60.5520     7.6750     6.7110     6.1540    25.4700     2.3790 
  268.3750    -9.1190    59.3030     7.6580     6.7080     6.2200    25.5280     2.3740 
  268.5000    -9.1980    57.6450     7.6000     6.6730     6.1090    25.2540     2.3700 
  268.6250    -9.2370    55.3250     7.5140     6.5950     5.9990    25.0900     2.3590 
  268.7500    -9.2520    54.8220     7.4220     6.5010     6.2470    25.0170     2.3430 
  268.8750    -9.2480    56.3090     7.3440     6.4260     6.5500    24.9660     2.3350 
  269.0000    -9.1960    57.4030     7.3020     6.4000     6.4250    24.9260     2.3430 
  269.1250    -9.1050    57.2480     7.3300     6.4520     6.1190    24.9940     2.3680 
  269.2500    -9.0450    57.2920     7.4180     6.5600     6.5600    25.0890     2.3980 
  269.3750    -9.0260    58.4280     7.5320     6.6890     8.4200    24.9770     2.4290 
  269.5000    -9.0040    59.4650     7.6140     6.7990     9.9610    24.7040     2.4500 
  269.6250    -8.9430    58.0090     7.5920     6.8340     8.4390    24.5650     2.4420 
  269.7500    -8.8750    54.3540     7.4670     6.7780     7.2590    24.5410     2.4130 
  269.8750    -8.8390    52.9100     7.2750     6.6380     6.8440    24.8200     2.3820 
  270.0000    -8.8000    55.7680     7.0770     6.4570     6.5790    25.1810     2.3610 
  270.1250    -8.8610    58.4730     6.9370     6.2970     6.2360    25.2200     2.3500 
  270.2500    -8.9240    57.8940     6.8780     6.1990     5.9390    25.1070     2.3460 
  270.3750    -8.8870    56.3990     6.9070     6.1830     6.2600    25.0780     2.3500 
  270.5000    -8.8410    56.3050     7.0200     6.2570     6.6230    25.1230     2.3650 
  270.6250    -8.8720    57.4230     7.2170     6.4310     6.9340    25.0260     2.3880 
  270.7500    -8.9100    58.1300     7.4580     6.6700     7.1410    24.9870     2.4160 
  270.8750    -8.9380    57.3150     7.7110     6.9350     6.6550    25.0260     2.4440 
  271.0000    -8.9600    56.0000     7.9370     7.1770     6.4490    25.0360     2.4590 
  271.1250    -8.9470    56.0000     8.0920     7.3450     6.7990    24.9210     2.4490 
  271.2500    -8.9650    56.0000     8.1790     7.4450     6.8300    24.8790     2.4370 
  271.3750    -9.0150    56.0000     8.2190     7.4990     6.5320    24.8800     2.4370 
  271.5000    -9.0550    56.0000     8.2400     7.5370     6.8380    24.8390     2.4390 
  271.6250    -9.0950    56.0000     8.2610     7.5720     7.6010    24.7920     2.4350 
  271.7500    -9.1430    56.0000     8.2770     7.6010     8.0270    24.7650     2.4300 
  271.8750    -9.1270    56.0000     8.2760     7.6120     7.4760    24.7440     2.4280 
  272.0000    -9.1630    56.0000     8.2490     7.5990     7.1290    24.7360     2.4300 
  272.1250    -9.2190    56.0000     8.2140     7.5680     7.4510    24.7580     2.4340 
  272.2500    -9.1860    56.0000     8.2050     7.5450     7.9600    24.7590     2.4350 
  272.3750    -9.1440    56.0000     8.2430     7.5520     8.4750    24.7340     2.4360 
  272.5000    -9.1300    56.0000     8.3320     7.6020     8.6280    24.7320     2.4390 
  272.6250    -9.1280    56.0000     8.4650     7.7060     9.0260    24.7700     2.4450 
  272.7500    -9.1170    56.0000     8.6170     7.8500     9.3270    24.7850     2.4520 
  272.8750    -9.1280    56.0000     8.7820     8.0280     9.4480    24.7780     2.4590 
  273.0000    -9.0970    56.0000     8.9630     8.2370     9.2520    24.7260     2.4640 
  273.1250    -9.0430    56.0000     9.1720     8.4830     9.6130    24.7050     2.4630 
  273.2500    -8.9520    56.0000     9.4210     8.7640    11.6320    24.7140     2.4600 
  273.3750    -8.8430    56.0000     9.7060     9.0780    14.0270    24.7500     2.4620 
  273.5000    -8.7160    56.0000     9.9900     9.3980    14.7070    24.7650     2.4730 
  273.6250    -8.6100    56.0000    10.2040     9.6660    13.7460    24.7380     2.4870 
  273.7500    -8.5500    56.0000    10.3240     9.8430    13.3620    24.6520     2.4930 
  273.8750    -8.5040    56.0000    10.3550     9.9260    14.1540    24.5440     2.4850 
  274.0000    -8.4570    56.0000    10.3280     9.9390    14.6030    24.5390     2.4710 
  274.1250    -8.4000    56.0000    10.2980     9.9200    10.4880    24.6440     2.4610 
  274.2500    -8.4100    56.0000    10.2970     9.9010     8.7550    24.6980     2.4540 
  274.3750    -8.5070    56.0000    10.3140     9.8860     8.1660    24.7080     2.4460 
  274.5000    -8.6080    56.0000    10.3290     9.8770     7.9860    24.7060     2.4360 
  274.6250    -8.6220    56.0000    10.3380     9.8820     8.0340    24.6600     2.4290 
  274.7500    -8.6090    56.0000    10.3440     9.9020     8.5080    24.5910     2.4290 
  274.8750    -8.5650    56.0000    10.3540     9.9240     9.1310    24.5500     2.4350 
