~V
VERS. 2.00: Ver 2.00
~W
STRT.M 50.0000:
STOP.M 278.0000:
STEP.M 0.1250:
NULL. -999.2500:
UWI. F11029:
~C
DEPT.M :
SP.MV :
DEN.GM/CC :
GR.API :
RML.OHMM :
RI. :
RXO.OHMM :
CALI.CM :
~A
# ...
  128.7500    -0.1620     2.5340    57.0350    22.4520    21.2310    14.0770    23.6660 
  128.8750    -0.1940     2.5200    56.4290    22.2870    20.9960    13.6620    23.6780 
  129.0000    -0.1820     2.5250    56.8130    22.3670    21.0500    15.7000    23.4810 
  129.1250    -0.1650     2.5380    56.3380    22.5670    21.2790    18.1690    23.3020 
  129.2500    -0.2050     2.5340    53.7560    22.7370    21.4910    17.5210    23.2530 
  129.3750    -0.2350     2.5030    51.0290    22.8420    21.6160    14.9380    23.3820 
  129.5000    -0.1640     2.4540    51.4890    22.9200    21.6750    13.2910    23.6540 
  129.6250     0.0440     2.4180    55.7110    23.0460    21.7690    13.8960    23.9120 
  129.7500     0.2580     2.4130    60.2100    23.2450    21.9670    15.7610    23.8010 
  129.8750     0.4240     2.4390    62.5290    23.4970    22.2590    17.3010    23.5800 
  130.0000     0.4760     2.4790    62.8820    23.7780    22.5860    17.8900    23.4060 
  130.1250     0.3570     2.5100    61.5980    24.1090    22.9170    18.2350    23.2080 
  130.2500     0.1680     2.5210    58.4800    24.5380    23.3090    18.3100    23.0450 
  130.3750    -0.0880     2.5150    55.0230    25.0980    23.8300    17.7350    22.9430 
  130.5000    -0.4200     2.5030    53.9260    25.7600    24.4990    17.8030    22.8320 
  130.6250    -0.8530     2.4960    54.5430    26.3990    25.2350    17.1620    22.6270 
  130.7500    -1.3760     2.4980    54.2360    26.8600    25.8530    16.8160    22.4530 
  130.8750    -1.9070     2.5090    54.4600    27.0420    26.2020    17.1410    22.4620 
  131.0000    -2.3500     2.5220    55.5020    26.9260    26.2120    16.9600    22.6420 
  131.1250    -2.6280     2.5290    54.6930    26.5710    25.9080    16.6280    23.0240 
  131.2500    -2.7540     2.5270    52.8970    26.1550    25.4950    16.9640    23.6580 
  131.3750    -2.7750     2.5180    52.9000    25.7790    25.1110    17.6870    24.2880 
  131.5000    -2.7830     2.5090    55.2910    25.4820    24.8200    19.7110    24.5370 
  131.6250    -2.8470     2.5050    57.3740    25.2470    24.6110    21.0060    24.6520 
  131.7500    -2.8910     2.4960    56.9820    25.0190    24.4120    22.3810    25.1840 
  131.8750    -2.9120     2.4730    54.7060    24.7830    24.1990    23.3630    26.1730 
  132.0000    -2.8600     2.4360    53.3590    24.5520    23.9880    22.0970    27.0100 
  132.1250    -2.7640     2.4070    55.0370    24.3700    23.8230    20.6420    27.3830 
  132.2500    -2.7460     2.4110    55.6950    24.2590    23.7190    20.0860    27.4840 
  132.3750    -2.8200     2.4510    53.0200    24.2230    23.6850    20.8330    27.4780 
  132.5000    -2.9060     2.5070    49.9040    24.2490    23.7150    21.4800    27.3970 
  132.6250    -2.9120     2.5440    49.4830    24.2950    23.7860    20.5390    27.1450 
  132.7500    -2.8430     2.5490    47.6640    24.2930    23.8340    18.9070    26.6470 
  132.8750    -2.7400     2.5300    44.1980    24.1820    23.7850    17.6530    25.9180 
  133.0000    -2.7290     2.5020    44.8280    23.9270    23.5650    17.8990    24.9940 
  133.1250    -2.8050     2.4810    50.7320    23.5490    23.1470    16.5900    24.1650 
  133.2500    -2.8410     2.4680    54.5170    23.1930    22.6780    15.3870    23.7580 
  133.3750    -2.8470     2.4560    52.8670    23.0110    22.3250    15.3470    23.9570 
  133.5000    -2.8120     2.4420    48.9290    23.1360    22.2510    16.3830    24.5070 
  133.6250    -2.7000     2.4310    47.9230    23.6590    22.6380    19.4520    25.3630 
  133.7500    -2.6100     2.4280    50.2210    24.3920    23.3860    23.6040    26.3820 
  133.8750    -2.5340     2.4410    52.4170    25.0870    24.2790    24.7620    27.1750 
  134.0000    -2.4390     2.4660    51.5170    25.4620    24.9930    23.9050    27.4030 
  134.1250    -2.2840     2.4910    51.0450    25.2090    25.0950    24.0350    27.1220 
  134.2500    -2.0650     2.5010    53.2590    24.4130    24.5330    24.5820    26.8630 
  134.3750    -1.7410     2.4920    55.6210    23.2630    23.4400    22.1900    26.7980 
  134.5000    -1.3990     2.4660    56.0820    22.0260    22.1070    19.0200    26.9040 
  134.6250    -1.1680     2.4370    55.4870    20.9860    20.8900    17.2080    27.0340 
  134.7500    -1.0120     2.4170    54.3870    20.2290    19.9550    16.7870    27.0750 
  134.8750    -0.9380     2.4140    53.4370    19.7250    19.3080    16.6070    27.0350 
  135.0000    -0.8860     2.4280    54.1850    19.3870    18.8660    16.0720    26.9080 
  135.1250    -0.8610     2.4510    55.4750    19.1460    18.5310    18.2630    26.6850 
  135.2500    -0.9090     2.4750    57.1110    18.9820    18.2380    19.5820    26.6430 
  135.3750    -1.0370     2.4940    59.3740    18.9650    18.0370    17.0300    26.7420 
  135.5000    -1.2040     2.5080    60.3560    19.1860    18.0390    14.8490    26.8760 
  135.6250    -1.3460     2.5200    57.3260    19.7360    18.3820    15.3770    26.7810 
  135.7500    -1.4460     2.5290    52.1610    20.4940    18.9950    17.1970    26.4070 
  135.8750    -1.4790     2.5330    48.2750    21.3030    19.7490    19.5230    26.1070 
  136.0000    -1.4850     2.5300    47.1210    21.9810    20.4560    20.6370    26.1570 
  136.1250    -1.5640     2.5250    49.0120    22.3310    20.8660    21.1370    26.2700 
  136.2500    -1.7640     2.5220    50.5480    22.3620    20.9310    19.2260    26.2680 
  136.3750    -2.0500     2.5240    47.9540    22.1290    20.6960    18.1640    26.1920 
  136.5000    -2.3300     2.5280    41.8060    21.7220    20.2530    18.5200    26.2130 
  136.6250    -2.5410     2.5320    38.1830    21.2310    19.6960    19.7060    26.3180 
  136.7500    -2.7270     2.5350    39.1240    20.7600    19.1510    19.2550    26.2550 
  136.8750    -2.9600     2.5370    41.4390    20.3760    18.6980    17.2530    25.9010 
  137.0000    -3.3080     2.5360    42.2690    20.1270    18.3860    15.1920    25.2850 
  137.1250    -3.6940     2.5280    44.1070    20.0560    18.2630    14.2130    24.8640 
  137.2500    -3.9780     2.5140    47.8470    20.0970    18.2920    14.5520    24.7200 
  137.3750    -4.1290     2.4970    51.2300    20.1440    18.4030    15.5480    24.8270 
  137.5000    -4.2170     2.4850    54.2770    20.0390    18.4400    14.7020    24.6940 
  137.6250    -4.3970     2.4820    57.1260    19.5490    18.1230    13.4860    24.3340 
  137.7500    -4.6680     2.4850    57.5760    18.6500    17.3510    12.7420    23.4670 
  137.8750    -4.9450     2.4910    57.7950    17.4160    16.1660    11.9160    22.9350 
  138.0000    -5.0940     2.4970    60.9370    16.0240    14.7510    10.1130    22.6610 
  138.1250    -5.0500     2.5060    64.7050    14.7290    13.3760     8.3250    22.4560 
  138.2500    -4.9390     2.5160    64.8240    13.7120    12.2350     7.7380    22.3680 
  138.3750    -4.8470     2.5200    63.2790    13.0580    11.4150     7.7790    22.4000 
  138.5000    -4.7970     2.5110    62.9900    12.7820    10.9450     8.1670    22.5990 
  138.6250    -4.6600     2.4830    60.0130    12.8900    10.8610     8.6400    23.1580 
  138.7500    -4.3690     2.4470    53.1730    13.2450    11.0480     9.3040    24.1550 
  138.8750    -4.0100     2.4190    47.9960    13.7690    11.4430    10.4460    25.2700 
  139.0000    -3.6800     2.4080    48.4780    14.3950    11.9840    11.8510    26.0420 
  139.1250    -3.4410     2.4090    51.9490    15.0640    12.6160    12.8170    26.2680 
  139.2500    -3.2560     2.4070    52.6900    15.7060    13.2650    13.9010    26.3950 
  139.3750    -3.0890     2.3980    51.6490    16.2410    13.8710    14.7280    26.4620 
  139.5000    -2.9130     2.3900    51.6080    16.5420    14.3520    15.1560    26.4150 
  139.6250    -2.7410     2.3970    52.0900    16.3330    14.4590    14.8110    26.1380 
  139.7500    -2.6440     2.4150    51.9570    15.5070    13.9770    13.8570    25.6830 
  139.8750    -2.5570     2.4260    53.2740    14.0420    12.7720    13.3190    25.2360 
