~V
VERS. 2.00: Ver 2.00
~W
STRT.M 45.0000:
STOP.M 277.0000:
STEP.M 0.1250:
NULL. -999.2500:
UWI. F11056:
~C
DEPT.M :
GR.API :
RML.OHMM :
RI. :
RXO.OHMM :
CALI.CM :
DEN.GM/CC :
SP.MV :
~A
# ...
  101.2500    67.6710    10.1170     8.6310    10.0990    25.1680     2.1940    -9.6400 
  101.3750    65.1040     9.9820     8.5520    10.1940    25.4380     2.1740    -9.6880 
  101.5000    63.9030     9.8510     8.4550    10.2630    25.5890     2.1530    -9.7090 
  101.6250    64.8050     9.7710     8.3770    10.2100    25.6430     2.1320    -9.7210 
  101.7500    65.9400     9.7590     8.3370    10.1480    25.6320     2.1120    -9.7110 
  101.8750    66.0630     9.7950     8.3310    10.2200    25.5980     2.0950    -9.6760 
  102.0000    65.3430     9.8050     8.3280    10.2210    25.5170     2.0880    -9.5910 
  102.1250    64.3470     9.7160     8.2780    10.0420    25.3870     2.0910    -9.4670 
  102.2500    63.5590     9.5000     8.1500     9.6470    25.2460     2.1070    -9.3480 
  102.3750    65.5660     9.1860     7.9440     9.1430    25.1040     2.1350    -9.1980 
  102.5000    69.7640     8.8610     7.7010     8.5880    24.9390     2.1740    -8.9510 
  102.6250    72.5790     8.6180     7.4950     8.0530    24.8590     2.2120    -8.7000 
  102.7500    73.9140     8.5070     7.3780     7.7490    24.8930     2.2390    -8.5170 
  102.8750    74.8070     8.5370     7.3720     8.2170    24.9980     2.2470    -8.3340 
  103.0000    74.4270     8.6880     7.4670     8.9910    25.1030     2.2340    -8.1650 
  103.1250    72.9350     8.8740     7.5940     9.1980    25.2110     2.2120    -8.0900 
  103.2500    72.9310     9.0320     7.7010     9.0350    25.3390     2.1920    -8.0140 
  103.3750    75.0930     9.1200     7.7540     8.7140    25.5340     2.1810    -7.9420 
  103.5000    75.4910     9.1210     7.7450     8.6700    25.7160     2.1830    -7.9820 
  103.6250    72.1670     9.0870     7.7150     9.0020    25.7910     2.1920    -8.1050 
  103.7500    68.5530     9.0680     7.7050     9.4930    25.8400     2.2030    -8.2090 
  103.8750    68.2200     9.1170     7.7600     9.7810    25.9960     2.2130    -8.2800 
  104.0000    68.1240     9.3120     7.9590     9.8730    26.4140     2.2200    -8.3650 
  104.1250    65.4980     9.6990     8.3400     9.9600    26.8240     2.2210    -8.4040 
  104.2500    63.1900    10.3160     8.9330     9.9220    26.8500     2.2120    -8.3800 
  104.3750    63.4570    11.1290     9.7060     9.8430    26.3240     2.1860    -8.2800 
  104.5000    63.7150    11.9330    10.5070     9.6950    25.7600     2.1380    -8.1110 
  104.6250    62.6070    12.3840    11.0610     9.6710    25.5550     2.0840    -7.9300 
  104.7500    63.3890    12.2270    11.1160     9.6560    25.5330     2.0410    -7.7480 
  104.8750    66.5270    11.4380    10.5700     9.6910    25.4730     2.0260    -7.5730 
  105.0000    69.0640    10.2440     9.5270     9.6210    25.2000     2.0450    -7.3890 
  105.1250    71.3790     9.0800     8.3960     9.2710    24.8360     2.0820    -7.1950 
  105.2500    74.8680     8.1520     7.4120     8.4450    24.5440     2.1170    -7.0340 
  105.3750    79.1440     7.5250     6.6900     7.4500    24.3750     2.1400    -6.9690 
  105.5000    82.5830     7.2170     6.2830     7.1290    24.1820     2.1520    -6.9930 
  105.6250    82.8220     7.1200     6.0920     7.3860    23.8310     2.1630    -6.9690 
  105.7500    79.4980     7.1800     6.0570     7.3460    23.3770     2.1790    -6.9360 
  105.8750    75.9850     7.3520     6.1350     6.8790    23.0520     2.1980    -6.9750 
  106.0000    75.6180     7.6130     6.3120     7.3930    23.0020     2.2090    -7.0340 
  106.1250    75.4110     7.9210     6.5620     9.2680    23.1700     2.2060    -7.1620 
  106.2500    72.3990     8.2540     6.8670    11.8000    23.5450     2.1910    -7.4080 
  106.3750    68.9650     8.5790     7.1940    10.7720    24.1230     2.1680    -7.6640 
  106.5000    67.6160     8.8440     7.4860     9.8420    24.8670     2.1420    -7.8750 
  106.6250    65.7620     9.0210     7.7010     9.4590    25.4110     2.1210    -8.1410 
  106.7500    63.4520     9.1070     7.8280     9.4830    25.5500     2.1080    -8.4250 
  106.8750    62.3680     9.1250     7.8880     9.5060    25.5200     2.1050    -8.6550 
  107.0000    62.7350     9.1110     7.9120     9.5180    25.5760     2.1100    -8.8900 
  107.1250    62.9870     9.0960     7.9260     9.5840    25.6310     2.1170    -9.1080 
  107.2500    64.0720     9.0910     7.9340     9.6490    25.6520     2.1210    -9.2480 
  107.3750    66.3130     9.0920     7.9340     9.7260    25.6430     2.1230    -9.3310 
  107.5000    66.2720     9.0940     7.9230     9.7060    25.6030     2.1230    -9.3620 
  107.6250    65.0950     9.1050     7.9130     9.6620    25.5630     2.1220    -9.3490 
  107.7500    66.7270     9.1420     7.9240     9.5870    25.5360     2.1200    -9.3100 
  107.8750    69.5900     9.2140     7.9770     9.6000    25.5120     2.1200    -9.2470 
  108.0000    68.1840     9.2890     8.0700     9.6650    25.5090     2.1220    -9.1260 
  108.1250    64.9990     9.2750     8.1240     9.7270    25.4960     2.1260    -8.9690 
  108.2500    64.0220     9.0810     8.0460     9.7160    25.5040     2.1360    -8.7890 
  108.3750    65.5930     8.6740     7.7720     9.6340    25.5430     2.1550    -8.5640 
  108.5000    69.3210     8.1090     7.3080     9.0210    25.5980     2.1860    -8.2920 
  108.6250    73.7810     7.5600     6.8030     7.7350    25.6460     2.2210    -7.9780 
  108.7500    77.1170     7.1510     6.3800     6.6470    25.6730     2.2480    -7.6550 
  108.8750    78.2020     6.9470     6.1250     6.2180    25.6490     2.2580    -7.3740 
  109.0000    78.3260     6.9810     6.0890     6.7540    25.5960     2.2490    -7.1640 
  109.1250    78.4230     7.1540     6.2000     7.0240    25.5450     2.2320    -6.9450 
  109.2500    77.4390     7.3750     6.3800     7.2680    25.5070     2.2190    -6.7350 
  109.3750    76.7240     7.5580     6.5460     7.4030    25.4940     2.2170    -6.6420 
  109.5000    77.1810     7.6440     6.6300     7.4320    25.5060     2.2220    -6.6270 
  109.6250    77.2760     7.6780     6.6650     7.5010    25.5290     2.2220    -6.6270 
  109.7500    76.7960     7.7290     6.7110     7.5340    25.5350     2.2110    -6.6910 
  109.8750    76.4770     7.8670     6.8310     7.5410    25.5230     2.1910    -6.7940 
  110.0000    77.7540     8.1620     7.0770     7.8980    25.4960     2.1790    -6.8770 
  110.1250    79.3640     8.5800     7.4170     8.9760    25.4820     2.1870    -7.0410 
  110.2500    78.3880     9.0550     7.7970    10.6470    25.4780     2.2110    -7.3150 
  110.3750    73.7880     9.4800     8.1380    12.1670    25.4760     2.2390    -7.5790 
  110.5000    68.7800     9.7290     8.3430    10.8230    25.4610     2.2480    -7.8240 
  110.6250    67.8670     9.8030     8.4130     9.8950    25.4150     2.2370    -8.0810 
  110.7500    69.4620     9.7620     8.3890     9.3730    25.3540     2.2150    -8.3150 
  110.8750    70.6500     9.7050     8.3390     9.1740    25.3200     2.1950    -8.4910 
  111.0000    69.6560     9.7390     8.3470     9.3560    25.3110     2.1880    -8.6090 
  111.1250    66.7960     9.8780     8.4380     9.6800    25.2540     2.1900    -8.7060 
  111.2500    64.2610    10.0770     8.5970     9.9260    25.1520     2.1960    -8.7850 
  111.3750    63.4770    10.2590     8.7790     9.8220    25.0840     2.1990    -8.8600 
  111.5000    63.3300    10.3290     8.9100     9.7910    25.0980     2.1930    -8.9040 
  111.6250    63.2610    10.2830     8.9530     9.9630    25.2130     2.1840    -8.9480 
  111.7500    64.6030    10.1580     8.9120    10.1100    25.3870     2.1740    -8.9820 
  111.8750    67.2430    10.0160     8.8230    10.1620    25.5760     2.1700    -8.9750 
  112.0000    67.4440     9.9250     8.7490    10.0800    25.6510     2.1720    -8.9630 
  112.1250    66.2420     9.8990     8.7250    10.0450    25.6550     2.1730    -8.9050 
  112.2500    65.9850     9.9000     8.7410     9.9860    25.6210     2.1710    -8.7480 
  112.3750    66.0200     9.8270     8.7220     9.9380    25.5890     2.1630    -8.4910 
