~V
VERS. 2.00: Ver 2.00
~W
STRT.M 55.0000:
STOP.M 276.0000:
STEP.M 0.1250:
NULL. -999.2500:
UWI. F11046:
~C
DEPT.M :
GR.API :
RML.OHMM :
RI. :
RXO.OHMM :
CALI.CM :
DEN.GM/CC :
SP.MV :
~A
# ...
  201.2500    94.6920    10.2800     8.0550     8.7650    24.1500     2.4810   -16.7940 
  201.3750    94.9760    10.3980     7.9110     8.5100    24.1400     2.4770   -16.9490 
  201.5000    91.9380    10.7390     7.9380     8.3730    24.1450     2.4660   -17.0910 
  201.6250    88.3580    11.3440     8.2200     8.8290    24.1820     2.4500   -17.2430 
  201.7500    86.3910    12.0880     8.6960     9.6800    24.2210     2.4350   -17.4410 
  201.8750    83.2630    12.8340     9.2690    10.4130    24.2710     2.4280   -17.6760 
  202.0000    78.4930    13.4670     9.8030    11.4280    24.3310     2.4300   -17.8900 
  202.1250    75.1680    13.9640    10.1940    12.4150    24.3860     2.4410   -17.9690 
  202.2500    76.0600    14.4990    10.5370    12.6560    24.4180     2.4620   -18.0030 
  202.3750    79.3920    15.2460    10.9960    12.1550    24.4330     2.4930   -18.0140 
  202.5000    82.4040    16.2530    11.6910    12.2110    24.4110     2.5370   -17.9390 
  202.6250    83.8560    17.2620    12.5790    13.9760    24.3370     2.5830   -17.7510 
  202.7500    83.1120    17.7380    13.2650    18.4260    24.2600     2.6170   -17.4660 
  202.8750    84.5500    17.2500    13.2710    20.1690    24.2210     2.6350   -17.1850 
  203.0000    91.7870    15.7200    12.3470    17.4360    24.1760     2.6400   -16.9930 
  203.1250   104.6530    13.5340    10.7230    12.6950    24.0790     2.6390   -16.8430 
  203.2500   114.0420    11.5200     9.1250     9.6560    23.9870     2.6330   -16.6540 
  203.3750   113.1580    10.1540     7.9310     8.3360    24.0070     2.6210   -16.4330 
  203.5000   104.0880     9.5860     7.2870     7.9500    24.2040     2.6000   -16.2240 
  203.6250    95.5640     9.7380     7.2450     7.6750    24.3220     2.5740   -15.9460 
  203.7500    92.2040    10.1260     7.5400     7.3920    24.3020     2.5520   -15.6200 
  203.8750    91.7680    10.3750     7.9070     7.5830    24.1700     2.5350   -15.1280 
  204.0000    92.3950    10.2090     8.0480     8.2730    24.0500     2.5170   -14.4970 
  204.1250    93.9830     9.4920     7.7060     8.3200    23.9990     2.4970   -13.6700 
  204.2500    91.6760     8.5040     7.0350     7.1480    23.9580     2.4770   -12.6720 
  204.3750    83.0740     7.5140     6.2610     5.5930    23.8780     2.4650   -11.6650 
  204.5000    73.3840     6.7330     5.5820     4.8860    23.7900     2.4670   -10.5780 
  204.6250    70.5180     6.3060     5.1460     4.6900    23.7490     2.4800    -9.5920 
  204.7500    71.1180     6.1580     4.9370     4.6040    23.7570     2.4950    -8.7590 
  204.8750    72.4260     6.2270     4.9280     4.5430    23.7310     2.5030    -8.0630 
  205.0000    75.0760     6.4390     5.0700     4.5210    23.6490     2.5010    -7.5630 
  205.1250    78.4620     6.7280     5.3150     4.7470    23.5170     2.4870    -7.3660 
  205.2500    79.7830     7.0110     5.5870     5.2200    23.3870     2.4680    -7.3520 
  205.3750    80.4000     7.2240     5.8280     5.8720    23.2860     2.4500    -7.4120 
  205.5000    83.8130     7.3160     5.9760     6.2600    23.1980     2.4350    -7.5570 
  205.6250    88.5290     7.2380     5.9580     6.3660    23.2600     2.4280    -7.6960 
  205.7500    90.4830     7.0460     5.8050     6.0830    23.5150     2.4270    -7.7950 
  205.8750    88.5210     6.8040     5.5690     5.6060    23.8650     2.4300    -7.8210 
  206.0000    84.0130     6.5890     5.3180     5.2210    24.1610     2.4330    -7.7640 
  206.1250    84.4230     6.4950     5.1330     4.8900    24.3050     2.4330    -7.7190 
  206.2500    88.9210     6.5640     5.0620     4.7490    24.3070     2.4290    -7.7370 
  206.3750    93.0100     6.8240     5.1420     4.8330    24.2580     2.4210    -7.8650 
  206.5000    93.6870     7.2760     5.3840     5.2030    24.2120     2.4130    -8.0760 
  206.6250    92.5460     7.8950     5.7960     5.7990    24.2000     2.4060    -8.3410 
  206.7500    92.2520     8.5560     6.2940     6.6670    24.2100     2.4020    -8.5240 
  206.8750    92.4700     9.1420     6.7920     7.7060    24.2550     2.3980    -8.6300 
  207.0000    91.6370     9.5610     7.1890     8.2960    24.3500     2.3950    -8.6740 
  207.1250    87.2190     9.7740     7.3980     8.4290    24.5390     2.3890    -8.4850 
  207.2500    82.7650     9.9140     7.4840     8.4490    24.8000     2.3830    -8.1920 
  207.3750    82.3090    10.1350     7.5590     8.3400    25.0070     2.3800    -7.8160 
  207.5000    83.3190    10.6010     7.7530     8.3760    25.0920     2.3800    -7.3740 
  207.6250    79.6300    11.5410     8.2430     9.3640    25.0990     2.3820    -6.9510 
  207.7500    74.0470    13.0430     9.1110    10.6860    25.1050     2.3860    -6.6810 
  207.8750    71.4630    15.2570    10.4840    12.6200    25.1170     2.3880    -6.5800 
  208.0000    71.3820    18.3500    12.5270    15.0540    25.1400     2.3860    -6.5990 
  208.1250    70.6000    22.6250    15.6230    18.0040    25.1520     2.3760    -6.8820 
  208.2500    70.5560    27.7930    19.7970    22.5140    25.1650     2.3560    -7.3070 
  208.3750    71.5650    33.2510    24.8500    30.9070    25.1940     2.3290    -7.7810 
  208.5000    70.8680    37.8500    29.9150    38.6360    25.2510     2.3020    -8.3750 
  208.6250    66.4180    39.7800    33.0270    43.0940    25.2810     2.2850    -9.0920 
  208.7500    63.3990    38.9570    33.3490    43.0660    25.2950     2.2810    -9.7720 
  208.8750    64.7920    36.2940    31.4320    38.6180    25.3130     2.2820   -10.3570 
  209.0000    68.5810    33.3870    28.7760    30.1200    25.3770     2.2810   -10.9440 
  209.1250    70.4270    31.9920    27.0490    23.9050    25.4880     2.2720   -11.5700 
  209.2500    67.9580    32.5650    26.8620    25.9240    25.6040     2.2610   -12.1440 
  209.3750    63.0850    35.0190    28.3410    31.0950    25.6470     2.2540   -12.6990 
  209.5000    60.8230    38.8290    31.3190    35.2870    25.6110     2.2530   -13.2580 
  209.6250    63.4200    42.9810    35.2270    37.5540    25.5050     2.2570   -13.6300 
  209.7500    65.8900    46.1860    38.7120    37.0360    25.2990     2.2610   -13.9440 
  209.8750    64.9010    47.7460    40.8020    37.3600    24.9960     2.2610   -14.4140 
  210.0000    63.8330    47.7170    41.2790    39.7320    24.7230     2.2560   -14.9120 
  210.1250    67.8710    46.8720    40.7040    39.8270    24.5040     2.2470   -15.2350 
  210.2500    72.5490    46.4310    40.2670    34.0070    24.3240     2.2410   -15.5550 
  210.3750    74.3210    47.0410    40.6810    31.4750    24.2410     2.2420   -15.8300 
  210.5000    72.6820    48.9050    42.2630    32.7880    24.2190     2.2510   -15.9610 
  210.6250    69.8950    51.8670    45.0670    36.6680    24.1840     2.2620   -16.1410 
  210.7500    67.3810    55.0070    48.3660    42.3060    24.1750     2.2670   -16.3090 
  210.8750    64.6920    57.4500    51.3250    48.6020    24.3060     2.2610   -16.2990 
  211.0000    61.9260    58.4570    53.0750    50.7630    24.5740     2.2480   -16.2790 
  211.1250    61.0930    57.4880    52.8890    48.8660    24.7860     2.2400   -16.3340 
  211.2500    63.5290    55.2360    51.3080    47.8910    24.8670     2.2430   -16.2970 
  211.3750    67.8060    52.3860    48.9250    45.8230    24.8000     2.2560   -16.2380 
  211.5000    69.4230    49.5860    46.3840    41.6920    24.7110     2.2710   -16.2730 
  211.6250    67.2130    47.3720    44.2840    38.5350    24.6650     2.2790   -16.2710 
  211.7500    64.6800    45.7990    42.7450    37.2900    24.6690     2.2830   -16.2300 
  211.8750    64.9610    44.8480    41.7520    37.6320    24.6740     2.2860   -16.2990 
  212.0000    69.2480    44.5090    41.3050    40.0520    24.6260     2.2920   -16.4130 
  212.1250    72.3820    45.0080    41.6160    39.4670    24.5040     2.2970   -16.5370 
  212.2500    72.0410    46.4510    42.7850    37.6750    24.3020     2.2970   -16.7210 
  212.3750    70.1720    49.0750    45.0850    36.8680    24.0820     2.2900   -16.9650 
