~V
VERS. 2.00: Ver 2.00
~W
STRT.M 51.0000:
STOP.M 252.0000:
STEP.M 0.1250:
NULL. -999.2500:
UWI. F11020:
~C
DEPT.M :
DEN.GM/CC :
GR.API :
RML.OHMM :
RI. :
RXO.OHMM :
CALI.CM :
SP.MV :
~A
# ...
  141.0000     2.2770    79.7580     7.1370     5.8440     5.1690    25.8570   -13.1780 
  141.1250     2.2790    81.3400     6.9420     5.6600     4.8780    25.9620   -13.0730 
  141.2500     2.2840    84.8780     6.6820     5.4110     4.3690    26.0450   -12.9870 
  141.3750     2.2970    85.6270     6.4510     5.1910     4.1090    26.0640   -12.9340 
  141.5000     2.3110    82.9160     6.2920     5.0400     4.0960    26.0320   -12.9140 
  141.6250     2.3190    81.3340     6.2220     4.9730     4.1840    25.9910   -12.9250 
  141.7500     2.3150    84.7590     6.2260     4.9760     4.2740    25.9360   -12.9520 
  141.8750     2.3020    88.4710     6.2510     5.0010     4.2670    25.8290   -13.0160 
  142.0000     2.2850    87.3780     6.2620     5.0110     4.2060    25.6890   -13.1140 
  142.1250     2.2710    83.3880     6.2430     4.9940     4.1670    25.5970   -13.2400 
  142.2500     2.2610    82.7190     6.2060     4.9580     4.1760    25.5870   -13.4000 
  142.3750     2.2500    85.7850     6.1740     4.9270     4.1990    25.6020   -13.5590 
  142.5000     2.2260    89.3850     6.1560     4.9100     4.1670    25.5830   -13.7130 
  142.6250     2.1880    92.6850     6.1510     4.9060     4.1480    25.4650   -13.8620 
  142.7500     2.1660    96.5680     6.1530     4.9080     4.1960    25.1830   -14.0180 
  142.8750     2.1870   100.2190     6.1540     4.9090     4.2740    24.8010   -14.1740 
  143.0000     2.2400   102.3700     6.1550     4.9090     4.2760    24.4240   -14.3150 
  143.1250     2.2850   103.0350     6.1610     4.9150     4.2350    24.1610   -14.4360 
  143.2500     2.2760   102.4490     6.1860     4.9400     4.2640    24.0810   -14.5280 
  143.3750     2.2310    98.4780     6.2400     4.9900     4.4300    24.1290   -14.5810 
  143.5000     2.1830    92.3950     6.3210     5.0680     4.6340    24.1740   -14.6040 
  143.6250     2.1590    90.1020     6.4140     5.1560     4.7410    24.1980   -14.6000 
  143.7500     2.1640    94.4860     6.4760     5.2160     4.7830    24.2040   -14.5700 
  143.8750     2.1800    99.2500     6.4750     5.2150     4.7950    24.1880   -14.5290 
  144.0000     2.1990    99.3850     6.4060     5.1480     4.7470    24.1710   -14.4800 
  144.1250     2.2100    96.6090     6.2900     5.0380     4.6150    24.1650   -14.4330 
  144.2500     2.2030    95.4580     6.1700     4.9240     4.4710    24.1650   -14.4030 
  144.3750     2.1900    97.0940     6.0860     4.8450     4.3730    24.1650   -14.4120 
  144.5000     2.1990    99.7170     6.0530     4.8120     4.3530    24.1650   -14.4550 
  144.6250     2.2380   100.5020     6.0620     4.8210     4.3870    24.1670   -14.5260 
  144.7500     2.2920    98.4350     6.0900     4.8480     4.4350    24.1790   -14.6250 
  144.8750     2.3290    95.8130     6.1110     4.8670     4.4300    24.1980   -14.7560 
  145.0000     2.3410    93.2870     6.1160     4.8720     4.3600    24.2020   -14.9200 
  145.1250     2.3350    89.7340     6.1120     4.8690     4.2830    24.1810   -15.1110 
  145.2500     2.3220    85.7900     6.1190     4.8750     4.2670    24.1600   -15.3190 
  145.3750     2.3060    85.1110     6.1470     4.9020     4.3250    24.1370   -15.5370 
  145.5000     2.2850    86.7920     6.1950     4.9480     4.4040    24.1130   -15.7670 
  145.6250     2.2550    88.1510     6.2460     4.9970     4.4320    24.0850   -16.0030 
  145.7500     2.2290    88.4230     6.2740     5.0230     4.3910    24.0530   -16.2410 
  145.8750     2.2270    89.5640     6.2680     5.0170     4.3540    24.0290   -16.4480 
  146.0000     2.2460    91.1150     6.2450     4.9950     4.3800    24.0200   -16.5970 
  146.1250     2.2630    91.6950     6.2340     4.9850     4.4400    24.0190   -16.6690 
  146.2500     2.2630    92.4910     6.2600     5.0090     4.4910    24.0150   -16.6560 
  146.3750     2.2600    93.3090     6.3150     5.0620     4.4840    24.0050   -16.5750 
  146.5000     2.2650    92.3520     6.3770     5.1210     4.4420    24.0190   -16.4020 
  146.6250     2.2740    90.0890     6.4150     5.1570     4.4110    24.1040   -16.1280 
  146.7500     2.2790    88.7660     6.4030     5.1470     4.3890    24.2350   -15.7600 
  146.8750     2.2830    90.1040     6.3500     5.0950     4.3480    24.2870   -15.3510 
  147.0000     2.2900    93.6310     6.2730     5.0220     4.2910    24.3000   -14.9690 
  147.1250     2.3020    98.6230     6.2050     4.9570     4.2450    24.3360   -14.6600 
  147.2500     2.3180   101.9360     6.1800     4.9330     4.2510    24.4090   -14.4610 
  147.3750     2.3320   100.2270     6.1980     4.9510     4.2730    24.4970   -14.3490 
  147.5000     2.3430    94.1600     6.2380     4.9890     4.3060    24.5820   -14.3450 
  147.6250     2.3440    87.0490     6.2580     5.0070     4.3230    24.6730   -14.4670 
  147.7500     2.3320    84.2840     6.2230     4.9740     4.3070    24.7570   -14.7070 
  147.8750     2.3170    86.4640     6.1470     4.9020     4.2560    24.8260   -15.0280 
  148.0000     2.3070    88.6160     6.0550     4.8140     4.1580    24.8700   -15.3880 
  148.1250     2.3030    87.1010     5.9710     4.7350     4.0170    24.8910   -15.7630 
  148.2500     2.3000    83.2090     5.9210     4.6860     3.9130    24.9040   -16.1500 
  148.3750     2.2970    81.9810     5.9090     4.6750     3.9050    24.9150   -16.5460 
  148.5000     2.3000    84.9720     5.9290     4.6940     3.9900    24.9080   -16.9380 
  148.6250     2.3090    90.7280     5.9610     4.7250     4.0980    24.8930   -17.2980 
  148.7500     2.3210    95.8650     5.9810     4.7440     4.1460    24.8850   -17.5930 
  148.8750     2.3280    98.5540     5.9640     4.7280     4.1500    24.8770   -17.8190 
  149.0000     2.3350    99.3550     5.9050     4.6710     4.1070    24.8510   -17.9860 
  149.1250     2.3470    98.4830     5.8170     4.5870     4.0250    24.8090   -18.0890 
  149.2500     2.3620    95.6950     5.7360     4.5110     3.9400    24.7860   -18.0910 
  149.3750     2.3690    93.7930     5.6940     4.4700     3.9510    24.7960   -18.0010 
  149.5000     2.3610    93.4690     5.7050     4.4810     4.0780    24.8150   -17.8480 
  149.6250     2.3450    92.2270     5.7880     4.5600     4.3220    24.8330   -17.6670 
  149.7500     2.3340    88.8440     5.9710     4.7340     4.6770    24.8520   -17.5040 
  149.8750     2.3270    86.5200     6.2640     5.0130     4.9860    24.8440   -17.3570 
  150.0000     2.3230    87.0960     6.6870     5.4160     5.1170    24.7880   -17.2330 
  150.1250     2.3200    88.7360     7.2590     5.9610     5.3430    24.7070   -17.1350 
  150.2500     2.3280    87.9750     7.9490     6.6180     6.0570    24.6620   -17.0880 
  150.3750     2.3480    85.3120     8.5960     7.2340     6.8650    24.6730   -17.0630 
  150.5000     2.3800    84.6170     8.9860     7.6050     7.6830    24.7110   -17.0570 
  150.6250     2.4090    86.7820     8.9380     7.5600     8.3190    24.7420   -17.0680 
  150.7500     2.4130    87.2860     8.4450     7.0900     8.2620    24.8120   -17.0830 
  150.8750     2.3900    84.5240     7.8260     6.5010     6.8230    24.9430   -17.1050 
  151.0000     2.3660    80.3410     7.3640     6.0610     5.7290    25.0450   -17.1230 
  151.1250     2.3630    75.7930     7.2370     5.9390     6.1300    25.0190   -17.1490 
  151.2500     2.3820    72.8610     7.4780     6.1690     7.5310    24.8790   -17.1700 
  151.3750     2.3880    74.1670     7.8890     6.5610     8.0720    24.7880   -17.2060 
  151.5000     2.3660    78.9780     8.2390     6.8940     7.8930    24.7520   -17.2560 
  151.6250     2.3260    83.3850     8.3060     6.9580     7.3280    24.7460   -17.3170 
  151.7500     2.2980    84.4940     8.0200     6.6860     6.0470    24.7460   -17.3840 
  151.8750     2.2870    84.2040     7.6030     6.2890     4.9890    24.7390   -17.4470 
  152.0000     2.2810    83.3960     7.2530     5.9550     4.3200    24.7190   -17.5030 
  152.1250     2.2720    82.7330     7.0640     5.7750     4.1960    24.6890   -17.5390 
