~V
VERS. 2.00: Ver 2.00
~W
STRT.M 50.0000:
STOP.M 257.0000:
STEP.M 0.1250:
NULL. -999.2500:
UWI. F11021:
~C
DEPT.M :
GR.API :
RML.OHMM :
RI. :
RXO.OHMM :
CALI.CM :
SP.MV :
DEN.GM/CC :
~A
# ...
  185.0000    69.9260   190.6370   157.6920   115.9630    23.5360   -13.7370     2.1890 
  185.1250    69.8100   206.5250   169.8230    99.5560    24.4390   -13.4740     2.2030 
  185.2500    67.9060   230.2660   189.1520   118.5180    25.1880   -13.1410     2.2120 
  185.3750    65.0870   260.5800   214.8510   195.1180    25.5190   -12.7540     2.2130 
  185.5000    63.6830   293.5820   243.7990   298.5730    25.5980   -12.4000     2.2080 
  185.6250    65.0030   320.9430   269.1780   303.1480    25.5960   -12.1280     2.2040 
  185.7500    66.6390   335.9170   284.9800   272.8630    25.5660   -11.8470     2.2040 
  185.8750    66.4760   334.9740   288.0180   236.2730    25.5170   -11.5120     2.2080 
  186.0000    64.3160   317.4440   277.6320   229.6020    25.5560   -11.1610     2.2140 
  186.1250    62.0960   281.3500   251.8440   226.5220    25.6540   -10.8310     2.2190 
  186.2500    61.7060   232.2400   213.9720   220.3120    25.7160   -10.6020     2.2210 
  186.3750    63.2100   176.9620   168.2090   197.2920    25.6750   -10.4600     2.2190 
  186.5000    65.4490   125.0320   122.0790   181.3930    25.5990   -10.2820     2.2180 
  186.6250    67.7200    86.4270    85.2060   111.1140    25.4250   -10.0390     2.2270 
  186.7500    70.9490    61.0140    59.8140    54.7420    25.3200    -9.8300     2.2520 
  186.8750    75.6690    46.4730    44.7640    29.9140    25.2910    -9.7080     2.2900 
  187.0000    80.4070    39.8440    37.4650    25.3540    25.3310    -9.5980     2.3300 
  187.1250    82.1550    39.3650    36.2220    27.9210    25.3050    -9.4090     2.3540 
  187.2500    80.9820    42.0920    38.3990    33.3080    25.2190    -9.1920     2.3580 
  187.3750    78.8320    46.1050    42.4680    40.0710    25.1570    -9.0120     2.3430 
  187.5000    77.8890    49.1710    46.3520    46.3260    25.1420    -8.9090     2.3180 
  187.6250    79.2100    48.6180    47.0970    56.6860    25.0710    -8.7790     2.2970 
  187.7500    80.9410    44.4450    44.0630    51.6360    24.8750    -8.6310     2.2900 
  187.8750    81.2990    37.9610    38.2780    34.6040    24.6120    -8.5330     2.3010 
  188.0000    80.3810    31.1980    31.7750    20.0030    24.3690    -8.5000     2.3260 
  188.1250    81.0460    26.1310    26.6260    15.3030    24.2830    -8.5380     2.3530 
  188.2500    84.5110    23.0540    23.3020    13.9960    24.2870    -8.6340     2.3690 
  188.3750    89.0890    21.6840    21.6130    15.2540    24.2710    -8.7940     2.3710 
  188.5000    92.6940    21.5120    21.1390    17.1240    24.1780    -8.9640     2.3630 
  188.6250    95.1210    22.1390    21.5410    18.4150    24.0290    -9.1740     2.3550 
  188.7500    97.2700    23.1550    22.3730    19.0700    23.8850    -9.4400     2.3510 
  188.8750    98.4530    24.5120    23.5320    19.5750    23.7770    -9.7050     2.3530 
  189.0000    97.7060    26.2540    25.0340    19.6890    23.7380    -9.9650     2.3560 
  189.1250    95.2820    28.3400    26.9030    19.9030    23.7620   -10.2100     2.3560 
  189.2500    92.8550    30.2990    28.7630    21.8040    23.7840   -10.4130     2.3530 
  189.3750    91.5070    31.5650    30.0730    25.1640    23.7380   -10.5660     2.3460 
  189.5000    91.9480    31.7270    30.3440    29.0610    23.6850   -10.6790     2.3400 
  189.6250    94.3160    30.7710    29.3800    30.4580    23.6640   -10.7730     2.3400 
  189.7500    96.8690    29.6670    27.9820    25.6620    23.6420   -10.8860     2.3480 
  189.8750    97.9120    29.3830    26.9900    19.4850    23.6010   -11.0130     2.3610 
  190.0000    96.5560    30.7280    27.1650    17.4240    23.5760   -11.1430     2.3720 
  190.1250    93.3450    34.4660    29.3420    21.2520    23.5730   -11.2330     2.3750 
  190.2500    90.2610    40.0950    33.3860    26.3500    23.5980   -11.2800     2.3660 
  190.3750    87.8970    46.9690    38.9900    31.7730    23.7110   -11.3450     2.3490 
  190.5000    86.3730    54.0620    45.3720    38.7400    23.9830   -11.4840     2.3260 
  190.6250    87.7470    59.8180    51.1290    44.6180    24.2180   -11.6120     2.3040 
  190.7500    92.5240    63.3360    55.1170    44.5840    24.2460   -11.6550     2.2880 
  190.8750    97.1260    64.2810    56.7850    42.8130    24.0130   -11.6570     2.2810 
  191.0000    96.6480    63.0040    56.2530    42.3950    23.7470   -11.6490     2.2810 
  191.1250    91.4390    60.4710    54.1740    43.5110    23.8990   -11.6640     2.2810 
  191.2500    88.1090    58.3790    52.0500    43.7230    24.4030   -11.6830     2.2750 
  191.3750    88.1020    58.0000    51.0370    41.5290    24.9670   -11.6870     2.2630 
  191.5000    88.1640    60.2560    52.1010    40.2650    25.3320   -11.6310     2.2460 
  191.6250    85.2660    65.7940    56.2280    48.2690    25.4800   -11.6090     2.2330 
  191.7500    81.1400    72.9080    62.4000    65.5170    25.5060   -11.6460     2.2270 
  191.8750    77.4090    79.1290    68.7300    74.8800    25.5010   -11.6370     2.2310 
  192.0000    74.6400    81.5980    72.5790    76.1330    25.4990   -11.6000     2.2410 
  192.1250    73.4980    77.8740    71.1410    84.0110    25.5520   -11.5800     2.2540 
  192.2500    74.0610    70.2920    65.6460    89.9210    25.6280   -11.5940     2.2640 
  192.3750    76.0460    61.8780    58.4230    70.3040    25.6270   -11.5760     2.2680 
  192.5000    78.9470    55.4260    52.0690    43.0890    25.4980   -11.6250     2.2660 
  192.6250    81.9880    53.5010    48.9780    41.7160    25.4200   -11.7350     2.2600 
  192.7500    83.8220    55.6710    49.6220    47.2820    25.3780   -11.7830     2.2550 
  192.8750    83.5590    61.5480    54.7280    46.2640    25.3310   -11.8460     2.2560 
  193.0000    81.4410    72.0720    65.4760    40.5380    25.2750   -11.9540     2.2610 
  193.1250    78.2350    91.3190    84.9490    57.0960    25.2990   -12.0110     2.2680 
  193.2500    74.4110   120.1030   113.2220   102.1580    25.3530   -12.0240     2.2730 
  193.3750    70.1410   157.4470   149.3460   173.0500    25.3970   -12.0380     2.2750 
  193.5000    66.1510   199.0870   189.0150   234.8920    25.4210   -11.9910     2.2730 
  193.6250    63.4820   235.8740   223.0800   234.4040    25.4390   -11.8550     2.2580 
  193.7500    62.2430   260.2200   245.1550   204.9820    25.4150   -11.6740     2.2270 
  193.8750    62.2060   269.9550   253.8760   185.9470    25.4000   -11.4870     2.1830 
  194.0000    62.6130   267.2120   251.6550   188.6410    25.3970   -11.2710     2.1400 
  194.1250    62.4700   252.5690   239.5890   190.1340    25.3960   -11.1270     2.1210 
  194.2500    62.1680   227.6850   219.0640   196.3020    25.3900   -10.9780     2.1290 
  194.3750    62.8990   193.6850   190.2610   188.0730    25.3630   -10.8050     2.1620 
  194.5000    65.4320   155.1250   156.0680   155.0810    25.2920   -10.6050     2.2080 
  194.6250    69.8900   119.4090   122.3320   113.3380    25.1060   -10.3720     2.2590 
  194.7500    74.8490    90.7060    93.8840    79.1540    24.8360   -10.1810     2.3080 
  194.8750    78.3010    69.7050    72.3890    56.6910    24.6040   -10.0090     2.3500 
  195.0000    78.8850    55.3340    57.4740    51.0330    24.5270    -9.8420     2.3790 
  195.1250    78.2670    46.7250    48.4840    45.3570    24.6070    -9.6500     2.3880 
  195.2500    79.6780    41.7300    43.1510    35.1670    24.6440    -9.4850     2.3780 
  195.3750    82.7670    39.5700    40.6490    28.6830    24.5000    -9.3530     2.3530 
  195.5000    84.4870    39.5790    40.3820    31.4700    24.2010    -9.2750     2.3200 
  195.6250    82.1510    40.9040    41.6910    34.2930    23.9960    -9.2630     2.2870 
  195.7500    77.6510    41.7840    42.8420    36.7290    23.7400    -9.2230     2.2680 
  195.8750    73.3830    40.7140    42.1880    39.3210    23.4470    -9.1280     2.2810 
  196.0000    71.3540    36.8740    38.6740    46.5880    23.3270    -9.0060     2.3320 
  196.1250    72.8110    30.5850    32.4270    48.0530    23.6270    -8.8900     2.4090 
