~V
VERS. 2.00: Ver 2.00
~W
STRT.M 50.0000:
STOP.M 281.0000:
STEP.M 0.1250:
NULL. -999.2500:
UWI. F11064:
~C
DEPT.M :
SP.MV :
GR.API :
RML.OHMM :
RI. :
RXO.OHMM :
CALI.CM :
DEN.GM/CC :
~A
# ...
  173.7500   -18.9840    64.8350   111.5830   108.8170   114.8170    24.7410     2.2280 
  173.8750   -18.9640    67.7740   102.3750    99.9780   103.7400    24.9560     2.2390 
  174.0000   -18.9460    69.6470    96.2350    93.9580    97.6830    25.0160     2.2500 
  174.1250   -18.9200    68.3750    92.8130    90.7000    96.2530    25.0100     2.2590 
  174.2500   -18.8930    65.5590    90.4230    88.7070   101.1000    25.0100     2.2620 
  174.3750   -18.8760    63.6240    88.1550    87.0810   108.3750    25.0040     2.2610 
  174.5000   -18.8580    64.2140    85.7630    85.4310   103.2450    24.9680     2.2590 
  174.6250   -18.8520    67.9390    83.7880    84.0250    89.4090    24.8300     2.2620 
  174.7500   -18.8600    71.5420    82.9180    83.3620    77.5700    24.5390     2.2670 
  174.8750   -18.8640    71.6940    83.6680    83.8900    76.9840    24.2370     2.2700 
  175.0000   -18.8560    69.1610    86.3680    85.9650    88.9100    24.0890     2.2670 
  175.1250   -18.8580    66.9450    91.7500    90.3500   103.9480    24.0690     2.2620 
  175.2500   -18.8820    65.6920    99.9810    97.2920   104.9680    24.0680     2.2550 
  175.3750   -18.8970    63.8300   111.8040   107.4360   102.8840    24.1350     2.2410 
  175.5000   -18.8900    60.8040   128.0780   121.4800   112.0870    24.3490     2.2250 
  175.6250   -18.8700    59.3990   150.2950   140.6030   148.8570    24.7820     2.2160 
  175.7500   -18.8340    61.0670   176.9110   163.2880   190.1770    25.0090     2.2170 
  175.8750   -18.7980    62.8960   205.2220   187.0850   196.4340    25.0560     2.2220 
  176.0000   -18.7780    61.8900   231.0520   208.4420   178.4210    25.0490     2.2230 
  176.1250   -18.7670    59.0930   249.8610   223.5720   174.1150    25.0770     2.2170 
  176.2500   -18.7550    57.6330   262.8060   233.4400   175.5780    25.1290     2.2080 
  176.3750   -18.7620    57.7300   271.8490   239.7010   178.8460    25.1620     2.1990 
  176.5000   -18.7630    56.6170   277.8880   243.4220   180.1490    25.1840     2.1900 
  176.6250   -18.7660    53.0890   279.5010   243.9060   172.7620    25.1840     2.1810 
  176.7500   -18.7930    50.4480   276.8000   241.4020   160.5380    25.0970     2.1750 
  176.8750   -18.8290    52.0750   271.0840   236.9240   151.9420    24.8300     2.1750 
  177.0000   -18.8460    57.9370   264.5150   232.1360   153.1650    24.4140     2.1810 
  177.1250   -18.8440    62.7710   258.8360   228.3870   181.4330    24.1100     2.1880 
  177.2500   -18.8330    64.8680   254.0500   225.4430   221.2500    23.9560     2.1940 
  177.3750   -18.7990    64.1310   249.4180   222.6040   250.0390    23.9010     2.1990 
  177.5000   -18.7520    62.3550   244.0320   219.1510   254.4100    23.8780     2.2030 
  177.6250   -18.6920    60.3450   236.7260   214.2600   247.1160    23.8430     2.2060 
  177.7500   -18.6080    58.5110   227.2670   207.7450   242.7210    23.7940     2.2070 
  177.8750   -18.5140    59.2920   215.6780   199.4430   244.1780    23.7650     2.2090 
  178.0000   -18.4200    63.1660   202.2600   189.3850   250.0580    23.7630     2.2090 
  178.1250   -18.3430    66.8210   187.6090   177.7520   234.5920    23.7620     2.2090 
  178.2500   -18.2820    66.6530   173.2420   165.7620   214.9740    23.7440     2.2100 
  178.3750   -18.2480    63.9820   160.6730   154.8080   190.9980    23.7420     2.2130 
  178.5000   -18.2160    62.4940   150.9740   146.1010   169.5070    23.7470     2.2160 
  178.6250   -18.1940    61.4380   144.2790   140.1540   154.5830    23.7340     2.2190 
  178.7500   -18.1910    60.7540   138.4630   135.2520   148.2100    23.7130     2.2220 
  178.8750   -18.2010    61.2620   131.6330   129.6270   146.7250    23.7040     2.2270 
  179.0000   -18.2080    62.2960   122.6360   121.9810   148.2370    23.7100     2.2360 
  179.1250   -18.2160    63.0240   112.0970   112.4200   131.0580    23.7280     2.2420 
  179.2500   -18.2370    62.3040   102.9040   103.5390   106.9920    23.7440     2.2440 
  179.3750   -18.2490    62.1560    97.4260    97.7990    99.4020    23.7360     2.2430 
  179.5000   -18.2540    63.7110    96.7470    96.5930   100.4060    23.7140     2.2390 
  179.6250   -18.2140    66.0220   100.9150   100.2780   108.8960    23.7090     2.2320 
  179.7500   -18.1400    65.4300   107.2860   106.3440   131.9480    23.7280     2.2270 
  179.8750   -18.0480    61.4290   113.7170   112.7030   175.9840    23.7420     2.2270 
  180.0000   -17.9280    58.8600   118.5480   117.7170   194.9900    23.7240     2.2290 
  180.1250   -17.7690    61.2280   120.9200   120.4780   151.4120    23.6720     2.2290 
  180.2500   -17.5920    64.6020   121.7980   121.7910   123.0470    23.6680     2.2250 
  180.3750   -17.4140    64.2790   121.6990   122.1430   134.6870    23.7090     2.2220 
  180.5000   -17.2420    60.6570   120.3910   121.3740   180.9260    23.7400     2.2250 
  180.6250   -17.1090    60.2070   116.8050   118.4520   169.6980    23.7380     2.2380 
  180.7500   -17.0030    63.6860   111.1160   113.3690   123.3280    23.6900     2.2550 
  180.8750   -16.9160    66.9550   104.2490   106.7960    90.2560    23.5730     2.2690 
  181.0000   -16.8550    67.7310    97.7020   100.1040    67.3680    23.3890     2.2750 
  181.1250   -16.8200    67.9200    92.9880    94.8920    58.1870    23.2780     2.2730 
  181.2500   -16.8050    68.5490    89.8230    91.2100    57.1790    23.2070     2.2690 
  181.3750   -16.8000    67.7270    87.3410    88.3290    62.3840    23.2960     2.2680 
  181.5000   -16.7920    66.6440    84.9310    85.5670    68.2720    23.6920     2.2730 
  181.6250   -16.7590    68.2220    83.2500    83.3630    68.4810    24.4090     2.2800 
  181.7500   -16.7300    70.4730    83.7860    83.0710    63.0830    24.7660     2.2810 
  181.8750   -16.7050    71.0250    88.3760    86.5050    62.7670    24.8660     2.2730 
  182.0000   -16.6800    68.3250    98.8100    95.5990    77.2640    24.8740     2.2590 
  182.1250   -16.6460    64.5220   117.5230   113.0060   113.7500    24.8750     2.2440 
  182.2500   -16.6050    60.6990   142.5770   136.8090   153.8220    24.8730     2.2320 
  182.3750   -16.5600    58.4380   170.0810   163.0460   195.7930    24.8670     2.2260 
  182.5000   -16.5190    58.6150   192.8220   184.8360   234.1850    24.8560     2.2280 
  182.6250   -16.4980    60.1500   200.9200   193.1420   222.0990    24.8310     2.2390 
  182.7500   -16.4590    60.3720   195.8700   189.0090   171.5100    24.8280     2.2480 
  182.8750   -16.4210    58.5770   183.0430   176.9240   140.6240    24.8490     2.2480 
  183.0000   -16.3880    56.3460   167.8100   161.9010   140.9090    24.8680     2.2380 
  183.1250   -16.3310    55.8460   153.5810   147.4310   152.7380    24.9170     2.2330 
  183.2500   -16.2740    57.9550   141.8890   135.1930   145.2630    24.9960     2.2370 
  183.3750   -16.2210    61.1590   133.8450   126.2750   122.2110    25.0160     2.2430 
  183.5000   -16.1480    62.6620   130.3760   121.5910   101.1920    24.8550     2.2400 
  183.6250   -16.0630    61.6520   133.0770   122.6470    97.5420    24.7080     2.2270 
  183.7500   -15.9910    59.2670   141.2810   128.8350    94.8550    24.5510     2.2090 
  183.8750   -15.9180    56.8900   154.4760   139.7060   105.9250    24.3850     2.1910 
  184.0000   -15.8340    55.4590   171.1930   153.8770   126.5360    24.2170     2.1740 
  184.1250   -15.7710    55.5060   188.3110   168.5930   125.4540    24.0270     2.1670 
  184.2500   -15.7070    55.7960   201.2260   179.9310   114.7960    23.8220     2.1700 
  184.3750   -15.6530    56.1870   205.9420   184.6090    91.4910    23.6340     2.1790 
  184.5000   -15.6180    57.1950   200.6030   180.9960    74.8750    23.4640     2.1920 
  184.6250   -15.5850    57.1050   185.8570   169.2280    64.0430    23.2830     2.2070 
  184.7500   -15.5590    56.9430   167.6190   153.9480    52.8880    23.1710     2.2220 
  184.8750   -15.5590    58.4140   149.8790   138.4690    46.2370    23.1450     2.2300 
