~V
VERS. 2.00: Ver 2.00
~W
STRT.M 52.0000:
STOP.M 278.0000:
STEP.M 0.1250:
NULL. -999.2500:
UWI. F11035:
~C
DEPT.M :
DEN.GM/CC :
GR.API :
RML.OHMM :
RI. :
RXO.OHMM :
CALI.CM :
SP.MV :
~A
# ...
  164.5000     2.2830    83.8300    17.2860    16.5700    19.7670    24.5000   -16.2950 
  164.6250     2.2590    80.4830    17.0900    16.4400    20.0230    24.5070   -16.2130 
  164.7500     2.2360    79.0250    16.8580    16.1640    19.0480    24.4890   -16.1250 
  164.8750     2.2200    81.8680    16.9110    15.9560    17.7540    24.4730   -16.0830 
  165.0000     2.2160    86.1050    17.6400    16.1880    17.6840    24.4000   -16.1100 
  165.1250     2.2270    87.4840    19.9540    17.5360    19.0400    24.2300   -16.2130 
  165.2500     2.2460    85.8410    24.5490    20.4260    19.9510    24.0760   -16.3600 
  165.3750     2.2650    81.3000    31.5720    25.3730    22.7130    24.0090   -16.5390 
  165.5000     2.2750    75.1980    39.9760    32.5180    34.7290    23.9970   -16.7590 
  165.6250     2.2690    71.7330    47.3340    40.7430    59.3130    24.0040   -17.0010 
  165.7500     2.2530    71.3510    51.6210    47.0250    71.2830    24.0430   -17.2800 
  165.8750     2.2340    71.6200    52.0720    49.2390    63.0490    24.1200   -17.5690 
  166.0000     2.2240    72.7260    49.4030    47.5490    51.6350    24.2070   -17.8200 
  166.1250     2.2270    75.4280    45.7690    44.1490    44.2260    24.2860   -18.0410 
  166.2500     2.2390    78.6370    43.3280    41.6450    40.6960    24.3370   -18.2560 
  166.3750     2.2530    79.3600    42.6470    40.8810    38.9440    24.3750   -18.4900 
  166.5000     2.2620    75.6960    43.3330    41.6640    39.9510    24.4000   -18.7060 
  166.6250     2.2580    70.4430    44.3730    43.1670    43.7710    24.4260   -18.9130 
  166.7500     2.2440    69.0910    44.5560    44.1000    46.6050    24.4580   -19.1020 
  166.8750     2.2270    71.1820    43.1910    43.4580    45.8360    24.4690   -19.2350 
  167.0000     2.2130    71.3720    40.2450    40.7870    38.3560    24.4060   -19.3240 
  167.1250     2.2110    69.6620    36.5180    36.7120    29.7490    24.2680   -19.3910 
  167.2500     2.2200    72.4010    33.6070    33.0340    27.9490    24.1410   -19.4840 
  167.3750     2.2350    78.0190    32.8690    31.0060    25.1810    24.0830   -19.5850 
  167.5000     2.2510    79.1190    35.5650    31.8060    19.5670    24.0690   -19.7310 
  167.6250     2.2590    74.1690    44.1200    38.1260    19.5620    24.0760   -19.9210 
  167.7500     2.2560    69.9100    59.8620    52.0450    27.6930    24.1070   -20.2080 
  167.8750     2.2440    67.4150    85.2430    76.6830    42.7680    24.2050   -20.5740 
  168.0000     2.2260    64.5970   124.7630   114.2270    68.5590    24.4370   -20.9900 
  168.1250     2.2080    61.2150   169.3810   162.3140   120.5900    24.7100   -21.4160 
  168.2500     2.1940    59.7700   207.0440   204.7540   162.9140    24.8920   -21.8160 
  168.3750     2.1830    61.0540   226.1100   226.4520   176.7880    24.9530   -22.1930 
  168.5000     2.1750    63.7800   223.9390   224.2280   195.3410    24.9240   -22.5550 
  168.6250     2.1710    65.3510   207.5220   206.4650   220.3350    24.8590   -22.8650 
  168.7500     2.1700    66.2960   190.6250   187.3830   188.8350    24.8200   -23.0850 
  168.8750     2.1750    67.7470   179.4940   173.5300   162.7900    24.8170   -23.2210 
  169.0000     2.1870    68.6330   176.7410   168.2140   155.4120    24.7990   -23.3100 
  169.1250     2.2050    65.0180   184.5840   174.2390   160.0840    24.7710   -23.3060 
  169.2500     2.2200    60.4190   200.9830   189.6790   172.4890    24.7430   -23.2710 
  169.3750     2.2260    61.0230   224.3620   213.0820   185.8050    24.7590   -23.2170 
  169.5000     2.2230    65.2760   251.7040   241.7450   194.3140    24.8380   -23.1880 
  169.6250     2.2130    65.5260   276.5160   270.6440   207.8800    24.9560   -23.1580 
  169.7500     2.2050    60.8630   290.2310   291.9240   225.6540    24.9880   -23.1040 
  169.8750     2.2010    56.2610   285.1410   296.3850   253.3730    24.9130   -23.0220 
  170.0000     2.2000    56.6960   258.5750   277.0530   284.3330    24.8160   -22.9400 
  170.1250     2.1990    61.0510   215.2650   234.4580   286.7900    24.7760   -22.9320 
  170.2500     2.1980    65.5280   170.5940   186.4610   217.7580    24.6990   -22.9940 
  170.3750     2.2000    68.6200   133.5690   144.8780   126.7980    24.5180   -23.0850 
  170.5000     2.2070    70.0170   107.5530   114.8130    72.2510    24.2860   -23.0920 
  170.6250     2.2210    69.2460    92.9950    97.5750    59.6750    24.0860   -23.0610 
  170.7500     2.2370    66.0190    85.6610    88.6390    52.1300    23.9010   -23.0240 
  170.8750     2.2480    61.7920    83.5980    85.8030    50.5520    23.7610   -22.9970 
  171.0000     2.2490    59.5930    85.2790    87.4090    51.3170    23.8440   -22.9070 
  171.1250     2.2390    60.9710    89.5230    92.3050    54.1250    24.2110   -22.7630 
  171.2500     2.2250    63.5660    94.3170    98.2220    69.7060    24.6170   -22.5500 
  171.3750     2.2130    66.1510    98.1660   103.3400    90.8710    24.8500   -22.2770 
  171.5000     2.2080    68.5850    99.8650   106.0090   100.5060    24.9340   -22.0190 
  171.6250     2.2090    69.8560    98.5700   104.8760    87.8760    24.9670   -21.7340 
  171.7500     2.2140    69.0380    95.4540   101.1190    68.7870    24.9910   -21.4310 
  171.8750     2.2210    66.7100    91.8620    96.2690    57.7220    25.0070   -21.1890 
  172.0000     2.2300    65.1410    89.1890    92.0780    58.3670    25.0000   -21.0740 
  172.1250     2.2420    65.3930    88.8420    90.3480    62.0600    24.9940   -21.0130 
  172.2500     2.2530    66.5780    90.8760    91.2740    67.1500    24.9900   -20.9510 
  172.3750     2.2620    66.7730    95.1510    94.7540    74.3110    24.9880   -20.9590 
  172.5000     2.2670    66.1950   101.2160   100.4440    82.6690    24.9850   -20.9710 
  172.6250     2.2660    67.9580   108.1730   107.7850    92.5190    24.9690   -21.0190 
  172.7500     2.2650    70.7910   114.2050   114.9190    98.4220    24.9340   -21.1270 
  172.8750     2.2650    71.9710   117.5210   119.7060   104.5420    24.8660   -21.2260 
  173.0000     2.2670    71.3090   116.7650   120.2000   112.7950    24.7970   -21.2960 
  173.1250     2.2650    72.0570   111.1730   115.0810   117.0600    24.7760   -21.4200 
  173.2500     2.2620    73.1840   102.8730   106.6250   102.3850    24.7670   -21.5340 
  173.3750     2.2610    73.4500    93.6870    96.8930    76.6390    24.7220   -21.5500 
  173.5000     2.2630    73.2140    85.1770    87.6400    57.9040    24.6600   -21.5530 
  173.6250     2.2710    72.8200    78.7310    80.3120    61.5250    24.6630   -21.5590 
  173.7500     2.2800    71.9270    74.5790    75.2260    66.1810    24.7090   -21.5670 
  173.8750     2.2860    70.0600    72.8670    72.6750    62.5550    24.7230   -21.5660 
  174.0000     2.2880    67.6000    73.5130    72.7480    58.1980    24.7660   -21.5240 
  174.1250     2.2830    65.7140    76.3860    75.5380    62.1820    24.8570   -21.4410 
  174.2500     2.2750    65.8740    80.3240    79.9290    74.2200    24.9270   -21.4070 
  174.3750     2.2670    68.5170    84.2890    84.8890    88.3960    24.9320   -21.4290 
  174.5000     2.2620    70.7690    87.1910    89.1140    96.5490    24.9330   -21.4270 
  174.6250     2.2630    68.7580    87.8860    90.9430    96.9820    24.9730   -21.4290 
  174.7500     2.2680    64.7690    86.6050    90.3430    94.2650    24.9840   -21.4430 
  174.8750     2.2730    63.3130    83.7370    87.8770    89.9010    24.9530   -21.4720 
  175.0000     2.2710    66.8120    79.6270    84.1220    85.3340    24.9040   -21.5030 
  175.1250     2.2620    72.0830    74.1570    78.8350    81.2090    24.8630   -21.4910 
  175.2500     2.2550    75.0630    67.6380    72.0550    73.0450    24.8580   -21.4480 
  175.3750     2.2570    74.6100    60.6220    64.2750    69.9970    24.8540   -21.3730 
  175.5000     2.2700    71.6190    54.0890    56.6330    68.1500    24.8150   -21.2870 
  175.6250     2.2890    68.0670    49.5290    50.8310    51.4870    24.7780   -21.1810 
