~V
VERS. 2.00: Ver 2.00
~W
STRT.M 40.0000:
STOP.M 275.0000:
STEP.M 0.1250:
NULL. -999.2500:
UWI. F11027:
~C
DEPT.M :
DEN.GM/CC :
GR.API :
RML.OHMM :
RI. :
RXO.OHMM :
CALI.CM :
SP.MV :
~A
# ...
   51.2500  -999.2500  -999.2500  -999.2500  -999.2500  -999.2500  -999.2500  -999.2500 
   51.3750  -999.2500  -999.2500  -999.2500  -999.2500  -999.2500  -999.2500  -999.2500 
   51.5000  -999.2500  -999.2500  -999.2500  -999.2500  -999.2500  -999.2500  -999.2500 
   51.6250  -999.2500  -999.2500  -999.2500  -999.2500  -999.2500  -999.2500  -999.2500 
   51.7500  -999.2500  -999.2500  -999.2500  -999.2500  -999.2500  -999.2500  -999.2500 
   51.8750  -999.2500  -999.2500  -999.2500  -999.2500  -999.2500  -999.2500  -999.2500 
   52.0000  -999.2500  -999.2500  -999.2500  -999.2500  -999.2500  -999.2500  -999.2500 
   52.1250  -999.2500  -999.2500  -999.2500  -999.2500  -999.2500  -999.2500  -999.2500 
   52.2500  -999.2500  -999.2500  -999.2500  -999.2500  -999.2500  -999.2500  -999.2500 
   52.3750  -999.2500  -999.2500  -999.2500  -999.2500  -999.2500  -999.2500  -999.2500 
   52.5000  -999.2500  -999.2500  -999.2500  -999.2500  -999.2500  -999.2500  -999.2500 
   52.6250  -999.2500  -999.2500  -999.2500  -999.2500  -999.2500  -999.2500  -999.2500 
   52.7500  -999.2500  -999.2500  -999.2500  -999.2500  -999.2500  -999.2500  -999.2500 
   52.8750  -999.2500  -999.2500  -999.2500  -999.2500  -999.2500  -999.2500  -999.2500 
   53.0000  -999.2500  -999.2500  -999.2500  -999.2500  -999.2500  -999.2500  -999.2500 
   53.1250  -999.2500  -999.2500  -999.2500  -999.2500  -999.2500  -999.2500  -999.2500 
   53.2500  -999.2500  -999.2500  -999.2500  -999.2500  -999.2500  -999.2500  -999.2500 
   53.3750  -999.2500  -999.2500  -999.2500  -999.2500  -999.2500  -999.2500  -999.2500 
   53.5000  -999.2500  -999.2500  -999.2500  -999.2500  -999.2500  -999.2500  -999.2500 
   53.6250  -999.2500  -999.2500  -999.2500  -999.2500  -999.2500  -999.2500  -999.2500 
   53.7500  -999.2500  -999.2500  -999.2500  -999.2500  -999.2500  -999.2500  -999.2500 
   53.8750  -999.2500  -999.2500  -999.2500  -999.2500  -999.2500  -999.2500  -999.2500 
   54.0000     2.1570  -999.2500  -999.2500  -999.2500  -999.2500  -999.2500  -999.2500 
   54.1250     2.1570  -999.2500  -999.2500  -999.2500  -999.2500  -999.2500  -999.2500 
   54.2500     2.1440  -999.2500  -999.2500  -999.2500  -999.2500  -999.2500  -999.2500 
   54.3750     2.1230  -999.2500  -999.2500  -999.2500  -999.2500  -999.2500  -999.2500 
   54.5000     2.1050  -999.2500  -999.2500  -999.2500  -999.2500  -999.2500  -999.2500 
   54.6250     2.0960  -999.2500  -999.2500  -999.2500  -999.2500  -999.2500  -999.2500 
   54.7500     2.0970  -999.2500  -999.2500  -999.2500  -999.2500  -999.2500  -999.2500 
   54.8750     2.1050  -999.2500  -999.2500  -999.2500  -999.2500  -999.2500   147.2160 
   55.0000     2.1110  -999.2500  -999.2500  -999.2500  -999.2500  -999.2500   147.2160 
   55.1250     2.1090  -999.2500  -999.2500  -999.2500  -999.2500  -999.2500   177.7540 
   55.2500     2.1010  -999.2500  -999.2500  -999.2500  -999.2500  -999.2500   177.5810 
   55.3750     2.0920  -999.2500  -999.2500  -999.2500  -999.2500  -999.2500   176.8600 
   55.5000     2.0870  -999.2500  -999.2500  -999.2500  -999.2500  -999.2500   175.4630 
   55.6250     2.0890  -999.2500  -999.2500  -999.2500  -999.2500  -999.2500   173.2360 
   55.7500     2.0970  -999.2500  -999.2500  -999.2500  -999.2500  -999.2500   170.1900 
   55.8750     2.1050  -999.2500  -999.2500  -999.2500  -999.2500  -999.2500   166.2560 
   56.0000     2.1140     0.0000     0.0000     0.0000     0.0000     0.0000   161.5170 
   56.1250     2.1240     0.0000     0.0000     0.0000     0.0000     0.0000   155.9200 
   56.2500     2.1330     0.0000     0.0000     0.0000     0.0000     0.0000   149.7710 
   56.3750     2.1380    27.9070    32.6130     0.3850    32.2720    19.3210   142.9990 
   56.5000     2.1380    37.3960    55.5680     0.5110    14.7130    25.7580   135.4120 
   56.6250     2.1310    38.0620    37.2910     0.5060    12.8840    25.7500   126.7530 
   56.7500     2.1240    37.4340    10.0870     0.5010     3.1400    25.7570   117.4130 
   56.8750     2.1200    38.6900     0.0620     0.4910     1.3610    25.7600   107.7660 
   57.0000     2.1200    39.1470     2.9450     0.4870     1.4990    25.7590    97.9670 
   57.1250     2.1250    38.8570     2.3260     0.4880     1.7630    25.7520    88.2750 
   57.2500     2.1390    39.6200     2.3040     0.4880     1.4820    25.7510    78.7140 
   57.3750     2.1690    41.1540     2.3170     0.4850     1.6250    25.7570    69.6790 
   57.5000     2.2150    42.1290     2.3840     0.4780     1.6640    25.7540    61.6390 
   57.6250     2.2570    42.9370     2.4830     0.4650     1.8250    25.7450    55.0350 
   57.7500     2.2740    45.2840     2.4810     0.4420     2.6680    25.7330    49.5670 
   57.8750     2.2660    48.0460     2.2190     0.3980     3.5160    25.7370    45.0410 
   58.0000     2.2650    49.4670     1.6480     0.3260     3.1880    25.7420    41.2470 
   58.1250     2.3260    50.2060     0.9370     0.2390     2.4740    25.7410    37.8920 
   58.2500     2.4460    50.0170     0.3770     0.1640     1.2370    25.7320    34.7290 
   58.3750     2.5750    47.9830     0.0790     0.1130     0.7100    25.7230    31.3280 
   58.5000     2.6410    44.0670     0.0290     0.0920     0.5170    25.6910    27.2090 
   58.6250     2.5800    42.0990     0.2520     0.1240     1.1200    25.5940    21.8720 
   58.7500     2.4400    45.1460     0.7940     0.2460     2.7760    25.5740    15.6650 
   58.8750     2.2870    51.2680     1.7980     0.5440     5.2810    25.7460     9.1870 
   59.0000     2.1820    58.0020     3.3240     1.1490     7.5030    25.8800     2.9050 
   59.1250     2.1500    63.0100     5.0850     2.2410     8.6850    25.3900    -2.9100 
   59.2500     2.1530    65.4340     6.4270     3.5910     9.7150    24.8560    -8.2340 
   59.3750     2.1630    66.5240     7.0200     4.8310     9.9570    24.4840   -12.9030 
   59.5000     2.1670    67.7370     7.0060     5.7370     9.9130    24.2800   -16.6990 
   59.6250     2.1700    70.0500     6.8050     6.3020    10.2590    24.2660   -19.0110 
   59.7500     2.1800    73.9850     6.6770     6.6420    10.2450    24.3220   -19.9610 
   59.8750     2.2040    79.4850     6.5680     6.7430     9.8660    24.3410   -19.9600 
   60.0000     2.2380    84.8140     6.3740     6.5970     9.3420    24.5550   -19.3360 
   60.1250     2.2740    87.4400     6.0620     6.2550     8.1510    24.9150   -18.2450 
   60.2500     2.3030    89.9300     5.7380     5.8890     6.5200    25.1190   -16.9280 
   60.3750     2.3200    92.5750     5.5210     5.6120     5.6850    25.1130   -15.5380 
   60.5000     2.3280    92.5200     5.4990     5.4880     5.7680    25.0110   -14.1850 
   60.6250     2.3260    90.4950     5.7310     5.5670     6.0010    24.7820   -13.0200 
   60.7500     2.3130    90.5780     6.1020     5.7870     5.7420    24.7520   -12.1280 
   60.8750     2.2880    92.4600     6.4770     6.0740     5.9330    24.7150   -11.5780 
   61.0000     2.2510    91.7540     6.7240     6.3170     6.4840    24.7780   -11.3650 
   61.1250     2.2140    88.7640     6.7430     6.3940     6.8710    25.0090   -11.3880 
   61.2500     2.1920    88.5680     6.6160     6.3210     6.8850    25.2610   -11.4560 
   61.3750     2.1950    93.4960     6.4420     6.1630     6.2730    25.3750   -11.4650 
   61.5000     2.2250   101.3270     6.3050     6.0070     5.1890    25.3950   -11.4140 
   61.6250     2.2700   105.7350     6.2550     5.9360     5.0410    25.2750   -11.3370 
   61.7500     2.3080   105.9110     6.2580     5.9530     5.4120    24.9850   -11.3130 
   61.8750     2.3270   102.7460     6.2790     6.0240     6.0290    24.6960   -11.3160 
   62.0000     2.3250    97.1630     6.2990     6.1030     5.7820    24.6540   -11.2910 
   62.1250     2.3070    91.9740     6.3380     6.1610     5.3990    24.7800   -11.3280 
   62.2500     2.2880    90.4090     6.4190     6.2060     5.1770    24.9410   -11.5660 
   62.3750     2.2750    93.7750     6.5400     6.2500     5.2750    25.0970   -12.0380 
