~V
VERS. 2.00: Ver 2.00
~W
STRT.M 52.0000:
STOP.M 279.0000:
STEP.M 0.1250:
NULL. -999.2500:
UWI. F11031:
~C
DEPT.M :
DEN.GM/CC :
GR.API :
RML.OHMM :
RI. :
RXO.OHMM :
CALI.CM :
SP.MV :
~A
# ...
  198.2500     2.3590    53.8740    55.4140    47.6990    27.2400    22.6710   -17.6780 
  198.3750     2.4190    59.8970    45.9970    39.7050    30.5780    22.6760   -17.1580 
  198.5000     2.5000    65.3200    36.3690    31.4770    35.9030    22.6910   -16.6590 
  198.6250     2.5620    65.0660    26.5530    23.7350    26.8680    22.5740   -16.2010 
  198.7500     2.5810    61.5910    17.1230    17.4610    15.1330    22.1970   -15.7860 
  198.8750     2.5600    57.6370    12.8350    12.9760     9.4040    21.9420   -15.3980 
  199.0000     2.5150    53.2840    10.2060    10.0740     8.1330    21.9360   -15.0530 
  199.1250     2.4680    49.8970     8.9240     8.4770     8.1340    22.1340   -14.7550 
  199.2500     2.4350    48.5430     8.2540     7.5700     7.8870    22.1750   -14.5040 
  199.3750     2.4180    48.3050     7.8210     7.0560     6.7820    21.9920   -14.2650 
  199.5000     2.4150    48.4490     7.4030     6.7250     5.7660    21.8080   -14.0390 
  199.6250     2.4210    50.0420     6.9770     6.4850     5.2480    21.6380   -13.8240 
  199.7500     2.4300    52.1790     6.6670     6.3430     5.0610    21.4190   -13.6210 
  199.8750     2.4380    52.5250     6.5820     6.3520     5.0880    21.3160   -13.4640 
  200.0000     2.4470    51.5360     6.7480     6.5280     5.3610    21.2810   -13.3620 
  200.1250     2.4550    52.2040     7.1250     6.8420     5.9870    21.3440   -13.3100 
  200.2500     2.4600    52.4830     7.5490     7.1790     6.6970    21.4090   -13.2760 
  200.3750     2.4610    51.6770     7.9030     7.4420     7.1720    21.4340   -13.2790 
  200.5000     2.4570    49.7950     8.1190     7.5660     7.2190    21.5510   -13.2940 
  200.6250     2.4470    47.3210     8.1870     7.5260     6.9500    21.5690   -13.2820 
  200.7500     2.4360    45.7610     8.1900     7.4120     6.6450    21.6300   -13.2850 
  200.8750     2.4260    46.0890     8.1890     7.2990     6.5190    21.6060   -13.2420 
  201.0000     2.4220    46.9460     8.2340     7.2470     6.5760    21.9990   -13.1290 
  201.1250     2.4290    46.9050     8.3830     7.2980     6.7620    22.4260   -12.9750 
  201.2500     2.4390    47.0240     8.6440     7.4340     7.1110    22.7970   -12.7840 
  201.3750     2.4440    47.5320     9.0030     7.6370     7.4260    23.2910   -12.5840 
  201.5000     2.4420    47.5450     9.3820     7.8660     7.5850    23.5750   -12.3780 
  201.6250     2.4360    47.8050     9.5760     8.0020     7.6210    23.5410   -12.1640 
  201.7500     2.4370    49.0540     9.4240     7.9110     7.5180    23.3320   -11.9560 
  201.8750     2.4520    48.4620     8.8750     7.5080     7.2900    22.5830   -11.7400 
  202.0000     2.4720    45.1570     8.0460     6.8380     6.8530    20.9480   -11.5290 
  202.1250     2.4830    44.2480     7.2220     6.0990     5.9470    20.0260   -11.3580 
  202.2500     2.4820    46.0200     6.6820     5.5320     5.2840    19.9380   -11.2170 
  202.3750     2.4760    47.1160     6.5440     5.2640     5.1030    20.6050   -11.1040 
  202.5000     2.4740    44.8110     6.7840     5.3180     5.4070    21.2540   -11.0520 
  202.6250     2.4800    42.5560     7.2640     5.6360     6.8730    22.0440   -11.0650 
  202.7500     2.4830    43.0060     7.6840     5.9790     8.6440    22.6770   -11.1320 
  202.8750     2.4730    44.6930     7.8310     6.1460     8.4040    23.0060   -11.2950 
  203.0000     2.4490    46.2050     7.6600     6.0370     6.9410    23.0570   -11.5220 
  203.1250     2.4270    48.6440     7.3350     5.7180     5.3680    22.9190   -11.8670 
  203.2500     2.4270    51.2550     7.1160     5.4190     4.8060    22.6180   -12.3460 
  203.3750     2.4530    52.3200     7.1300     5.2760     4.7560    22.3480   -12.8980 
  203.5000     2.4950    53.1290     7.4270     5.3520     5.0480    22.3950   -13.5420 
  203.6250     2.5280    59.5560     8.0320     5.6970     5.7520    22.7480   -14.2910 
  203.7500     2.5350    70.5020     8.8260     6.2390     6.5840    22.9690   -15.0520 
  203.8750     2.5190    79.6810     9.7280     6.9180     7.3850    23.0630   -15.8270 
  204.0000     2.4940    82.0950    10.6900     7.6770     8.5060    23.0820   -16.5990 
  204.1250     2.4790    77.6190    11.7650     8.5010     9.6150    23.2150   -17.2650 
  204.2500     2.4810    72.3340    13.0510     9.4200    10.2890    23.0810   -17.8140 
  204.3750     2.5000    70.3580    14.6100    10.4890    10.9320    22.8920   -18.2580 
  204.5000     2.5280    71.3960    16.3080    11.6900    13.4180    22.8480   -18.6130 
  204.6250     2.5560    70.1520    17.5780    12.7540    16.3050    22.7660   -18.8740 
  204.7500     2.5730    66.9800    17.8130    13.2430    16.7480    22.7250   -19.0770 
  204.8750     2.5710    67.3600    16.6920    12.8370    16.0130    22.7990   -19.2520 
  205.0000     2.5530    72.7110    14.5150    11.5950    12.7270    23.1410   -19.3760 
  205.1250     2.5230    78.0920    12.1600     9.9890    10.1580    23.2190   -19.4470 
  205.2500     2.4960    79.3120    10.4000     8.6200     7.8210    23.3070   -19.4940 
  205.3750     2.4770    78.1990     9.4500     7.7380     6.5270    23.4550   -19.4960 
  205.5000     2.4730    76.6380     9.2440     7.3980     6.5030    23.5050   -19.4550 
  205.6250     2.4840    77.0990     9.6990     7.6180     7.9230    23.5570   -19.3830 
  205.7500     2.5040    78.5610    10.5180     8.1770     9.5900    23.5810   -19.2440 
  205.8750     2.5270    78.8800    11.4840     8.9060    10.3590    23.5340   -19.0410 
  206.0000     2.5500    78.8940    12.2920     9.5870    10.0320    23.4680   -18.8260 
  206.1250     2.5650    79.8700    12.3190     9.7840     9.0100    23.4940   -18.5370 
  206.2500     2.5690    83.2520    11.2180     9.1810     8.6390    23.5130   -18.2000 
  206.3750     2.5560    87.3180     9.1210     7.7590     9.3170    23.4880   -17.8400 
  206.5000     2.5190    89.3480     6.7180     5.9360     9.4620    23.2730   -17.3910 
  206.6250     2.4590    85.6300     4.8760     4.3280     8.1070    23.2400   -16.8800 
  206.7500     2.3910    76.5270     3.8170     3.2120     5.9430    23.1630   -16.3650 
  206.8750     2.3310    67.3520     3.4910     2.6270     4.5580    22.6430   -15.8100 
  207.0000     2.2930    62.0750     3.7730     2.5230     5.1860    20.0550   -15.2420 
  207.1250     2.2840    61.5800     4.5990     2.8900     5.8280    17.3080   -14.7180 
  207.2500     2.2970    62.9310     5.6930     3.5510     5.6180    16.5020   -14.2350 
  207.3750     2.3200    64.5460     6.7100     4.3200     5.0990    16.3950   -13.8290 
  207.5000     2.3420    69.2050     7.2310     4.9340     4.8510    16.5410   -13.4720 
  207.6250     2.3520    76.6140     7.0330     5.1620     4.8450    16.6620   -13.1360 
  207.7500     2.3500    83.0990     6.5480     5.1390     4.9770    16.3870   -12.8490 
  207.8750     2.3380    87.4480     6.0670     5.0130     5.1500    16.4510   -12.5760 
  208.0000     2.3240    88.9190     5.7080     4.8700     5.0710    17.1420   -12.3180 
  208.1250     2.3150    86.1130     5.5260     4.7560     4.9360    18.4890   -12.1070 
  208.2500     2.3170    80.5580     5.4910     4.6950     4.9340    19.4580   -11.8540 
  208.3750     2.3280    76.9670     5.5870     4.7040     4.9300    19.9450   -11.5220 
  208.5000     2.3480    78.3260     5.8010     4.7920     4.8550    20.4120   -11.1580 
  208.6250     2.3700    78.4300     6.1240     4.9650     4.8570    21.0930   -10.7320 
  208.7500     2.3890    74.4040     6.4820     5.1820     5.0630    21.6400   -10.2630 
  208.8750     2.4030    69.9290     6.7900     5.3870     5.4310    21.5710    -9.8360 
  209.0000     2.4090    69.8130     6.9550     5.5080     5.7390    21.1110    -9.4240 
  209.1250     2.4040    72.4000     6.8690     5.4570     5.5190    21.4380    -9.0330 
  209.2500     2.3900    72.6080     6.6020     5.2590     5.2030    22.1560    -8.7190 
  209.3750     2.3700    73.4050     6.2610     4.9770     4.8450    23.1930    -8.4090 
