~V
VERS. 2.00: Ver 2.00
~W
STRT.M 51.0000:
STOP.M 240.0000:
STEP.M 0.1250:
NULL. -999.2500:
UWI. F11016:
~C
DEPT.M :
GR.API :
RML.OHMM :
RI. :
RXO.OHMM :
CALI.CM :
DEN.GM/CC :
SP.MV :
~A
# ...
  152.2500    58.2090    25.3600    22.1280    32.3570    24.0150     2.2890   -11.4560 
  152.3750    61.3450    25.4410    22.4730    30.5480    24.0330     2.2840   -11.4890 
  152.5000    63.0720    25.0700    22.2950    26.8680    24.0480     2.2800   -11.4910 
  152.6250    62.6660    24.6020    21.9130    24.7870    24.0810     2.2750   -11.4820 
  152.7500    61.2980    24.2580    21.5450    24.2130    24.1250     2.2690   -11.4670 
  152.8750    60.4240    24.1390    21.3260    24.0760    24.1050     2.2630   -11.4500 
  153.0000    60.6380    24.1500    21.2350    24.0560    24.0240     2.2590   -11.4360 
  153.1250    61.4440    24.0720    21.1360    23.7450    23.9500     2.2570   -11.4210 
  153.2500    62.2430    23.6950    20.8690    23.1430    23.9190     2.2590   -11.3980 
  153.3750    62.0760    22.8790    20.3040    22.5280    23.9360     2.2620   -11.3660 
  153.5000    60.5870    21.7530    19.5010    22.0120    23.9730     2.2650   -11.3220 
  153.6250    58.4320    20.6300    18.6710    20.5640    23.9920     2.2680   -11.2690 
  153.7500    56.4760    19.8540    18.0720    19.3190    24.0010     2.2700   -11.2140 
  153.8750    56.2730    19.7240    17.9550    19.1040    24.0350     2.2720   -11.1560 
  154.0000    58.3080    20.1450    18.2810    19.5050    24.0860     2.2750   -11.0960 
  154.1250    60.4050    20.6810    18.7370    20.4420    24.1310     2.2790   -11.0410 
  154.2500    59.5950    20.7890    18.8870    22.1680    24.1570     2.2820   -10.9840 
  154.3750    57.3290    19.9200    18.2240    25.0410    24.1600     2.2860   -10.9000 
  154.5000    58.0970    18.0540    16.6610    26.3210    24.1370     2.2900   -10.8010 
  154.6250    61.6790    15.6490    14.5580    23.0960    24.0940     2.2960   -10.6990 
  154.7500    64.8270    13.2690    12.4110    16.9440    24.0560     2.3040   -10.5800 
  154.8750    66.8040    11.4340    10.6780    11.8670    24.0510     2.3150   -10.4400 
  155.0000    68.5170    10.3010     9.5180     9.6060    24.0860     2.3260   -10.2990 
  155.1250    69.8230     9.7820     8.8910     9.0320    24.1500     2.3340   -10.1680 
  155.2500    71.6090     9.7520     8.7230     8.8380    24.2150     2.3380   -10.0560 
  155.3750    74.6890    10.0950     8.9460     8.7310    24.2740     2.3360    -9.9700 
  155.5000    75.6080    10.6620     9.4380     9.1770    24.3360     2.3270    -9.9100 
  155.6250    71.8360    11.3010    10.0620    10.2910    24.3950     2.3150    -9.8780 
  155.7500    66.5930    11.8900    10.6940    11.4030    24.4310     2.3040    -9.8740 
  155.8750    64.9980    12.2940    11.1910    11.8970    24.4380     2.2980    -9.8810 
  156.0000    66.6600    12.4630    11.4720    11.9840    24.4200     2.2970    -9.9000 
  156.1250    67.0030    12.4320    11.5360    11.9670    24.3930     2.2990    -9.9300 
  156.2500    64.0970    12.2770    11.4340    11.8570    24.3770     2.3020    -9.9540 
  156.3750    61.4930    12.0720    11.2340    11.6190    24.3720     2.3050    -9.9700 
  156.5000    61.5030    11.8550    10.9860    11.3410    24.3650     2.3060    -9.9900 
  156.6250    62.0690    11.6220    10.7030    11.2170    24.3410     2.3050   -10.0090 
  156.7500    62.0720    11.3650    10.3880    11.1670    24.3140     2.3040   -10.0130 
  156.8750    63.1490    11.1250    10.0790    10.9700    24.3000     2.3050   -10.0130 
  157.0000    65.2930    10.9980     9.8550    10.6600    24.2990     2.3060   -10.0170 
  157.1250    66.0600    11.0970     9.8090    10.2890    24.2990     2.3080   -10.0270 
  157.2500    65.6000    11.5080    10.0190     9.9820    24.2930     2.3100   -10.0490 
  157.3750    66.5350    12.2830    10.5480    10.4870    24.2790     2.3110   -10.0820 
  157.5000    68.5870    13.3270    11.3510    11.8630    24.2640     2.3110   -10.1420 
  157.6250    69.1330    14.4750    12.3140    13.4950    24.2490     2.3110   -10.2130 
  157.7500    67.5340    15.5840    13.3200    15.1340    24.2350     2.3100   -10.2750 
  157.8750    65.3230    16.5620    14.2750    16.7750    24.2310     2.3100   -10.3490 
  158.0000    63.4000    17.4490    15.1720    18.0270    24.2400     2.3090   -10.4420 
  158.1250    61.6380    18.3680    16.0900    18.5480    24.2680     2.3060   -10.5200 
  158.2500    60.2990    19.4270    17.1260    18.7840    24.3000     2.3030   -10.5810 
  158.3750    59.1240    20.6600    18.3370    20.2510    24.3070     2.3000   -10.6570 
  158.5000    58.0570    21.9720    19.6620    23.0350    24.2770     2.2960   -10.7280 
  158.6250    58.2990    23.2000    20.9670    26.1100    24.2250     2.2930   -10.7720 
  158.7500    59.7900    24.1790    22.0930    28.9300    24.1890     2.2900   -10.8210 
  158.8750    60.2870    24.6850    22.8110    29.9720    24.1930     2.2890   -10.8860 
  159.0000    59.6550    24.5790    22.9680    29.1160    24.2320     2.2910   -10.9430 
  159.1250    59.2260    23.8930    22.4900    27.9960    24.2550     2.2970   -10.9890 
  159.2500    58.9020    22.6640    21.3750    27.2850    24.2100     2.3070   -11.0310 
  159.3750    58.0120    21.0940    19.7370    25.0650    24.1210     2.3200   -11.0820 
  159.5000    58.5820    19.5520    17.8970    21.2030    24.0330     2.3310   -11.1460 
  159.6250    61.9000    18.1130    16.2130    17.0740    23.9630     2.3370   -11.2250 
  159.7500    66.4500    16.8300    14.9440    14.1900    23.9200     2.3380   -11.3310 
  159.8750    69.6250    16.1320    14.2840    13.2630    23.9000     2.3340   -11.4630 
  160.0000    70.1720    16.1210    14.2100    13.2650    23.8760     2.3270   -11.6060 
  160.1250    68.2470    16.6000    14.5870    13.4900    23.8200     2.3200   -11.7680 
  160.2500    65.8060    17.3790    15.2730    14.0240    23.7360     2.3130   -11.9620 
  160.3750    64.7340    18.2530    16.0890    14.5550    23.6500     2.3070   -12.1580 
  160.5000    63.4810    19.0470    16.8590    14.9870    23.5890     2.3000   -12.3430 
  160.6250    60.7430    19.6550    17.4620    15.4370    23.5630     2.2940   -12.5350 
  160.7500    58.8880    20.0460    17.8460    15.9560    23.5670     2.2890   -12.7390 
  160.8750    60.7670    20.2320    18.0060    16.4220    23.5930     2.2850   -12.9340 
  161.0000    63.9120    20.3220    18.0280    16.7660    23.6240     2.2830   -13.1270 
  161.1250    65.8680    20.5010    18.0560    17.0350    23.6580     2.2810   -13.3480 
  161.2500    67.5780    21.0280    18.2860    17.4930    23.6890     2.2790   -13.6060 
  161.3750    69.0880    22.3870    19.0750    18.3620    23.7080     2.2770   -13.8960 
  161.5000    69.5440    25.0110    20.7800    19.5770    23.7130     2.2760   -14.2280 
  161.6250    68.7250    29.2090    23.7160    21.5910    23.7260     2.2750   -14.6070 
  161.7500    66.1240    35.1040    28.1280    25.9260    23.7560     2.2710   -14.9960 
  161.8750    61.0130    42.4850    34.1170    34.4870    23.7950     2.2650   -15.3760 
  162.0000    55.0550    50.4380    41.1220    45.7660    23.8190     2.2590   -15.7680 
  162.1250    51.4120    57.7550    48.1470    55.5530    23.8160     2.2520   -16.1620 
  162.2500    51.2750    63.4310    54.1700    59.7740    23.7900     2.2480   -16.5180 
  162.3750    54.0640    66.7950    58.2680    60.0710    23.7700     2.2450   -16.8260 
  162.5000    58.4500    68.2890    60.5250    60.5150    23.7730     2.2450   -17.1150 
  162.6250    62.0150    68.8430    61.6460    62.4690    23.7900     2.2450   -17.3910 
  162.7500    62.8250    69.0830    62.2210    63.7450    23.7980     2.2440   -17.6530 
  162.8750    60.4500    69.2600    62.5670    62.1370    23.7830     2.2420   -17.9100 
  163.0000    56.9390    69.3290    62.7460    59.2070    23.7670     2.2380   -18.1630 
  163.1250    54.6160    69.1500    62.6920    57.8400    23.7620     2.2350   -18.4240 
  163.2500    54.0880    68.7090    62.3850    58.3070    23.7620     2.2330   -18.7130 
  163.3750    54.9540    68.4090    62.1260    58.7120    23.7610     2.2350   -19.0230 
