~V
VERS. 2.00: Ver 2.00
~W
STRT.M 52.0000:
STOP.M 278.0000:
STEP.M 0.1250:
NULL. -999.2500:
UWI. F11035:
~C
DEPT.M :
DEN.GM/CC :
GR.API :
RML.OHMM :
RI. :
RXO.OHMM :
CALI.CM :
SP.MV :
~A
# ...
  108.2500     2.1610    78.1500     6.9450     6.9040     8.4080    23.2370   -18.8030 
  108.3750     2.2360    79.9600     6.7810     6.7390     8.1330    23.3270   -18.2370 
  108.5000     2.3310    83.8430     6.5210     6.4680     9.3170    23.5510   -17.5180 
  108.6250     2.3950    91.1810     6.1190     6.0530     9.0680    23.9510   -16.6580 
  108.7500     2.4050    95.9960     5.6750     5.5880     7.6800    24.2590   -15.8200 
  108.8750     2.3700    97.2790     5.2950     5.1730     6.3160    24.4240   -15.0370 
  109.0000     2.3180    98.1580     5.0550     4.8900     5.9330    24.5340   -14.3200 
  109.1250     2.2800   100.1300     4.9870     4.7950     6.1280    24.4960   -13.7580 
  109.2500     2.2620   100.6550     5.0140     4.8240     6.0910    24.3530   -13.3100 
  109.3750     2.2580    99.8510     5.0600     4.8940     6.1970    24.2600   -12.9550 
  109.5000     2.2580   100.4550     5.0530     4.9010     5.9710    24.3160   -12.6600 
  109.6250     2.2600   102.3460     4.9300     4.7340     5.9210    24.4200   -12.4380 
  109.7500     2.2620   105.2690     4.7090     4.4210     5.6950    24.4820   -12.2350 
  109.8750     2.2620   109.6490     4.4370     4.0400     5.2060    24.4650   -12.0410 
  110.0000     2.2590   115.0090     4.2060     3.7140     4.6610    24.3690   -11.8590 
  110.1250     2.2570   117.9190     4.2380     3.6160     4.4690    24.2170   -11.6930 
  110.2500     2.2670   114.6760     4.7580     3.8530     4.7990    24.0600   -11.5610 
  110.3750     2.3020   105.1010     6.0280     4.5700     6.2000    23.9210   -11.5130 
  110.5000     2.3690    93.7820     8.2350     5.9420     9.0570    23.8270   -11.5930 
  110.6250     2.4620    86.1800    11.3610     8.2580    16.1330    23.8130   -11.8270 
  110.7500     2.5520    83.4840    14.4940    11.1680    24.3920    23.8230   -12.1170 
  110.8750     2.6140    83.9460    16.5430    13.7740    29.7470    23.9100   -12.5100 
  111.0000     2.6310    86.0250    16.7060    14.8270    29.0670    23.9790   -13.0460 
  111.1250     2.5930    86.4450    14.9330    13.7370    21.1090    23.8030   -13.7450 
  111.2500     2.5190    86.5880    12.6130    11.8620    14.9590    23.4140   -14.5380 
  111.3750     2.4280    89.5390    10.6440    10.0850    11.2990    23.0060   -15.3820 
  111.5000     2.3390    92.4650     9.3620     8.7740     9.4850    22.6300   -16.2230 
  111.6250     2.2740    93.2610     8.7320     8.0430     8.9560    22.3550   -17.0000 
  111.7500     2.2340    93.5780     8.4250     7.7060     8.5950    22.1750   -17.7150 
  111.8750     2.2140    93.1000     8.3050     7.6250     8.0520    22.1150   -18.3460 
  112.0000     2.2010    90.8750     8.3000     7.6600     7.8200    22.1110   -18.8830 
  112.1250     2.1860    86.4590     8.3490     7.6790     8.3840    22.0930   -19.2430 
  112.2500     2.1650    82.0030     8.3660     7.6160     8.5810    22.0470   -19.4630 
  112.3750     2.1400    77.9260     8.2930     7.4660     8.5490    22.0000   -19.5900 
  112.5000     2.1180    75.4910     8.1080     7.2570     8.4050    21.9660   -19.6630 
  112.6250     2.1050    74.7950     7.8330     7.0330     8.2810    22.0220   -19.6780 
  112.7500     2.0990    76.1130     7.5680     6.8390     8.2560    22.1900   -19.6740 
  112.8750     2.0970    79.7070     7.4050     6.7130     8.2460    22.3530   -19.6130 
  113.0000     2.0980    82.8290     7.4240     6.6850     8.2430    22.3800   -19.4910 
  113.1250     2.1040    82.7600     7.6720     6.7870     8.4290    22.2550   -19.4010 
  113.2500     2.1170    81.1390     8.0300     6.9750     8.8550    22.1000   -19.3670 
  113.3750     2.1360    79.6480     8.3560     7.1830     9.4010    21.9410   -19.3100 
  113.5000     2.1560    77.5810     8.5220     7.3300     9.6640    21.8480   -19.1940 
  113.6250     2.1660    76.5010     8.4390     7.3170     9.4000    21.8720   -19.0440 
  113.7500     2.1610    78.1810     8.2080     7.1560     8.6310    21.9450   -18.8710 
  113.8750     2.1450    80.7800     7.9440     6.9040     7.9560    21.9950   -18.6900 
  114.0000     2.1250    82.9980     7.7570     6.6520     7.8620    22.0120   -18.4620 
  114.1250     2.1090    86.0250     7.7320     6.5040     7.9510    22.0120   -18.1620 
  114.2500     2.0990    88.3820     7.8270     6.4860     7.8430    22.0210   -17.7990 
  114.3750     2.0960    87.3470     7.9640     6.5760     7.5460    22.0590   -17.4510 
  114.5000     2.0970    83.2130     8.0370     6.6960     7.5130    22.1720   -17.1310 
  114.6250     2.1040    80.2380     7.9110     6.6990     7.8720    22.3570   -16.8170 
  114.7500     2.1170    80.3460     7.5780     6.5150     8.0980    22.5800   -16.4440 
  114.8750     2.1390    84.7170     7.0800     6.1520     7.6890    22.8440   -16.0290 
  115.0000     2.1660    93.1130     6.5010     5.6880     6.6460    23.3160   -15.6270 
  115.1250     2.1920    99.9700     5.9570     5.2480     5.9620    23.8520   -15.2520 
  115.2500     2.2110   101.7910     5.5380     4.9130     5.9130    24.0820   -14.9240 
  115.3750     2.2200    99.7280     5.3080     4.7020     5.9420    24.0270   -14.6340 
  115.5000     2.2220    96.8550     5.3070     4.6010     5.8680    23.9290   -14.3710 
  115.6250     2.2220    95.3910     5.5530     4.5870     5.8020    23.7130   -14.1260 
  115.7500     2.2240    95.5550     5.9090     4.6130     5.8320    23.4420   -13.9700 
  115.8750     2.2270    95.8700     6.2280     4.6510     5.6230    23.5090   -13.8480 
  116.0000     2.2280    94.4030     6.3660     4.6820     5.7680    23.8640   -13.7380 
  116.1250     2.2260    93.2150     6.2070     4.6850     6.3610    24.0360   -13.5950 
  116.2500     2.2230    95.7270     5.8430     4.6370     6.7460    24.1420   -13.3690 
  116.3750     2.2240   100.8100     5.3800     4.5190     6.3110    24.4290   -13.0390 
  116.5000     2.2310   103.9030     4.9250     4.3340     5.8010    24.7060   -12.6500 
  116.6250     2.2440   101.9300     4.5860     4.1150     5.3670    24.8160   -12.2700 
  116.7500     2.2550   100.2310     4.4010     3.9220     4.9720    24.8290   -11.9230 
  116.8750     2.2580   100.6000     4.3960     3.8060     4.6490    24.7830   -11.6650 
  117.0000     2.2510   100.4980     4.5720     3.8060     4.3760    24.6950   -11.4820 
  117.1250     2.2380    98.4180     4.9050     3.9560     4.5270    24.4670   -11.4160 
  117.2500     2.2270    96.1390     5.2680     4.2090     5.1440    24.0540   -11.4920 
  117.3750     2.2230    93.0820     5.5270     4.4920     5.9050    23.5730   -11.6720 
  117.5000     2.2230    90.7830     5.5510     4.7000     6.2340    23.2100   -11.9200 
  117.6250     2.2230    92.0600     5.2230     4.7150     6.1150    23.2720   -12.1180 
  117.7500     2.2240    94.9340     4.6780     4.5720     5.8430    23.4340   -12.2200 
  117.8750     2.2290    98.8290     4.1080     4.3540     5.6640    23.5560   -12.2140 
  118.0000     2.2450   103.7900     3.7150     4.1470     5.5050    23.6280   -12.1210 
  118.1250     2.2710   105.7600     3.6540     4.0150     5.5880    23.6540   -11.9530 
  118.2500     2.2970   101.6890     3.8110     3.9510     5.9460    23.6710   -11.7360 
  118.3750     2.3130    96.0910     4.0440     3.9350     6.1830    23.7210   -11.5230 
  118.5000     2.3150    93.6010     4.2470     3.9450     5.6320    23.7900   -11.3200 
  118.6250     2.3040    93.0290     4.4130     3.9810     5.3220    23.8250   -11.2690 
  118.7500     2.2900    91.9510     4.6350     4.0580     5.3270    23.8300   -11.3890 
  118.8750     2.2770    90.3870     4.9730     4.1920     5.5230    23.8310   -11.6540 
  119.0000     2.2640    88.3080     5.4010     4.3730     5.5720    23.8320   -11.9940 
  119.1250     2.2510    84.5860     5.7670     4.5330     6.2630    23.8110   -12.3500 
  119.2500     2.2420    81.3510     5.9150     4.5800     7.0000    23.7870   -12.6800 
  119.3750     2.2380    81.8130     5.7780     4.4780     7.3360    23.8230   -12.9540 
