~V
VERS. 2.00: Ver 2.00
~W
STRT.M 40.0000:
STOP.M 275.0000:
STEP.M 0.1250:
NULL. -999.2500:
UWI. F11027:
~C
DEPT.M :
DEN.GM/CC :
GR.API :
RML.OHMM :
RI. :
RXO.OHMM :
CALI.CM :
SP.MV :
~A
# ...
  163.7500     2.3160    77.1230    15.9270    12.1860    14.6060    24.3760    -7.3460 
  163.8750     2.3200    74.9020    16.3450    12.4120    14.6610    24.3620    -7.5840 
  164.0000     2.3210    72.3490    16.8960    12.7630    14.9110    24.3920    -7.7880 
  164.1250     2.3190    72.3220    17.5910    13.2710    15.3260    24.4280    -7.9620 
  164.2500     2.3150    72.1440    18.3840    13.8980    15.9750    24.4550    -8.1180 
  164.3750     2.3100    71.6530    19.2440    14.6130    16.9740    24.4570    -8.2050 
  164.5000     2.3060    73.7780    20.1410    15.3750    17.7830    24.4540    -8.1850 
  164.6250     2.3010    77.1800    21.0420    16.1710    18.4310    24.4730    -8.0700 
  164.7500     2.2960    78.1470    21.8780    16.9900    18.8270    24.5240    -7.9320 
  164.8750     2.2880    78.3350    22.5390    17.7710    19.7800    24.5320    -7.8200 
  165.0000     2.2790    79.1110    22.8830    18.3700    20.9370    24.4760    -7.7330 
  165.1250     2.2710    79.2460    22.7320    18.5460    21.8560    24.4110    -7.6430 
  165.2500     2.2650    78.6370    22.1990    18.2930    21.4120    24.4100    -7.5200 
  165.3750     2.2600    77.8760    21.4440    17.7040    18.0620    24.4370    -7.3730 
  165.5000     2.2550    76.6370    20.6710    16.9930    15.8460    24.4510    -7.2020 
  165.6250     2.2520    75.3130    19.9740    16.4260    15.8210    24.4530    -7.0310 
  165.7500     2.2530    76.4930    19.3000    16.0970    16.3840    24.4460    -6.8790 
  165.8750     2.2590    80.0610    18.6490    15.9820    16.1390    24.4290    -6.7210 
  166.0000     2.2690    81.8160    18.0840    15.9850    15.6740    24.3930    -6.5980 
  166.1250     2.2790    79.7060    17.7400    15.9460    15.2520    24.3410    -6.5400 
  166.2500     2.2850    77.7850    17.6250    15.7850    15.1580    24.2940    -6.5430 
  166.3750     2.2850    79.6930    17.6930    15.6110    15.0740    24.2750    -6.6010 
  166.5000     2.2800    82.2090    18.0780    15.7160    14.9040    24.2300    -6.7570 
  166.6250     2.2660    78.1900    20.4550    16.6920    15.1220    24.0630    -7.0170 
  166.7500     2.2460    72.0510    25.8290    18.9940    17.2710    23.9050    -7.3360 
  166.8750     2.2250    67.2360    34.3830    23.2820    23.4380    23.8960    -7.7060 
  167.0000     2.2080    64.3650    45.9550    30.3100    37.8080    24.0670    -8.0630 
  167.1250     2.2000    62.9660    60.0460    41.0120    51.9570    24.1810    -8.3390 
  167.2500     2.1990    62.6020    73.1050    53.9020    55.2920    24.1640    -8.5420 
  167.3750     2.2010    62.7760    81.3710    66.4850    51.5710    24.0820    -8.7080 
  167.5000     2.2070    62.3290    84.1510    75.4040    49.3670    24.0780    -8.8560 
  167.6250     2.2160    62.5600    82.9940    76.7790    51.6360    24.0670    -8.9890 
  167.7500     2.2290    63.5170    78.2930    71.5830    51.7430    24.0190    -9.0700 
  167.8750     2.2450    63.4960    68.8980    61.9550    44.3350    23.8890    -9.0450 
  168.0000     2.2620    62.1520    56.4280    50.7570    32.6500    23.7610    -8.9360 
  168.1250     2.2760    61.5560    45.4140    40.8610    22.5200    23.7500    -8.7890 
  168.2500     2.2890    64.6710    37.9570    33.4780    19.5310    23.8110    -8.6330 
  168.3750     2.2970    70.7750    33.5930    28.7240    18.8690    23.8500    -8.4590 
  168.5000     2.3000    74.4900    31.8600    26.2390    18.6610    23.8550    -8.2280 
  168.6250     2.2930    71.9320    32.7990    25.9630    18.6530    23.8910    -7.9530 
  168.7500     2.2780    69.0780    35.8600    27.4390    19.8990    23.9370    -7.7640 
  168.8750     2.2580    68.6730    41.1130    30.7480    22.7730    23.9930    -7.7580 
  169.0000     2.2370    68.7300    48.7900    36.1480    25.7540    24.0940    -7.9160 
  169.1250     2.2230    67.7280    59.7320    44.5310    33.7430    24.1750    -8.1830 
  169.2500     2.2170    66.6030    73.7900    55.8620    42.4140    24.2350    -8.4810 
  169.3750     2.2200    63.9260    90.9880    70.1560    45.0160    24.2420    -8.7970 
  169.5000     2.2270    58.7530   111.0190    87.0550    48.0510    24.2180    -9.1860 
  169.6250     2.2320    55.3780   132.5980   105.6490    57.9410    24.2410    -9.6400 
  169.7500     2.2340    56.1780   151.5880   123.4160    70.4730    24.2070   -10.1070 
  169.8750     2.2350    58.1310   163.7210   137.7300    81.7550    24.0630   -10.5190 
  170.0000     2.2370    58.3560   167.6530   146.5700    87.5700    23.8410   -10.8460 
  170.1250     2.2430    58.7520   166.8220   149.0140    80.0510    23.8140   -11.1070 
  170.2500     2.2490    60.7850   167.0330   148.8240    73.7080    23.9560   -11.3430 
  170.3750     2.2510    62.1200   169.4980   149.8600    75.1630    24.1630   -11.5660 
  170.5000     2.2460    60.5140   173.3460   154.4820    82.2820    24.4100   -11.7250 
  170.6250     2.2340    57.9540   174.2540   160.4890    90.2250    24.4780   -11.8130 
  170.7500     2.2230    57.8660   165.9760   160.1260    98.2990    24.5070   -11.8260 
  170.8750     2.2200    59.1250   144.9240   146.7670   108.8840    24.5280   -11.7420 
  171.0000     2.2300    60.3080   114.5990   120.5490    92.4320    24.5850   -11.5300 
  171.1250     2.2520    61.0340    84.4390    90.0290    56.2220    24.6160   -11.1650 
  171.2500     2.2760    70.5910    60.8900    64.7830    35.1370    24.5260   -10.7240 
  171.3750     2.2950    89.7310    44.7490    47.1870    25.2200    24.4150   -10.2550 
  171.5000     2.3080   104.2520    34.7050    36.1430    21.0260    24.4180    -9.8510 
  171.6250     2.3150    99.3620    29.5040    30.2210    18.7720    24.4890    -9.5200 
  171.7500     2.3200    88.2440    27.0720    27.1060    17.3890    24.5320    -9.2130 
  171.8750     2.3230    83.2140    26.7490    26.0340    16.9550    24.6100    -8.9250 
  172.0000     2.3230    83.8460    28.2330    26.6430    17.7750    24.7560    -8.7160 
  172.1250     2.3180    84.0710    31.7730    29.1870    20.1310    24.9010    -8.6290 
  172.2500     2.3090    82.0320    37.1180    33.6160    24.6520    24.9570    -8.6330 
  172.3750     2.2980    75.2440    44.1310    40.0800    29.4990    24.9390    -8.7800 
  172.5000     2.2840    68.0780    52.2890    48.3220    35.5130    24.9110    -9.0150 
  172.6250     2.2730    65.8340    60.4190    57.1200    44.9590    24.8870    -9.2740 
  172.7500     2.2670    65.8270    67.2370    64.3140    51.8030    24.8480    -9.5280 
  172.8750     2.2700    66.5730    72.2790    68.6540    52.9300    24.8090    -9.7900 
  173.0000     2.2750    69.5620    76.1690    70.5290    50.7260    24.7850   -10.0710 
  173.1250     2.2750    73.7860    80.7660    72.0250    47.2790    24.7370   -10.3520 
  173.2500     2.2650    75.5800    87.6810    75.5250    46.2960    24.6740   -10.6840 
  173.3750     2.2450    73.8290    97.3520    82.1230    55.6850    24.6890   -11.0630 
  173.5000     2.2240    69.0850   108.6970    91.3960    67.9920    24.7780   -11.4500 
  173.6250     2.2130    64.6690   118.5600   100.7610    76.2270    24.9020   -11.8840 
  173.7500     2.2150    64.6780   124.0680   106.6940    78.3490    24.9600   -12.3500 
  173.8750     2.2250    68.1860   124.3000   107.4970    74.3450    24.8710   -12.8310 
  174.0000     2.2390    70.3800   120.6420   104.0770    69.5850    24.7310   -13.3540 
  174.1250     2.2480    68.7800   116.0570    99.4030    69.7150    24.7080   -13.8870 
  174.2500     2.2520    65.8260   113.0680    96.3350    73.2980    24.7630   -14.3520 
  174.3750     2.2540    63.9820   112.1650    95.5740    72.1210    24.7790   -14.7080 
  174.5000     2.2540    63.6220   112.6790    96.6030    65.3720    24.7450   -14.9110 
  174.6250     2.2540    63.3610   113.3060    98.3160    61.2810    24.7150   -14.9250 
  174.7500     2.2540    63.3910   112.9460    99.4020    61.8340    24.6840   -14.8710 
  174.8750     2.2560    64.2840   111.3050    99.2740    65.6920    24.6330   -14.8320 
