~V
VERS. 2.00: Ver 2.00
~W
STRT.M 55.0000:
STOP.M 229.0000:
STEP.M 0.1250:
NULL. -999.2500:
UWI. F11013:
~C
DEPT.M :
DEN.GM/CC :
GR.API :
RML.OHMM :
RI. :
RXO.OHMM :
CALI.CM :
SP.MV :
~A
# ...
  178.7500     2.3980    47.4990     6.4880     5.1100     4.3980    24.2430    -6.5450 
  178.8750     2.3990    44.2010     6.5020     5.0660     4.4700    24.1730    -6.6570 
  179.0000     2.4080    43.7900     6.6510     5.1210     4.7810    24.1010    -6.7860 
  179.1250     2.4220    44.2160     6.9450     5.2850     5.1360    24.0530    -6.9340 
  179.2500     2.4370    44.5360     7.3560     5.5480     5.4770    24.0380    -7.1060 
  179.3750     2.4470    45.7250     7.8210     5.8790     5.8700    24.0860    -7.2950 
  179.5000     2.4530    49.2070     8.2420     6.2050     6.1800    24.1220    -7.4960 
  179.6250     2.4600    53.3470     8.5470     6.4730     6.7210    24.1510    -7.7110 
  179.7500     2.4660    56.3810     8.6970     6.6450     7.4150    24.1730    -7.9480 
  179.8750     2.4660    58.6920     8.6740     6.6940     8.0390    24.2050    -8.2340 
  180.0000     2.4610    63.6270     8.5740     6.6680     8.4220    24.2200    -8.5390 
  180.1250     2.4490    73.2530     8.4810     6.6150     8.6540    24.1850    -8.8950 
  180.2500     2.4330    85.2440     8.4640     6.5840     7.7940    24.1630    -9.2960 
  180.3750     2.4140    93.8650     8.5760     6.6190     7.5180    24.3060    -9.7180 
  180.5000     2.4030    98.0790     8.7830     6.7150     8.0560    24.5540   -10.1530 
  180.6250     2.4010    99.5010     9.0430     6.8560     8.6620    24.7050   -10.6060 
  180.7500     2.4030    98.2250     9.2990     7.0120     8.7850    24.7230   -11.0590 
  180.8750     2.4030    93.7890     9.4740     7.1390     8.7620    24.6670   -11.4550 
  181.0000     2.4020    89.6730     9.5290     7.1980     8.6290    24.6580   -11.8330 
  181.1250     2.3970    88.3910     9.4540     7.1690     8.4150    24.7080   -12.1750 
  181.2500     2.3910    88.0930     9.2910     7.0660     8.2620    24.7410   -12.4740 
  181.3750     2.3920    88.3070     9.1430     6.9500     8.2950    24.6620   -12.7500 
  181.5000     2.4020    90.8820     9.1350     6.9110     8.5390    24.4630   -13.0140 
  181.6250     2.4130    94.3700     9.3480     7.0080     8.8730    24.2550   -13.2590 
  181.7500     2.4130    96.3620     9.7960     7.2640     8.9950    24.2210   -13.5050 
  181.8750     2.4010    94.7240    10.4170     7.6630     9.0500    24.3620   -13.7390 
  182.0000     2.3910    91.4040    11.0150     8.0950    11.2760    24.4600   -13.9280 
  182.1250     2.3900    87.2290    11.4110     8.4470    14.4200    24.4720   -14.0620 
  182.2500     2.4000    82.9480    11.4810     8.6170    13.3970    24.4480   -14.1450 
  182.3750     2.4150    84.3520    11.1960     8.5410    10.9990    24.4670   -14.1520 
  182.5000     2.4270    88.4570    10.7680     8.3300    10.1240    24.4780   -14.0770 
  182.6250     2.4300    89.2380    10.3500     8.0810     9.8990    24.4730   -13.8970 
  182.7500     2.4240    87.5230    10.0450     7.8710     9.3290    24.4810   -13.6190 
  182.8750     2.4140    88.7760     9.8950     7.7380     8.7270    24.5500   -13.2590 
  183.0000     2.4080    92.0470     9.8070     7.6420     8.6010    24.6080   -12.8340 
  183.1250     2.4070    93.0080     9.6840     7.5270     8.5980    24.6050   -12.3500 
  183.2500     2.4070    94.7910     9.4390     7.3410     8.4110    24.5980   -11.8110 
  183.3750     2.4060    99.0630     9.0050     7.0390     8.1940    24.5790   -11.2440 
  183.5000     2.4030    99.8390     8.4640     6.6680     7.7390    24.5210   -10.6820 
  183.6250     2.3980    96.1440     7.9550     6.3070     7.1680    24.4530   -10.1340 
  183.7500     2.3940    89.7820     7.6350     6.0540     6.4740    24.3950    -9.6200 
  183.8750     2.4040    81.9220     7.6500     6.0180     5.9240    24.3370    -9.1840 
  184.0000     2.4250    75.4930     7.9160     6.1700     5.7730    24.2460    -8.8230 
  184.1250     2.4450    73.7010     8.2900     6.4330     6.4670    24.2630    -8.5250 
  184.2500     2.4530    75.5810     8.5830     6.6820     7.3480    24.3370    -8.2640 
  184.3750     2.4500    74.3960     8.5870     6.7600     7.6340    24.3450    -8.0210 
  184.5000     2.4450    68.0500     8.3290     6.6540     7.1010    24.3020    -7.7900 
  184.6250     2.4420    60.0390     7.9240     6.4220     6.2300    24.2470    -7.5920 
  184.7500     2.4400    55.0740     7.5180     6.1590     5.9140    24.2390    -7.4020 
  184.8750     2.4390    56.7960     7.2320     5.9500     6.0060    24.3090    -7.1950 
  185.0000     2.4390    60.2100     7.0660     5.8100     6.0960    24.4580    -6.9590 
  185.1250     2.4340    63.8400     6.9880     5.7290     5.8460    24.5520    -6.7100 
  185.2500     2.4250    69.4200     6.9620     5.6920     5.4230    24.3770    -6.4680 
  185.3750     2.4200    75.2330     6.9690     5.6880     5.2660    24.2490    -6.2680 
  185.5000     2.4220    76.2390     6.9820     5.6950     5.3400    24.2060    -6.0890 
  185.6250     2.4270    75.6200     6.9730     5.6920     5.5420    24.1310    -5.9380 
  185.7500     2.4230    79.9280     6.9120     5.6550     5.7510    24.0040    -5.8020 
  185.8750     2.4060    87.3080     6.7820     5.5720     5.8450    23.9470    -5.6790 
  186.0000     2.3830    90.0150     6.6300     5.4750     5.6260    23.9960    -5.5880 
  186.1250     2.3630    85.9320     6.5160     5.4050     5.0840    24.1190    -5.5000 
  186.2500     2.3590    78.0720     6.4920     5.3920     4.5470    24.2500    -5.4280 
  186.3750     2.3770    70.9690     6.5980     5.4680     4.8400    24.2970    -5.3560 
  186.5000     2.4020    70.8850     6.7990     5.6180     5.5990    24.2710    -5.2850 
  186.6250     2.4180    76.2220     7.0420     5.8140     6.3750    24.1320    -5.1990 
  186.7500     2.4220    81.4250     7.2660     6.0170     6.8730    23.9900    -5.1220 
  186.8750     2.4210    82.7970     7.4110     6.1780     7.0830    23.9210    -5.0660 
  187.0000     2.4240    81.5570     7.4830     6.2850     7.2320    23.8720    -5.0210 
  187.1250     2.4300    80.0960     7.5050     6.3390     7.4570    23.8680    -5.0130 
  187.2500     2.4360    79.1210     7.5120     6.3550     7.0120    23.9570    -5.0300 
  187.3750     2.4370    80.0900     7.5380     6.3600     6.8910    24.0050    -5.0660 
  187.5000     2.4300    84.1220     7.6020     6.3810     6.9760    24.0280    -5.1210 
  187.6250     2.4170    90.5050     7.7140     6.4350     7.1730    24.0520    -5.1990 
  187.7500     2.4060    95.3120     7.8910     6.5400     7.1280    24.0670    -5.2790 
  187.8750     2.4080    92.3930     8.1650     6.7220     7.3200    24.0770    -5.3570 
  188.0000     2.4230    84.7810     8.5280     6.9790     7.6820    24.1170    -5.4130 
  188.1250     2.4450    78.3910     8.9750     7.3160     8.0750    24.1180    -5.4600 
  188.2500     2.4600    78.2250     9.4920     7.7340     8.5920    24.1120    -5.5110 
  188.3750     2.4580    82.6060    10.0990     8.2600    10.0820    24.1210    -5.5670 
  188.5000     2.4460    85.2090    10.8670     8.9220    11.1720    24.1200    -5.6260 
  188.6250     2.4360    83.5040    11.9740     9.8220    11.0410    24.0870    -5.6900 
  188.7500     2.4320    79.6740    13.6970    11.1180    11.5450    24.0520    -5.7600 
  188.8750     2.4370    76.6500    16.6480    13.2090    15.2660    24.0400    -5.8280 
  189.0000     2.4460    72.9180    21.0530    16.3620    23.8570    24.0540    -5.9270 
  189.1250     2.4560    69.2110    26.8750    20.8320    36.0250    24.0560    -6.0310 
  189.2500     2.4520    66.6040    33.2390    26.3260    51.7730    24.0560    -6.1250 
  189.3750     2.4240    64.3780    37.3080    30.7830    59.8530    24.0690    -6.2030 
  189.5000     2.3870    62.4820    36.7180    31.5200    72.8590    24.0880    -6.2710 
  189.6250     2.3640    62.3030    31.7270    28.1690    66.1350    24.1230    -6.3350 
  189.7500     2.3620    65.0000    25.2390    23.0950    38.5650    24.1760    -6.3930 
  189.8750     2.3730    67.2280    20.6300    19.1410    18.9140    24.2190    -6.4520 
