~V
VERS. 2.00: Ver 2.00
~W
STRT.M 55.0000:
STOP.M 277.0000:
STEP.M 0.1250:
NULL. -999.2500:
UWI. F11037:
~C
DEPT.M :
SP.MV :
GR.API :
RML.OHMM :
RI. :
RXO.OHMM :
CALI.CM :
DEN.GM/CC :
~A
   55.0000    64.2850    44.2510     2.7740     0.3620     2.4190    25.8890     2.0250 
   55.1250    59.8880    45.0040     2.9040     0.3600     2.3270    25.8960     2.0280 
   55.2500    56.4010    46.3800     2.9190     0.3660     2.0840    25.9010     2.0380 
   55.3750    53.6780    48.3080     2.6610     0.3600     1.8950    25.8950     2.0600 
   55.5000    51.5230    51.3650     2.0930     0.3280     1.7680    25.8750     2.0950 
   55.6250    50.1360    53.8030     1.3980     0.2710     1.6930    25.8390     2.1550 
   55.7500    49.1700    53.9950     0.8620     0.2170     1.8320    25.8270     2.2460 
   55.8750    48.1050    54.8440     0.5760     0.1800     1.9090    25.8200     2.3650 
   56.0000    46.6300    60.7330     0.5110     0.1660     1.7160    25.7370     2.4930 
   56.1250    44.1300    72.0210     0.6420     0.1840     1.9460    25.4330     2.5820 
   56.2500    40.5530    85.3090     0.9370     0.2650     2.7860    24.9790     2.6050 
   56.3750    36.2020    97.2690     1.4320     0.4830     4.0970    24.6010     2.5640 
   56.5000    31.5510   104.2660     2.1590     0.9240     5.3420    24.3770     2.4840 
   56.6250    26.7610   105.5670     3.0860     1.6580     5.7580    24.2880     2.4080 
   56.7500    21.7890   105.6080     4.0250     2.5370     6.0560    24.2480     2.3580 
   56.8750    16.8040   104.8070     4.8760     3.4220     6.4680    24.2040     2.3350 
   57.0000    12.0650   101.7620     5.6670     4.2570     7.0450    24.1060     2.3310 
   57.1250     8.3640    98.0070     6.5150     5.0640     8.0970    23.9930     2.3460 
   57.2500     5.9640    97.5210     7.4040     5.8360     9.5090    24.0190     2.3780 
   57.3750     4.4750   100.1180     8.1790     6.4610    11.2300    24.2440     2.4180 
   57.5000     3.3430   101.8050     8.6760     6.7970    11.1380    24.4180     2.4500 
   57.6250     2.2330    99.6640     8.8530     6.7580     9.8330    24.2640     2.4480 
   57.7500     1.2480    95.7000     8.9450     6.5470     8.0820    23.9050     2.4150 
   57.8750     0.3280    90.7070     9.1060     6.3440     7.7030    23.6060     2.3590 
   58.0000    -0.5350    84.4180     9.3430     6.2830     7.7520    23.4490     2.3000 
   58.1250    -1.3370    80.7150     9.5290     6.4390     7.8520    23.3740     2.2520 
   58.2500    -2.3190    83.2200     9.5440     6.7050     8.0290    23.3110     2.2190 
   58.3750    -3.3100    87.8740     9.3280     6.9380     8.0180    23.2310     2.1990 
   58.5000    -4.0150    89.6450     8.8690     6.9960     7.8000    23.1770     2.1920 
   58.6250    -4.3590    88.7120     8.2250     6.8160     7.8020    23.1880     2.1970 
   58.7500    -4.4050    89.2670     7.6310     6.5580     7.7620    23.3570     2.2110 
   58.8750    -4.1280    92.5090     7.3320     6.3800     7.4180    23.7160     2.2320 
   59.0000    -3.6480    95.6260     7.4890     6.3830     6.9030    24.1860     2.2630 
   59.1250    -3.0270    94.3200     8.0850     6.5950     7.2710    24.5730     2.3050 
   59.2500    -2.3970    90.0060     8.7010     6.8690     9.0120    24.8370     2.3480 
   59.3750    -1.7950    87.8870     8.9610     7.0330    10.9940    24.9780     2.3790 
   59.5000    -1.2450    91.5840     8.6690     6.9360     9.2120    25.0180     2.3840 
   59.6250    -0.8120    98.5220     7.8870     6.5400     7.4380    25.0080     2.3610 
   59.7500    -0.4730   102.6220     7.0390     6.0370     6.4300    25.0350     2.3280 
   59.8750    -0.2790   103.6460     6.4040     5.5800     6.1690    25.0460     2.3020 
   60.0000    -0.1620   105.4920     6.1160     5.2690     5.9820    25.0110     2.2930 
   60.1250    -0.1400   107.8070     6.2210     5.1320     5.8960    24.9580     2.3010 
   60.2500    -0.1590   108.2050     6.5630     5.0940     5.9590    24.9490     2.3100 
   60.3750    -0.2430   108.8000     7.0290     5.1330     6.0620    24.9460     2.3130 
   60.5000    -0.4540   110.8320     7.5110     5.2780     6.1990    24.8800     2.3070 
   60.6250    -0.7810   107.8020     7.9090     5.5950     6.3800    24.7830     2.2980 
   60.7500    -1.1610    99.0140     8.2010     6.0380     7.0190    24.7360     2.2950 
   60.8750    -1.5030    93.9980     8.3890     6.5100     7.9260    24.7730     2.3010 
   61.0000    -1.9240    96.4470     8.4690     6.8890     8.8550    24.8760     2.3120 
   61.1250    -2.4670    97.4330     8.4030     7.0450     7.9360    24.9180     2.3150 
   61.2500    -2.9350    96.1490     8.2140     7.0020     7.7390    24.8260     2.3090 
   61.3750    -3.3520    96.7540     7.9380     6.7960     8.6370    24.6790     2.2960 
   61.5000    -3.7040   101.1710     7.6250     6.4650     9.5810    24.5630     2.2830 
   61.6250    -3.7210   103.8790     7.3180     6.0300     8.2940    24.6590     2.2770 
   61.7500    -3.6300   105.1670     7.0390     5.5570     6.7360    24.8370     2.2720 
   61.8750    -3.5100   107.9250     6.8390     5.1580     6.0970    25.0210     2.2640 
   62.0000    -3.2750   111.2540     6.8280     4.9870     6.1880    25.1550     2.2520 
   62.1250    -3.0580   112.4900     7.2170     5.2480     6.2660    25.2200     2.2500 
   62.2500    -2.8950   109.3470     8.0050     5.9220     6.6970    25.1930     2.2740 
   62.3750    -2.8020   100.8810     9.0370     6.9070     8.6120    25.1170     2.3330 
   62.5000    -2.8330    89.9630     9.9660     7.9220    12.5090    25.0000     2.4160 
   62.6250    -3.1000    81.0990    10.3160     8.4570    12.1690    24.8350     2.4860 
   62.7500    -3.5390    75.2320    10.0850     8.3810     8.8740    24.6870     2.5080 
   62.8750    -4.0480    71.9270     9.5200     7.9090     7.4590    24.5730     2.4700 
   63.0000    -4.5820    72.0970     8.9560     7.4020     8.2150    24.4960     2.3900 
   63.1250    -5.0080    74.9250     8.6530     7.1690     8.8240    24.4780     2.3000 
   63.2500    -5.3880    76.8210     8.5690     7.2160     8.8850    24.4960     2.2290 
   63.3750    -5.7680    76.3230     8.5700     7.4040     8.6930    24.5200     2.1820 
   63.5000    -5.9640    76.8330     8.4840     7.5000     8.3790    24.5370     2.1550 
   63.6250    -5.9660    81.5580     8.1420     7.2700     8.2050    24.5770     2.1470 
   63.7500    -5.8400    89.5330     7.5730     6.7880     8.0000    24.6800     2.1590 
   63.8750    -5.6430    98.3890     6.8800     6.2030     7.3940    24.8410     2.1930 
   64.0000    -5.4100   104.1820     6.2160     5.6660     6.7280    25.0260     2.2450 
   64.1250    -5.1380   105.1920     5.7990     5.3170     6.3370    25.1640     2.3000 
   64.2500    -4.8030   104.9640     5.7230     5.1990     6.1890    25.2340     2.3400 
   64.3750    -4.3280   106.2140     6.0200     5.3440     6.1860    25.2190     2.3530 
   64.5000    -3.9910   107.1710     6.6310     5.7500     6.3980    25.1030     2.3410 
   64.6250    -3.8820   100.4450     7.3950     6.3800     7.2640    24.8410     2.3080 
   64.7500    -3.8410    88.1270     8.0310     7.0400     8.6690    24.5180     2.2720 
   64.8750    -3.8660    79.7470     8.3340     7.5050     9.4700    24.3060     2.2420 
   65.0000    -3.7980    82.0350     8.2140     7.5740     9.1530    24.3160     2.2280 
   65.1250    -3.7240    91.4360     7.7180     7.1720     8.0220    24.4990     2.2350 
   65.2500    -3.7910    97.8450     7.1460     6.5640     7.3200    24.7160     2.2580 
   65.3750    -3.8820   101.1860     6.7290     5.9560     6.8460    24.8370     2.2840 
   65.5000    -3.9590   104.9770     6.6270     5.5170     6.5460    24.8280     2.3020 
   65.6250    -4.0340   107.1310     6.9680     5.4220     6.5150    24.7050     2.3080 
   65.7500    -4.1060   103.4680     7.6840     5.6880     7.1970    24.5140     2.3130 
   65.8750    -4.2380    95.0570     8.7850     6.3480     8.9540    24.3200     2.3290 
   66.0000    -4.5010    85.9400    10.3180     7.4510    11.5770    24.1870     2.3600 
   66.1250    -4.8780    79.0430    12.3580     9.0840    15.5770    24.1260     2.3960 
