~V
VERS. 2.00: Ver 2.00
~W
STRT.M 63.0000:
STOP.M 273.0000:
STEP.M 0.1250:
NULL. -999.2500:
UWI. F11030:
~C
DEPT.M :
DEN.GM/CC :
GR.API :
RML.OHMM :
RI. :
RXO.OHMM :
CALI.CM :
SP.MV :
~A
# ...
  141.7500     2.3000    97.0360     5.3650     4.6940     4.5820    24.7190    -5.2590 
  141.8750     2.2800    97.9880     5.2740     4.5710     4.3690    24.6120    -5.3220 
  142.0000     2.2770    97.3390     5.2400     4.4920     4.3030    24.5100    -5.3950 
  142.1250     2.2820    95.8840     5.2580     4.4600     4.3700    24.3550    -5.4570 
  142.2500     2.2850    93.3840     5.2930     4.4500     4.4470    24.1680    -5.4990 
  142.3750     2.2840    89.4590     5.3190     4.4450     4.4280    24.0160    -5.5450 
  142.5000     2.2840    87.3040     5.3230     4.4300     4.3620    23.9770    -5.5620 
  142.6250     2.2870    90.0590     5.3090     4.3950     4.3640    24.0960    -5.4570 
  142.7500     2.2880    92.4960     5.2930     4.3530     4.3530    24.1570    -5.3160 
  142.8750     2.2840    90.4030     5.2910     4.3190     4.3120    24.0540    -5.2740 
  143.0000     2.2770    85.6700     5.3090     4.3020     4.2600    23.8360    -5.3620 
  143.1250     2.2750    84.7950     5.3470     4.3100     4.2890    23.6530    -5.4520 
  143.2500     2.2830    86.3780     5.3990     4.3330     4.3560    23.5500    -5.4950 
  143.3750     2.2990    89.0610     5.4600     4.3670     4.4250    23.5180    -5.5230 
  143.5000     2.3200    93.0080     5.5250     4.4100     4.4700    23.5250    -5.5820 
  143.6250     2.3370    95.3930     5.5890     4.4560     4.5410    23.5390    -5.7150 
  143.7500     2.3490    94.6640     5.6470     4.4950     4.6170    23.5380    -5.8350 
  143.8750     2.3560    93.3020     5.6930     4.5190     4.6720    23.4970    -5.8990 
  144.0000     2.3610    93.7870     5.7230     4.5230     4.7070    23.4780    -5.9080 
  144.1250     2.3710    94.4040     5.7280     4.5060     4.7220    23.5150    -5.8760 
  144.2500     2.3820    95.1020     5.7180     4.4740     4.7230    23.5680    -5.7580 
  144.3750     2.3870    95.2690     5.7090     4.4380     4.7540    23.6140    -5.6050 
  144.5000     2.3760    93.8510     5.7200     4.4100     4.8080    23.6360    -5.4750 
  144.6250     2.3490    92.3540     5.7690     4.4110     4.8630    23.6080    -5.3800 
  144.7500     2.3230    91.9130     5.8470     4.4430     4.8830    23.5480    -5.2990 
  144.8750     2.3110    90.7650     5.9330     4.5010     5.0350    23.5010    -5.1730 
  145.0000     2.3190    85.9290     6.0050     4.5650     5.2450    23.5130    -4.9960 
  145.1250     2.3410    81.1130     6.0400     4.6100     5.1970    23.5940    -4.8850 
  145.2500     2.3610    81.9740     6.0470     4.6300     5.0190    23.7100    -4.8930 
  145.3750     2.3700    87.7000     6.0420     4.6320     4.9380    23.7480    -4.9660 
  145.5000     2.3650    92.4780     6.0420     4.6280     4.9910    23.7270    -5.0300 
  145.6250     2.3430    91.8530     6.0580     4.6250     5.0100    23.7350    -5.0530 
  145.7500     2.3090    90.5370     6.0780     4.6220     4.9890    23.8490    -5.0690 
  145.8750     2.2750    91.1410     6.0920     4.6170     5.0730    23.8980    -5.0810 
  146.0000     2.2520    91.7330     6.0880     4.6070     5.2010    23.7730    -5.0430 
  146.1250     2.2550    93.8150     6.0690     4.5930     5.2070    23.6080    -4.9680 
  146.2500     2.2800    97.7260     6.0490     4.5780     5.0000    23.7080    -4.9800 
  146.3750     2.3150   100.2760     6.0380     4.5690     4.8750    24.0530    -4.9960 
  146.5000     2.3450    99.1300     6.0420     4.5690     4.8340    24.4960    -5.0030 
  146.6250     2.3580    96.4150     6.0590     4.5820     4.8430    24.7510    -5.0350 
  146.7500     2.3560    96.6520     6.0840     4.5960     4.8670    24.8480    -4.9830 
  146.8750     2.3450    99.5110     6.1100     4.6030     4.9140    24.8530    -4.8570 
  147.0000     2.3350   102.6000     6.1340     4.6000     4.9360    24.8500    -4.8300 
  147.1250     2.3360   101.2370     6.1550     4.5910     4.9410    24.8400    -4.8860 
  147.2500     2.3500    95.6880     6.1740     4.5850     4.9330    24.8280    -4.7900 
  147.3750     2.3730    89.8740     6.1900     4.5880     4.9250    24.7530    -4.6340 
  147.5000     2.3980    85.2770     6.2000     4.6010     4.9280    24.6490    -4.4640 
  147.6250     2.4120    83.5070     6.1970     4.6210     4.8950    24.5260    -4.2060 
  147.7500     2.4110    83.7720     6.1810     4.6400     4.8740    24.4260    -3.9980 
  147.8750     2.3990    85.5670     6.1550     4.6500     4.8400    24.2880    -3.9300 
  148.0000     2.3840    88.0430     6.1270     4.6450     4.8150    24.0820    -3.8720 
  148.1250     2.3760    89.6290     6.0990     4.6200     4.8400    23.9240    -3.6690 
  148.2500     2.3800    90.3120     6.0630     4.5790     4.8450    23.8210    -3.4100 
  148.3750     2.3910    89.8370     6.0060     4.5220     4.8350    24.0140    -3.0900 
  148.5000     2.4030    89.5940     5.9180     4.4470     4.8270    24.4030    -2.7010 
  148.6250     2.4090    89.1770     5.8010     4.3540     4.7640    24.7670    -2.3980 
  148.7500     2.4050    88.6250     5.6740     4.2560     4.6310    24.9110    -2.1820 
  148.8750     2.3930    90.8850     5.5530     4.1650     4.4820    24.9010    -1.9160 
  149.0000     2.3780    94.5530     5.4500     4.0920     4.3190    24.8280    -1.5700 
  149.1250     2.3670    94.9610     5.3730     4.0410     4.1550    24.7010    -1.3570 
  149.2500     2.3620    92.5920     5.3190     4.0060     4.1560    24.5890    -1.3170 
  149.3750     2.3610    91.2930     5.2820     3.9780     4.2190    24.4890    -1.3470 
  149.5000     2.3580    91.5000     5.2580     3.9540     4.2230    24.4250    -1.4700 
  149.6250     2.3500    92.1550     5.2430     3.9340     4.4750    24.4580    -1.6230 
  149.7500     2.3440    93.1810     5.2330     3.9190     4.8110    24.5500    -1.7130 
  149.8750     2.3470    94.2230     5.2280     3.9160     4.9910    24.6630    -1.8480 
  150.0000     2.3590    94.1490     5.2300     3.9290     4.7750    24.7280    -2.1160 
  150.1250     2.3780    92.8220     5.2430     3.9580     4.5470    24.5820    -2.3900 
  150.2500     2.3940    92.3900     5.2630     3.9960     4.4590    24.2240    -2.6010 
  150.3750     2.4030    93.0760     5.2860     4.0320     4.4450    23.9230    -2.8370 
  150.5000     2.4070    93.7860     5.3060     4.0590     4.4270    23.9350    -3.0540 
  150.6250     2.4080    92.7920     5.3150     4.0680     4.4100    24.2550    -3.1900 
  150.7500     2.4120    89.8640     5.3170     4.0640     4.4510    24.4310    -3.3030 
  150.8750     2.4200    87.3770     5.3210     4.0570     4.4840    24.3880    -3.3610 
  151.0000     2.4300    87.3700     5.3450     4.0600     4.4880    24.2370    -3.3330 
  151.1250     2.4340    90.2460     5.4100     4.0970     4.4350    24.1630    -3.3400 
  151.2500     2.4270    93.7370     5.5120     4.1750     4.4690    24.3010    -3.4590 
  151.3750     2.4050    97.3730     5.6310     4.2840     4.6420    24.4990    -3.5540 
  151.5000     2.3720   100.2790     5.7290     4.3920     4.7320    24.6950    -3.5660 
  151.6250     2.3290   100.5730     5.7570     4.4430     4.8200    24.6660    -3.6120 
  151.7500     2.2820    98.7730     5.7180     4.4260     4.9770    24.7450    -3.6520 
  151.8750     2.2400    96.0570     5.6430     4.3590     4.9980    25.0070    -3.6220 
  152.0000     2.2130    93.2720     5.5810     4.2820     4.6340    25.2160    -3.6190 
  152.1250     2.2210    90.9150     5.5930     4.2430     4.4370    24.9960    -3.6820 
  152.2500     2.2560    91.2950     5.6870     4.2640     4.7230    24.4080    -3.6760 
  152.3750     2.3020    94.2430     5.8540     4.3580     5.1740    23.8770    -3.6790 
  152.5000     2.3380    95.7860     6.0890     4.5310     5.1930    23.6940    -3.7990 
  152.6250     2.3460    95.0900     6.4070     4.8000     5.1230    23.7160    -3.9520 
  152.7500     2.3350    97.5260     6.8120     5.1540     5.3010    23.7080    -4.0450 
  152.8750     2.3190   102.7070     7.2990     5.5930     5.7430    23.6570    -4.1680 
