~V
VERS. 2.00: Ver 2.00
~W
STRT.M 52.0000:
STOP.M 279.0000:
STEP.M 0.1250:
NULL. -999.2500:
UWI. F11031:
~C
DEPT.M :
DEN.GM/CC :
GR.API :
RML.OHMM :
RI. :
RXO.OHMM :
CALI.CM :
SP.MV :
~A
# ...
   97.0000     2.1990    62.6430     9.8570     6.7030     9.4730    22.6590   -24.9490 
   97.1250     2.2030    61.9550    10.2720     7.0460     9.9930    22.5500   -24.7520 
   97.2500     2.2050    61.2480    10.4250     7.2830    10.1220    22.4190   -24.5700 
   97.3750     2.2050    61.5020    10.3410     7.3730    10.0330    22.3520   -24.4070 
   97.5000     2.2020    62.4820    10.1390     7.3380     9.8500    22.3810   -24.3260 
   97.6250     2.1970    63.2430     9.9670     7.2480     9.6400    22.4920   -24.3430 
   97.7500     2.1910    64.0940     9.8950     7.1820     9.3630    22.5060   -24.3200 
   97.8750     2.1850    63.8400     9.9270     7.1650     9.0340    22.3130   -24.2830 
   98.0000     2.1810    61.7750    10.0310     7.1930     8.6730    21.9950   -24.3260 
   98.1250     2.1820    61.3030    10.1610     7.2480     8.5840    21.2300   -24.4340 
   98.2500     2.1870    61.6590    10.2700     7.3030     8.5860    20.5520   -24.5790 
   98.3750     2.1930    61.8180    10.3240     7.3340     8.5770    20.2980   -24.8110 
   98.5000     2.1950    62.7560    10.2930     7.3260     8.7330    20.2760   -25.1130 
   98.6250     2.1900    65.5440    10.1510     7.2630     8.9350    20.3640   -25.4210 
   98.7500     2.1820    67.4450     9.9380     7.1660     9.0380    20.5210   -25.7200 
   98.8750     2.1730    68.2630     9.6960     7.0540     9.0710    20.7290   -26.0000 
   99.0000     2.1680    68.2200     9.4770     6.9530     9.0610    20.8670   -26.1990 
   99.1250     2.1680    64.3050     9.3400     6.8900     9.0880    20.9550   -26.3040 
   99.2500     2.1700    58.2170     9.2880     6.8640     9.1870    21.0420   -26.2960 
   99.3750     2.1730    56.2980     9.3010     6.8700     9.2610    21.1030   -26.1460 
   99.5000     2.1750    59.8880     9.3400     6.8940     9.1160    21.0690   -25.8930 
   99.6250     2.1800    62.3850     9.3600     6.9220     8.8790    20.9220   -25.5560 
   99.7500     2.1930    60.5050     9.3400     6.9380     8.5790    20.8730   -25.1700 
   99.8750     2.2130    57.5000     9.2900     6.9330     8.3960    20.8320   -24.7290 
  100.0000     2.2330    57.5970     9.2320     6.9030     8.5230    20.9480   -24.2200 
  100.1250     2.2400    62.1100     9.1730     6.8480     8.9570    21.2540   -23.6080 
  100.2500     2.2330    65.8430     9.0990     6.7830     9.1480    21.6530   -22.9690 
  100.3750     2.2160    65.3220     8.9770     6.7070     9.2260    21.8090   -22.3070 
  100.5000     2.2000    62.0910     8.7650     6.5890     9.2420    21.8820   -21.5470 
  100.6250     2.1970    61.1050     8.4460     6.3800     9.0900    21.8900   -20.6900 
  100.7500     2.2080    64.6080     8.1120     6.1160     8.8720    21.9020   -19.8440 
  100.8750     2.2300    70.8970     7.8530     5.8710     8.2540    22.1110   -19.0240 
  101.0000     2.2580    75.0790     7.7430     5.7240     7.0960    22.2670   -18.3110 
  101.1250     2.2870    74.9160     7.8570     5.7600     6.7690    22.5300   -17.8780 
  101.2500     2.3100    72.9060     8.1400     5.9530     8.3020    22.8050   -17.6670 
  101.3750     2.3160    70.5020     8.4870     6.2400    11.0470    22.6460   -17.5980 
  101.5000     2.3040    65.4770     8.7570     6.5250    10.8800    22.1860   -17.6520 
  101.6250     2.2750    59.6140     8.8230     6.7040     8.9050    21.4910   -17.8620 
  101.7500     2.2420    58.7400     8.7410     6.7670     8.0700    21.2240   -18.1400 
  101.8750     2.2120    62.6900     8.6180     6.7510     7.8730    20.9620   -18.4270 
  102.0000     2.1870    64.5400     8.5630     6.7170     7.8250    20.8050   -18.6400 
  102.1250     2.1680    60.7830     8.6230     6.7130     7.6860    20.7750   -18.7160 
  102.2500     2.1520    57.5800     8.7150     6.7280     7.6390    20.7820   -18.6770 
  102.3750     2.1390    57.7980     8.7640     6.7450     7.8900    20.8170   -18.5860 
  102.5000     2.1310    59.3670     8.7400     6.7530     8.7750    21.0270   -18.4990 
  102.6250     2.1320    59.1580     8.6350     6.7400     9.4800    21.4130   -18.3910 
  102.7500     2.1400    58.9100     8.4750     6.6860     9.8820    21.9370   -18.2460 
  102.8750     2.1540    58.6260     8.2840     6.5800     9.8930    22.4160   -18.1190 
  103.0000     2.1710    57.6900     8.0980     6.4250     9.6940    22.6470   -18.0720 
  103.1250     2.1870    56.7850     7.9800     6.2570     9.3520    22.7440   -18.0650 
  103.2500     2.2000    59.6400     7.9740     6.1360     9.0540    22.8070   -18.1050 
  103.3750     2.2100    65.4420     8.1080     6.1090     8.9720    22.9060   -18.2540 
  103.5000     2.2140    68.1320     8.3670     6.1950     9.1850    23.0080   -18.4860 
  103.6250     2.2130    65.6720     8.6920     6.3970     9.7540    23.1090   -18.7590 
  103.7500     2.2070    63.2460     8.9870     6.6440    10.3840    23.1690   -19.0750 
  103.8750     2.2010    64.2090     9.1990     6.8750    10.7710    23.1700   -19.4140 
  104.0000     2.1960    66.1830     9.3110     7.0430    11.0120    23.1900   -19.7310 
  104.1250     2.1940    65.7140     9.3370     7.1240    11.1450    23.2070   -19.9980 
  104.2500     2.1930    64.7070     9.3360     7.1510    11.1040    23.2540   -20.2160 
  104.3750     2.1920    62.5090     9.3390     7.1540    10.8680    23.3000   -20.3560 
  104.5000     2.1900    58.7020     9.3530     7.1560    10.6590    23.2270   -20.4330 
  104.6250     2.1880    55.3930     9.3620     7.1650    10.4940    23.1240   -20.4680 
  104.7500     2.1870    55.8770     9.3500     7.1760    10.4150    23.1680   -20.4990 
  104.8750     2.1850    58.7380     9.3220     7.1860    10.4370    23.2420   -20.5450 
  105.0000     2.1820    59.4130     9.3160     7.2070    10.4720    23.2570   -20.5850 
  105.1250     2.1780    60.0250     9.4040     7.2760    10.5300    23.1480   -20.5920 
  105.2500     2.1790    61.7870     9.5770     7.3980    10.7050    22.9080   -20.6060 
  105.3750     2.1950    62.5250     9.7690     7.5380    10.9680    22.6880   -20.6100 
  105.5000     2.2280    61.8770     9.8880     7.6410    11.1460    22.4780   -20.5780 
  105.6250     2.2670    62.4550     9.8630     7.6480    11.0910    22.2490   -20.5320 
  105.7500     2.2910    64.4000     9.7520     7.5700    10.6930    21.9990   -20.5380 
  105.8750     2.2900    64.7430     9.6400     7.4480     9.8960    21.8390   -20.5900 
  106.0000     2.2660    63.0860     9.6060     7.3500     9.2400    21.7740   -20.7370 
  106.1250     2.2340    61.0550     9.6680     7.3340    10.0230    21.8640   -21.0580 
  106.2500     2.2110    59.9120     9.7350     7.3720    11.4860    21.9470   -21.4570 
  106.3750     2.1990    60.0180     9.7400     7.4120    11.9330    21.9060   -21.8590 
  106.5000     2.1930    60.1830     9.6610     7.4020    11.5780    21.8170   -22.3170 
  106.6250     2.1890    59.0870     9.5360     7.3100    11.1830    21.6970   -22.8200 
  106.7500     2.1880    58.7090     9.4490     7.1910    10.9450    21.6800   -23.2350 
  106.8750     2.1900    58.6050     9.4390     7.1110    10.7950    21.8370   -23.5680 
  107.0000     2.1960    57.3310     9.4820     7.1030    10.8070    22.1800   -23.8360 
  107.1250     2.2040    57.0470     9.5180     7.1610    11.3850    21.9990   -23.9700 
  107.2500     2.2110    59.3800     9.5350     7.2330    12.1380    21.9680   -23.9920 
  107.3750     2.2120    61.3060     9.5480     7.2890    11.9660    22.0520   -23.9900 
  107.5000     2.2090    60.7710     9.5420     7.3110    11.0800    22.1500   -23.9700 
  107.6250     2.2030    59.4950     9.4600     7.2790    10.4800    22.2220   -23.9000 
  107.7500     2.1970    58.1160     9.2820     7.2000    10.3640    22.2470   -23.7930 
  107.8750     2.1930    56.1730     9.0250     7.0820    10.1870    22.2940   -23.6630 
  108.0000     2.1920    56.9620     8.7380     6.9340     9.6970    22.3070   -23.4750 
  108.1250     2.1930    62.1690     8.4800     6.7740     9.0130    22.2120   -23.2490 
