~V
VERS. 2.00: Ver 2.00
~W
STRT.M 55.0000:
STOP.M 274.0000:
STEP.M 0.1250:
NULL. -999.2500:
UWI. F11049:
~C
DEPT.M :
SP.MV :
GR.API :
RML.OHMM :
RI. :
RXO.OHMM :
CALI.CM :
DEN.GM/CC :
~A
# ...
   77.5000   -13.3920    88.1090     9.6360     7.2370     5.2370    24.1310     2.3180 
   77.6250   -12.6610    88.7710    12.7330     8.6900     6.5050    24.1480     2.3750 
   77.7500   -12.0430    86.8460    17.8050    11.4390    10.4860    24.1560     2.4650 
   77.8750   -11.6170    80.8810    23.9950    15.3610    21.2630    24.1580     2.5600 
   78.0000   -11.4250    75.3760    28.7840    19.1640    42.9720    24.1540     2.6240 
   78.1250   -11.3580    76.6840    27.5760    19.5140    61.5990    24.1410     2.6230 
   78.2500   -11.2960    82.3770    21.3580    16.2620    40.3140    24.1280     2.5660 
   78.3750   -11.2810    90.0400    14.1030    11.8270    15.1700    24.1310     2.4790 
   78.5000   -11.3870    97.7710     8.8160     8.2330     5.6450    24.1440     2.4020 
   78.6250   -11.6840   102.6800     6.3620     6.2010     3.4660    24.1410     2.3600 
   78.7500   -12.0790   103.9610     5.5870     5.2290     3.3710    24.1290     2.3380 
   78.8750   -12.4690   102.2770     5.8340     5.0120     4.0740    24.1100     2.3190 
   79.0000   -12.8200    98.0180     6.5990     5.2980     5.6250    24.0770     2.2900 
   79.1250   -13.2450    91.5150     7.3830     5.8210     7.1940    24.0190     2.2610 
   79.2500   -13.7710    85.1090     7.8460     6.2730     6.2880    24.0040     2.2440 
   79.3750   -14.3250    82.5640     7.9760     6.5520     5.2860    24.0010     2.2400 
   79.5000   -14.8200    84.5900     7.9500     6.7010     5.2300    23.9950     2.2390 
   79.6250   -15.1770    87.2460     7.9750     6.8280     5.9680    23.9800     2.2330 
   79.7500   -15.4570    85.9410     8.1130     6.9950     5.9650    23.9710     2.2260 
   79.8750   -15.7690    80.2430     8.3040     7.1770     6.0880    23.9660     2.2220 
   80.0000   -16.1060    74.5370     8.4480     7.2980     6.3520    23.9650     2.2200 
   80.1250   -16.2940    72.9950     8.4830     7.2840     6.3850    23.9710     2.2250 
   80.2500   -16.3340    75.8820     8.4650     7.1740     6.2580    23.9840     2.2340 
   80.3750   -16.2930    79.7050     8.4230     7.0130     6.0550    23.9950     2.2440 
   80.5000   -16.2450    80.7350     8.3500     6.8280     6.0000    23.9920     2.2520 
   80.6250   -16.2600    81.0380     8.1920     6.6250     6.3390    23.9740     2.2590 
   80.7500   -16.2810    81.9620     7.9110     6.3860     6.6020    23.9670     2.2710 
   80.8750   -16.2010    83.2770     7.5050     6.0920     6.2120    23.9680     2.2910 
   81.0000   -16.0110    84.3210     7.0910     5.7870     5.5570    23.9760     2.3190 
   81.1250   -15.8930    86.7340     6.9960     5.6280     5.4870    23.9940     2.3490 
   81.2500   -15.9340    90.1010     7.4510     5.7470     5.1930    24.0000     2.3680 
   81.3750   -16.1350    90.0350     8.5990     6.2410     5.6720    23.9940     2.3720 
   81.5000   -16.4550    83.8160    10.4070     7.1440     8.8050    23.9760     2.3640 
   81.6250   -16.8180    72.5420    12.5090     8.3820    17.3520    23.9680     2.3510 
   81.7500   -17.2230    62.7350    14.0890     9.5400    22.9520    23.9640     2.3280 
   81.8750   -17.7660    59.0660    14.5640    10.2270    17.4420    23.9620     2.2920 
   82.0000   -18.4620    60.3600    13.9470    10.2910    12.9120    23.9630     2.2590 
   82.1250   -19.1480    62.3760    12.8550     9.9120    12.1880    23.9750     2.2530 
   82.2500   -19.7210    62.9730    12.0450     9.5170    12.1890    23.9930     2.2660 
   82.3750   -20.1530    62.2800    11.7390     9.2990    12.4600    23.9950     2.2820 
   82.5000   -20.4620    60.4640    11.8090     9.2710    13.6200    23.9790     2.2900 
   82.6250   -20.7330    59.9240    11.9420     9.3100    13.0070    23.9650     2.2790 
   82.7500   -20.9980    61.2780    11.9200     9.2830    12.1970    23.9570     2.2550 
   82.8750   -21.1440    63.4110    11.7490     9.1670    11.2490    23.9590     2.2260 
   83.0000   -21.1190    64.2680    11.5050     8.9900    10.8800    23.9700     2.1990 
   83.1250   -21.0380    64.2880    11.2580     8.7890    10.7580    23.9920     2.1810 
   83.2500   -20.9720    65.1850    11.0400     8.6000    10.5790    24.0020     2.1730 
   83.3750   -20.9430    66.5620    10.8530     8.4350    10.4680    24.0010     2.1750 
   83.5000   -20.9470    67.1640    10.6900     8.2990    10.3890    23.9920     2.1850 
   83.6250   -20.9010    66.7130    10.5720     8.1990    10.1270    23.9740     2.1980 
   83.7500   -20.7630    65.8820    10.5170     8.1380     9.8810    23.9670     2.2050 
   83.8750   -20.6210    65.6980    10.5340     8.1160     9.6790    23.9640     2.2050 
   84.0000   -20.5970    66.0520    10.6030     8.1280     9.6090    23.9670     2.1990 
   84.1250   -20.6900    64.4630    10.7040     8.1660     9.7900    23.9770     2.1940 
   84.2500   -20.8100    61.8400    10.8140     8.2160     9.9960    23.9930     2.1950 
   84.3750   -20.8890    60.4700    10.9250     8.2730    10.1910    23.9930     2.1990 
   84.5000   -20.9130    61.3100    11.0250     8.3270    10.2290    23.9760     2.2050 
   84.6250   -20.9800    62.2950    11.0970     8.3660    10.1690    23.9680     2.2130 
   84.7500   -21.1690    61.3320    11.1230     8.3800    10.2920    23.9650     2.2200 
   84.8750   -21.4120    58.7050    11.0800     8.3580    10.4370    23.9680     2.2220 
   85.0000   -21.5580    57.5560    10.9690     8.3010    10.4690    23.9760     2.2180 
   85.1250   -21.5870    62.3010    10.8170     8.2240    10.2830    23.9940     2.2110 
   85.2500   -21.6190    68.2090    10.6900     8.1570    10.2070    24.0000     2.2060 
   85.3750   -21.7100    68.7370    10.6470     8.1240    10.2590    23.9940     2.2060 
   85.5000   -21.8500    63.8660    10.7450     8.1520    10.3950    23.9760     2.2100 
   85.6250   -21.9530    60.1430    11.0410     8.2760    10.3280    23.9680     2.2210 
   85.7500   -21.9250    59.8800    11.4790     8.4860    10.3730    23.9650     2.2390 
   85.8750   -21.7970    61.3870    11.9780     8.7610    10.8470    23.9650     2.2650 
   86.0000   -21.7020    62.0000    12.4120     9.0420    11.6430    23.9650     2.2850 
   86.1250   -21.6870    61.1900    12.5860     9.2160    12.7380    23.9710     2.2690 
   86.2500   -21.6460    60.7630    12.4470     9.2210    14.0040    23.9840     2.2220 
   86.3750   -21.4990    61.1320    12.0290     9.0470    14.5890    23.9950     2.1750 
   86.5000   -21.2420    62.1170    11.4640     8.7500    12.0350    23.9920     2.1510 
   86.6250   -20.9640    63.4040    10.9460     8.4340    10.3900    23.9740     2.1550 
   86.7500   -20.7770    64.3100    10.6030     8.1920     9.7370    23.9670     2.1680 
   86.8750   -20.7140    64.9040    10.4690     8.0590     9.7110    23.9650     2.1820 
   87.0000   -20.6610    64.6140    10.5110     8.0350     9.8050    23.9690     2.1920 
   87.1250   -20.5120    61.4360    10.6660     8.1000     9.9210    23.9800     2.1950 
   87.2500   -20.3670    57.6070    10.8380     8.1940     9.9340    23.9960     2.1940 
   87.3750   -20.3130    58.4760    10.9840     8.2850     9.9830    24.0000     2.1940 
   87.5000   -20.3720    65.0110    11.0860     8.3540    10.1200    23.9920     2.1970 
   87.6250   -20.4710    68.9870    11.1180     8.3940    10.2350    23.9740     2.1990 
   87.7500   -20.4840    67.6610    11.0900     8.4170    10.1770    23.9670     2.1960 
   87.8750   -20.3740    64.9230    11.0200     8.4350    10.1400    23.9650     2.1880 
   88.0000   -20.2420    63.9140    10.9430     8.4540    10.1580    23.9650     2.1790 
   88.1250   -20.1820    64.9790    10.9010     8.4720    10.2020    23.9710     2.1750 
   88.2500   -20.0980    67.1400    10.9080     8.4930    10.1190    23.9840     2.1760 
   88.3750   -19.9310    68.5380    10.9650     8.5230    10.2060    23.9980     2.1780 
   88.5000   -19.6420    67.4270    11.0710     8.5760    10.4340    24.0040     2.1800 
   88.6250   -19.2480    65.4800    11.2290     8.6690    10.6500    23.9980     2.1870 
