~V
VERS. 2.00: Ver 2.00
~W
STRT.M 55.0000:
STOP.M 229.0000:
STEP.M 0.1250:
NULL. -999.2500:
UWI. F11013:
~C
DEPT.M :
DEN.GM/CC :
GR.API :
RML.OHMM :
RI. :
RXO.OHMM :
CALI.CM :
SP.MV :
~A
# ...
  167.5000     2.2750    68.7990    73.5780    68.1280    49.1130    23.9540   -12.7250 
  167.6250     2.2790    67.4400    75.1350    69.5690    51.6330    23.8870   -12.9460 
  167.7500     2.2860    66.9430    76.7060    71.0240    51.6330    23.8460   -13.1370 
  167.8750     2.2930    65.9980    76.9970    71.2930    49.8560    23.8860   -13.3470 
  168.0000     2.2990    64.4690    75.8290    70.2120    51.4470    23.9820   -13.6130 
  168.1250     2.3060    64.6660    73.9220    68.4460    54.6510    24.1070   -13.9050 
  168.2500     2.3120    66.3020    72.6430    67.2620    54.1940    24.1890   -14.1980 
  168.3750     2.3140    68.1520    73.9100    68.4350    51.4170    24.2380   -14.4740 
  168.5000     2.3090    67.9650    78.4090    72.6010    52.3330    24.2860   -14.7840 
  168.6250     2.2960    64.7170    86.5060    80.0980    62.0240    24.3990   -15.1210 
  168.7500     2.2780    61.5910    97.8130    90.5680    82.1960    24.5550   -15.4610 
  168.8750     2.2640    61.3810   103.8110   102.2670   109.3240    24.6790   -15.7990 
  169.0000     2.2580    61.8960   112.2150   111.6340   119.7760    24.6310   -16.1260 
  169.1250     2.2620    62.2250   115.0560   115.9270   109.6820    24.5210   -16.4200 
  169.2500     2.2690    63.8770   112.2760   114.5410   105.2820    24.4470   -16.7050 
  169.3750     2.2710    66.2010   106.3100   109.2400    98.3890    24.4180   -17.0010 
  169.5000     2.2700    65.3170   101.0450   103.9080    89.2910    24.3980   -17.2720 
  169.6250     2.2660    63.0870    98.4200   100.7220    77.4910    24.3740   -17.5350 
  169.7500     2.2630    63.8480    99.2910   100.8420    71.5250    24.3360   -17.7850 
  169.8750     2.2590    63.5400   104.2560   105.1030    78.4780    24.3820   -18.0070 
  170.0000     2.2580    59.3390   112.0500   112.3210    93.0340    24.4770   -18.2110 
  170.1250     2.2600    54.8260   121.5080   121.2810   112.4030    24.6150   -18.3930 
  170.2500     2.2620    54.5830   131.0180   130.2640   131.3110    24.7260   -18.5590 
  170.3750     2.2630    57.3920   138.3870   136.9930   152.5940    24.8000   -18.6760 
  170.5000     2.2650    59.2230   142.7980   140.6900   151.5290    24.8380   -18.7420 
  170.6250     2.2680    61.5460   144.3550   141.4620   138.3180    24.8620   -18.7520 
  170.7500     2.2660    64.0440   143.9520   140.1780   137.3880    24.8890   -18.7230 
  170.8750     2.2560    64.5390   142.9020   138.1230   151.4480    24.9190   -18.6370 
  171.0000     2.2430    60.4430   142.5530   136.6840   163.1950    24.9550   -18.4910 
  171.1250     2.2370    52.6070   143.6390   136.6120   158.1660    24.8890   -18.3070 
  171.2500     2.2360    47.4810   146.5630   138.3210   147.3370    24.7170   -18.0750 
  171.3750     2.2350    51.1000   151.6420   142.1470   148.0750    24.7170   -17.7710 
  171.5000     2.2310    57.8230   158.0240   147.2910   171.7180    24.8770   -17.4190 
  171.6250     2.2280    60.1710   164.7280   152.8480   171.9740    25.0030   -17.0110 
  171.7500     2.2300    57.1900   170.5060   157.6740   165.2090    25.0350   -16.5480 
  171.8750     2.2390    54.7030   174.0430   160.5540   161.1290    24.9290   -16.0490 
  172.0000     2.2510    55.6770   175.8130   161.8670   163.0540    24.7410   -15.5200 
  172.1250     2.2620    56.7390   176.6820   162.4100   164.8970    24.5700   -14.9530 
  172.2500     2.2710    54.9140   177.2230   162.7810   160.2530    24.4800   -14.3380 
  172.3750     2.2690    51.6970   176.9720   162.6830   166.7150    24.4620   -13.7150 
  172.5000     2.2570    51.1100   175.0870   161.3330   175.6380    24.4710   -13.0900 
  172.6250     2.2460    54.0280   170.9020   158.0600   182.5240    24.4830   -12.4730 
  172.7500     2.2450    58.3240   164.3800   152.6860   172.0770    24.4970   -11.8650 
  172.8750     2.2500    61.1760   156.1330   145.5360   149.6670    24.4950   -11.2760 
  173.0000     2.2550    60.8770   147.6260   137.8620   141.7910    24.4880   -10.7050 
  173.1250     2.2630    58.4250   139.6290   130.4050   139.7880    24.4670   -10.1710 
  173.2500     2.2780    55.8900   132.4020   123.5180   134.4090    24.4400    -9.7040 
  173.3750     2.3040    54.4540   126.0910   117.3650   125.1170    24.3890    -9.2790 
  173.5000     2.3400    54.9360   121.0600   112.1650   119.7770    24.3450    -8.8950 
  173.6250     2.3820    55.4050   118.4340   108.8530   118.2660    24.3320    -8.5280 
  173.7500     2.4320    54.4270   119.3430   108.5870   114.7040    24.3760    -8.2080 
  173.8750     2.4970    52.7720   123.8140   111.7530   106.6410    24.4250    -7.9160 
  174.0000     2.5770    50.6020   127.1910   114.5810   106.3820    24.3840    -7.6640 
  174.1250     2.6520    46.8030   122.6830   111.3790   132.2510    24.2050    -7.4170 
  174.2500     2.6900    42.4800   105.6410    97.5320   205.3850    24.0350    -7.1810 
  174.3750     2.6790    45.0480    79.9490    74.9720   199.4630    23.9920    -6.9570 
  174.5000     2.6480    53.0660    56.6820    53.7240   106.5270    24.0190    -6.7480 
  174.6250     2.6170    59.8850    39.9900    38.2970    48.5760    24.0750    -6.5610 
  174.7500     2.5980    62.7050    29.8250    28.8980    27.4480    24.1630    -6.3630 
  174.8750     2.5950    62.7320    25.2240    24.4760    19.6210    24.1630    -6.1630 
  175.0000     2.6050    61.5220    23.4940    22.5790    18.1760    24.1110    -5.9440 
  175.1250     2.6260    58.7460    23.0190    21.8910    20.5070    24.0800    -5.7260 
  175.2500     2.6540    56.4720    22.2330    21.0390    22.6570    24.0510    -5.5140 
  175.3750     2.6780    56.7510    19.6830    18.5910    24.6910    23.9470    -5.3030 
  175.5000     2.6800    57.3610    15.7050    14.8790    26.9970    23.7530    -5.0980 
  175.6250     2.6530    56.3910    11.3690    10.9600    20.5200    23.5040    -4.9120 
  175.7500     2.6120    52.6250     7.7360     7.7080     9.8790    23.2850    -4.7380 
  175.8750     2.5750    48.5290     5.4270     5.5390     6.5100    23.2060    -4.5920 
  176.0000     2.5400    45.6340     4.0870     4.1600     5.5130    23.1690    -4.4870 
  176.1250     2.5020    43.9150     3.4590     3.3990     4.8000    23.2250    -4.4230 
  176.2500     2.4670    42.9810     3.3640     3.1260     4.0520    23.4380    -4.3830 
  176.3750     2.4490    46.0860     3.7630     3.3160     3.6400    23.6410    -4.3780 
  176.5000     2.4500    51.7430     4.5050     3.8350     4.0970    23.7780    -4.4070 
  176.6250     2.4600    56.3550     5.4500     4.5940     5.0450    23.7490    -4.4540 
  176.7500     2.4650    59.0050     6.3480     5.4220     6.3630    23.6140    -4.5350 
  176.8750     2.4540    59.6250     6.8120     5.9910     7.3050    23.5600    -4.6320 
  177.0000     2.4330    58.2830     6.7650     6.1370     7.2070    23.5800    -4.7390 
  177.1250     2.4110    55.7700     6.3940     5.9370     5.8530    23.6350    -4.8540 
  177.2500     2.4020    53.6860     6.0280     5.6350     4.6120    23.7000    -4.9980 
  177.3750     2.4070    53.4750     5.9780     5.4910     4.3320    23.8010    -5.1590 
  177.5000     2.4180    53.2960     6.2410     5.5610     4.8700    23.9220    -5.3240 
  177.6250     2.4290    52.1980     6.7030     5.7950     5.8930    23.9840    -5.4930 
  177.7500     2.4360    49.2310     7.1870     6.0780     7.3440    23.9890    -5.6500 
  177.8750     2.4360    45.5460     7.4740     6.2470     8.0440    24.0070    -5.7990 
  178.0000     2.4310    44.4790     7.5160     6.2380     7.0430    23.9720    -5.9490 
  178.1250     2.4260    46.6310     7.3700     6.0810     5.8190    23.9040    -6.0800 
  178.2500     2.4230    51.0020     7.1380     5.8470     5.2760    23.8450    -6.1800 
  178.3750     2.4180    55.9580     6.9140     5.6090     5.1010    23.8970    -6.2730 
  178.5000     2.4100    57.3280     6.7270     5.4010     4.9150    24.0440    -6.3570 
  178.6250     2.4030    53.7430     6.5820     5.2330     4.6200    24.2000    -6.4450 
