~V
VERS. 2.00: Ver 2.00
~W
STRT.M 53.0000:
STOP.M 287.0000:
STEP.M 0.1250:
NULL. -999.2500:
UWI. F11059:
~C
DEPT.M :
GR.API :
RML.OHMM :
RI. :
RXO.OHMM :
CALI.CM :
DEN.GM/CC :
SP.MV :
~A
# ...
  244.2500    69.4340    80.2120    78.9950    93.7300    24.6140     2.2180    -7.4580 
  244.3750    68.2860    81.6150    80.6470    91.0240    24.6120     2.2070    -7.5550 
  244.5000    64.6200    82.9970    82.2290    84.7010    24.6160     2.2020    -7.6380 
  244.6250    63.0080    83.8730    83.5300    83.4770    24.6250     2.2030    -7.7060 
  244.7500    65.1560    84.1930    84.3390    89.9640    24.6260     2.2080    -7.7680 
  244.8750    67.3630    85.9780    83.7990    90.3890    24.6190     2.2150    -7.8240 
  245.0000    68.2910    88.6000    81.0070    88.8420    24.6180     2.2180    -7.8360 
  245.1250    68.8680    88.3460    75.3530    91.7500    24.6250     2.2190    -7.8180 
  245.2500    69.1580    82.3900    67.3370    96.8870    24.6320     2.2200    -7.7860 
  245.3750    69.1800    72.2770    58.7560    81.9910    24.6320     2.2260    -7.7510 
  245.5000    69.5090    63.0900    51.7040    56.4530    24.6220     2.2350    -7.7160 
  245.6250    70.1990    56.3790    47.1210    44.0880    24.6030     2.2430    -7.6890 
  245.7500    70.3720    52.4040    45.0280    43.4580    24.5770     2.2460    -7.6860 
  245.8750    70.7960    51.1880    44.9560    48.4820    24.5700     2.2410    -7.7020 
  246.0000    71.7170    51.3620    45.5280    56.4740    24.5750     2.2360    -7.7330 
  246.1250    73.3270    51.9290    45.8880    62.7850    24.5780     2.2370    -7.7650 
  246.2500    74.6840    52.1360    45.6930    61.7150    24.5740     2.2480    -7.7810 
  246.3750    73.9110    51.7830    45.4030    52.5950    24.5680     2.2660    -7.7950 
  246.5000    71.7240    51.5740    45.9310    45.4190    24.5750     2.2800    -7.8140 
  246.6250    70.1850    52.2790    47.7890    47.6590    24.5860     2.2830    -7.8480 
  246.7500    71.4390    54.3470    50.8820    57.1240    24.5930     2.2720    -7.8860 
  246.8750    73.9590    57.6450    54.3620    72.2310    24.5770     2.2540    -7.9250 
  247.0000    74.5850    60.8880    56.8620    76.0040    24.5670     2.2410    -7.9630 
  247.1250    73.0540    62.8670    57.5310    69.1830    24.5650     2.2350    -8.0090 
  247.2500    71.5530    62.8060    56.3390    60.9480    24.5730     2.2370    -8.0690 
  247.3750    72.4200    60.5980    53.9880    58.1660    24.5800     2.2400    -8.1320 
  247.5000    73.8830    57.5850    51.6540    59.6720    24.5800     2.2390    -8.2000 
  247.6250    74.6040    54.7390    49.8300    59.2410    24.5740     2.2340    -8.2830 
  247.7500    74.4430    52.6240    48.6470    55.0110    24.5690     2.2240    -8.3600 
  247.8750    73.3020    51.4360    48.0930    50.2060    24.5720     2.2130    -8.4550 
  248.0000    71.0940    50.7620    47.8220    52.4680    24.5800     2.2050    -8.5890 
  248.1250    68.9890    50.2380    47.5080    52.8910    24.5800     2.2030    -8.7440 
  248.2500    69.5230    49.5100    46.8300    50.3060    24.5690     2.2100    -8.9150 
  248.3750    72.1040    48.2140    45.4850    47.2360    24.5500     2.2230    -9.1170 
  248.5000    75.0490    46.3590    43.6270    43.3450    24.5000     2.2360    -9.3380 
  248.6250    77.5700    44.1090    41.5300    38.1710    24.4140     2.2460    -9.5520 
  248.7500    78.9950    41.8200    39.6350    33.3810    24.3620     2.2490    -9.7810 
  248.8750    77.7410    40.1880    38.7410    31.6010    24.3720     2.2440   -10.0250 
  249.0000    75.2430    39.8450    39.4670    32.5530    24.4390     2.2410   -10.2540 
  249.1250    73.3640    41.5100    42.6290    34.7250    24.5370     2.2530   -10.4750 
  249.2500    71.3910    45.9740    49.2470    39.4060    24.6310     2.2850   -10.6970 
  249.3750    67.8730    54.5780    60.7570    58.1800    24.6680     2.3230   -10.9020 
  249.5000    63.1600    66.3720    75.0800   108.9320    24.6710     2.3420   -11.0820 
  249.6250    59.3790    78.7190    87.6550   168.7930    24.6640     2.3280   -11.2540 
  249.7500    59.6470    86.8850    92.0540   171.3190    24.6560     2.2870   -11.3980 
  249.8750    63.9160    85.0210    83.6370   155.7170    24.6620     2.2420   -11.4950 
  250.0000    67.0890    75.1800    69.3260   110.6630    24.6640     2.2170   -11.5770 
  250.1250    67.8150    61.9540    55.4600    61.6240    24.6570     2.2150   -11.6310 
  250.2500    69.6160    50.0300    45.4240    41.5190    24.6430     2.2280   -11.6400 
  250.3750    73.7830    42.4350    40.2930    36.3910    24.6130     2.2410   -11.6150 
  250.5000    76.4990    38.5560    38.5360    34.3320    24.5680     2.2460   -11.5750 
  250.6250    75.9270    37.7540    39.4560    32.4290    24.5060     2.2430   -11.5130 
  250.7500    72.9440    39.4170    42.4800    32.9380    24.4520     2.2320   -11.4320 
  250.8750    70.0220    43.1600    47.1210    41.0330    24.4270     2.2180   -11.3610 
  251.0000    69.3720    47.9310    52.2810    53.8930    24.4190     2.2050   -11.2900 
  251.1250    70.9760    53.0840    57.3160    54.8290    24.4160     2.1970   -11.2400 
  251.2500    71.7100    58.1900    62.0170    49.8190    24.4080     2.1950   -11.2450 
  251.3750    69.0170    63.2660    66.8190    53.8540    24.3820     2.1970   -11.3000 
  251.5000    66.1950    68.8040    72.3940    64.8690    24.3530     2.2010   -11.3850 
  251.6250    65.6100    75.3300    79.1220    76.8600    24.3280     2.2030   -11.5060 
  251.7500    67.0710    83.0800    86.8460    87.6030    24.3140     2.2020   -11.6620 
  251.8750    68.8250    91.7860    94.6830    93.7920    24.3250     2.1980   -11.8060 
  252.0000    68.4030   100.3110   101.5050    99.8150    24.3690     2.1910   -11.9250 
  252.1250    65.2800   107.5530   106.4560   106.1090    24.4470     2.1830   -12.0290 
  252.2500    61.7920   112.4450   108.6880   107.4710    24.5260     2.1780   -12.1090 
  252.3750    61.3390   113.5640   107.0160   107.7410    24.5850     2.1790   -12.1740 
  252.5000    62.9110   111.4360   102.6600   106.0590    24.6110     2.1880   -12.2500 
  252.6250    65.3850   107.1940    97.5240    99.5400    24.6270     2.2070   -12.3100 
  252.7500    67.0790   102.7630    93.7690    87.2710    24.6370     2.2290   -12.3510 
  252.8750    66.2810   100.6130    93.4100    77.1510    24.5980     2.2450   -12.3890 
  253.0000    64.9510   101.3610    95.7390    80.4030    24.5730     2.2470   -12.4280 
  253.1250    65.8750   104.2180    98.9100   111.5590    24.5660     2.2360   -12.4660 
  253.2500    68.3630   107.1570   100.4420   159.9170    24.5740     2.2230   -12.5050 
  253.3750    68.0840   107.4790    98.4230   159.5260    24.6030     2.2290   -12.5240 
  253.5000    66.9960   105.1830    94.8470   111.5630    24.6140     2.2610   -12.5090 
  253.6250    68.3580   102.2830    93.0150    74.4700    24.6020     2.3120   -12.4930 
  253.7500    70.1810   102.0490    96.8470    54.0620    24.5660     2.3570   -12.4830 
  253.8750    68.8150   109.4290   111.8820    69.2250    24.5340     2.3650   -12.4610 
  254.0000    64.8290   126.1340   137.6860   136.3500    24.5270     2.3350   -12.4380 
  254.1250    61.2950   151.2330   169.1650   256.0830    24.5260     2.2910   -12.4010 
  254.2500    59.1660   177.4200   193.1540   320.1250    24.5190     2.2660   -12.3440 
  254.3750    58.4400   188.7900   190.1300   311.2290    24.5160     2.2900   -12.2560 
  254.5000    58.7210   179.7000   165.6370   253.4150    24.5160     2.3470   -12.1380 
  254.6250    59.2590   155.0780   133.4790   167.8430    24.5150     2.4150   -11.9760 
  254.7500    60.3260   125.1290   103.5110   102.2500    24.5010     2.4800   -11.7660 
  254.8750    62.5000    97.6130    78.4330    92.6290    24.4850     2.5350   -11.5310 
  255.0000    63.0020    73.6290    56.5740    91.5900    24.4610     2.5800   -11.2660 
  255.1250    59.9050    53.1640    38.4690    65.6570    24.4370     2.6080   -10.9800 
  255.2500    55.3990    36.7490    25.1580    25.2170    24.4270     2.6070   -10.6700 
  255.3750    55.1960    25.4820    17.2030    11.0780    24.4330     2.5710   -10.3590 
