~V
VERS. 2.00: Ver 2.00
~W
STRT.M 53.0000:
STOP.M 279.0000:
STEP.M 0.1250:
NULL. -999.2500:
UWI. F11057:
~C
DEPT.M :
GR.API :
RML.OHMM :
RI. :
RXO.OHMM :
CALI.CM :
DEN.GM/CC :
SP.MV :
~A
# ...
  109.2500    75.4570     9.6490     7.8710    10.8130    24.8160     2.1680   -22.1610 
  109.3750    77.5330     9.5920     7.8280    10.9670    24.8170     2.1640   -22.0880 
  109.5000    76.8250     9.6390     7.8720    11.0770    24.8190     2.1630   -22.0030 
  109.6250    72.1220     9.8380     8.0430    11.1700    24.8170     2.1690   -21.8950 
  109.7500    68.9240    10.1560     8.3170    11.2060    24.8160     2.1890   -21.7590 
  109.8750    70.9170    10.5330     8.6500    11.2680    24.8150     2.2230   -21.5960 
  110.0000    76.8460    10.8490     8.9540    11.2480    24.8150     2.2700   -21.4050 
  110.1250    80.7010    10.8890     9.0580    11.0990    24.8150     2.3080   -21.2010 
  110.2500    81.1400    10.5820     8.8760    10.9940    24.8150     2.3070   -20.9880 
  110.3750    80.2950     9.9860     8.4220    11.0020    24.8150     2.2720   -20.7610 
  110.5000    80.2290     9.2790     7.8130    11.0700    24.8150     2.2320   -20.5270 
  110.6250    80.8160     8.6760     7.2170    11.0940    24.8150     2.2170   -20.3020 
  110.7500    79.8010     8.2650     6.7430    10.7730    24.8150     2.2210   -20.0850 
  110.8750    77.5880     8.0720     6.4360    10.0190    24.8150     2.2380   -19.8960 
  111.0000    77.2610     8.1610     6.3430     9.2820    24.8150     2.2660   -19.7470 
  111.1250    79.7990     8.8550     6.6640    10.0260    24.8180     2.3020   -19.6310 
  111.2500    80.5900    10.4460     7.5890    12.8180    24.8480     2.3470   -19.5370 
  111.3750    75.9830    13.2560     9.4190    18.5530    24.9290     2.4090   -19.4700 
  111.5000    69.1660    17.3460    12.4090    30.9830    25.0360     2.4890   -19.4730 
  111.6250    67.3290    21.9380    16.4190    49.3710    25.0700     2.5570   -19.5850 
  111.7500    70.1460    24.7540    19.6810    58.4990    25.0430     2.5800   -19.8120 
  111.8750    73.7550    23.8110    20.1220    56.4100    24.9910     2.5410   -20.1680 
  112.0000    75.3580    19.4650    17.4340    49.4150    24.9520     2.4500   -20.6210 
  112.1250    78.1580    14.4330    13.5550    33.6450    24.9250     2.3430   -21.1480 
  112.2500    83.6650    10.7480    10.3650    19.5180    24.8970     2.2600   -21.7020 
  112.3750    86.7950     8.6010     8.2030    12.8840    24.8870     2.2130   -22.2610 
  112.5000    84.8280     7.6210     6.9220    11.0240    24.8860     2.1940   -22.7700 
  112.6250    82.7440     7.4360     6.3440    10.5930    24.8870     2.1890   -23.1870 
  112.7500    84.0960     7.5500     6.1290    10.0080    24.8870     2.1870   -23.5180 
  112.8750    87.0460     7.7260     6.1020     9.3550    24.8850     2.1810   -23.7670 
  113.0000    87.4690     7.8580     6.1560     8.8790    24.8680     2.1690   -23.9670 
  113.1250    84.4500     8.0050     6.2840     9.6450    24.8270     2.1490   -24.1280 
  113.2500    78.4250     8.2570     6.5090    10.5220    24.7730     2.1320   -24.2580 
  113.3750    72.2590     8.6080     6.8240    10.8690    24.7470     2.1280   -24.3460 
  113.5000    70.7100     8.9610     7.1660    10.9420    24.7430     2.1390   -24.4200 
  113.6250    72.6820     9.1510     7.4110    10.9710    24.7430     2.1630   -24.4630 
  113.7500    74.2510     9.1450     7.5020    10.9940    24.7430     2.1890   -24.5000 
  113.8750    76.0260     9.0090     7.4610    10.9270    24.7430     2.2100   -24.5000 
  114.0000    79.3160     8.8620     7.3610    10.7650    24.7430     2.2220   -24.4630 
  114.1250    80.7140     8.8090     7.2840    10.6340    24.7430     2.2190   -24.4010 
  114.2500    77.3530     8.8380     7.2550    10.6660    24.7430     2.2060   -24.3540 
  114.3750    73.3650     8.9040     7.2610    10.4260    24.7430     2.1910   -24.3250 
  114.5000    71.8170     8.9510     7.2730    10.1940    24.7430     2.1780   -24.3240 
  114.6250    73.4390     8.9360     7.2560    10.0110    24.7430     2.1740   -24.3500 
  114.7500    77.7090     8.8930     7.2140    10.1440    24.7440     2.1780   -24.3730 
  114.8750    82.4660     8.8740     7.1820    10.7760    24.7460     2.1850   -24.3960 
  115.0000    84.9640     8.9110     7.1880    11.8000    24.7450     2.1870   -24.4220 
  115.1250    83.8800     8.9810     7.2280    11.8130    24.7440     2.1820   -24.4180 
  115.2500    81.3730     9.0170     7.2530    10.8010    24.7430     2.1770   -24.3770 
  115.3750    78.9560     8.9740     7.2250    10.2520    24.7430     2.1760   -24.3130 
  115.5000    77.3890     8.8400     7.1260    10.0870    24.7430     2.1780   -24.1970 
  115.6250    76.6080     8.6130     6.9490     9.8800    24.7540     2.1820   -24.0260 
  115.7500    77.6150     8.3190     6.7110     9.3920    24.7790     2.1860   -23.8220 
  115.8750    81.3020     7.9890     6.4320     8.4960    24.8040     2.1900   -23.6220 
  116.0000    86.7440     7.7260     6.1720     7.4140    24.8140     2.1890   -23.4780 
  116.1250    88.4840     7.7710     6.0910     7.3680    24.8120     2.1770   -23.4520 
  116.2500    86.6990     8.2040     6.2790     8.8770    24.8100     2.1560   -23.5180 
  116.3750    82.9030     8.9400     6.7280    10.9510    24.8120     2.1410   -23.6570 
  116.5000    78.8230     9.7210     7.2980    11.7610    24.8140     2.1420   -23.8570 
  116.6250    77.9910    10.1360     7.7070    11.4370    24.8150     2.1530   -24.1440 
  116.7500    78.8910    10.0960     7.8160    11.1420    24.8150     2.1600   -24.4800 
  116.8750    78.4420     9.7890     7.6950    11.0310    24.8150     2.1620   -24.8290 
  117.0000    77.3920     9.5030     7.5210    11.0160    24.8150     2.1640   -25.1270 
  117.1250    80.9310     9.4250     7.4400    11.0500    24.8150     2.1660   -25.3410 
  117.2500    86.8780     9.4800     7.4450    11.0720    24.8150     2.1680   -25.5030 
  117.3750    88.1780     9.5750     7.4920    11.0400    24.8150     2.1680   -25.6420 
  117.5000    83.6030     9.6530     7.5470    10.9570    24.8150     2.1670   -25.7570 
  117.6250    79.4530     9.6940     7.5960    10.8080    24.8150     2.1650   -25.8300 
  117.7500    79.5340     9.7090     7.6320    10.6840    24.8150     2.1650   -25.8700 
  117.8750    79.8940     9.7130     7.6550    10.5550    24.8150     2.1660   -25.8590 
  118.0000    77.9870     9.7170     7.6690    10.4430    24.8150     2.1660   -25.7640 
  118.1250    78.1520     9.7090     7.6720    10.4700    24.8150     2.1640   -25.5670 
  118.2500    80.6310     9.6510     7.6470    10.5640    24.8150     2.1640   -25.2540 
  118.3750    81.0750     9.4940     7.5650    10.4560    24.8150     2.1680   -24.8000 
  118.5000    80.0760     9.2040     7.3940    10.0200    24.8150     2.1810   -24.2140 
  118.6250    81.3880     8.7760     7.1140     9.4020    24.8150     2.2050   -23.4680 
  118.7500    84.8100     8.2990     6.7730     8.7690    24.8150     2.2320   -22.6180 
  118.8750    87.8830     7.8460     6.4260     8.4300    24.8150     2.2520   -21.6770 
  119.0000    91.9020     7.4640     6.1130     8.3000    24.8150     2.2610   -20.7240 
  119.1250    98.3750     7.1910     5.8670     7.9840    24.8150     2.2630   -19.7950 
  119.2500   103.8440     7.0320     5.6920     7.5460    24.8150     2.2650   -18.9720 
  119.3750   105.1290     6.9960     5.5980     7.5740    24.8150     2.2650   -18.2690 
  119.5000   101.1180     7.0600     5.5820     7.8680    24.8150     2.2600   -17.6790 
  119.6250    96.7050     7.1400     5.6050     7.7640    24.8140     2.2550   -17.2530 
  119.7500    96.3680     7.1290     5.5910     7.5430    24.8120     2.2530   -16.9220 
  119.8750    97.6970     6.9820     5.4940     7.4090    24.8110     2.2540   -16.7010 
  120.0000    98.8160     6.7160     5.3100     7.6230    24.8110     2.2590   -16.5320 
  120.1250   100.4270     6.4060     5.0670     7.0220    24.8130     2.2730   -16.4350 
  120.2500   102.7520     6.1710     4.8400     6.0170    24.8040     2.2950   -16.4070 
  120.3750   103.3360     6.1340     4.7110     5.5460    24.7460     2.3150   -16.4670 
