~V
VERS. 2.00: Ver 2.00
~W
STRT.M 54.0000:
STOP.M 281.0000:
STEP.M 0.1250:
NULL. -999.2500:
UWI. F11055:
~C
DEPT.M :
SP.MV :
GR.API :
RML.OHMM :
RI. :
RXO.OHMM :
CALI.CM :
DEN.GM/CC :
~A
# ...
  144.0000    -3.5760    92.3700     4.1800     3.5270     3.9230    24.6380     2.3080 
  144.1250    -3.5570    94.5480     4.0030     3.3520     3.6600    24.6300     2.3060 
  144.2500    -3.5260    94.8790     4.0760     3.3470     3.8520    24.6040     2.3310 
  144.3750    -3.5030    94.7770     4.4720     3.5840     4.4360    24.6070     2.3730 
  144.5000    -3.5480    93.1730     5.1950     4.0940     5.3140    24.6360     2.4230 
  144.6250    -3.5200    91.0740     6.1110     4.8320     6.5340    24.6310     2.4710 
  144.7500    -3.5500    88.7700     6.8570     5.5290     7.2390    24.6180     2.5080 
  144.8750    -3.5470    85.2510     7.0960     5.8820     8.0360    24.6310     2.5260 
  145.0000    -3.5450    81.4630     6.6630     5.6900     7.6860    24.6360     2.5120 
  145.1250    -3.5440    81.8590     5.7080     4.9960     6.0020    24.6180     2.4640 
  145.2500    -3.5400    86.5550     4.7460     4.2060     4.3880    24.6310     2.4150 
  145.3750    -3.5450    90.4410     4.0480     3.5560     3.5690    24.6510     2.3920 
  145.5000    -3.4860    91.1110     3.7140     3.1540     3.6960    24.6450     2.4010 
  145.6250    -3.5100    90.5050     3.8140     3.0750     4.4250    24.6070     2.4400 
  145.7500    -3.5120    88.1190     4.2830     3.2910     5.0380    24.6040     2.4910 
  145.8750    -3.5190    82.8360     5.1370     3.8240     5.4810    24.6290     2.5460 
  146.0000    -3.5500    75.9210     6.3740     4.6920     7.2510    24.6360     2.5980 
  146.1250    -3.5600    68.2870     7.9230     5.9050    10.0710    24.6040     2.6350 
  146.2500    -3.5790    60.1710     9.4320     7.2450    12.4270    24.5910     2.6530 
  146.3750    -3.5480    54.3790    10.5320     8.4300    13.6780    24.6040     2.6500 
  146.5000    -3.5890    54.1190    10.9690     9.1850    14.4970    24.6360     2.6370 
  146.6250    -3.5640    58.0300    10.7510     9.3780    13.9770    24.6290     2.6290 
  146.7500    -3.4990    60.0610    10.3710     9.3070    13.0230    24.6040     2.6280 
  146.8750    -3.4800    58.7390    10.1430     9.2040    13.1230    24.6070     2.6300 
  147.0000    -3.4210    55.1050    10.1730     9.1870    13.1020    24.6450     2.6310 
  147.1250    -3.3760    52.1730    10.3910     9.2560    13.5240    24.6560     2.6330 
  147.2500    -3.3160    51.5340    10.5880     9.3130    14.7760    24.6420     2.6370 
  147.3750    -3.2920    52.2940    10.6340     9.2860    15.2820    24.6250     2.6390 
  147.5000    -3.2160    53.2680    10.4980     9.1540    14.8140    24.6300     2.6320 
  147.6250    -3.1670    53.9480    10.2540     8.9540    13.4230    24.6540     2.6220 
  147.7500    -3.1720    53.2920    10.0470     8.7690    13.0800    24.6520     2.6130 
  147.8750    -3.1040    49.9380     9.9370     8.6470    13.0240    24.6240     2.6050 
  148.0000    -3.0850    45.2570     9.9080     8.5950    12.9010    24.6060     2.5950 
  148.1250    -3.0360    43.4810     9.8770     8.5760    12.8880    24.6140     2.5850 
  148.2500    -3.0070    44.4340     9.7720     8.5270    12.8020    24.6350     2.5750 
  148.3750    -2.9680    46.1540     9.5950     8.4290    12.9990    24.6550     2.5700 
  148.5000    -2.9350    48.3700     9.4040     8.3020    12.6890    24.6680     2.5730 
  148.6250    -2.9380    50.3980     9.2920     8.2050    11.8340    24.7160     2.5800 
  148.7500    -2.8660    51.4630     9.2870     8.1710    11.5320    24.7360     2.5830 
  148.8750    -2.8250    51.0240     9.3740     8.2030    11.9680    24.7430     2.5770 
  149.0000    -2.7660    50.0730     9.5010     8.2780    12.8060    24.7420     2.5680 
  149.1250    -2.6830    49.1460     9.5760     8.3430    13.4330    24.7410     2.5590 
  149.2500    -2.6150    49.6120     9.5480     8.3510    13.2430    24.7410     2.5520 
  149.3750    -2.5290    52.1950     9.4200     8.2820    12.7630    24.7410     2.5460 
  149.5000    -2.4880    54.3720     9.2370     8.1490    12.5260    24.7430     2.5400 
  149.6250    -2.3790    53.8370     9.0670     7.9760    11.6590    24.7510     2.5280 
  149.7500    -2.3310    53.5080     8.9520     7.8070    10.9610    24.7600     2.5150 
  149.8750    -2.2960    56.4670     8.9000     7.6720    11.0100    24.7590     2.5040 
  150.0000    -2.2410    61.7140     8.8870     7.5800    12.1250    24.7490     2.4960 
  150.1250    -2.2560    65.3070     8.8760     7.5220    11.7970    24.7460     2.4870 
  150.2500    -2.2330    66.9530     8.8390     7.4670    11.8240    24.7480     2.4780 
  150.3750    -2.2460    68.7760     8.7550     7.3920    11.6960    24.7490     2.4740 
  150.5000    -2.1760    70.9480     8.6150     7.2790    11.6390    24.7450     2.4740 
  150.6250    -2.1690    70.3310     8.4230     7.1270    10.9420    24.7430     2.4780 
  150.7500    -2.1590    66.0920     8.2210     6.9660    10.2380    24.7430     2.4880 
  150.8750    -2.1220    63.1780     8.0340     6.8110     9.7860    24.7510     2.5010 
  151.0000    -2.1240    65.8730     7.8660     6.6630     9.7450    24.7670     2.5110 
  151.1250    -2.0500    71.6290     7.7020     6.5110     9.6760    24.7700     2.5130 
  151.2500    -2.0210    74.5400     7.5210     6.3500     9.7350    24.7670     2.5150 
  151.3750    -1.9660    73.2940     7.3280     6.1830     9.4870    24.7760     2.5180 
  151.5000    -1.9490    69.6440     7.1440     6.0260     9.0150    24.8000     2.5210 
  151.6250    -1.9490    65.8690     7.0080     5.9060     8.6360    24.8100     2.5200 
  151.7500    -1.9020    63.3720     6.9250     5.8200     8.8730    24.8020     2.5160 
  151.8750    -1.8830    61.7740     6.8830     5.7610     9.3000    24.7800     2.5120 
  152.0000    -1.8300    60.9550     6.8700     5.7130     8.9610    24.7860     2.5080 
  152.1250    -1.8460    62.8520     6.8700     5.6590     8.0960    24.8400     2.5060 
  152.2500    -1.8100    65.5340     6.8530     5.5800     7.1430    24.8530     2.5110 
  152.3750    -1.7880    66.4320     6.7850     5.4600     7.0400    24.8150     2.5220 
  152.5000    -1.7780    65.6370     6.6410     5.2940     7.0420    24.8030     2.5290 
  152.6250    -1.6810    65.2950     6.4180     5.0900     6.9060    24.8560     2.5260 
  152.7500    -1.6750    65.4850     6.1620     4.8730     6.2910    24.8900     2.5210 
  152.8750    -1.6470    65.8400     5.9130     4.6600     5.7250    24.9050     2.5170 
  153.0000    -1.6150    65.5270     5.7120     4.4700     5.6710    24.9010     2.5150 
  153.1250    -1.5830    63.6620     5.6090     4.3420     5.9020    24.8990     2.5150 
  153.2500    -1.5740    59.7470     5.6020     4.2970     5.7180    24.8980     2.5190 
  153.3750    -1.5700    56.7560     5.6760     4.3430     5.5580    24.9030     2.5240 
  153.5000    -1.5450    57.1240     5.7940     4.4680     6.0450    24.9110     2.5290 
  153.6250    -1.5960    60.8020     5.9110     4.6450     7.7510    24.9230     2.5390 
  153.7500    -1.5610    63.3380     6.0100     4.8400     9.2070    24.9230     2.5540 
  153.8750    -1.5640    62.0020     6.1380     5.0590     9.0950    24.9140     2.5700 
  154.0000    -1.5720    58.7840     6.3750     5.3380     8.2350    24.9120     2.5820 
  154.1250    -1.5650    56.7770     6.7970     5.7290     8.0440    24.9220     2.5810 
  154.2500    -1.5640    57.5210     7.2970     6.1820     9.1640    24.9240     2.5670 
  154.3750    -1.5490    61.2780     7.6580     6.5530    10.7610    24.9150     2.5430 
  154.5000    -1.5620    65.0460     7.5850     6.5950    11.4400    24.9100     2.5090 
  154.6250    -1.5060    65.4000     6.7730     6.0120    10.4080    24.9710     2.4540 
  154.7500    -1.5210    65.1440     5.4980     4.9900     7.5390    25.1330     2.3700 
  154.8750    -1.5080    67.5830     4.1610     3.8410     4.5640    25.3390     2.2710 
  155.0000    -1.5160    74.0570     3.1070     2.8490     2.6900    25.4030     2.1940 
  155.1250    -1.5610    82.7560     2.5640     2.2170     2.1110    25.0860     2.1760 
