~V
VERS. 2.00: Ver 2.00
~W
STRT.M 50.0000:
STOP.M 220.0000:
STEP.M 0.1250:
NULL. -999.2500:
UWI. F11004:
~C
DEPT.M :
SP.MV :
GR.API :
RML.OHMM :
RI. :
RXO.OHMM :
CALI.CM :
DEN.GM/CC :
~A
# ...
  207.5000   -10.1410    85.8930    16.1140    15.4970    16.7760    24.4460     2.4670 
  207.6250   -10.2090    87.4650    16.1410    15.4960    17.1660    24.4790     2.4560 
  207.7500   -10.2870    87.6360    16.2370    15.5640    17.6650    24.5240     2.4590 
  207.8750   -10.3670    87.1170    16.3810    15.6950    17.7240    24.5310     2.4780 
  208.0000   -10.4430    87.7020    16.5200    15.8350    17.0190    24.5090     2.5020 
  208.1250   -10.5350    88.3890    16.5930    15.9190    16.1330    24.5000     2.5170 
  208.2500   -10.6350    89.3200    16.5660    15.9120    15.1940    24.5100     2.5170 
  208.3750   -10.7140    91.1500    16.4360    15.8100    14.0770    24.5220     2.5050 
  208.5000   -10.7660    93.7040    16.2080    15.6250    13.1530    24.5230     2.4900 
  208.6250   -10.8290    94.1220    15.9300    15.4000    12.6690    24.5050     2.4770 
  208.7500   -10.8930    92.3790    15.6320    15.1600    12.6130    24.4750     2.4670 
  208.8750   -10.9510    89.7040    15.3460    14.9160    12.8950    24.4550     2.4600 
  209.0000   -11.0300    89.3490    15.1040    14.6850    13.0970    24.4340     2.4580 
  209.1250   -11.0880    91.5970    14.9090    14.4810    12.7220    24.4010     2.4590 
  209.2500   -11.1320    93.9050    14.7540    14.3110    12.0460    24.3750     2.4570 
  209.3750   -11.1760    94.0400    14.6220    14.1760    11.7900    24.3910     2.4490 
  209.5000   -11.1850    92.5430    14.5040    14.0770    11.9540    24.4500     2.4370 
  209.6250   -11.1660    91.2420    14.4050    14.0010    12.0100    24.4840     2.4310 
  209.7500   -11.1380    90.6200    14.3460    13.9440    12.5520    24.4730     2.4330 
  209.8750   -11.0650    90.6200    14.3500    13.9200    14.2270    24.4440     2.4410 
  210.0000   -10.9090    90.6200    14.4430    13.9620    16.1500    24.4330     2.4510 
  210.1250   -10.7590    90.6200    14.5890    14.0690    16.2030    24.4240     2.4580 
  210.2500   -10.6410    90.6200    14.7420    14.2210    14.5090    24.4210     2.4600 
  210.3750   -10.5330    90.6200    14.8500    14.3750    12.7000    24.4490     2.4550 
  210.5000   -10.4880    90.6200    14.8720    14.4650    11.8540    24.5020     2.4440 
  210.6250   -10.4530    90.6200    14.8310    14.4710    11.8850    24.5250     2.4330 
  210.7500   -10.4080    90.6200    14.7640    14.4080    12.5310    24.5170     2.4300 
  210.8750   -10.3910    90.6200    14.7050    14.3110    13.4050    24.5060     2.4320 
  211.0000   -10.4640    90.6200    14.6660    14.2150    13.9790    24.4970     2.4330 
  211.1250   -10.5460    90.6200    14.6220    14.1220    14.1100    24.4740     2.4280 
  211.2500   -10.5870    90.6200    14.5490    14.0130    14.0720    24.4460     2.4270 
  211.3750   -10.6160    90.6200    14.4370    13.8730    14.1240    24.4370     2.4360 
  211.5000   -10.6280    90.6200    14.3160    13.7130    14.2500    24.4400     2.4530 
  211.6250   -10.6310    90.6200    14.2570    13.5950    14.4070    24.4150     2.4650 
  211.7500   -10.6340    90.6200    14.3250    13.5870    14.5840    24.3660     2.4630 
  211.8750   -10.6090    90.6200    14.5580    13.7430    14.8050    24.3320     2.4480 
  212.0000   -10.5570    90.6200    14.9740    14.1030    15.4990    24.3220     2.4330 
  212.1250   -10.5230    90.6200    15.4870    14.5940    16.8210    24.2960     2.4340 
  212.2500   -10.4890    90.6200    16.0150    15.1320    18.2060    24.2520     2.4510 
  212.3750   -10.4670    90.6200    16.4690    15.6170    18.7690    24.2110     2.4760 
  212.5000   -10.5020    90.6200    16.7360    15.9310    18.4070    24.1660     2.5000 
  212.6250   -10.5800    90.6200    16.7800    16.0340    18.1140    24.1060     2.5190 
  212.7500   -10.7030    90.6200    16.5580    15.8860    18.6080    24.0750     2.5300 
  212.8750   -10.8570    90.6200    16.0460    15.4540    19.9750    24.1010     2.5270 
  213.0000   -11.0280    90.6200    15.2290    14.6970    20.7130    24.1300     2.5120 
  213.1250   -11.1860    90.6200    14.2580    13.7490    19.1060    24.1040     2.4910 
  213.2500   -11.3580    90.6200    13.2760    12.7560    15.8140    24.0520     2.4670 
  213.3750   -11.5330    90.6200    12.4310    11.8680    12.9310    24.0450     2.4430 
  213.5000   -11.6510    90.6200    11.8540    11.2350    11.5280    24.1010     2.4240 
  213.6250   -11.7370    90.6200    11.5090    10.8400    11.2570    24.1380     2.4110 
  213.7500   -11.7690    90.6200    11.3400    10.6330    11.8930    24.1230     2.4050 
  213.8750   -11.7640    90.6200    11.2760    10.5400    12.7820    24.0980     2.4070 
  214.0000   -11.7170    90.6200    11.2610    10.5000    13.0730    24.1320     2.4170 
  214.1250   -11.6540    90.6200    11.2540    10.4690    13.0990    24.1930     2.4290 
  214.2500   -11.5450    90.6200    11.2470    10.4420    13.3270    24.2390     2.4470 
  214.3750   -11.4210    90.6200    11.2400    10.4290    13.4570    24.2530     2.4680 
  214.5000   -11.2900    90.6200    11.2330    10.4330    12.9080    24.2460     2.4850 
  214.6250   -11.1430    90.6200    11.2270    10.4470    12.3180    24.2480     2.4910 
  214.7500   -11.0420    90.6200    11.2250    10.4630    12.1970    24.2650     2.4860 
  214.8750   -10.9500    90.6200    11.2270    10.4770    12.5980    24.2820     2.4780 
  215.0000   -10.9060    90.6200    11.2340    10.4830    13.0900    24.2730     2.4740 
  215.1250   -10.8800    90.6200    11.2450    10.4820    13.3150    24.2670     2.4710 
  215.2500   -10.8900    90.6200    11.2560    10.4780    13.6030    24.3090     2.4680 
  215.3750   -10.9070    90.6200    11.2640    10.4750    14.3730    24.4070     2.4650 
  215.5000   -10.9490    90.6200    11.2630    10.4740    15.2130    24.5160     2.4680 
  215.6250   -11.0340    90.6200    11.2590    10.4730    15.3900    24.5970     2.4750 
  215.7500   -11.0690    90.6200    11.2590    10.4730    15.1720    24.6450     2.4830 
  215.8750   -11.1010    90.6200    11.2590    10.4730    15.2600    24.6620     2.4900 
  216.0000   -11.0940    90.6200    11.2590    10.4730    15.8770    24.6350     2.4920 
  216.1250   -11.0820    90.6200    11.2590    10.4730    16.2150    24.5900     2.4900 
  216.2500   -11.0970    90.6200    11.2590    10.4730    15.7460    24.5400     2.4910 
  216.3750   -11.1060    90.6200    11.2590    10.4730    14.9120    24.4790     2.4940 
  216.5000   -11.0930    90.6200    11.2590    10.4730    14.6530    24.4480     2.4970 
  216.6250   -11.0690    90.6200    11.2590    10.4730    15.1850    24.4760     2.4990 
  216.7500   -11.0710    90.6200    11.2590    10.4730    17.7920    24.5280     2.4980 
  216.8750   -11.0800    90.6200    11.2590    10.4730    24.3740    24.5170     2.4930 
  217.0000   -11.1030    90.6200    11.2590    10.4730    33.2480    24.4560     2.4840 
  217.1250   -11.1260    90.6200    11.2590    10.4730    36.1780    24.4640     2.4750 
  217.2500   -11.1340    90.6200    11.2590    10.4730    31.1330    24.5490     2.4680 
  217.3750   -11.1470    90.6200    11.2590    10.4730    23.1830    24.6480     2.4600 
  217.5000   -11.1610    90.6200    11.2590    10.4730    17.3060    24.6970     2.4480 
  217.6250  -999.2500    90.6200    11.2590    10.4730    14.4780    24.7200     2.4310 
  217.7500  -999.2500    90.6200    11.2590    10.4730    14.0410    24.7270     2.4080 
  217.8750  -999.2500    90.6200    11.2590    10.4730    14.5190    24.7320     2.3810 
  218.0000  -999.2500    90.6200    11.2590    10.4730    15.8170    24.7660     2.3520 
  218.1250  -999.2500    90.6200    11.2590    10.4730    17.4750    24.8140     2.3270 
  218.2500  -999.2500    90.6200    11.2590    10.4730    17.7070    24.5890     2.3030 
  218.3750  -999.2500    90.6200    11.2590    10.4730    15.0590    23.5800     2.2570 
  218.5000  -999.2500    90.6200    11.2590    10.4730    11.3770    21.8080     2.1490 
  218.6250  -999.2500    90.6200    11.2590    10.4730     9.2530    20.3380     2.0230 
