~V
VERS. 2.00: Ver 2.00
~W
STRT.M 62.0000:
STOP.M 236.0000:
STEP.M 0.1250:
NULL. -999.2500:
UWI. F11006:
~C
DEPT.M :
GR.API :
RML.OHMM :
RI. :
RXO.OHMM :
CALI.CM :
SP.MV :
DEN.GM/CC :
~A
# ...
  208.2500    90.5660     8.3020     6.6560     9.2110    24.0390    -8.0530     2.4480 
  208.3750    85.6480     8.9620     7.3110     9.9980    24.1390    -7.9620     2.4560 
  208.5000    85.3030     9.4170     7.8160    10.3360    24.1300    -7.8480     2.4540 
  208.6250    88.8740     9.6460     8.1230     9.9970    24.1840    -7.7010     2.4400 
  208.7500    92.6700     9.6780     8.2290     9.1470    24.2210    -7.5090     2.4160 
  208.8750    92.3140     9.5580     8.1580     8.7010    24.1950    -7.3340     2.3850 
  209.0000    90.3460     9.3900     8.0050     8.4740    24.2250    -7.2620     2.3580 
  209.1250    89.9630     9.2360     7.8340     8.1980    24.2980    -7.2380     2.3470 
  209.2500    90.9760     9.1370     7.6990     7.9620    24.3270    -7.2010     2.3590 
  209.3750    89.2480     9.1190     7.6540     7.9330    24.2340    -7.1500     2.3980 
  209.5000    84.7740     9.1520     7.6990     7.8800    24.1930    -7.1020     2.4500 
  209.6250    81.8580     9.2250     7.8170     7.9560    24.1740    -7.1350     2.4980 
  209.7500    81.5130     9.3410     7.9770     8.3570    24.0850    -7.2910     2.5330 
  209.8750    85.4190     9.5250     8.1460     8.3620    23.9700    -7.4750     2.5420 
  210.0000    91.4230     9.7720     8.3070     8.2030    23.9810    -7.5690     2.5280 
  210.1250    95.6990    10.0670     8.4650     8.2850    24.0350    -7.6590     2.4950 
  210.2500    94.9420    10.3810     8.6360     8.6740    24.0570    -7.8160     2.4500 
  210.3750    91.2930    10.6680     8.8280     9.3300    24.0480    -8.0150     2.4120 
  210.5000    89.8770    10.8840     9.0130     9.7090    24.0000    -8.2290     2.3960 
  210.6250    88.7920    10.9830     9.1440     9.7540    23.9560    -8.3770     2.4060 
  210.7500    85.2010    10.9240     9.1700    10.6360    23.8740    -8.4120     2.4350 
  210.8750    81.0770    10.6700     9.0330    11.2850    23.9300    -8.4520     2.4620 
  211.0000    80.6200    10.3020     8.7750    11.4800    23.9870    -8.5690     2.4710 
  211.1250    85.0950     9.9160     8.4620    11.4910    24.0160    -8.6670     2.4590 
  211.2500    90.4260     9.6150     8.1770    11.5110    23.9890    -8.6940     2.4350 
  211.3750    91.5480     9.5190     8.0300    10.8370    23.8830    -8.6780     2.4120 
  211.5000    88.4790     9.6260     8.0500    10.9970    23.7530    -8.6240     2.4060 
  211.6250    84.8900     9.8990     8.2310    12.6830    23.6920    -8.5980     2.4200 
  211.7500    84.7190    10.2510     8.5180    12.5700    23.6990    -8.6490     2.4530 
  211.8750    87.6700    10.5560     8.8190    11.5840    23.7640    -8.6320     2.4920 
  212.0000    89.7070    10.7360     9.0430    10.3340    23.8680    -8.5500     2.5190 
  212.1250    88.1380    10.7800     9.1550     9.4860    23.9300    -8.5110     2.5250 
  212.2500    83.3230    10.7360     9.1740     8.6980    23.9210    -8.4890     2.5090 
  212.3750    78.9890    10.6900     9.1550     8.3210    23.9100    -8.4120     2.4830 
  212.5000    77.7720    10.6970     9.1590     8.2770    23.9750    -8.3290     2.4620 
  212.6250    81.1130    10.7480     9.1940     8.7760    24.0760    -8.2790     2.4510 
  212.7500    87.0650    10.7900     9.2300     9.3420    24.0340    -8.2260     2.4450 
  212.8750    91.9910    10.7380     9.1980    11.4410    23.9820    -8.2390     2.4350 
  213.0000    94.5430    10.5680     9.0690    14.0080    23.9190    -8.2810     2.4210 
  213.1250    93.3010    10.3050     8.8490    13.0950    23.8700    -8.2410     2.4110 
  213.2500    89.5110    10.0090     8.5810    10.2590    23.8410    -8.1560     2.4140 
  213.3750    84.7080     9.7710     8.3350     8.3510    23.8950    -8.1110     2.4290 
  213.5000    81.0890     9.6430     8.1710     7.7100    23.9140    -8.1210     2.4450 
  213.6250    79.2320     9.6480     8.1260     8.0840    23.9380    -8.1110     2.4510 
  213.7500    77.9500     9.7870     8.2150     9.1070    23.9820    -8.0790     2.4480 
  213.8750    80.3310    10.0460     8.4470    10.5760    24.0020    -8.0820     2.4470 
  214.0000    84.9610    10.3480     8.7530    11.6610    23.9750    -8.0660     2.4550 
  214.1250    87.4890    10.6170     9.0680    12.5960    23.9020    -8.0400     2.4660 
  214.2500    85.4350    10.7800     9.3150    13.5350    23.8670    -7.9760     2.4630 
  214.3750    81.3280    10.7570     9.4050    13.5890    23.9720    -7.9060     2.4260 
  214.5000    81.0140    10.5760     9.3350    13.8150    24.0830    -7.8160     2.3680 
  214.6250    82.9120    10.2750     9.1250    15.1360    24.0870    -7.6780     2.3110 
  214.7500    83.2460     9.9140     8.8210    17.1710    23.9610    -7.5600     2.2770 
  214.8750    80.8550     9.5560     8.4800    18.9270    23.9570    -7.4030     2.2850 
  215.0000    78.1000     9.2530     8.1630    18.7460    23.8850    -7.2270     2.3200 
  215.1250    77.5830     9.0350     7.9040    14.8350    23.6150    -7.1030     2.3660 
  215.2500    76.9510     8.9270     7.7320     9.9040    23.1180    -7.1370     2.4090 
  215.3750    74.9500     8.9550     7.6850     7.7920    22.9100    -7.2520     2.4390 
  215.5000    74.6270     9.0870     7.7520     6.9050    22.9820    -7.4060     2.4560 
  215.6250    77.0680     9.2890     7.9120     6.4730    23.2200    -7.5980     2.4600 
  215.7500    80.1870     9.5150     8.1300     6.7220    23.6560    -7.7710     2.4500 
  215.8750    78.9980     9.7100     8.3540     7.0860    23.9400    -8.0200     2.4310 
  216.0000    76.8310     9.8440     8.5390     7.2050    24.0240    -8.3290     2.4140 
  216.1250    78.3430     9.9090     8.6650     7.5690    23.9690    -8.5800     2.4080 
  216.2500    81.6490     9.9100     8.7270     8.5570    23.8380    -8.7520     2.4150 
  216.3750    83.3940     9.8550     8.7200     9.7930    23.6520    -8.9040     2.4300 
  216.5000    84.0470     9.7630     8.6620     9.0110    23.5490    -9.0210     2.4410 
  216.6250    85.1640     9.6430     8.5590     7.6350    23.5780    -9.1430     2.4460 
  216.7500    85.8620     9.5020     8.4200     7.3030    23.6850    -9.2200     2.4510 
  216.8750    85.6000     9.3460     8.2550     7.8510    23.8000    -9.1780     2.4600 
  217.0000    85.4790     9.1790     8.0800     7.9600    23.9160    -9.1170     2.4690 
  217.1250    84.7740     9.0030     7.9060     7.5400    23.9300    -9.1140     2.4680 
  217.2500    82.1050     8.8260     7.7430     7.7230    23.9470    -9.0980     2.4520 
  217.3750    82.0120     8.6690     7.6080     8.1970    24.0620    -9.0820     2.4220 
  217.5000    84.5650     8.5570     7.5150     8.1510    24.1680    -9.0340     2.3920 
  217.6250    86.0890     8.5060     7.4700     7.0860    24.0970    -8.9280     2.3690 
  217.7500    83.5050     8.5100     7.4730     7.2450    23.9060    -8.8290     2.3550 
  217.8750    79.8010     8.5470     7.5050     8.1910    23.9120    -8.6840     2.3470 
  218.0000    78.6900     8.5760     7.5340     8.6560    24.0690    -8.5210     2.3470 
  218.1250    78.8040     8.5780     7.5420     8.2270    24.2100    -8.3860     2.3590 
  218.2500    79.8020     8.5540     7.5260     7.5710    24.3580    -8.2710     2.3870 
  218.3750    81.2330     8.5300     7.5000     7.1370    24.3780    -8.1220     2.4210 
  218.5000    79.9120     8.5450     7.4970     6.8180    24.3860    -7.9800     2.4430 
  218.6250    76.4030     8.6310     7.5450     6.6390    24.4070    -7.8900     2.4440 
  218.7500    76.4010     8.8120     7.6650     6.4310    24.3900    -7.8160     2.4270 
  218.8750    80.9110     9.1110     7.8830     6.3920    24.2910    -7.8310     2.4010 
  219.0000    82.1480     9.5000     8.1820     6.4720    24.2380    -7.8480     2.3810 
  219.1250    79.6160     9.9540     8.5540     6.6060    24.1980    -7.8230     2.3720 
  219.2500    77.7600    10.4380     8.9790     6.9790    24.1580    -7.7780     2.3770 
  219.3750    79.3310    10.9050     9.4290     7.7510    24.1580    -7.7380     2.3910 
