~V
VERS. 2.00: Ver 2.00
~W
STRT.M 63.0000:
STOP.M 273.0000:
STEP.M 0.1250:
NULL. -999.2500:
UWI. F11030:
~C
DEPT.M :
DEN.GM/CC :
GR.API :
RML.OHMM :
RI. :
RXO.OHMM :
CALI.CM :
SP.MV :
~A
# ...
  175.5000     2.2880    67.0020   121.3690   120.1630   105.2430    24.6010   -16.6920 
  175.6250     2.2740    65.0350   126.7540   124.9670   115.2840    24.5680   -16.6520 
  175.7500     2.2590    64.0650   139.2460   133.2920   127.9710    24.7090   -16.8380 
  175.8750     2.2470    64.1120   157.2980   143.5920   133.9100    24.8600   -17.1290 
  176.0000     2.2390    63.7230   174.7740   154.0590   135.0650    24.9250   -17.3110 
  176.1250     2.2360    62.7270   185.1740   162.8360   135.2130    24.9340   -17.5450 
  176.2500     2.2330    63.8210   189.9570   169.2000   137.7910    24.9340   -17.8860 
  176.3750     2.2310    66.1320   190.8980   172.4180   136.7170    24.9330   -18.1920 
  176.5000     2.2290    66.4760   187.1340   171.5430   135.0830    24.9210   -18.5280 
  176.6250     2.2310    64.8110   176.7700   164.7260   136.6030    24.8720   -18.8620 
  176.7500     2.2400    63.7950   160.8040   152.3920   136.5330    24.7910   -18.9740 
  176.8750     2.2590    63.7780   140.5840   135.1570   117.4560    24.6510   -19.0250 
  177.0000     2.2850    63.8290   118.6830   115.0130    91.2860    24.4850   -19.0740 
  177.1250     2.3070    64.4480    98.9280    95.6120    82.8870    24.4820   -18.9140 
  177.2500     2.3180    65.9420    83.7300    79.9640    85.6900    24.5270   -18.7440 
  177.3750     2.3160    66.5850    74.1030    69.4260    85.5400    24.4830   -18.5500 
  177.5000     2.3030    65.7110    69.9920    64.2350    75.1790    24.4140   -18.1950 
  177.6250     2.2880    65.4230    71.3160    64.5900    64.0400    24.4620   -17.9830 
  177.7500     2.2770    68.3940    75.9470    68.5920    69.8850    24.6270   -17.9230 
  177.8750     2.2750    72.9280    82.3240    74.8730    77.1900    24.9050   -17.8680 
  178.0000     2.2790    74.5320    88.6860    81.6460    77.8610    25.1310   -17.9090 
  178.1250     2.2900    70.7560    93.1200    86.5740    72.4760    25.2150   -18.1560 
  178.2500     2.3020    66.8450    95.3610    88.9180    69.8180    25.2310   -18.3190 
  178.3750     2.3090    65.3150    96.0150    89.2510    71.1480    25.2380   -18.3920 
  178.5000     2.3080    64.6420    96.1310    88.8010    72.0950    25.2320   -18.5080 
  178.6250     2.2950    64.1840    96.7570    88.6900    69.6230    25.2050   -18.4270 
  178.7500     2.2770    64.7650    98.3150    89.3370    69.6070    25.1890   -18.2920 
  178.8750     2.2590    65.4720   100.9880    90.9270    72.0480    25.1770   -18.2820 
  179.0000     2.2450    65.4630   104.8830    93.6190    74.5890    25.1950   -18.2750 
  179.1250     2.2400    65.1950   110.1550    97.7440    77.6240    25.2350   -18.1270 
  179.2500     2.2400    64.7440   116.1590   102.9780    81.1460    25.2680   -18.0260 
  179.3750     2.2420    63.3270   121.9520   108.7180    85.1860    25.2970   -17.9290 
  179.5000     2.2440    63.1000   126.0970   113.7340    90.6220    25.3110   -17.6960 
  179.6250     2.2440    65.2510   126.2500   115.6490    97.7170    25.3230   -17.5500 
  179.7500     2.2460    67.1100   121.9790   113.3360   101.5010    25.3410   -17.4400 
  179.8750     2.2510    67.3070   113.7650   106.6850    96.4270    25.3650   -17.2010 
  180.0000     2.2610    67.4250   103.2980    97.0740    81.8440    25.3820   -16.9850 
  180.1250     2.2750    68.2850    93.1980    87.0840    68.6910    25.3860   -16.7900 
  180.2500     2.2880    67.9220    85.5340    79.0680    63.0820    25.3890   -16.4820 
  180.3750     2.2950    66.2400    81.2860    74.1160    60.4940    25.3990   -16.2840 
  180.5000     2.2950    65.9280    80.7070    72.6500    57.7540    25.4130   -16.1930 
  180.6250     2.2870    68.1840    83.9440    75.1800    65.0550    25.3760   -15.9240 
  180.7500     2.2780    69.2590    89.4850    80.5490    74.0570    25.2710   -15.6810 
  180.8750     2.2710    68.0340    96.0080    87.6870    80.1030    25.1570   -15.5980 
  181.0000     2.2670    66.5930   101.8840    95.0160    83.9040    25.0950   -15.4610 
  181.1250     2.2680    65.1990   104.9430   100.0940    88.7960    25.0920   -15.2750 
  181.2500     2.2710    63.7610   104.6130   101.6260    89.7150    25.1060   -15.2250 
  181.3750     2.2770    62.8030   101.1440    99.4680    84.1600    25.1040   -15.2800 
  181.5000     2.2830    64.0630    95.6060    94.6720    74.0420    25.0660   -15.3680 
  181.6250     2.2890    66.9790    89.4330    88.7380    65.9360    24.9780   -15.5460 
  181.7500     2.2930    67.7690    83.8740    83.1100    58.8340    24.8800   -15.7370 
  181.8750     2.2940    66.7760    79.3690    78.4050    51.9100    24.8280   -15.8340 
  182.0000     2.2960    65.6410    75.8950    74.7200    50.0170    24.8720   -15.9070 
  182.1250     2.2990    65.6590    73.2850    71.7350    53.5770    24.9240   -16.1650 
  182.2500     2.3040    64.5510    71.2790    69.0220    52.9760    24.7900   -16.5590 
  182.3750     2.3100    63.0420    70.1290    66.7950    53.8330    24.4300   -16.8030 
  182.5000     2.3160    64.3980    70.3910    65.5980    56.4350    24.0840   -17.0380 
  182.6250     2.3200    68.4980    73.2360    66.4840    54.2130    24.3290   -17.3560 
  182.7500     2.3200    71.0810    79.2660    69.9560    52.1690    24.6710   -17.5430 
  182.8750     2.3130    71.2280    87.3450    76.5770    67.0400    24.8200   -17.7260 
  183.0000     2.3000    70.1600    95.6380    86.5610    89.7770    24.8540   -18.0620 
  183.1250     2.2840    69.3030   105.2110   100.2880   108.7200    24.8600   -18.3700 
  183.2500     2.2720    67.2710   118.3940   116.6850   123.4380    24.8280   -18.4480 
  183.3750     2.2660    63.1110   133.9610   134.2530   130.3340    24.7470   -18.5660 
  183.5000     2.2650    58.8650   146.5110   149.5370   131.7860    24.6490   -18.7210 
  183.6250     2.2640    57.1830   148.4490   155.1840   139.9110    24.6050   -18.6630 
  183.7500     2.2600    57.3970   139.5240   148.3000   143.8660    24.5770   -18.5450 
  183.8750     2.2600    58.5150   122.4960   130.7230   130.0040    24.5040   -18.4170 
  184.0000     2.2710    60.3570   103.0470   108.9530    92.8630    24.3220   -18.2350 
  184.1250     2.2950    63.5910    87.6100    90.8320    57.9050    23.9650   -18.0820 
  184.2500     2.3240    65.9290    78.2470    79.2020    39.8330    23.5420   -18.0820 
  184.3750     2.3490    65.4970    74.8400    74.0510    38.0330    23.2240   -18.0320 
  184.5000     2.3590    63.0100    76.3670    74.3380    43.8700    23.1020   -17.7960 
  184.6250     2.3530    60.8540    81.9510    79.3300    50.4900    23.2240   -17.6910 
  184.7500     2.3380    59.0670    89.4680    86.7550    58.2710    23.5170   -17.8560 
  184.8750     2.3240    57.1170    97.6370    95.0370    68.2040    23.9280   -18.0360 
  185.0000     2.3190    55.9870   105.5490   102.8470    76.5730    24.3030   -18.0160 
  185.1250     2.3210    55.8960   112.8960   109.4830    78.1680    24.4080   -17.9390 
  185.2500     2.3240    56.2380   120.2940   115.5970    80.1720    24.3350   -17.9160 
  185.3750     2.3180    58.1060   128.4980   122.0310    84.3170    24.3170   -17.8880 
  185.5000     2.3010    60.8840   138.3510   129.5470    89.4560    24.3600   -18.0160 
  185.6250     2.2770    59.6730   149.7850   138.6810    97.8930    24.4580   -18.2400 
  185.7500     2.2570    57.1150   160.2820   148.6320   107.2490    24.5370   -18.2420 
  185.8750     2.2440    58.7090   168.4650   158.3450   111.2950    24.5850   -18.2290 
  186.0000     2.2380    63.0590   174.8890   166.7690   114.2070    24.6020   -18.3090 
  186.1250     2.2380    63.1520   180.4200   172.8670   119.8570    24.6040   -18.2320 
  186.2500     2.2400    60.8120   184.5590   176.7520   126.8570    24.5950   -18.0130 
  186.3750     2.2440    61.2340   186.3130   178.3860   131.7280    24.5570   -17.8280 
  186.5000     2.2490    64.4270   185.7620   177.7870   129.9630    24.4640   -17.5770 
  186.6250     2.2510    65.5440   183.0580   174.9790   123.0650    24.4040   -17.2110 
