~V
VERS. 2.00: Ver 2.00
~W
STRT.M 54.0000:
STOP.M 226.0000:
STEP.M 0.1250:
NULL. -999.2500:
UWI. F11002:
~C
DEPT.M :
GR.API :
RML.OHMM :
RI. :
RXO.OHMM :
CALI.CM :
DEN.GM/CC :
SP.MV :
~A
# ...
   99.0000    83.0180     8.5260     6.9180     8.5770    23.0410     2.1740   -15.1190 
   99.1250    78.2260     8.6760     7.0700     9.2740    23.0430     2.1690   -15.5040 
   99.2500    77.6890     8.8490     7.2650    10.4710    23.1240     2.1750   -15.8530 
   99.3750    80.0510     9.0150     7.4750    11.5630    23.0950     2.1910   -16.2380 
   99.5000    79.1760     9.2190     7.6990    10.1360    23.0300     2.2120   -16.6880 
   99.6250    76.6090     9.4880     7.9160     9.5020    23.0080     2.2360   -17.1950 
   99.7500    78.1200     9.7680     8.0910    10.6610    23.0990     2.2570   -17.8200 
   99.8750    80.8700     9.9110     8.1670    13.2310    23.2890     2.2670   -18.5100 
  100.0000    79.4310     9.8400     8.1200    13.9950    23.5560     2.2640   -19.2750 
  100.1250    76.1760     9.5810     7.9480    11.7470    23.8740     2.2510   -20.0550 
  100.2500    75.2110     9.2540     7.6960     9.7120    24.0970     2.2340   -20.7570 
  100.3750    76.7150     9.0260     7.4550     9.1590    24.1630     2.2190   -21.4400 
  100.5000    77.7760     8.9530     7.3060     9.2300    24.1980     2.2080   -22.0280 
  100.6250    77.8490     9.0120     7.2900     9.2890    24.2970     2.1990   -22.5250 
  100.7500    76.5290     9.1540     7.3950     9.2640    24.4160     2.1940   -22.9830 
  100.8750    73.6160     9.3500     7.5720     9.4500    24.4250     2.1900   -23.3510 
  101.0000    71.9060     9.5730     7.7380     9.7180    24.3810     2.1870   -23.5680 
  101.1250    72.0040     9.7890     7.8590     9.8400    24.3320     2.1810   -23.6970 
  101.2500    71.4260     9.9470     7.9270     9.8110    24.2990     2.1730   -23.7590 
  101.3750    67.4120     9.9730     7.9310     9.8610    24.2220     2.1650   -23.6750 
  101.5000    62.9210     9.8700     7.8820     9.9290    24.0570     2.1630   -23.5520 
  101.6250    61.7710     9.6620     7.7870    10.1800    23.8730     2.1680   -23.4100 
  101.7500    65.1410     9.4010     7.6690    10.5100    23.7940     2.1790   -23.2030 
  101.8750    68.6020     9.1680     7.5550    10.5890    23.8420     2.1900   -23.0280 
  102.0000    68.6860     9.0240     7.4590    10.5430    23.8490     2.1960   -22.9020 
  102.1250    65.5050     8.9920     7.3980    10.3680    23.7260     2.1980   -22.7900 
  102.2500    63.3690     9.0560     7.3880    10.2550    23.6190     2.1950   -22.6980 
  102.3750    65.1040     9.1960     7.4520    10.4280    23.6760     2.1890   -22.5410 
  102.5000    67.2190     9.4000     7.5950    10.3560    23.8390     2.1800   -22.2420 
  102.6250    68.2900     9.6700     7.8020    10.1600    24.0090     2.1730   -21.7290 
  102.7500    67.9650     9.9530     8.0170    10.1190    24.1520     2.1730   -20.9450 
  102.8750    66.0580    10.0550     8.1080    10.2170    24.1580     2.1910   -19.6750 
  103.0000    65.3270     9.8120     7.9740    10.2690    24.0910     2.2220   -18.0010 
  103.1250    69.0360     9.1700     7.5720     9.8690    24.0710     2.2600   -15.9970 
  103.2500    77.1570     8.2410     6.9570     8.3830    24.1780     2.2940   -13.7240 
  103.3750    86.8280     7.2910     6.2830     6.3220    24.2930     2.3120   -11.3940 
  103.5000    94.8940     6.5640     5.7080     5.3150    24.3930     2.3180    -9.1790 
  103.6250    98.7770     6.1370     5.3040     4.8540    24.4240     2.3190    -7.1740 
  103.7500    97.4820     5.9560     5.0880     4.6940    24.4000     2.3200    -5.4630 
  103.8750    94.7440     5.8990     5.0390     4.7740    24.3790     2.3260    -4.2740 
  104.0000    94.7590     5.8210     5.0570     4.7630    24.3570     2.3360    -3.5670 
  104.1250    96.8290     5.6910     5.0810     4.7440    24.3040     2.3480    -3.3790 
  104.2500   100.2820     5.5630     5.0960     4.7370    24.2060     2.3540    -3.7680 
  104.3750   103.5460     5.5750     5.1570     4.7040    24.0130     2.3470    -4.6120 
  104.5000   103.6510     5.7900     5.3380     4.7170    23.7210     2.3300    -5.5920 
  104.6250    99.4600     6.2040     5.6880     5.0100    23.3540     2.3070    -6.6350 
  104.7500    93.4870     6.7300     6.1780     5.7660    23.1050     2.2870    -7.6300 
  104.8750    88.1440     7.1890     6.6630     6.4960    23.0130     2.2780    -8.4500 
  105.0000    82.8730     7.4310     6.9450     6.9140    22.9470     2.2810    -9.1830 
  105.1250    78.1200     7.3940     6.9160     7.2480    22.8980     2.2920    -9.7460 
  105.2500    76.7280     7.1220     6.6160     6.8080    22.9230     2.3050   -10.0950 
  105.3750    79.9240     6.7610     6.2020     5.6940    22.9830     2.3120   -10.2860 
  105.5000    83.3490     6.4920     5.8530     5.3350    23.0600     2.3110   -10.4380 
  105.6250    84.1600     6.3980     5.6320     5.7200    23.1440     2.3030   -10.5950 
  105.7500    83.8500     6.4610     5.5430     6.4200    23.2240     2.2970   -10.7740 
  105.8750    84.9500     6.5880     5.5550     6.7210    23.2070     2.3020   -11.0010 
  106.0000    85.9630     6.6850     5.5930     6.3900    23.1110     2.3180   -11.1300 
  106.1250    85.4230     6.7820     5.6580     6.3360    22.9800     2.3400   -11.1920 
  106.2500    83.9400     7.0630     5.8540     6.8790    22.8610     2.3580   -11.1370 
  106.3750    81.8950     8.0240     6.4910     7.1080    22.7580     2.3720   -10.8310 
  106.5000    79.4810    10.0960     7.8660     8.2220    22.7360     2.3870   -10.3020 
  106.6250    77.3650    13.6830    10.3900    11.0180    22.8980     2.4100    -9.6320 
  106.7500    75.0030    18.7420    14.4110    17.1980    23.2430     2.4440    -8.8850 
  106.8750    68.7960    23.8830    19.6420    25.3390    23.7870     2.4890    -8.0540 
  107.0000    61.7830    26.5150    23.4060    32.1690    24.1950     2.5300    -7.2840 
  107.1250    60.5270    25.0400    22.7740    35.5410    24.3460     2.5560    -6.5330 
  107.2500    67.3360    20.0060    17.9830    27.9930    24.3140     2.5610    -5.7730 
  107.3750    77.8970    13.9070    12.4410    15.3140    24.1780     2.5410    -5.1840 
  107.5000    85.0800     9.1480     8.3590     7.0330    24.0250     2.5110    -4.8190 
  107.6250    88.9480     6.2130     5.8250     4.4250    23.9680     2.4780    -4.6130 
  107.7500    92.0310     4.7370     4.4450     3.7830    23.9720     2.4470    -4.6540 
  107.8750    95.7910     4.3110     3.9340     3.7330    23.9760     2.4160    -5.0630 
  108.0000    98.0540     4.4000     3.9060     4.0590    23.9740     2.3860    -5.6960 
  108.1250    97.3250     4.8060     4.2040     4.6240    24.0280     2.3590    -6.6000 
  108.2500    95.7890     5.3990     4.7130     5.0270    24.2280     2.3370    -7.7920 
  108.3750    93.3470     6.1180     5.3930     5.0670    24.3480     2.3200    -9.2250 
  108.5000    88.8100     6.9020     6.1840     5.9670    24.3750     2.3010   -10.7940 
  108.6250    83.0000     7.6960     7.0170     7.4480    24.3770     2.2770   -12.4260 
  108.7500    78.0490     8.4180     7.7640     8.4930    24.4370     2.2520   -13.9700 
  108.8750    75.6130     8.9330     8.2430     8.8810    24.5130     2.2300   -15.2330 
  109.0000    74.2110     9.2220     8.4350     9.1270    24.5840     2.2170   -16.3160 
  109.1250    73.7620     9.3220     8.4050     9.2440    24.6290     2.2120   -17.1700 
  109.2500    74.4790     9.3200     8.2750     9.2140    24.6540     2.2140   -17.7680 
  109.3750    74.9040     9.3140     8.1510     9.1620    24.6500     2.2190   -18.1130 
  109.5000    72.1060     9.3500     8.0550     9.2400    24.6770     2.2220   -18.2600 
  109.6250    66.6210     9.4260     7.9820     9.4160    24.7140     2.2240   -18.2320 
  109.7500    63.9890     9.5300     7.9300     9.5830    24.8020     2.2280   -18.0660 
  109.8750    68.2380     9.6450     7.9160     9.5530    25.0080     2.2360   -17.8730 
  110.0000    74.1790     9.7360     7.9310     9.3410    25.0880     2.2430   -17.6290 
  110.1250    75.8290     9.7870     7.9590     8.8800    25.0500     2.2440   -17.3410 
