~V
VERS. 2.00: Ver 2.00
~W
STRT.M 51.0000:
STOP.M 240.0000:
STEP.M 0.1250:
NULL. -999.2500:
UWI. F11016:
~C
DEPT.M :
GR.API :
RML.OHMM :
RI. :
RXO.OHMM :
CALI.CM :
DEN.GM/CC :
SP.MV :
~A
# ...
  231.0000    61.3540     8.4150     8.3050     9.7480    23.6970     2.4530   -11.8310 
  231.1250    61.3540     8.4070     8.2960     9.5020    23.6970     2.4490   -12.1960 
  231.2500    61.3540     8.4090     8.2890     9.3160    23.6970     2.4430   -12.5680 
  231.3750    61.3540     8.4290     8.2970     9.2410    23.6980     2.4370   -12.8480 
  231.5000    61.3540     8.4640     8.3250     9.2410    23.7060     2.4290   -12.9700 
  231.6250    61.3540     8.5030     8.3660     9.2190    23.7280     2.4180   -12.8700 
  231.7500    61.3540     8.5360     8.4060     9.1870    23.7510     2.4030   -12.4910 
  231.8750    61.3540     8.5550     8.4310     9.3200    23.7560     2.3870   -11.7990 
  232.0000    61.3540     8.5580     8.4370     9.5460    23.7470     2.3770   -10.8720 
  232.1250    61.3540     8.5550     8.4360     9.7910    23.7490     2.3750    -9.8070 
  232.2500    61.3540     8.5630     8.4470     9.9810    23.7720     2.3830    -8.6900 
  232.3750    61.3540     8.5960     8.4840    10.0370    23.8010     2.3940    -7.6120 
  232.5000    61.3540     8.6480     8.5420    10.0360    23.7860     2.4000    -6.6290 
  232.6250    61.3540     8.6930     8.5930     9.9440    23.6870     2.4000    -5.7970 
  232.7500    61.3540     8.7000     8.6030     9.6920    23.5340     2.3950    -5.1610 
  232.8750    61.3540     8.6330     8.5340     9.4980    23.4720     2.3900    -4.7650 
  233.0000    61.3540     8.4910     8.3880     9.4960    23.4910     2.3900    -4.5640 
  233.1250    61.3540     8.3110     8.2010     9.5460    23.4790     2.3950    -4.4710 
  233.2500    61.3540     8.1410     8.0210     9.4720    23.3980     2.4010    -4.4030 
  233.3750    61.3540     8.0320     7.8990     9.3050    23.3170     2.4080    -4.3330 
  233.5000    61.3540     7.9980     7.8470     9.2210    23.2650     2.4120    -4.2600 
  233.6250    61.3540     8.0160     7.8460     9.3970    23.2200     2.4150    -4.1860 
  233.7500    61.3540     8.0550     7.8670     9.6720    23.1770     2.4140    -4.1260 
  233.8750    61.3540     8.0860     7.8840     9.8330    23.1470     2.4120    -4.0650 
  234.0000    61.3540     8.1000     7.8900     9.8400    23.1530     2.4100    -3.9830 
  234.1250    61.3540     8.1060     7.8880     9.8490    23.1940     2.4100    -3.8770 
  234.2500    61.3540     8.1080     7.8860    10.0690    23.2430     2.4120    -3.7800 
  234.3750    61.3540     8.1110     7.8870    10.2190    23.2720     2.4150    -3.7070 
  234.5000    61.3540     8.1130     7.8870    10.2070    23.2800     2.4160    -3.6450 
  234.6250    61.3540     8.1160     7.8870    10.1580    23.2820     2.4150    -3.5910 
  234.7500    61.3540     8.1190     7.8860     9.7210    23.2820     2.4120    -3.5570 
  234.8750    61.3540     8.1200     7.8840     9.0750    23.2820     2.4100    -3.5490 
  235.0000    61.3540     8.1190     7.8850     8.5580    23.2820     2.4110    -3.5630 
  235.1250    61.3540     8.1170     7.8860     8.3790    23.2820     2.4170    -3.6080 
  235.2500    61.3540     8.1150     7.8890     8.6000    23.2840     2.4250    -3.6560 
  235.3750    61.3540     8.1150     7.8930     8.9440    23.2950     2.4330    -3.7020 
  235.5000    61.3540     8.1160     7.8950     9.1030    23.3280     2.4400    -3.7800 
  235.6250    61.3540     8.1170     7.8960     9.2860    23.3820     2.4440    -3.8840 
  235.7500    61.3540     8.1180     7.8960     9.7410    23.4390     2.4480    -3.9810 
  235.8750    61.3540     8.1180     7.8960    10.1900    23.4720     2.4500    -4.0750 
  236.0000    61.3540     8.1180     7.8960    10.4020    23.4830     2.4510    -4.1790 
  236.1250    61.3540     8.1180     7.8960    10.4090    23.4850     2.4500    -4.3000 
  236.2500    61.3540     8.1180     7.8960    10.4160    23.4890     2.4490    -4.4580 
  236.3750    61.3540     8.1180     7.8960    10.5950    23.5050     2.4470    -4.7100 
  236.5000    61.3540     8.1180     7.8960    10.9050    23.5270     2.4480    -5.0270 
  236.6250    61.3540     8.1180     7.8960    11.0730    23.5450     2.4500    -5.3530 
  236.7500    61.3540     8.1180     7.8960    10.8440    23.5510     2.4530    -5.6730 
  236.8750    61.3540     8.1180     7.8960    10.2350    23.5450     2.4550    -5.9860 
  237.0000    61.3540     8.1180     7.8960     9.5240    23.5250     2.4550    -6.2760 
  237.1250    61.3540     8.1180     7.8960     8.8970    23.4860     2.4510    -6.5330 
  237.2500    61.3540     8.1180     7.8960     8.4530    23.4220     2.4450    -6.7580 
  237.3750    61.3540     8.1180     7.8960     8.2450    23.3130     2.4340    -6.8420 
  237.5000    61.3540     8.1180     7.8960     8.3070    23.2160     2.4180    -6.8420 
  237.6250    61.3540     8.1180     7.8960     8.5360    23.1700     2.3950    -7.0250 
  237.7500    61.3540     8.1180     7.8960     8.8520    23.1540     2.3610  -999.2500 
  237.8750    61.3540     8.1180     7.8960     9.2100    23.1460     2.3180  -999.2500 
  238.0000    61.3540     8.1180     7.8960     9.4850    23.1350     2.2720  -999.2500 
  238.1250    61.3540     8.1180     7.8960     9.4670    23.1060     2.2300  -999.2500 
  238.2500    61.3540     8.1180     7.8960     9.1020    22.9110     2.2010  -999.2500 
  238.3750    61.3540     8.1180     7.8960     8.4840    22.1210     2.1820  -999.2500 
  238.5000    61.3540     8.1180     7.8960     7.4990    20.2490     2.1630  -999.2500 
  238.6250    61.3540     8.1180     7.8960     6.0910    18.2740     2.1430  -999.2500 
  238.7500    61.3540     8.1180     7.8960     5.0740    17.1960     2.1250  -999.2500 
  238.8750    61.3540     8.1180     7.8960     4.7180    16.8800     2.1100  -999.2500 
  239.0000    61.3540     8.1180     7.8960     4.6500    16.8430     2.1000  -999.2500 
  239.1250    61.3540     8.1180     7.8960     4.6460    16.8430     2.0960  -999.2500 
  239.2500    61.3540     8.1180     7.8960     4.6460    16.8430     2.0940  -999.2500 
  239.3750    61.3540     8.1180     7.8960     4.6470    16.8430     2.0930  -999.2500 
  239.5000    61.3540     8.1180     7.8960     4.6470    16.8430     2.0930  -999.2500 
  239.6250    61.3540     8.1180     7.8960     4.6470    16.8430     2.0920  -999.2500 
  239.7500    61.3540     8.1180     7.8960     4.6480    16.8430     2.0920  -999.2500 
  239.8750    61.3540     8.1180     7.8960     4.6490    16.8430     2.0910  -999.2500 
  240.0000    61.3540     8.1180     7.8960     4.6480    16.8430     2.0900  -999.2500 
