~V
VERS. 2.00: Ver 2.00
~W
STRT.M 50.0000:
STOP.M 283.0000:
STEP.M 0.1250:
NULL. -999.2500:
UWI. F11066:
~C
DEPT.M :
GR.API :
RML.OHMM :
RI. :
RXO.OHMM :
CALI.CM :
DEN.GM/CC :
SP.MV :
~A
   50.0000  -999.2500  -999.2500  -999.2500  -999.2500  -999.2500     1.9930    72.7730 
   50.1250    50.2610  -999.2500     7.7160     0.3730    25.3490     1.9990    71.9030 
   50.2500    50.2610  -999.2500     7.7160     0.3730    25.3490     2.0060    71.2590 
   50.3750    49.3770  -999.2500  -999.2500     0.3640    25.3490     2.0140    70.8200 
   50.5000    46.9820     0.2060     0.3280     0.3520    25.3580     2.0160    70.5930 
   50.6250    45.8590     0.2060     0.2000     0.3450    25.2990     2.0080    70.6040 
   50.7500    45.7260     0.2060     0.2010     0.3490    25.2550     1.9980    70.7780 
   50.8750    45.6970     0.2060     0.2040     0.3470    25.2570     1.9930    71.0480 
   51.0000    46.1640     0.2070     0.2090     0.3420    25.2590     1.9950    71.3170 
   51.1250    48.4260     0.2100     0.2130     0.3400    25.2280     2.0000    71.4910 
   51.2500    49.8290     0.2240     0.2120     0.3340    25.1990     2.0010    71.5210 
   51.3750    46.9970     0.2510     0.2070     0.3460    25.2260     2.0000    71.4000 
   51.5000    43.2520     0.2700     0.2040     0.3430    25.2500     1.9960    71.1570 
   51.6250    43.7790     0.2750     0.2030     0.3400    25.2380     1.9870    70.7380 
   51.7500    46.2910     0.2740     0.2030     0.3220    25.2420     1.9780    70.1610 
   51.8750    46.4490     0.2730     0.2030     0.3380    25.3180     1.9800    69.4420 
   52.0000    43.9260     0.2680     0.2030     0.3640    25.3590     1.9900    68.6530 
   52.1250    42.9840     0.2560     0.2030     0.3390    25.3830     1.9890    67.8160 
   52.2500    45.0270     0.2460     0.2030     0.2680    25.4020     1.9700    66.9340 
   52.3750    47.9180     0.2480     0.2030     0.2170    25.3990     1.9460    66.0560 
   52.5000    50.5610     0.2690     0.2030     0.1820    25.3520     1.9300    65.2450 
   52.6250    52.1710     0.3010     0.2030     0.1810    25.3220     1.9270    64.6270 
   52.7500    51.3180     0.3240     0.2030     0.1800    25.3160     1.9280    64.2070 
   52.8750    47.9330     0.3170     0.2050     0.1850    25.3210     1.9290    64.0020 
   53.0000    44.1590     0.2790     0.2090     0.1930    25.3320     1.9310    64.0410 
   53.1250    42.4290     0.2610     0.2160     0.2060    25.3200     1.9320    64.4620 
   53.2500    42.2230     0.2590     0.2220     0.2050    25.3150     1.9310    65.2700 
   53.3750    42.8800     0.2700     0.2300     0.2040    25.3150     1.9290    66.4310 
   53.5000    43.8170     0.2840     0.2460     0.2160    25.3260     1.9340    67.8000 
   53.6250    43.3680     0.3100     0.2770     0.2060    25.3250     1.9440    69.2460 
   53.7500    43.1420     0.3440     0.2930     0.2100    25.3270     1.9560    70.6700 
   53.8750    45.6110     0.3630     0.2730     0.2110    25.3170     1.9690    72.0630 
   54.0000    47.7930     0.3530     0.2490     0.2280    25.3070     1.9850    73.4070 
   54.1250    45.1470     0.3210     0.2370     0.2580    25.3040     2.0020    74.5540 
   54.2500    42.4580     0.2990     0.2330     0.2970    25.3050     2.0160    75.3680 
   54.3750    43.4350     0.2910     0.2310     0.2810    25.3090     2.0260    75.7710 
   54.5000    44.5660     0.2930     0.2310     0.2360    25.3090     2.0270    75.7980 
   54.6250    41.2090     0.3030     0.2380     0.1880    25.3040     2.0250    75.5050 
   54.7500    38.8110     0.3170     0.2470     0.1710    25.3000     2.0280    75.0280 
   54.8750    40.6610     0.3330     0.2560     0.1560    25.3010     2.0360    74.3870 
   55.0000    42.9010     0.3640     0.2570     0.1480    25.3040     2.0410    73.6170 
   55.1250    42.4170     0.4270     0.2470     0.1420    25.3040     2.0360    72.8480 
   55.2500    41.9220     0.5150     0.2300     0.1450    25.3020     2.0310    72.2040 
   55.3750    42.2980     0.5620     0.2150     0.1390    25.3000     2.0330    71.7010 
   55.5000    42.8900     0.5480     0.2090     0.1250    25.2960     2.0420    71.3450 
   55.6250    43.9600     0.4800     0.2070     0.1080    25.2640     2.0500    71.2260 
   55.7500    44.8920     0.4110     0.2070     0.0990    25.2110     2.0600    71.3810 
   55.8750    43.9930     0.3580     0.2070     0.1010    25.1700     2.0750    71.8800 
   56.0000    43.4120     0.2990     0.2080     0.0990    25.1700     2.0960    72.7350 
   56.1250    46.1380     0.2740     0.2110     0.1070    25.1980     2.1180    74.0010 
   56.2500    47.7090     0.2940     0.2170     0.1070    25.1750     2.1320    75.6000 
   56.3750    45.7550     0.3250     0.2320     0.1070    25.1140     2.1380    77.5470 
   56.5000    44.0730     0.3240     0.2500     0.0970    25.0350     2.1410    79.7830 
   56.6250    46.3860     0.2730     0.2660     0.1030    24.9650     2.1440    82.0970 
   56.7500    47.6180     0.2350     0.2570     0.1010    24.8500     2.1440    84.1520 
   56.8750    46.3570     0.2190     0.2300     0.0910    24.7300     2.1400    85.7910 
   57.0000    45.8150     0.2160     0.2070     0.0620    24.6790     2.1340    86.9590 
   57.1250    47.0170     0.2230     0.1990     0.0450    24.6880     2.1270    87.4850 
   57.2500    46.8440     0.2350     0.2000     0.0740    24.7130     2.1210    87.3150 
   57.3750    45.3750     0.2380     0.2060     0.1590    24.7610     2.1130    86.2480 
   57.5000    44.8380     0.2210     0.2190     0.2160    24.7720     2.0980    84.1620 
   57.6250    46.6690     0.2020     0.2240     0.1860    24.7240     2.0800    80.8280 
   57.7500    48.6810     0.1950     0.2190     0.1170    24.6980     2.0710    76.5720 
   57.8750    48.8790     0.1970     0.2370     0.1100    24.7380     2.0850    71.4780 
   58.0000    47.1150     0.2010     0.2220     0.1820    24.8050     2.1240    65.6300 
   58.1250    45.8410     0.2000     0.2000     0.2840    24.8590     2.1910    59.0700 
   58.2500    46.1090     0.2000     0.1890     0.4300    24.8630     2.2770    52.0000 
   58.3750    47.0180     0.2000     0.1490     0.7080    25.2230     2.3810    44.4270 
   58.5000    49.5520     0.2000     0.1130     1.4570    25.8440     2.4940    36.3750 
   58.6250    59.4470     0.4620     0.2210     3.5320    26.4770     2.5460    28.0980 
   58.7500    72.6670     1.2780     0.5010     7.3510    25.3890     2.4920    20.1420 
   58.8750    81.2400     2.2470     1.0430    10.6210    24.7170     2.3730    12.8990 
   59.0000    82.3800     3.7470     1.9350    11.5580    24.5900     2.2610     6.4110 
   59.1250    81.2660     5.1490     3.0930    11.3020    24.5730     2.2070     0.7200 
   59.2500    81.7070     5.7770     4.1470    11.2050    24.5860     2.1940    -4.2770 
   59.3750    80.9990     5.8440     4.9710    11.0580    24.5640     2.1930    -8.3820 
   59.5000    78.0950     5.8340     5.6520    11.2120    24.4660     2.1860   -11.4370 
   59.6250    74.2330     6.0270     6.3000    12.0370    24.3700     2.1710   -13.3480 
   59.7500    70.7650     6.3840     6.9250    12.7890    24.2980     2.1570   -14.6880 
   59.8750    68.9810     6.8060     7.4570    13.3050    24.2780     2.1470   -15.8130 
   60.0000    69.1710     7.1930     7.8190    13.3490    24.2750     2.1430   -16.7860 
   60.1250    70.7270     7.4490     7.9470    13.3540    24.2590     2.1440   -17.6160 
   60.2500    72.0800     7.5720     7.9170    13.1570    24.2300     2.1450   -18.2790 
   60.3750    72.0450     7.5700     7.7890    12.8700    24.2240     2.1450   -18.7630 
   60.5000    69.8820     7.4640     7.6070    12.5760    24.2400     2.1450   -19.0820 
   60.6250    67.1740     7.2710     7.3850    12.3800    24.1890     2.1440   -19.2670 
   60.7500    66.3300     7.0370     7.1340    12.4170    24.1300     2.1440   -19.3640 
   60.8750    66.0310     6.8210     6.8850    12.5070    24.0720     2.1430   -19.3960 
   61.0000    65.2590     6.7440     6.7360    12.4800    24.0680     2.1430   -19.3950 
   61.1250    65.9360     7.0550     6.9310    12.3500    24.1050     2.1490   -19.3530 
