~V
VERS. 2.00: Ver 2.00
~W
STRT.M 52.0000:
STOP.M 286.0000:
STEP.M 0.1250:
NULL. -999.2500:
UWI. F11061:
~C
DEPT.M :
GR.API :
RML.OHMM :
RI. :
RXO.OHMM :
CALI.CM :
DEN.GM/CC :
SP.MV :
~A
# ...
   63.2500    77.3820     5.1590     6.1160     6.0550    22.6080     2.2700     0.0910 
   63.3750    76.2620     5.2490     6.1930     6.0160    22.6770     2.2670    -0.6070 
   63.5000    78.3220     5.4460     6.3710     6.3210    22.7570     2.2660    -1.2480 
   63.6250    79.7010     5.8060     6.7190     6.6130    22.9420     2.2690    -1.8580 
   63.7500    77.9800     6.3190     7.2350     6.9030    23.1610     2.2750    -2.4710 
   63.8750    75.0540     6.8850     7.8250     7.7280    23.2450     2.2830    -3.0920 
   64.0000    73.3650     7.2900     8.2640     9.3300    23.0490     2.2870    -3.7110 
   64.1250    72.8700     7.3560     8.3600    10.3860    22.6490     2.2850    -4.3060 
   64.2500    73.3830     7.0360     8.0400     8.9950    22.2540     2.2740    -4.8540 
   64.3750    75.0690     6.4590     7.4030     7.3510    22.0430     2.2600    -5.3510 
   64.5000    78.5480     5.8930     6.7070     6.6220    22.0250     2.2470    -5.8270 
   64.6250    81.0830     5.5540     6.2130     6.2520    22.0860     2.2370    -6.3040 
   64.7500    79.3570     5.5320     6.0540     5.9850    22.1280     2.2300    -6.7680 
   64.8750    73.9530     5.8310     6.2580     6.0010    22.0550     2.2280    -7.2140 
   65.0000    69.2270     6.4090     6.7950     6.3440    21.9150     2.2380    -7.6670 
   65.1250    67.1270     7.1070     7.4950     6.6190    21.8170     2.2620    -8.1470 
   65.2500    65.4260     7.7440     8.1710     6.7410    21.7950     2.2940    -8.6450 
   65.3750    63.0940     8.1450     8.6440     6.7630    21.8000     2.3200    -9.1360 
   65.5000    61.5280     8.1550     8.7390     6.8020    21.7480     2.3220    -9.5810 
   65.6250    61.7240     7.8540     8.5050     6.8210    21.6600     2.2960    -9.9390 
   65.7500    63.6470     7.4110     8.0890     6.8150    21.6090     2.2530   -10.1920 
   65.8750    65.3640     6.9960     7.6570     6.7800    21.5970     2.2090   -10.3430 
   66.0000    64.4310     6.7550     7.3630     6.7150    21.5960     2.1770   -10.3750 
   66.1250    61.1440     6.7090     7.2530     6.6460    21.5960     2.1570   -10.2750 
   66.2500    57.9080     6.8210     7.3070     6.6180    21.5970     2.1460   -10.0570 
   66.3750    57.1110     7.0110     7.4620     6.6210    21.5990     2.1400    -9.7410 
   66.5000    58.2650     7.1640     7.6100     6.6370    21.6170     2.1390    -9.3190 
   66.6250    60.9020     7.1870     7.6530     6.6720    21.6700     2.1430    -8.8140 
   66.7500    66.1320     7.0490     7.5390     6.7340    21.7880     2.1510    -8.2640 
   66.8750    73.7150     6.7750     7.2730     6.7760    22.0060     2.1620    -7.7070 
   67.0000    80.8920     6.4370     6.9030     6.6130    22.3490     2.1730    -7.1770 
   67.1250    84.0740     6.1200     6.5150     6.3060    22.6570     2.1830    -6.7080 
   67.2500    83.3790     5.8640     6.1650     6.1300    22.7260     2.1920    -6.3310 
   67.3750    82.4710     5.6660     5.8700     6.1110    22.6470     2.2000    -6.0590 
   67.5000    85.3260     5.5030     5.6270     5.9590    22.7810     2.2090    -5.9020 
   67.6250    89.9210     5.3540     5.4210     5.6350    23.1230     2.2170    -5.8520 
   67.7500    91.6850     5.2380     5.2580     5.4780    23.4400     2.2220    -5.9170 
   67.8750    91.1670     5.2020     5.1690     5.5760    23.5620     2.2250    -6.0980 
   68.0000    90.7380     5.3470     5.2280     5.7210    23.4760     2.2260    -6.4020 
   68.1250    88.2260     5.7050     5.4610     5.8000    23.2690     2.2280    -6.8240 
   68.2500    82.7020     6.2590     5.8630     5.8530    23.0220     2.2350    -7.3520 
   68.3750    76.2560     6.9310     6.3780     6.2800    22.7530     2.2420    -7.9740 
   68.5000    70.8540     7.5630     6.8900     7.2130    22.5460     2.2420    -8.6940 
   68.6250    67.3620     8.0030     7.2670     8.1620    22.4100     2.2260    -9.4800 
   68.7500    65.3130     8.1680     7.4250     8.1750    22.3410     2.1960   -10.2830 
   68.8750    63.6140     8.0840     7.3610     7.5210    22.3010     2.1570   -11.0630 
   69.0000    61.8450     7.8680     7.1450     7.0450    22.2560     2.1230   -11.7910 
   69.1250    61.2260     7.6750     6.9090     6.8580    22.1810     2.1010   -12.4560 
   69.2500    60.9510     7.5810     6.7330     6.7340    22.0930     2.0890   -13.0570 
   69.3750    59.4530     7.5930     6.6430     6.5750    22.0200     2.0850   -13.5940 
   69.5000    59.0540     7.6860     6.6380     6.4660    21.9840     2.0860   -14.0440 
   69.6250    60.3030     7.8140     6.6910     6.5090    21.9940     2.0890   -14.4080 
   69.7500    62.6690     7.9500     6.7820     6.6840    22.0470     2.0970   -14.6990 
   69.8750    66.3330     8.0710     6.8950     6.8580    22.1340     2.1100   -14.9160 
   70.0000    69.7920     8.1530     7.0070     7.0650    22.2310     2.1250   -15.0300 
   70.1250    68.5180     8.1930     7.0990     7.3100    22.3030     2.1390   -15.0360 
   70.2500    62.8780     8.1930     7.1630     7.6010    22.3160     2.1480   -14.9460 
   70.3750    58.0690     8.1610     7.1880     7.8350    22.2670     2.1520   -14.7640 
   70.5000    56.9990     8.0900     7.1580     7.9280    22.1490     2.1520   -14.4980 
   70.6250    58.1100     7.9590     7.0590     7.9530    21.9670     2.1520   -14.1800 
   70.7500    59.9770     7.7360     6.8700     7.9060    21.7560     2.1520   -13.8320 
   70.8750    63.6280     7.4020     6.5810     7.7090    21.6470     2.1500   -13.4750 
   71.0000    69.9760     6.9850     6.2130     7.3950    21.8320     2.1400   -13.1520 
   71.1250    78.3510     6.5850     5.8440     6.9780    22.2950     2.1210   -12.9030 
   71.2500    85.2290     6.3170     5.5610     6.4560    22.9550     2.0970   -12.7530 
   71.3750    87.1730     6.2650     5.4340     5.9640    23.6580     2.0740   -12.7170 
   71.5000    84.2350     6.4700     5.5090     5.8410    23.8870     2.0590   -12.8150 
   71.6250    79.9700     6.8360     5.7350     6.0700    23.4360     2.0550   -13.0040 
   71.7500    74.9460     7.2370     6.0330     6.5710    22.7260     2.0580   -13.2380 
   71.8750    68.9680     7.5660     6.3250     7.0930    22.2720     2.0630   -13.4870 
   72.0000    65.3430     7.7740     6.5560     7.3340    22.1320     2.0640   -13.7350 
   72.1250    64.6950     7.9620     6.7690     7.4700    22.0940     2.0620   -13.9550 
   72.2500    63.1800     8.3030     7.0710     7.6400    22.0750     2.0640   -14.1180 
   72.3750    58.7230     8.9530     7.5820     7.8620    22.1100     2.0800   -14.2120 
   72.5000    53.7280     9.9920     8.3900     8.3120    22.2490     2.1180   -14.2460 
   72.6250    50.1690    11.2030     9.3740     9.2860    22.5230     2.1740   -14.2540 
   72.7500    49.1330    12.2510    10.3010    10.7800    22.9330     2.2340   -14.2660 
   72.8750    50.6320    12.7900    10.8870    12.4080    23.3900     2.2810   -14.3060 
   73.0000    53.5120    12.5250    10.8350    13.4050    23.5580     2.3000   -14.3810 
   73.1250    55.4930    11.6490    10.2340    12.8270    23.2060     2.2960   -14.4840 
   73.2500    57.0920    10.5260     9.3480    10.4850    22.4430     2.2840   -14.6100 
   73.3750    59.3020     9.5130     8.4740     8.2730    21.7180     2.2710   -14.7460 
   73.5000    61.4580     8.8710     7.8510     7.2300    21.3490     2.2600   -14.8790 
   73.6250    63.9710     8.5740     7.5030     6.9400    21.2480     2.2470   -15.0210 
   73.7500    65.8950     8.5150     7.3720     6.9970    21.2810     2.2290   -15.2010 
   73.8750    64.2680     8.5760     7.3790     7.1740    21.3440     2.2110   -15.4220 
   74.0000    61.1560     8.6550     7.4460     7.3490    21.3880     2.1950   -15.6680 
   74.1250    61.8750     8.6980     7.5080     7.3770    21.3950     2.1840   -15.9240 
   74.2500    65.1230     8.6950     7.5410     7.2860    21.3570     2.1760   -16.1810 
   74.3750    65.2250     8.6620     7.5420     7.2600    21.2850     2.1680   -16.4430 
