~V
VERS. 2.00: Ver 2.00
~W
STRT.M 50.0000:
STOP.M 278.0000:
STEP.M 0.1250:
NULL. -999.2500:
UWI. F11029:
~C
DEPT.M :
SP.MV :
DEN.GM/CC :
GR.API :
RML.OHMM :
RI. :
RXO.OHMM :
CALI.CM :
~A
# ...
  185.0000   -14.3100     2.2430    64.5170   121.9600   103.3890    60.5390    24.3090 
  185.1250   -14.0940     2.2380    64.1110   130.4340   112.0830    87.6510    24.3260 
  185.2500   -13.8500     2.2290    65.0680   140.5510   124.0490   133.4050    24.2920 
  185.3750   -13.4680     2.2160    65.4430   148.2420   135.4450   177.9460    24.2260 
  185.5000   -12.9840     2.2010    64.6950   149.3710   141.4720   185.4270    24.2270 
  185.6250   -12.6420     2.1980    64.1170   140.3490   137.2880   157.7930    24.3110 
  185.7500   -12.4670     2.2230    63.5700   123.9060   125.0850   132.1390    24.3560 
  185.8750   -12.2880     2.2810    63.1210   102.7890   107.2910   114.5200    24.3790 
  186.0000   -11.9700     2.3560    62.9000    79.7360    85.5860    94.5180    24.3380 
  186.1250   -11.6530     2.4170    62.9430    57.6520    62.0700    69.8040    24.2790 
  186.2500   -11.4620     2.4440    66.7810    38.8660    41.2300    49.2120    23.9300 
  186.3750   -11.4010     2.4400    75.5550    24.7450    25.8550    28.4730    23.3860 
  186.5000   -11.4880     2.4190    86.2860    15.4650    16.1290    13.5110    22.7720 
  186.6250   -11.6770     2.3980    95.3520    10.6560    11.1410     6.9220    22.4640 
  186.7500   -11.9620     2.3850   100.4600     8.3190     8.5920     5.3040    22.5890 
  186.8750   -12.4650     2.3780   100.8190     7.5000     7.5690     5.2650    23.0550 
  187.0000   -13.2600     2.3770    96.2830     7.5750     7.5510     5.8790    23.6910 
  187.1250   -14.2290     2.3810    91.2690     8.1680     8.2790     6.7940    24.2520 
  187.2500   -15.2820     2.3880    91.0740     8.8500     9.2840     7.6210    24.5450 
  187.3750   -16.4460     2.3940    93.4880     9.3720    10.1920     8.0950    24.6530 
  187.5000   -17.6280     2.3940    95.3620     9.6030    10.7050     8.1400    24.7550 
  187.6250   -18.6280     2.3770    95.4720     9.5420    10.7050     7.9790    24.7840 
  187.7500   -19.4190     2.3420    94.0040     9.3960    10.4640     7.4730    24.6490 
  187.8750   -20.0050     2.2980    89.7890     9.3240    10.1930     6.8200    24.2890 
  188.0000   -20.4480     2.2630    83.1350     9.4360    10.0370     6.6090    24.0550 
  188.1250   -20.7640     2.2560    79.7490     9.8440    10.1010     7.7900    23.8780 
  188.2500   -20.8860     2.2690    82.2600    10.5480    10.3700    10.3440    23.7030 
  188.3750   -20.7710     2.2820    87.4420    11.6030    10.8520    12.6590    23.8180 
  188.5000   -20.5250     2.2820    89.4820    13.1250    11.5940    13.5810    24.0370 
  188.6250   -20.3300     2.2700    86.9890    15.4970    12.8330    13.1090    24.1870 
  188.7500   -20.1640     2.2620    83.2860    18.9890    14.8130    13.7000    24.1390 
  188.8750   -19.9500     2.2660    81.0250    23.9700    17.9300    16.7970    23.7600 
  189.0000   -19.6370     2.2780    79.4340    30.6800    22.6090    21.0070    23.3200 
  189.1250   -19.3340     2.2870    75.9750    39.1930    29.4050    27.1710    23.0740 
  189.2500   -19.1590     2.2870    71.8970    48.3780    37.5280    32.8790    22.9660 
  189.3750   -19.1110     2.2830    69.8310    56.9920    45.6620    33.2910    22.8970 
  189.5000   -19.1050     2.2820    72.0200    63.9000    52.2520    28.3270    22.8410 
  189.6250   -19.1050     2.2920    73.0940    68.4390    56.2570    24.2050    22.7800 
  189.7500   -19.2040     2.3070    69.7230    71.7880    58.9020    24.0870    22.8160 
  189.8750   -19.4500     2.3160    66.1130    75.1280    61.5420    30.3440    23.1070 
  190.0000   -19.7730     2.3090    66.3380    79.2870    65.2330    43.9620    23.6540 
  190.1250   -19.9660     2.2780    71.0700    84.3400    70.3690    64.5750    24.4290 
  190.2500   -19.9860     2.2340    73.3370    89.1570    75.8710    76.4070    25.1520 
  190.3750   -19.9150     2.1920    72.1590    92.3730    80.5550    76.5620    25.6680 
  190.5000   -19.8310     2.1640    68.0670    92.4910    83.2110    78.0170    25.6940 
  190.6250   -19.7060     2.1570    65.3800    87.3440    81.7110    82.1270    25.2540 
  190.7500   -19.4030     2.1640    66.9910    77.3590    75.2290    77.7460    24.7390 
  190.8750   -18.9140     2.1820    69.1580    63.8350    63.8460    65.9400    24.2760 
  191.0000   -18.3340     2.2110    69.1740    49.2430    49.7400    53.4240    23.8740 
  191.1250   -17.7010     2.2590    66.7080    36.7050    36.7370    39.6600    23.5920 
  191.2500   -17.0110     2.3180    64.7260    27.4410    26.9910    22.4020    23.5410 
  191.3750   -16.2870     2.3780    63.8340    21.4730    20.6760    12.8470    23.8320 
  191.5000   -15.5740     2.4230    62.9980    18.2030    17.0930     8.9990    24.2750 
  191.6250   -14.9440     2.4400    62.6100    17.1490    15.6580     8.7320    24.6460 
  191.7500   -14.4500     2.4420    63.4030    17.3630    15.4480     9.6830    24.2030 
  191.8750   -14.0050     2.4420    65.4090    18.4730    16.1310    11.3940    23.8320 
  192.0000   -13.5690     2.4510    66.4410    20.2550    17.4860    13.1860    23.6130 
  192.1250   -13.3230     2.4620    62.8720    22.7180    19.4670    12.7650    23.4550 
  192.2500   -13.3180     2.4610    60.2650    25.8210    21.9870    12.6900    23.3920 
  192.3750   -13.4420     2.4360    62.9440    29.6810    25.1430    14.1940    23.4000 
  192.5000   -13.5890     2.3860    68.5460    34.4060    29.0620    19.4480    23.5090 
  192.6250   -13.7130     2.3240    69.7780    40.1140    33.9290    28.3240    23.8330 
  192.7500   -13.8690     2.2730    66.8660    46.3280    39.4000    32.4790    24.3240 
  192.8750   -14.1000     2.2400    65.1650    52.3420    44.8870    32.1790    24.6610 
  193.0000   -14.3700     2.2210    66.0760    57.1450    49.3780    42.1680    24.6030 
  193.1250   -14.5360     2.2040    66.2940    59.4000    51.3940    55.8570    24.4040 
  193.2500   -14.6030     2.1820    64.5070    59.4440    51.0870    66.1340    24.3800 
  193.3750   -14.6270     2.1620    62.5380    58.3570    49.4270    55.0850    24.5200 
  193.5000   -14.5940     2.1570    61.7720    57.8440    48.0090    39.2480    24.6560 
  193.6250   -14.3810     2.1770    61.2030    60.1710    49.1250    33.6350    24.7160 
  193.7500   -14.0580     2.2110    60.4560    65.8600    53.7080    44.1170    24.8310 
  193.8750   -13.7200     2.2420    60.0060    74.1270    61.5170    79.3650    24.9430 
  194.0000   -13.3630     2.2560    59.1220    82.2510    70.3490   117.6530    24.8360 
  194.1250   -12.9640     2.2440    57.7010    85.2530    74.9520   112.1120    24.6980 
  194.2500   -12.5160     2.2190    56.9300    81.7700    72.7460    84.6410    24.4960 
  194.3750   -12.0020     2.2010    57.2670    73.5820    65.3550    60.9680    24.2380 
  194.5000   -11.4470     2.2140    59.6040    64.2210    56.6810    44.6020    23.8150 
  194.6250   -10.9050     2.2790    64.7750    56.6730    49.9050    42.1670    23.8240 
  194.7500   -10.3050     2.3730    69.7710    50.7940    44.9220    52.4240    24.0300 
  194.8750    -9.6530     2.4640    70.8110    45.4080    40.5360    69.9050    24.2080 
  195.0000    -9.0170     2.5250    68.2720    39.3930    35.4810    66.9230    24.3150 
  195.1250    -8.3370     2.5480    66.8550    32.0900    29.1130    39.0390    24.3440 
  195.2500    -7.5580     2.5550    66.9760    24.4000    22.4180    25.2360    24.2570 
  195.3750    -6.7310     2.5620    66.8940    17.5510    16.4510    14.9040    24.0040 
  195.5000    -5.9520     2.5730    66.6300    12.4190    11.8440     8.1670    23.5290 
  195.6250    -5.3380     2.5850    64.6570     9.2950     8.8610     5.7480    23.2320 
  195.7500    -4.8450     2.5950    59.1560     7.3590     6.9460     4.8830    23.2860 
  195.8750    -4.3900     2.6040    52.2550     6.2430     5.7810     4.5080    23.4920 
  196.0000    -3.9850     2.6050    47.9630     5.6560     5.1160     4.1520    23.4640 
  196.1250    -3.8060     2.5850    45.8170     5.3690     4.7830     3.9580    23.2370 
