~V
VERS. 2.00: Ver 2.00
~W
STRT.M 47.0000:
STOP.M 272.0000:
STEP.M 0.1250:
NULL. -999.2500:
UWI. F11040:
~C
DEPT.M :
DEN.GM/CC :
GR.API :
RML.OHMM :
RI. :
RXO.OHMM :
CALI.CM :
SP.MV :
~A
# ...
  193.2500     2.2560    50.5940    77.5670    77.6590    84.3660    24.1640   -17.9470 
  193.3750     2.2240    48.1210    85.6380    85.7680   108.2120    24.3980   -17.9920 
  193.5000     2.2090    51.0480    92.2150    92.5200   105.6420    24.5070   -18.0120 
  193.6250     2.2110    52.9500    95.1730    95.5990   117.2500    24.4150   -17.9820 
  193.7500     2.2220    51.6880    94.4580    94.7410   145.0090    24.2360   -17.8880 
  193.8750     2.2370    51.1430    91.1260    90.8360   144.1420    24.0090   -17.7710 
  194.0000     2.2490    53.4640    87.5700    86.1720   117.8880    23.7480   -17.6610 
  194.1250     2.2520    56.3060    87.4470    84.5280   103.1360    23.5630   -17.5300 
  194.2500     2.2440    56.6360    92.3680    88.5030    95.1030    23.5390   -17.3660 
  194.3750     2.2300    56.3710   104.2120    99.7990    98.4090    23.6820   -17.1330 
  194.5000     2.2120    56.1050   123.4230   118.5470   116.2550    23.8860   -16.8700 
  194.6250     2.1980    54.5190   147.2800   142.9830   144.2700    24.0360   -16.5590 
  194.7500     2.1880    52.4390   175.7790   167.2900   163.6940    24.1350   -16.2420 
  194.8750     2.1810    51.5080   199.4200   186.3570   178.7490    24.2500   -15.8930 
  195.0000     2.1760    51.2370   213.3540   196.5510   192.0600    24.3970   -15.5350 
  195.1250     2.1670    50.1120   215.2100   196.6290   202.0140    24.5340   -15.1910 
  195.2500     2.1540    50.2980   211.0550   191.7400   201.3680    24.5790   -14.8380 
  195.3750     2.1420    52.8410   204.4000   184.7710   195.6820    24.5720   -14.5160 
  195.5000     2.1330    54.5430   195.9990   176.5360   189.2820    24.5590   -14.1760 
  195.6250     2.1320    52.1500   184.5250   166.0650   190.5460    24.5360   -13.8750 
  195.7500     2.1360    50.3250   169.7540   152.9910   187.5290    24.5080   -13.5700 
  195.8750     2.1410    51.4440   152.2120   137.5240   181.7490    24.4860   -13.2800 
  196.0000     2.1420    53.4630   133.5030   120.8100   166.7580    24.4750   -13.0250 
  196.1250     2.1400    52.3280   116.1840   104.9170   139.3080    24.4670   -12.8120 
  196.2500     2.1410    49.4020   101.7890    91.3710   110.5640    24.4470   -12.6180 
  196.3750     2.1500    47.7160    90.7260    80.7300    89.0450    24.4050   -12.4180 
  196.5000     2.1690    48.8920    82.5170    72.7210    76.6980    24.3200   -12.2650 
  196.6250     2.1940    52.3330    76.2970    66.6990    74.9320    24.1870   -12.1170 
  196.7500     2.2180    54.3900    70.6080    61.4000    74.0070    24.0190   -11.9880 
  196.8750     2.2390    56.0960    64.8430    56.3030    71.3450    23.8920   -11.8590 
  197.0000     2.2540    60.5190    58.9780    51.3350    61.5290    23.8690   -11.6810 
  197.1250     2.2690    65.9000    53.7050    46.9550    49.7820    23.9630   -11.4380 
  197.2500     2.2880    66.4750    49.6990    43.5660    41.3160    24.0970   -11.1790 
  197.3750     2.3150    62.5020    47.1510    41.2560    38.4890    24.1850   -10.9020 
  197.5000     2.3490    57.5020    45.4810    39.5500    38.6020    24.1820   -10.5670 
  197.6250     2.3880    53.5400    43.2410    37.3050    40.6210    24.1020   -10.1610 
  197.7500     2.4230    50.8600    39.2740    33.6290    40.6640    24.0370    -9.7320 
  197.8750     2.4510    48.7870    33.3600    28.3780    44.2320    23.9800    -9.2930 
  198.0000     2.4670    46.1560    26.3300    22.3220    46.9490    23.8990    -8.8600 
  198.1250     2.4660    44.1350    19.8750    16.9420    35.4830    23.8310    -8.4790 
  198.2500     2.4530    45.0900    15.0080    12.9410    19.2710    23.7980    -8.1200 
  198.3750     2.4340    47.4700    11.8350    10.3030    11.2990    23.7970    -7.7690 
  198.5000     2.4170    48.7060    10.0160     8.7230     8.6040    23.8250    -7.4340 
  198.6250     2.4110    50.3140     9.2000     7.9510     7.8320    23.8360    -7.2010 
  198.7500     2.4130    52.6080     8.8330     7.5810     7.5220    23.8630    -7.0390 
  198.8750     2.4190    52.3120     8.6750     7.4310     7.1660    24.0100    -6.9120 
  199.0000     2.4250    47.9690     8.5840     7.3770     6.4090    24.3560    -6.8200 
  199.1250     2.4320    43.2990     8.5020     7.3550     5.9650    24.7100    -6.7230 
  199.2500     2.4370    42.8200     8.4310     7.3360     5.8510    25.1440    -6.6590 
  199.3750     2.4400    45.0270     8.3910     7.3140     5.7780    25.6590    -6.6230 
  199.5000     2.4370    46.3690     8.3300     7.2850     5.7780    25.9660    -6.6270 
  199.6250     2.4250    46.1690     8.2810     7.2370     6.0130    25.7750    -6.6180 
  199.7500     2.4060    46.4720     8.2000     7.1610     6.2840    25.2810    -6.5980 
  199.8750     2.3810    47.2350     8.0680     7.0550     6.4340    24.9140    -6.6090 
  200.0000     2.3540    47.1040     7.9110     6.9200     6.4040    24.9150    -6.6420 
  200.1250     2.3320    46.3150     7.7610     6.7720     6.3150    25.2150    -6.7080 
  200.2500     2.3200    45.2590     7.6610     6.6410     6.0520    25.6400    -6.7830 
  200.3750     2.3210    45.7820     7.6880     6.5780     5.9780    25.9000    -6.8910 
  200.5000     2.3340    49.9420     7.9360     6.6540     6.2270    25.6650    -7.0350 
  200.6250     2.3530    59.3640     8.5360     6.9900     6.7690    25.0550    -7.2580 
  200.7500     2.3730    70.2550     9.4650     7.5840     7.1630    24.5080    -7.5480 
  200.8750     2.3960    78.4090    10.6100     8.3760     8.1820    24.2360    -7.8660 
  201.0000     2.4240    82.7020    11.7190     9.2030    10.1080    24.1300    -8.2330 
  201.1250     2.4540    84.3010    12.3660     9.7600    12.4760    23.9360    -8.6990 
  201.2500     2.4750    85.3190    12.3670     9.8630    13.9070    23.6700    -9.2380 
  201.3750     2.4810    86.8940    11.7540     9.4790    12.6630    23.3990    -9.8650 
  201.5000     2.4710    88.7570    10.7950     8.7720     9.9920    23.2560   -10.5670 
  201.6250     2.4530    89.7970     9.9330     8.0480     8.2200    23.3790   -11.2700 
  201.7500     2.4380    88.7860     9.4680     7.5620     7.7190    23.6790   -11.9420 
  201.8750     2.4300    85.0040     9.4800     7.4050     8.0400    23.9960   -12.5540 
  202.0000     2.4300    78.4160     9.9000     7.5670     8.5900    24.2140   -13.0960 
  202.1250     2.4360    72.2850    10.6110     8.0040     9.0460    24.2820   -13.5040 
  202.2500     2.4440    70.3720    11.4020     8.5670     9.8450    24.2960   -13.7780 
  202.3750     2.4480    70.0450    12.1720     9.1670    11.3010    24.2870   -13.8730 
  202.5000     2.4490    67.1820    12.8600     9.7350    12.7540    24.2640   -13.7460 
  202.6250     2.4510    64.2760    13.3930    10.1930    13.1320    24.2420   -13.4460 
  202.7500     2.4610    65.4400    13.6920    10.4760    13.4050    24.2190   -12.9960 
  202.8750     2.4800    67.3420    13.6310    10.4940    13.9860    24.1990   -12.4640 
  203.0000     2.5000    67.6160    13.1250    10.1820    14.3920    24.1800   -11.8740 
  203.1250     2.5050    67.8860    12.1670     9.5160    15.1080    24.1700   -11.2650 
  203.2500     2.4930    69.9710    11.0690     8.7090    13.8530    24.2100   -10.6820 
  203.3750     2.4710    71.7210    10.1450     7.9780    10.9470    24.2860   -10.1690 
  203.5000     2.4500    72.4840     9.6640     7.5270     8.8400    24.3330    -9.7830 
  203.6250     2.4420    76.0620     9.8370     7.5390     8.3490    24.3180    -9.4860 
  203.7500     2.4460    80.2610    10.4670     7.9280     9.0440    24.2930    -9.2960 
  203.8750     2.4560    80.2350    11.3230     8.5730    10.5250    24.2520    -9.1880 
  204.0000     2.4690    75.9360    12.1350     9.2990    12.4640    24.1940    -9.1450 
  204.1250     2.4860    73.7450    12.6620     9.9010    14.1060    24.1730    -9.1280 
  204.2500     2.5050    74.6760    12.9540    10.3160    13.9660    24.1690    -9.1240 
  204.3750     2.5310    74.6630    13.1520    10.5830    12.2060    24.1440    -9.0790 
