~V
VERS. 2.00: Ver 2.00
~W
STRT.M 54.0000:
STOP.M 281.0000:
STEP.M 0.1250:
NULL. -999.2500:
UWI. F11055:
~C
DEPT.M :
SP.MV :
GR.API :
RML.OHMM :
RI. :
RXO.OHMM :
CALI.CM :
DEN.GM/CC :
~A
# ...
   87.7500    -3.1890    65.5220     9.8800     8.1120    10.0810    24.1090     2.1870 
   87.8750    -2.9230    65.0310     9.9460     8.1790    10.1580    24.1980     2.1980 
   88.0000    -2.6350    64.1640    10.0930     8.2940    10.2460    24.2610     2.2090 
   88.1250    -2.2380    62.5370    10.1430     8.3560    10.4740    24.2960     2.2230 
   88.2500    -1.8000    63.7270     9.9040     8.2060    10.4950    24.3190     2.2420 
   88.3750    -1.2850    70.6780     9.2720     7.7340    10.2530    24.3240     2.2640 
   88.5000    -0.7210    80.8360     8.3050     6.9500     9.0680    24.2950     2.2840 
   88.6250    -0.2060    90.1480     7.2180     5.9990     6.8960    24.2830     2.2970 
   88.7500     0.2600    96.8520     6.2830     5.1180     4.8750    24.2910     2.3060 
   88.8750     0.6480    99.6320     5.6220     4.4310     3.8720    24.2920     2.3070 
   89.0000     0.8810    97.3850     5.2500     3.9860     3.6970    24.2900     2.2970 
   89.1250     1.0210    93.0870     5.1440     3.8020     4.0730    24.2870     2.2800 
   89.2500     1.0570    91.0760     5.1990     3.8010     4.7130    24.2390     2.2690 
   89.3750     0.9970    92.1600     5.4160     3.9670     5.3720    24.1720     2.2670 
   89.5000     0.8360    95.4030     5.8980     4.3430     5.6340    24.1450     2.2710 
   89.6250     0.7270    94.1840     6.9980     5.1330     6.9300    24.1730     2.2900 
   89.7500     0.5390    85.8770     8.9890     6.5210     9.7530    24.1770     2.3330 
   89.8750     0.3410    74.9390    12.1460     8.7840    16.4670    24.1520     2.4030 
   90.0000     0.1800    67.4600    16.4510    12.1320    27.9320    24.1420     2.4880 
   90.1250    -0.0420    64.6470    21.0510    16.3270    39.0150    24.1700     2.5500 
   90.2500    -0.2670    62.7640    23.9540    19.6960    43.8240    24.1700     2.5570 
   90.3750    -0.5330    62.1860    23.6020    20.4480    41.9080    24.1520     2.4960 
   90.5000    -0.7930    62.2840    20.2590    18.3080    33.9900    24.0580     2.3870 
   90.6250    -1.1670    61.4140    15.9670    14.8330    23.5050    24.0290     2.2760 
   90.7500    -1.4600    61.1150    12.5820    11.7910    15.1660    23.9900     2.1990 
   90.8750    -1.7700    63.0310    10.4620     9.6220    10.9340    23.9730     2.1610 
   91.0000    -2.0710    67.2660     9.4180     8.2820     9.6670    23.9740     2.1510 
   91.1250    -2.2780    70.3300     9.2070     7.6690     9.3540    23.9960     2.1540 
   91.2500    -2.4880    70.2220     9.3620     7.4590     9.2100    23.9980     2.1570 
   91.3750    -2.6420    66.9450     9.6270     7.4770     9.1960    23.9790     2.1570 
   91.5000    -2.8180    63.8770     9.8320     7.5840     9.3020    23.9740     2.1540 
   91.6250    -2.8830    63.9840     9.8840     7.6830     9.2840    23.9960     2.1510 
   91.7500    -2.9880    64.4320     9.8230     7.7330     9.3140    23.9980     2.1500 
   91.8750    -3.0510    63.3300     9.7020     7.7280     9.4100    23.9790     2.1500 
   92.0000    -3.0710    62.0280     9.5880     7.6970     9.4840    23.9740     2.1500 
   92.1250    -3.1130    63.5850     9.5500     7.6880     9.3920    23.9960     2.1490 
   92.2500    -3.1250    66.6970     9.6040     7.7310     9.1980    23.9980     2.1470 
   92.3750    -3.1310    69.2030     9.7330     7.8240     8.8460    23.9740     2.1440 
   92.5000    -3.1110    69.5040     9.8820     7.9390     8.5610    23.9600     2.1400 
   92.6250    -3.1190    67.7280     9.9590     8.0230     8.4980    23.9760     2.1360 
   92.7500    -3.0570    66.8530     9.9270     8.0400     8.6210    23.9970     2.1340 
   92.8750    -3.0360    67.8030     9.7960     7.9890     8.8680    23.9860     2.1370 
   93.0000    -3.0340    68.5420     9.6220     7.8950     9.0910    23.9850     2.1450 
   93.1250    -3.0300    66.8920     9.4890     7.8070     9.2530    24.0070     2.1570 
   93.2500    -3.0260    65.4410     9.4430     7.7630     9.4260    23.9970     2.1690 
   93.3750    -3.0220    66.7530     9.4790     7.7660     9.5760    23.9880     2.1790 
   93.5000    -2.9940    68.9760     9.5540     7.7860     9.6610    24.0190     2.1850 
   93.6250    -2.9640    67.9830     9.5920     7.7700     9.6620    24.0260     2.1860 
   93.7500    -2.9710    65.6380     9.5540     7.7050     9.6510    24.0010     2.1810 
   93.8750    -2.9590    65.3300     9.4390     7.6100     9.5920    23.9850     2.1750 
   94.0000    -2.9290    67.5200     9.2730     7.5100     9.4570    24.0170     2.1750 
   94.1250    -2.9280    69.3070     9.1130     7.4380     9.1910    24.0260     2.1830 
   94.2500    -2.9060    69.5580     9.0440     7.4290     9.1660    23.9960     2.1960 
   94.3750    -2.9070    67.0390     9.1460     7.5340     9.4830    23.9650     2.2120 
   94.5000    -2.9010    63.2520     9.4700     7.7950     9.7550    23.9740     2.2310 
   94.6250    -2.9080    63.1790    10.0320     8.2450    10.1600    24.0070     2.2560 
   94.7500    -2.9090    65.7060    10.6860     8.7890    11.3620    23.9980     2.2750 
   94.8750    -2.9140    67.7750    11.2450     9.2940    12.8040    23.9930     2.2700 
   95.0000    -2.9280    67.3470    11.5050     9.5950    11.3600    24.0340     2.2350 
   95.1250    -2.9090    67.0470    11.2910     9.5280    10.5010    24.0520     2.1960 
   95.2500    -2.8810    67.2760    10.7520     9.1770    10.1280    24.0420     2.1790 
   95.3750    -2.7980    66.4750    10.0490     8.6550    10.0750    23.9950     2.1810 
   95.5000    -2.7230    65.8780     9.3430     8.0860     9.7410    23.9670     2.1950 
   95.6250    -2.5780    66.6270     8.8110     7.6150     9.2210    23.9820     2.2210 
   95.7500    -2.4620    70.4830     8.6010     7.3650     8.6250    24.0060     2.2600 
   95.8750    -2.3150    75.4120     8.8750     7.4590     8.3200    23.9820     2.3070 
   96.0000    -2.2010    78.2730     9.7490     7.9910     8.4380    23.9630     2.3580 
   96.1250    -2.1100    76.5240    11.2460     9.0490    10.2920    23.9870     2.4010 
   96.2500    -2.0470    71.6710    12.8870    10.3660    15.8400    24.0320     2.4210 
   96.3750    -2.0430    67.7980    14.0500    11.5100    27.5300    24.0260     2.3970 
   96.5000    -2.1060    67.7610    14.1570    11.9640    27.7330    23.9440     2.3290 
   96.6250    -2.2140    70.0810    13.0240    11.4180    14.7060    23.8430     2.2530 
   96.7500    -2.3610    69.9980    11.5040    10.4220    10.2270    23.8090     2.2050 
   96.8750    -2.5580    66.5750    10.2310     9.4470     9.5740    23.8060     2.1860 
   97.0000    -2.7070    64.5620     9.5080     8.7710    10.1100    23.7980     2.1790 
   97.1250    -2.8660    67.9140     9.3570     8.4980    10.4330    23.8010     2.1760 
   97.2500    -3.0010    71.1330     9.4140     8.4310    10.4720    23.8120     2.1780 
   97.3750    -3.1180    69.2290     9.4160     8.3910    10.3670    23.8110     2.1880 
   97.5000    -3.1610    64.4400     9.2290     8.2560    10.3150    23.7980     2.2030 
   97.6250    -3.2930    65.8470     8.8770     8.0000     9.9590    23.8010     2.2160 
   97.7500    -3.3730    72.0770     8.5340     7.7210     9.4300    23.8120     2.2210 
   97.8750    -3.4390    76.2610     8.3190     7.5030     9.1300    23.8140     2.2160 
   98.0000    -3.5360    74.3020     8.2880     7.4010     9.7600    23.8060     2.2040 
   98.1250    -3.6090    69.2010     8.4340     7.4360    10.1300    23.8090     2.1900 
   98.2500    -3.6900    67.0860     8.6410     7.5400    10.3220    23.8000     2.1780 
   98.3750    -3.7900    68.4150     8.8230     7.6570    10.3650    23.7910     2.1710 
   98.5000    -3.9050    70.6830     8.9350     7.7470    10.4060    23.7940     2.1680 
   98.6250    -3.9480    70.6070     8.9720     7.7980    10.4140    23.8060     2.1700 
   98.7500    -4.0010    68.4840     8.9910     7.8380    10.5040    23.8020     2.1720 
   98.8750    -4.0030    67.5070     9.0150     7.8790    10.5860    23.7980     2.1730 
