~V
VERS. 2.00: Ver 2.00
~W
STRT.M 55.0000:
STOP.M 236.0000:
STEP.M 0.1250:
NULL. -999.2500:
UWI. F11015:
~C
DEPT.M :
GR.API :
RML.OHMM :
RI. :
RXO.OHMM :
CALI.CM :
DEN.GM/CC :
SP.MV :
~A
# ...
  190.0000    91.1310     6.8680     5.5830     5.0330    24.1860     2.4080   -17.7840 
  190.1250    94.3240     6.7620     5.4870     5.0270    24.2270     2.3960   -17.2410 
  190.2500    96.0750     6.6940     5.4140     4.9910    24.2380     2.3830   -16.7190 
  190.3750    95.1120     6.6960     5.3920     4.9990    24.2440     2.3740   -16.1970 
  190.5000    92.3240     6.7860     5.4420     5.0370    24.2420     2.3740   -15.7150 
  190.6250    91.0230     6.9700     5.5870     5.3010    24.2300     2.3860   -15.4030 
  190.7500    92.2490     7.2000     5.7910     5.6050    24.2240     2.3960   -15.2540 
  190.8750    93.9120     7.4270     6.0070     5.8730    24.2280     2.3990   -15.1770 
  191.0000    93.2880     7.6060     6.1800     5.9590    24.2220     2.3960   -15.1160 
  191.1250    91.0460     7.6870     6.2570     5.8780    24.2050     2.3960   -15.0750 
  191.2500    89.9120     7.6880     6.2580     5.8040    24.2170     2.3990   -15.0580 
  191.3750    91.1730     7.6470     6.2250     5.7620    24.2370     2.4030   -15.0960 
  191.5000    93.8230     7.6410     6.2270     5.6840    24.2380     2.4070   -15.2080 
  191.6250    93.9230     7.7990     6.3640     5.5920    24.2110     2.4110   -15.3220 
  191.7500    90.8780     8.1870     6.6760     5.6740    24.1670     2.4160   -15.3330 
  191.8750    86.8740     8.8320     7.1910     6.0900    24.1270     2.4200   -15.2880 
  192.0000    87.5000     9.7150     7.9140     6.8750    24.1020     2.4200   -15.2990 
  192.1250    91.8090    10.7790     8.8480     8.7480    24.0860     2.4200   -15.3920 
  192.2500    92.5860    11.8920     9.8950    12.5210    24.0750     2.4180   -15.5180 
  192.3750    87.8880    13.0440    11.0130    17.9760    24.0800     2.4090   -15.6130 
  192.5000    81.2010    14.3760    12.2550    20.6740    24.0990     2.3890   -15.6040 
  192.6250    77.1060    16.2670    13.8770    24.2230    24.1140     2.3610   -15.5330 
  192.7500    75.7660    18.9120    16.0890    25.5190    24.1410     2.3310   -15.5490 
  192.8750    74.5570    22.3860    19.0630    26.1270    24.1560     2.3040   -15.6190 
  193.0000    72.7800    26.4420    22.7390    24.7960    24.1490     2.2850   -15.6160 
  193.1250    71.8920    30.3190    26.6010    30.4140    24.1920     2.2700   -15.4780 
  193.2500    72.3250    33.3780    29.9140    33.8010    24.2870     2.2510   -15.2490 
  193.3750    70.6710    35.8110    32.6030    33.8060    24.3380     2.2310   -14.9840 
  193.5000    66.2540    38.6420    35.3560    33.9570    24.2910     2.2190   -14.7550 
  193.6250    63.9780    43.8520    38.2590    39.9960    24.2070     2.2200   -14.5880 
  193.7500    64.1040    52.8110    40.7800    56.7060    24.1400     2.2240   -14.3910 
  193.8750    63.1180    66.7580    52.0090    99.9140    24.1200     2.2210   -14.1210 
  194.0000    60.4260    86.1000    67.9760   150.8460    24.1150     2.2060   -13.8510 
  194.1250    60.9020   108.9700    86.7950   160.6200    24.1060     2.1900   -13.6720 
  194.2500    64.9730   128.7980   103.1170   139.5250    24.1140     2.1790   -13.6040 
  194.3750    66.9830   140.3300   113.0940   121.7350    24.1850     2.1750   -13.6400 
  194.5000    63.5570   143.3970   116.4510   115.0920    24.3540     2.1750   -13.7160 
  194.6250    59.5560   142.4100   116.1160   127.3190    24.5490     2.1730   -13.7090 
  194.7500    59.9890   141.9480   115.8830   134.4910    24.6430     2.1700   -13.6890 
  194.8750    63.7800   142.6240   116.5460   135.1320    24.6640     2.1700   -13.7600 
  195.0000    67.6000   144.2470   118.0290   135.0940    24.6520     2.1730   -13.9110 
  195.1250    67.4020   147.1650   120.5480   132.1400    24.6240     2.1800   -14.0650 
  195.2500    63.9980   151.7560   124.3170   131.3930    24.6150     2.1850   -14.1550 
  195.3750    61.5070   158.4620   129.6960   134.4510    24.6240     2.1850   -14.1350 
  195.5000    62.9130   166.9740   136.6300   144.5490    24.6460     2.1790   -14.0700 
  195.6250    65.7160   174.5560   143.4970   162.6540    24.6410     2.1690   -14.1250 
  195.7500    66.3660   176.5690   146.9580   184.0700    24.6180     2.1600   -14.2160 
  195.8750    65.2790   169.9810   144.3050   190.4950    24.5970     2.1560   -14.2020 
  196.0000    62.7020   156.1720   135.4360   173.8430    24.5650     2.1590   -14.0940 
  196.1250    60.3340   140.4130   123.2290   139.3120    24.5030     2.1670   -13.9700 
  196.2500    61.6380   127.6110   112.1590   109.6960    24.4060     2.1800   -13.9040 
  196.3750    65.5570   119.2680   104.2850    93.3810    24.3030     2.1940   -13.9720 
  196.5000    67.9850   115.1940   100.0440   103.2810    24.1890     2.2100   -14.1180 
  196.6250    66.3390   114.7800    99.2290   113.0880    24.1010     2.2250   -14.1740 
  196.7500    63.7470   116.3260   100.4390   114.4470    24.0570     2.2360   -14.1420 
  196.8750    62.0550   119.2010   103.1560   107.9570    24.0390     2.2400   -14.1510 
  197.0000    61.1990   123.1990   107.1690   107.5610    24.0140     2.2410   -14.2580 
  197.1250    60.2830   128.3590   112.4770   116.5830    23.9730     2.2470   -14.4490 
  197.2500    59.7250   133.8510   118.2910   125.6140    23.9220     2.2610   -14.6510 
  197.3750    59.2530   138.1980   123.3690   128.8100    23.8960     2.2760   -14.7770 
  197.5000    57.9560   139.4620   125.9910   131.8890    23.8770     2.2830   -14.7890 
  197.6250    57.3580   135.5710   124.0540   132.0420    23.8460     2.2830   -14.8250 
  197.7500    58.6660   127.7310   118.2370   114.4530    23.8540     2.2810   -15.0140 
  197.8750    61.0500   117.3680   109.7190    89.4300    23.9400     2.2680   -15.2540 
  198.0000    63.1070   105.8790    99.8860    79.7770    24.0630     2.2380   -15.4170 
  198.1250    64.3580    94.4660    89.9280    77.9030    24.1350     2.2030   -15.4580 
  198.2500    64.8830    84.0290    80.7080    76.4430    24.1270     2.1820   -15.4440 
  198.3750    65.2860    75.1680    72.7510    69.6240    24.0560     2.1770   -15.4720 
  198.5000    65.9980    68.2690    66.3870    63.8470    23.9210     2.1860   -15.6120 
  198.6250    66.2780    63.9060    62.1470    59.8380    23.7820     2.2000   -15.7770 
  198.7500    65.5880    61.8170    59.9030    58.2200    23.7740     2.2110   -15.8190 
  198.8750    65.9180    62.0620    59.7720    56.3660    23.9560     2.2150   -15.7750 
  199.0000    68.5390    64.6530    61.8400    56.7760    24.1580     2.2100   -15.7520 
  199.1250    69.5590    69.7860    66.4210    60.3530    24.2620     2.1920   -15.8100 
  199.2500    68.4390    76.5280    72.7380    67.5540    24.3160     2.1680   -15.9200 
  199.3750    67.2320    83.7230    79.8110    75.7340    24.3240     2.1470   -16.0390 
  199.5000    67.6010    89.5170    86.0010    85.1450    24.3050     2.1320   -16.1060 
  199.6250    68.5820    90.9880    88.5930    91.8430    24.3120     2.1280   -16.0800 
  199.7500    67.5100    87.7650    86.7670    87.3770    24.2570     2.1340   -16.0600 
  199.8750    66.9460    81.1960    81.2310    76.1870    24.1720     2.1480   -16.1270 
  200.0000    69.1220    73.9540    74.1880    67.5020    24.1140     2.1650   -16.2460 
  200.1250    72.0020    69.0930    68.6010    58.3120    24.0940     2.1820   -16.3680 
  200.2500    71.6760    67.6930    66.1030    49.6490    24.0850     2.1930   -16.4160 
  200.3750    69.1600    69.9960    67.3640    45.5510    24.0800     2.1930   -16.3690 
  200.5000    67.4380    75.4980    72.2610    49.3700    24.0910     2.1800   -16.3130 
  200.6250    66.4040    82.6130    79.6730    53.9660    24.0920     2.1610   -16.3870 
  200.7500    64.3880    88.0530    86.2940    51.1700    24.0890     2.1480   -16.5350 
  200.8750    62.2230    89.2320    89.2510    46.0140    24.0780     2.1400   -16.6330 
  201.0000    61.5910    85.5530    87.2610    43.4680    24.0720     2.1390   -16.6480 
  201.1250    64.0030    78.9520    81.4120    41.3270    24.0820     2.1470   -16.5960 
