~V
VERS. 2.00: Ver 2.00
~W
STRT.M 52.0000:
STOP.M 271.0000:
STEP.M 0.1250:
NULL. -999.2500:
UWI. F11069:
~C
DEPT.M :
GR.API :
RML.OHMM :
RI. :
RXO.OHMM :
CALI.CM :
DEN.GM/CC :
SP.MV :
~A
# ...
  164.5000    64.6930    15.1370    13.4090    22.1910    24.6320     2.5110   -18.6660 
  164.6250    63.2400    15.4880    13.4450    17.5840    24.7380     2.5200   -18.8450 
  164.7500    63.7230    16.0020    13.6820    16.2630    24.7790     2.5270   -19.0390 
  164.8750    63.3110    16.5090    14.0110    16.0640    24.7090     2.5280   -19.2280 
  165.0000    60.8970    16.8800    14.3040    16.6270    24.5890     2.5200   -19.4010 
  165.1250    59.7090    17.0490    14.4520    16.3510    24.4640     2.5060   -19.5910 
  165.2500    60.2740    17.1190    14.5030    15.6020    24.4050     2.4930   -19.8020 
  165.3750    62.1710    17.1930    14.5490    14.5010    24.3640     2.4860   -19.9890 
  165.5000    64.5760    17.3400    14.6590    14.6660    24.3600     2.4880   -20.1320 
  165.6250    65.5600    17.5440    14.8190    15.7340    24.3950     2.4920   -20.3160 
  165.7500    66.2660    17.6860    14.9200    16.8530    24.4400     2.4900   -20.5650 
  165.8750    67.2360    17.6550    14.8620    17.7380    24.4950     2.4810   -20.8060 
  166.0000    68.2480    17.3940    14.5970    17.4180    24.5480     2.4670   -21.0150 
  166.1250    67.1170    16.9230    14.1480    15.6090    24.5400     2.4590   -21.2480 
  166.2500    64.5590    16.4070    13.6740    13.6460    24.5740     2.4630   -21.4730 
  166.3750    63.6040    15.9740    13.2870    13.1680    24.6270     2.4810   -21.6570 
  166.5000    63.3070    15.6950    13.0540    13.4700    24.6010     2.5050   -21.8160 
  166.6250    61.0610    15.5760    12.9940    14.2810    24.5040     2.5240   -21.9370 
  166.7500    58.8320    15.4910    13.0050    14.7630    24.5100     2.5320   -22.0120 
  166.8750    58.6240    15.3400    12.9760    15.2860    24.6070     2.5320   -22.0710 
  167.0000    60.7120    15.0710    12.8240    14.7130    24.7200     2.5300   -22.1650 
  167.1250    62.7780    14.7240    12.5440    13.6280    24.7640     2.5330   -22.2750 
  167.2500    66.2930    14.4280    12.2640    12.9420    24.7720     2.5410   -22.3660 
  167.3750    71.6840    14.2410    12.0780    12.4160    24.7630     2.5500   -22.5030 
  167.5000    76.7350    14.1090    11.9840    12.2400    24.7580     2.5490   -22.6930 
  167.6250    78.8460    13.7980    11.8040    13.4180    24.7550     2.5250   -22.8650 
  167.7500    79.5780    13.1230    11.3210    14.2410    24.7820     2.4800   -23.0210 
  167.8750    81.0790    12.0460    10.4570    13.5020    24.7580     2.4240   -23.2130 
  168.0000    86.2140    10.7260     9.3450    10.9380    24.7070     2.3700   -23.4350 
  168.1250    93.5130     9.5160     8.3040     8.0060    24.7000     2.3350   -23.6570 
  168.2500    98.2350     8.7180     7.5820     7.1130    24.7350     2.3210   -23.8870 
  168.3750    98.3690     8.4760     7.2830     7.3250    24.7530     2.3190   -24.0560 
  168.5000    96.0730     8.7910     7.4230     8.3150    24.7470     2.3180   -24.1540 
  168.6250    94.6700     9.5670     7.9900     9.7160    24.7270     2.3130   -24.2580 
  168.7500    93.4910    10.4650     8.7520    10.6750    24.7350     2.3050   -24.4080 
  168.8750    93.0460    11.2150     9.4870    11.1550    24.7960     2.3030   -24.5580 
  169.0000    95.2790    11.6030     9.9750    11.5160    24.8490     2.3130   -24.6500 
  169.1250    99.0520    11.4660    10.0190    11.5730    24.8570     2.3410   -24.6910 
  169.2500   100.8910    10.9520     9.7100    11.1610    24.8640     2.3820   -24.7620 
  169.3750   101.0850    10.2280     9.1670    10.4110    24.9830     2.4260   -24.9150 
  169.5000   101.9800     9.4950     8.5450     9.6700    25.1990     2.4650   -25.0750 
  169.6250   100.7700     8.9920     8.0240     8.2720    25.2510     2.4870   -25.1530 
  169.7500    94.0670     8.8150     7.7100     6.9220    25.4240     2.4920   -25.2220 
  169.8750    86.6130     8.9830     7.6530     6.1620    25.7490     2.4830   -25.3040 
  170.0000    83.7190     9.4340     7.8430     6.2080    25.7880     2.4660   -25.3640 
  170.1250    84.7170    10.0340     8.2210     7.0080    25.3520     2.4440   -25.4320 
  170.2500    84.5930    10.5620     8.6160     7.4470    25.1070     2.4180   -25.5250 
  170.3750    85.1450    10.8600     8.8820     7.0630    25.0990     2.3850   -25.6090 
  170.5000    87.6700    10.8410     8.9160     7.2950    25.0330     2.3460   -25.7350 
  170.6250    90.5170    10.4870     8.6840     7.4890    24.8610     2.3090   -25.9690 
  170.7500    93.6650    10.0040     8.3490     7.5340    24.7920     2.2840   -26.1980 
  170.8750    96.0590     9.5940     8.0610     7.0180    24.7730     2.2760   -26.4020 
  171.0000    97.9380     9.4590     7.9550     6.7580    24.8050     2.2900   -26.6290 
  171.1250    99.2160     9.8300     8.1850     6.9770    24.8300     2.3240   -26.9150 
  171.2500    99.0780    10.6570     8.7620     7.5160    24.9490     2.3630   -27.2310 
  171.3750    96.5800    11.8380     9.6900     8.1790    25.0730     2.3960   -27.5510 
  171.5000    91.3970    13.2030    10.9170     9.7540    25.0560     2.4160   -27.8170 
  171.6250    87.6370    14.5570    12.3220    12.2790    24.9940     2.4180   -27.9560 
  171.7500    86.4050    15.7610    13.6820    14.3630    24.9660     2.4090   -28.0590 
  171.8750    86.2150    16.7340    14.8090    16.7170    24.9220     2.3970   -28.2080 
  172.0000    85.4630    17.4020    15.5550    18.3570    24.8980     2.3880   -28.3890 
  172.1250    84.5520    17.6280    15.7780    18.5500    24.7510     2.3880   -28.5130 
  172.2500    84.8520    17.4540    15.5720    18.0450    24.5600     2.3950   -28.5830 
  172.3750    85.7330    16.9490    15.0070    16.6020    24.5420     2.4050   -28.6600 
  172.5000    87.4070    16.2700    14.2190    14.8710    24.7340     2.4140   -28.8090 
  172.6250    91.5100    15.6630    13.4290    13.4840    24.7660     2.4130   -29.0050 
  172.7500    95.3740    15.3450    12.8560    12.4370    24.6680     2.4030   -29.1470 
  172.8750    97.3410    15.4820    12.6390    11.4090    24.5730     2.3890   -29.2390 
  173.0000    96.7190    16.2400    12.8880    12.0130    24.6310     2.3770   -29.3270 
  173.1250    91.9800    18.0360    13.8550    15.4190    24.8470     2.3680   -29.3880 
  173.2500    84.6940    21.1600    15.7160    19.6240    24.8450     2.3560   -29.4190 
  173.3750    80.0590    26.1970    18.9340    23.6490    24.5740     2.3330   -29.4470 
  173.5000    80.3240    33.9130    24.3060    26.5700    24.0640     2.2980   -29.4520 
  173.6250    81.0130    45.8010    33.7980    35.0000    23.6940     2.2540   -29.4620 
  173.7500    77.1790    61.3660    47.8580    65.5300    23.8110     2.2170   -29.5660 
  173.8750    71.1580    78.6180    65.4530   120.6370    24.3340     2.1970   -29.7120 
  174.0000    67.6670    93.1750    82.4070   148.0510    24.9470     2.1980   -29.8390 
  174.1250    68.7020    98.5960    90.7360   130.9170    25.2400     2.2200   -29.9820 
  174.2500    70.7070    95.3630    89.2220   106.7860    25.2910     2.2510   -30.1710 
  174.3750    73.1790    87.3220    81.7760    83.3330    25.2470     2.2830   -30.4100 
  174.5000    78.5600    79.3630    73.7800    69.5120    25.2060     2.3100   -30.6730 
  174.6250    85.9150    75.1520    69.0760    64.6800    25.2130     2.3260   -30.9290 
  174.7500    88.8000    74.6260    67.7680    62.6550    25.2250     2.3280   -31.1140 
  174.8750    85.1860    77.3430    69.5660    63.8590    25.2510     2.3130   -31.2420 
  175.0000    77.9810    82.8870    74.2710    69.6110    25.2580     2.2810   -31.4090 
  175.1250    71.9540    90.9730    81.9090    70.9710    25.2490     2.2410   -31.6170 
  175.2500    68.1190    99.7940    90.8830    78.1640    25.2530     2.2100   -31.7930 
  175.3750    65.0700   107.2120    99.1060    99.1490    25.3190     2.2000   -31.9160 
  175.5000    62.5560   111.0490   104.0140   149.2500    25.4230     2.2130   -32.0410 
  175.6250    62.1780   109.9020   103.3280   170.7660    25.4410     2.2410   -32.2240 
