~V
VERS. 2.00: Ver 2.00
~W
STRT.M 55.0000:
STOP.M 280.0000:
STEP.M 0.1250:
NULL. -999.2500:
UWI. F11032:
~C
DEPT.M :
DEN.GM/CC :
GR.API :
RML.OHMM :
RI. :
RXO.OHMM :
CALI.CM :
SP.MV :
~A
# ...
  268.7500     2.3600    53.4600    10.6870     7.8810    11.4200    24.4940   -18.5550 
  268.8750     2.3700    55.4780    10.6490     7.9150    12.2990    24.6660   -18.6980 
  269.0000     2.3780    55.3020    10.4820     7.8370    12.2470    25.2770   -18.8100 
  269.1250     2.3800    52.7100    10.1880     7.6390    12.1540    25.8110   -18.8770 
  269.2500     2.3760    50.1090     9.8420     7.3770    11.6920    26.5030   -18.8890 
  269.3750     2.3590    49.2150     9.5080     7.1080    10.4740    27.8410   -18.8230 
  269.5000     2.3290    49.2150     9.2400     6.8860     9.4490    28.9930   -18.6800 
  269.6250     2.2840    49.2150     9.0830     6.7650     8.5470    30.0760   -18.5060 
  269.7500     2.2340    49.2150     9.0110     6.7290     7.2360    30.9800   -18.3460 
  269.8750     2.1900    49.2150     8.9970     6.7460     6.4030    31.7150   -18.1920 
  270.0000     2.1570    49.2150     9.0170     6.7720     6.0900    31.7140   -18.0560 
  270.1250     2.1370    49.2150     9.0370     6.7700     5.9200    31.0520   -17.9880 
  270.2500     2.1210    49.2150     9.0450     6.7420     5.7120    30.4340   -18.0330 
  270.3750     2.1020    49.2150     9.0380     6.6960     5.6120    29.6600   -18.1880 
  270.5000     2.0820    49.2150     9.0140     6.6430     5.6550    28.7200   -18.4440 
  270.6250     2.0660    49.2150     8.9820     6.6040     5.7760    26.3020   -18.7500 
  270.7500     2.0600    49.2150     8.9520     6.6000     5.8550    24.5020   -19.0410 
  270.8750     2.0610    49.2150     8.9260     6.6360     5.9000    23.9110   -19.3460 
  271.0000     2.0620    49.2150     8.9110     6.6970     5.9470    23.8130   -19.6200 
  271.1250     2.0560    49.2150     8.9240     6.7500     5.9750    23.7510   -19.8210 
  271.2500     2.0490    49.2150     8.9650     6.7650     6.0490    23.7400   -19.9420 
  271.3750     2.0520    49.2150     9.0170     6.7390     6.1730    23.7220   -19.9630 
  271.5000     2.0720    49.2150     9.0530     6.6870     6.2610    23.6380   -19.9170 
  271.6250     2.1070    49.2150     9.0480     6.6340     6.2750    23.4660   -19.8050 
  271.7500     2.1450    49.2150     9.0100     6.5980     6.1600    23.4180   -19.6170 
  271.8750     2.1740    49.2150     8.9640     6.5860     6.1090    23.5460   -19.3550 
  272.0000     2.1900    49.2150     8.9320     6.5940     6.1320    23.7060   -19.0910 
  272.1250     2.1890    49.2150     8.9260     6.6110     6.1630    23.7770   -18.8420 
  272.2500     2.1750    49.2150     8.9270     6.6190     6.0920    24.0540   -18.6290 
  272.3750     2.1470    49.2150     8.9150     6.6100     5.9760    24.7910   -18.4670 
  272.5000     2.1080    49.2150     8.8820     6.5790     5.8780    25.4170   -18.3380 
  272.6250     2.0650    49.2150     8.8250     6.5300     5.9170    25.2640   -18.2200 
  272.7500     2.0280    49.2150     8.7710     6.4850     6.0200    24.5240   -18.1510 
  272.8750     2.0040    49.2150     8.7360     6.4640     6.1150    23.9910   -18.1230 
  273.0000     1.9980    49.2150     8.7290     6.4810     6.1570    23.6980   -18.0920 
  273.1250     2.0060    49.2150     8.7500     6.5350     6.1630    23.6140   -17.9680 
  273.2500     2.0190    49.2150     8.7790     6.5870     6.1590    23.5990   -17.2880 
  273.3750     2.0300    49.2150     8.8120     6.6070     6.1580    23.6060   -16.3020 
  273.5000     2.0350    49.2150     8.8490     6.5870     6.2040    23.6410   -15.2820 
  273.6250     2.0330    49.2150     8.8880     6.5400     6.1070    23.7740   -14.3170 
  273.7500     2.0270    49.2150     8.9280     6.4940     6.0610    23.6680   -13.3680 
  273.8750     2.0260    49.2150     8.9670     6.4670     6.0740    23.5440   -12.4270 
  274.0000     2.0370    49.2150     8.9980     6.4660     6.1070    23.5200   -11.5140 
  274.1250     2.0740    49.2150     9.0020     6.4830     6.0580    23.5200   -10.7930 
  274.2500     2.1330    49.2150     8.9790     6.4980     6.0620    23.5180   -10.7990 
  274.3750     2.2030    49.2150     8.9400     6.5010     6.1770    23.5100   -10.8040 
  274.5000     2.2670    49.2150     8.9030     6.4900     6.3730    23.4680  -999.2500 
  274.6250     2.3060    49.2150     8.8930     6.4790     6.7520    23.5650  -999.2500 
  274.7500     2.3210    49.2150     8.9160     6.4900     6.8300    23.6980  -999.2500 
  274.8750     2.3250    49.2150     8.9580     6.5200     6.7790    23.6680  -999.2500 
  275.0000     2.3300    49.2150     8.9950     6.5540     6.6640    23.6480  -999.2500 
  275.1250     2.3460    49.2150     9.0160     6.5740     6.6110    23.5660  -999.2500 
  275.2500     2.3690    49.2150     9.0240     6.5770     6.8340    23.4080  -999.2500 
  275.3750     2.3940    49.2150     9.0240     6.5770     7.1780    23.3740  -999.2500 
  275.5000     2.4130    49.2150     9.0240     6.5770     7.2070    23.3890  -999.2500 
  275.6250     2.4220    49.2150     9.0240     6.5770     7.1990    23.5630  -999.2500 
  275.7500     2.4190    49.2150     9.0240     6.5770     7.2860    23.7240  -999.2500 
  275.8750     2.4040    49.2150     9.0240     6.5770     7.4910    23.8540  -999.2500 
  276.0000     2.3840    49.2150     9.0240     6.5770     7.7140    23.7880  -999.2500 
  276.1250     2.3660    49.2150     9.0240     6.5770     7.9500    23.8160  -999.2500 
  276.2500     2.3600    49.2150     9.0240     6.5770     8.1500    23.6970  -999.2500 
  276.3750     2.3660    49.2150     9.0240     6.5770     8.2170    23.4410  -999.2500 
  276.5000     2.3830    49.2150     9.0240     6.5770     8.2630    23.3550  -999.2500 
  276.6250     2.4030    49.2150     9.0240     6.5770     8.3450    23.3410  -999.2500 
  276.7500     2.4190    49.2150     9.0240     6.5770     8.4380    23.3090  -999.2500 
  276.8750     2.4270    49.2150     9.0240     6.5770     8.6650    23.1120  -999.2500 
  277.0000     2.4280    49.2150     9.0240     6.5770     9.6930    22.8630  -999.2500 
  277.1250     2.4260    49.2150     9.0240     6.5770    12.2100    22.6210  -999.2500 
  277.2500     2.4250    49.2150     9.0240     6.5770    14.9640    22.4890  -999.2500 
  277.3750     2.4260    49.2150     9.0240     6.5770    16.5250    22.3630  -999.2500 
  277.5000     2.4300    49.2150     9.0240     6.5770    18.6950    22.0530  -999.2500 
  277.6250     2.4280    49.2150     9.0240     6.5770    24.9210    21.8450  -999.2500 
  277.7500     2.4110    49.2150     9.0240     6.5770    31.3130    21.7270  -999.2500 
  277.8750     2.3680    49.2150     9.0240     6.5770    34.6670    21.6730  -999.2500 
  278.0000     2.2970    49.2150     9.0240     6.5770    28.5070    21.4970  -999.2500 
  278.1250     2.2010    49.2150     9.0240     6.5770    14.9990    21.2480  -999.2500 
  278.2500     2.0990    49.2150     9.0240     6.5770     8.8840    20.5710  -999.2500 
  278.3750     2.0040    49.2150     9.0240     6.5770     6.7550    19.6240  -999.2500 
  278.5000     1.9270    49.2150     9.0240     6.5770     6.2370    19.0540  -999.2500 
  278.6250     1.8730    49.2150     9.0240     6.5770     6.1880    18.9700  -999.2500 
  278.7500     1.8380    49.2150     9.0240     6.5770     6.1770    18.9550  -999.2500 
  278.8750     1.8190    49.2150     9.0240     6.5770     6.1740    18.9550  -999.2500 
  279.0000     1.8110    49.2150     9.0240     6.5770     6.1730    18.9550  -999.2500 
  279.1250     1.8120    49.2150     9.0240     6.5770     6.1730    18.9550  -999.2500 
  279.2500     1.8160    49.2150     9.0240     6.5770     6.1740    18.9550  -999.2500 
  279.3750     1.8190    49.2150     9.0240     6.5770     6.1740    18.9550  -999.2500 
  279.5000     1.8230    49.2150     9.0240     6.5770     6.1710    18.9510  -999.2500 
  279.6250     1.8260    49.2150     9.0240     6.5770     6.1650    18.9270  -999.2500 
  279.7500     1.8300    49.2150     9.0240     6.5770     6.1580    18.8770  -999.2500 
  279.8750     1.8330    49.2150     9.0240     6.5770     6.1530    18.8690  -999.2500 
