~V
VERS. 2.00: Ver 2.00
~W
STRT.M 60.0000:
STOP.M 273.0000:
STEP.M 0.1250:
NULL. -999.2500:
UWI. F11028:
~C
DEPT.M :
DEN.GM/CC :
GR.API :
RML.OHMM :
RI. :
RXO.OHMM :
CALI.CM :
SP.MV :
~A
# ...
   82.5000     2.1820    69.8960     6.6420     5.5490     7.1370    23.5380   -25.9400 
   82.6250     2.2030    71.9700     6.7210     5.5020     7.2490    23.3940   -25.1970 
   82.7500     2.2140    75.9640     7.0130     5.5900     7.7170    23.4600   -24.6950 
   82.8750     2.2120    78.6890     7.4480     5.8030     8.4410    23.3350   -24.4900 
   83.0000     2.1980    78.1950     7.9290     6.1190     9.2120    23.1990   -24.5060 
   83.1250     2.1740    73.1740     8.3710     6.5200    10.2550    23.1760   -24.7070 
   83.2500     2.1480    65.6620     8.7790     6.9790    10.9220    23.1810   -24.9330 
   83.3750     2.1280    60.3980     9.1810     7.4770    11.3010    23.2070   -25.0990 
   83.5000     2.1210    59.5020     9.5570     7.9640    11.5370    23.2420   -25.1340 
   83.6250     2.1320    60.4590     9.7580     8.3080    11.9880    23.1970   -24.8700 
   83.7500     2.1580    60.8150     9.6470     8.3930    13.2390    23.1130   -24.3560 
   83.8750     2.1910    63.4730     9.1640     8.1430    14.4180    23.0100   -23.5850 
   84.0000     2.2190    69.8420     8.3860     7.5800    12.1620    22.9370   -22.6010 
   84.1250     2.2270    76.6010     7.5220     6.8410     8.9570    23.0250   -21.4480 
   84.2500     2.2200    80.8110     6.7850     6.1420     7.2110    23.5490   -20.2790 
   84.3750     2.2070    82.1330     6.2590     5.5900     6.4340    24.1590   -19.1470 
   84.5000     2.1990    83.2350     5.9560     5.2330     5.9260    24.5400   -18.0850 
   84.6250     2.2040    88.6910     5.8840     5.0930     5.6370    24.6020   -17.2610 
   84.7500     2.2140    94.3850     5.9700     5.1040     5.5790    24.5520   -16.6200 
   84.8750     2.2230    94.2070     6.1730     5.2300     5.7020    24.4790   -16.1800 
   85.0000     2.2280    87.0750     6.4340     5.4340     5.9870    24.4310   -15.9060 
   85.1250     2.2250    78.8210     6.6540     5.6530     6.5240    24.1710   -15.8160 
   85.2500     2.2190    74.3240     6.7540     5.8120     7.1030    23.8350   -15.7990 
   85.3750     2.2130    75.5520     6.7240     5.8770     7.4760    23.7650   -15.8370 
   85.5000     2.2110    81.4410     6.6230     5.8650     7.2130    23.9380   -15.9180 
   85.6250     2.2120    85.5930     6.5780     5.8450     6.4940    24.2780   -15.9800 
   85.7500     2.2120    83.9690     6.6770     5.8870     6.2230    24.3890   -16.0830 
   85.8750     2.2100    80.5350     6.9330     6.0200     6.6850    24.1390   -16.1620 
   86.0000     2.2040    80.4270     7.2970     6.2320     7.5010    23.9250   -16.2050 
   86.1250     2.1960    81.5310     7.6830     6.4860     7.8470    23.9200   -16.1620 
   86.2500     2.1900    79.9980     7.9900     6.7110     7.8200    23.9790   -16.0980 
   86.3750     2.1880    77.6890     8.1310     6.8370     7.7990    24.0060   -15.9930 
   86.5000     2.1900    78.0800     8.0190     6.7870     7.9770    23.9270   -15.8390 
   86.6250     2.2000    81.0300     7.5660     6.4700     8.4390    23.7470   -15.6460 
   86.7500     2.2150    83.4170     6.9630     5.9970     8.4190    23.7120   -15.3720 
   86.8750     2.2360    85.0850     6.5190     5.5600     7.3530    23.8180   -15.0830 
   87.0000     2.2640    85.7230     6.5800     5.3950     6.0790    24.0780   -14.8380 
   87.1250     2.3020    86.0540     7.5500     5.8010     6.2270    24.0840   -14.7460 
   87.2500     2.3480    84.4330     9.3770     6.8350     8.8450    23.9560   -14.7700 
   87.3750     2.3980    80.8930    11.8580     8.4980    17.3010    23.7860   -14.9830 
   87.5000     2.4420    77.0960    14.3470    10.5050    30.1420    23.6350   -15.3380 
   87.6250     2.4580    74.3470    15.3890    11.8750    30.2540    23.5070   -15.8690 
   87.7500     2.4370    72.3810    14.4840    11.8530    19.9640    23.1490   -16.5400 
   87.8750     2.3810    70.2920    12.3300    10.6450    14.2060    22.6800   -17.3130 
   88.0000     2.3080    69.3800    10.1150     9.0650    12.0230    22.1200   -18.1520 
   88.1250     2.2380    68.1290     8.6710     7.8200    10.0830    21.7900   -18.9940 
   88.2500     2.1840    65.8040     7.9130     7.0360     9.0330    21.6770   -19.8240 
   88.3750     2.1480    66.3220     7.6300     6.6460     8.6660    21.8620   -20.5860 
   88.5000     2.1280    70.5680     7.6260     6.5370     8.7850    22.4040   -21.3260 
   88.6250     2.1210    71.9250     7.7770     6.6230     9.2020    22.7550   -21.9420 
   88.7500     2.1210    67.1690     7.9600     6.7820     9.5400    22.8760   -22.4640 
   88.8750     2.1240    62.9720     8.1160     6.9500     9.6390    22.7980   -22.8800 
   89.0000     2.1270    64.5140     8.2150     7.0830     9.5300    22.7500   -23.2240 
   89.1250     2.1280    67.3700     8.2710     7.1620     9.4430    22.7410   -23.4630 
   89.2500     2.1280    66.0360     8.3260     7.2020     9.4440    22.7410   -23.6080 
   89.3750     2.1260    63.3260     8.3870     7.2070     9.5680    22.7410   -23.6980 
   89.5000     2.1230    64.1910     8.4260     7.1790     9.7160    22.7430   -23.6940 
   89.6250     2.1220    68.0230     8.3880     7.1170     9.9180    22.7500   -23.6500 
   89.7500     2.1210    70.9820     8.2800     7.0370    10.1860    22.7600   -23.5780 
   89.8750     2.1230    70.6530     8.1450     6.9490    10.2980    22.7790   -23.5150 
   90.0000     2.1260    67.4510     8.0450     6.8620    10.1430    22.8560   -23.4070 
   90.1250     2.1310    65.0960     8.0350     6.7880    10.0070    22.9070   -23.2670 
   90.2500     2.1360    66.6640     8.0820     6.7320     9.8970    22.9170   -23.1290 
   90.3750     2.1400    69.0940     8.1490     6.6990     9.8500    22.9220   -22.9640 
   90.5000     2.1430    67.7070     8.2180     6.6950     9.8870    22.9390   -22.8030 
   90.6250     2.1430    64.2780     8.2790     6.7130     9.9050    23.0020   -22.6120 
   90.7500     2.1420    64.0320     8.3280     6.7350     9.9250    23.0520   -22.4060 
   90.8750     2.1410    67.2880     8.3460     6.7490     9.9910    23.1360   -22.1590 
   91.0000     2.1410    70.1740     8.3130     6.7470    10.0750    23.1580   -21.9300 
   91.1250     2.1420    70.1340     8.2070     6.7180    10.0160    23.1000   -21.6630 
   91.2500     2.1450    70.0070     8.0480     6.6570     9.7600    22.9410   -21.3650 
   91.3750     2.1490    71.6180     7.8610     6.5610     9.4930    22.8540   -21.0310 
   91.5000     2.1540    74.2040     7.6740     6.4370     9.3100    22.8880   -20.6790 
   91.6250     2.1610    74.2870     7.5030     6.2960     9.0190    22.7900   -20.3460 
   91.7500     2.1700    72.4290     7.3270     6.1400     8.4450    22.5360   -20.0500 
   91.8750     2.1790    72.6120     7.1270     5.9600     8.0040    22.1300   -19.8040 
   92.0000     2.1890    76.9670     6.9140     5.7570     7.9040    21.7620   -19.6170 
   92.1250     2.1970    82.2340     6.7540     5.5710     7.9980    21.7830   -19.5970 
   92.2500     2.2020    84.7820     6.7180     5.4580     7.7470    22.1570   -19.7450 
   92.3750     2.2020    83.4150     6.8560     5.4680     7.2600    22.8130   -20.0850 
   92.5000     2.1950    78.1210     7.1740     5.6290     7.6590    23.4330   -20.5570 
   92.6250     2.1800    72.0300     7.6330     5.9440     9.3100    23.8300   -21.1490 
   92.7500     2.1620    70.0260     8.1040     6.3240    10.2760    24.0350   -21.7440 
   92.8750     2.1470    70.6600     8.4750     6.6800    10.6400    23.9990   -22.3250 
   93.0000     2.1370    68.5550     8.6540     6.9240    10.7270    23.9090   -22.8520 
   93.1250     2.1340    63.7100     8.5810     6.9750    10.6190    24.1750   -23.2530 
   93.2500     2.1340    62.1230     8.3650     6.8860    10.4150    24.1670   -23.5230 
   93.3750     2.1350    63.7450     8.1070     6.7320    10.3100    23.8770   -23.6510 
   93.5000     2.1360    66.5230     7.8920     6.5830    10.1390    23.7140   -23.6750 
   93.6250     2.1370    71.0980     7.7850     6.5000     9.8890    23.8190   -23.6110 
