~V
VERS. 2.00: Ver 2.00
~W
STRT.M 52.0000:
STOP.M 287.0000:
STEP.M 0.1250:
NULL. -999.2500:
UWI. F11078:
~C
DEPT.M :
GR.API :
RML.OHMM :
RI. :
RXO.OHMM :
CALI.CM :
DEN.GM/CC :
SP.MV :
~A
# ...
   63.2500    69.8590     8.6730     7.5660     7.1410    23.8270     2.1640    -9.1110 
   63.3750    68.3260     8.7710     7.7350     7.1390    23.8580     2.1350    -9.1940 
   63.5000    69.1680     8.9360     7.9120     7.4380    23.8840     2.1070    -9.1670 
   63.6250    68.8710     9.0220     7.9860     8.2520    23.8720     2.0970    -9.0220 
   63.7500    69.9420     8.9110     7.8760     8.9610    23.8500     2.1130    -8.7140 
   63.8750    76.0760     8.5770     7.5590     8.7840    23.8430     2.1510    -8.2100 
   64.0000    82.6730     8.1200     7.0840     6.9650    23.7330     2.1960    -7.5860 
   64.1250    84.8920     7.7450     6.5940     6.1500    23.4280     2.2360    -6.9680 
   64.2500    87.2270     7.5660     6.1920     5.8480    23.0600     2.2680    -6.4110 
   64.3750    94.3060     7.5940     5.9480     5.7270    22.7700     2.2910    -5.9810 
   64.5000   102.0130     7.7600     5.9150     5.6300    22.5930     2.3030    -5.7880 
   64.6250   101.9050     7.9400     6.0300     5.7490    22.5060     2.2990    -5.9100 
   64.7500    93.5440     8.0970     6.2300     6.1000    22.4240     2.2790    -6.4140 
   64.8750    82.6630     8.2500     6.4590     6.5720    22.3220     2.2500    -7.2700 
   65.0000    75.7330     8.4740     6.6900     6.6930    22.1940     2.2270    -8.3470 
   65.1250    73.7170     8.8170     6.9460     6.6490    22.0570     2.2210    -9.4610 
   65.2500    74.1770     9.2950     7.2740     6.6430    21.9770     2.2310   -10.5340 
   65.3750    74.3910     9.8770     7.7130     6.7360    22.0110     2.2480   -11.5340 
   65.5000    70.5770    10.4690     8.2700     6.9440    22.2310     2.2590   -12.4480 
   65.6250    65.8840    10.9270     8.8270     7.1850    22.4700     2.2570   -13.2250 
   65.7500    65.4220    11.1220     9.2210     7.4050    22.5390     2.2480   -13.8290 
   65.8750    69.3110    10.9820     9.2990     7.5320    22.4920     2.2410   -14.2740 
   66.0000    70.8960    10.5060     8.9680     7.8730    22.5430     2.2380   -14.6160 
   66.1250    70.1070     9.9010     8.4160     7.9410    22.6980     2.2350   -14.9300 
   66.2500    71.0770     9.3250     7.8100     7.7350    22.8440     2.2270   -15.2730 
   66.3750    74.1450     8.8960     7.2810     7.3420    22.9500     2.2130   -15.6560 
   66.5000    75.6420     8.6880     6.9220     7.1900    22.9550     2.1980   -16.0670 
   66.6250    75.9390     8.6390     6.7140     7.2340    22.9260     2.1880   -16.5240 
   66.7500    77.2960     8.6840     6.6310     7.2100    22.8550     2.1830   -17.0470 
   66.8750    78.2000     8.7510     6.6350     6.9660    22.7490     2.1800   -17.6110 
   67.0000    76.6520     8.7760     6.6870     6.7130    22.6800     2.1750   -18.1650 
   67.1250    73.9560     8.7420     6.7460     6.4500    22.6870     2.1680   -18.7280 
   67.2500    72.3920     8.6630     6.7960     6.1540    22.7150     2.1600   -19.3010 
   67.3750    72.6110     8.5660     6.8350     5.9890    22.6870     2.1540   -19.8830 
   67.5000    72.6880     8.4800     6.8610     6.1560    22.7500     2.1520   -20.4960 
   67.6250    71.2940     8.4260     6.8780     6.5530    23.1300     2.1510   -21.1220 
   67.7500    68.8720     8.4200     6.8850     6.9680    23.7940     2.1470   -21.6960 
   67.8750    68.3360     8.4710     6.8830     7.0990    24.4840     2.1450   -22.2240 
   68.0000    72.0630     8.5560     6.8710     7.0880    24.8430     2.1520   -22.7140 
   68.1250    75.4390     8.6130     6.8500     7.1190    24.9380     2.1720   -23.1450 
   68.2500    75.2990     8.5950     6.8210     7.1320    24.9380     2.1980   -23.4780 
   68.3750    71.7340     8.4940     6.7840     7.1160    25.0240     2.2160   -23.6990 
   68.5000    68.3730     8.3580     6.7440     7.0520    25.2530     2.2150   -23.7990 
   68.6250    66.3510     8.2650     6.7080     6.9500    25.5090     2.2000   -23.8080 
   68.7500    65.3420     8.2460     6.6780     6.8630    25.6930     2.1830   -23.7660 
   68.8750    65.5930     8.2880     6.6570     6.8170    25.8030     2.1710   -23.6740 
   69.0000    67.4510     8.3460     6.6290     6.7880    25.9010     2.1640   -23.5120 
   69.1250    69.8190     8.3800     6.5830     6.7210    26.0030     2.1540   -23.2630 
   69.2500    70.4630     8.3870     6.5200     6.6790    26.0070     2.1390   -22.9400 
   69.3750    68.4410     8.4090     6.4640     6.6880    25.8860     2.1220   -22.6100 
   69.5000    66.5670     8.5430     6.4860     6.7110    25.6890     2.1180   -22.3530 
   69.6250    67.4930     8.8650     6.6570     6.7000    25.5020     2.1320   -22.1800 
   69.7500    69.7970     9.4180     7.0300     6.7160    25.3600     2.1620   -22.0350 
   69.8750    71.5500    10.1710     7.6060     6.8010    25.3410     2.1920   -21.8690 
   70.0000    73.7150    10.9580     8.3030     7.0480    25.5300     2.1970   -21.6810 
   70.1250    76.4420    11.5140     8.8970     7.3980    25.7670     2.1730   -21.4860 
   70.2500    76.7800    11.6400     9.1780     7.4890    25.5610     2.1330   -21.2630 
   70.3750    74.1940    11.2840     9.0330     7.3150    24.5910     2.1010   -20.9230 
   70.5000    72.1590    10.5500     8.4980     7.3350    23.5190     2.1020   -20.3980 
   70.6250    72.3060     9.7660     7.8590     7.5850    22.7480     2.1310   -19.8050 
   70.7500    72.5890     9.1300     7.2950     7.7040    22.3150     2.1700   -19.2870 
   70.8750    70.8640     8.7340     6.9030     7.6020    22.2020     2.2000   -18.9370 
   71.0000    67.8200     8.6010     6.7200     7.3020    22.4080     2.2110   -18.7650 
   71.1250    65.3410     8.6140     6.6610     6.9990    22.7560     2.2120   -18.7370 
   71.2500    65.4430     8.6950     6.6670     6.8480    23.0410     2.2100   -18.8630 
   71.3750    67.1760     8.7760     6.6910     6.6660    23.1590     2.2100   -19.1860 
   71.5000    67.4120     8.8020     6.7060     6.6170    23.1500     2.2130   -19.7160 
   71.6250    65.6860     8.7670     6.7070     6.6610    23.1380     2.2140   -20.3310 
   71.7500    63.1130     8.6960     6.6970     6.7780    23.1400     2.2110   -20.9460 
   71.8750    61.4990     8.6340     6.6890     6.9630    23.1640     2.2010   -21.4700 
   72.0000    62.0360     8.6290     6.6940     7.1170    23.2250     2.1870   -21.9020 
   72.1250    64.6590     8.6650     6.7090     7.1520    23.2830     2.1730   -22.2580 
   72.2500    68.2680     8.7030     6.7240     7.0660    23.3130     2.1620   -22.5400 
   72.3750    70.4030     8.6980     6.7250     7.0740    23.3210     2.1550   -22.7160 
   72.5000    68.7740     8.6420     6.7100     7.1440    23.3210     2.1500   -22.7470 
   72.6250    66.3820     8.5980     6.6930     7.1830    23.3160     2.1470   -22.6910 
   72.7500    65.8080     8.6250     6.6870     7.1820    23.3060     2.1440   -22.6020 
   72.8750    65.3460     8.7430     6.6920     7.2160    23.2960     2.1440   -22.5410 
   73.0000    63.2320     8.9000     6.7030     7.2840    23.3080     2.1460   -22.4880 
   73.1250    62.4180     8.9930     6.7080     7.3230    23.3140     2.1470   -22.4540 
   73.2500    64.4620     8.9610     6.7020     7.2180    23.2980     2.1480   -22.4520 
   73.3750    66.1500     8.8160     6.6890     7.0630    23.2500     2.1500   -22.4660 
   73.5000    64.5770     8.6630     6.6910     6.9880    23.1970     2.1550   -22.4980 
   73.6250    64.2380     8.6610     6.7500     6.9330    23.1440     2.1600   -22.4510 
   73.7500    66.6110     8.9060     6.9130     6.9100    23.0620     2.1650   -22.2310 
   73.8750    68.5850     9.3980     7.2160     6.9310    22.9380     2.1720   -21.7940 
   74.0000    65.9860     9.9840     7.6350     7.3510    22.8050     2.1870   -21.1190 
   74.1250    62.3120    10.3850     7.9870     8.1840    22.6940     2.2170   -20.2030 
   74.2500    61.5180    10.4140     8.0930     8.9540    22.6180     2.2610   -19.0500 
   74.3750    65.1900    10.0450     7.8860     8.9180    22.6120     2.3110   -17.7410 
