~V
VERS. 2.00: Ver 2.00
~W
STRT.M 47.0000:
STOP.M 272.0000:
STEP.M 0.1250:
NULL. -999.2500:
UWI. F11040:
~C
DEPT.M :
DEN.GM/CC :
GR.API :
RML.OHMM :
RI. :
RXO.OHMM :
CALI.CM :
SP.MV :
~A
# ...
  249.5000     2.3420    57.0020    10.5420     9.4170     7.5630    23.0530    -3.1030 
  249.6250     2.3540    57.6980    10.8980     9.6720     8.6500    22.9700    -3.0320 
  249.7500     2.3800    60.8760    11.3490    10.0210    10.4600    23.0600    -2.9830 
  249.8750     2.4100    62.2250    11.7920    10.3960    12.8660    23.2300    -2.9510 
  250.0000     2.4320    59.4700    12.1140    10.7100    14.8500    23.4060    -2.9100 
  250.1250     2.4370    55.7250    12.2080    10.8650    12.5310    23.5330    -2.8880 
  250.2500     2.4290    56.0120    12.1190    10.8650    11.0300    23.6220    -2.8930 
  250.3750     2.4160    59.3480    11.9200    10.7510    10.1040    23.7050    -2.9260 
  250.5000     2.4040    61.4120    11.7040    10.5890    10.9320    23.7600    -2.9740 
  250.6250     2.3960    60.2320    11.5580    10.4550    12.0600    23.7780    -3.0200 
  250.7500     2.3880    60.3000    11.4950    10.3770    13.5350    23.7890    -3.0480 
  250.8750     2.3810    61.9080    11.4940    10.3510    15.5210    23.8030    -3.0760 
  251.0000     2.3760    64.4650    11.5260    10.3580    18.4030    23.8120    -3.1410 
  251.1250     2.3810    65.7990    11.5660    10.3780    17.6960    23.7520    -3.2530 
  251.2500     2.3980    65.2860    11.6120    10.4070    14.1410    23.7070    -3.3710 
  251.3750     2.4220    63.3320    11.6760    10.4570    10.7780    23.6700    -3.4850 
  251.5000     2.4420    61.1250    11.7690    10.5360     9.8070    23.6680    -3.6130 
  251.6250     2.4460    60.1420    11.8900    10.6500    10.2250    23.6790    -3.7920 
  251.7500     2.4350    60.4330    12.0120    10.7720    10.4030    23.7320    -3.9680 
  251.8750     2.4160    61.4310    12.1050    10.8790    10.6530    23.7720    -4.1400 
  252.0000     2.3940    62.0250    12.1510    10.9510    11.0420    23.8020    -4.3050 
  252.1250     2.3740    62.9800    12.1520    10.9840    11.2060    23.8620    -4.4550 
  252.2500     2.3600    64.9590    12.1450    11.0030    11.3570    23.9890    -4.5720 
  252.3750     2.3540    66.3390    12.1620    11.0310    11.2950    24.1370    -4.6660 
  252.5000     2.3560    65.8780    12.2240    11.0870    11.3370    24.1880    -4.7290 
  252.6250     2.3630    65.5410    12.3290    11.1730    11.9260    24.0520    -4.7110 
  252.7500     2.3690    66.9530    12.4330    11.2580    13.3510    23.9670    -4.6720 
  252.8750     2.3740    69.3820    12.5040    11.3140    15.1120    23.9880    -4.6280 
  253.0000     2.3800    70.4950    12.5230    11.3260    14.7370    24.0680    -4.5730 
  253.1250     2.3870    69.6680    12.4860    11.2890    12.8760    24.0910    -4.4920 
  253.2500     2.3920    66.7490    12.4150    11.2260    13.2350    24.0260    -4.4210 
  253.3750     2.3860    63.8300    12.3330    11.1590    15.3030    23.9370    -4.3730 
  253.5000     2.3670    63.7770    12.2570    11.1010    17.9830    23.8590    -4.3120 
  253.6250     2.3390    65.1380    12.2040    11.0660    22.5730    23.8000    -4.2810 
  253.7500     2.3110    64.1000    12.1810    11.0560    25.1230    23.7790    -4.2560 
  253.8750     2.2900    60.9640    12.1900    11.0750    20.4850    23.7210    -4.2210 
  254.0000     2.2780    60.8110    12.2270    11.1200    15.8690    23.6720    -4.1440 
  254.1250     2.2800    64.7800    12.2720    11.1790    15.0010    23.7140    -4.0670 
  254.2500     2.2920    65.2220    12.2950    11.2240    14.9830    23.7090    -4.0320 
  254.3750     2.3110    62.1120    12.2600    11.2280    15.5600    23.7180    -4.0020 
  254.5000     2.3280    60.5310    12.1440    11.1650    16.0200    23.7790    -4.0180 
  254.6250     2.3340    62.9590    11.9460    11.0280    15.3170    23.8220    -3.9970 
  254.7500     2.3280    65.1540    11.7250    10.8630    13.5850    23.7540    -3.9830 
  254.8750     2.3200    65.1130    11.5330    10.7130    12.7870    23.7100    -3.9910 
  255.0000     2.3210    64.6480    11.3930    10.6000    12.3960    23.6630    -4.0140 
  255.1250     2.3360    63.6360    11.3000    10.5240    10.7910    23.6730    -4.0260 
  255.2500     2.3520    60.8920    11.1980    10.4450    10.0180    23.8600    -4.0060 
  255.3750     2.3480    58.5010    11.0460    10.3290     9.5990    24.2520    -4.0010 
  255.5000     2.3160    59.2540    10.8320    10.1620     8.9760    24.7800    -3.9800 
  255.6250     2.2570    63.3660    10.6050     9.9740     9.0030    25.2850    -4.0050 
  255.7500     2.1950    65.5370    10.4510     9.8370     9.5830    25.6510    -4.0420 
  255.8750     2.1460    62.9670    10.4310     9.8050    10.1420    25.8840    -4.0570 
  256.0000     2.1250    59.3510    10.5610     9.9020    10.1620    26.0630    -4.0680 
  256.1250     2.1400    58.7790    10.8050    10.1140     9.8730    26.3780    -4.0840 
  256.2500     2.1730    60.2940    11.0460    10.3490     9.3180    26.3100    -4.1150 
  256.3750     2.2070    60.6750    11.2040    10.5320     8.9550    25.8890    -4.1280 
  256.5000     2.2220    60.2120    11.2370    10.6120     8.8950    25.7340    -4.1440 
  256.6250     2.2160    61.9280    11.1370    10.5630     8.8000    25.9310    -4.1240 
  256.7500     2.2090    64.2820    10.9760    10.4340     8.7490    25.9150    -4.0710 
  256.8750     2.2170    65.4420    10.8050    10.2710     9.1490    25.4300    -4.0320 
  257.0000     2.2420    65.6480    10.6600    10.1090     9.7520    24.8280    -4.0300 
  257.1250     2.2670    65.3480    10.5630     9.9740     9.1190    24.6020    -4.0080 
  257.2500     2.2760    64.9100    10.5110     9.8800     8.2480    24.5820    -3.9730 
  257.3750     2.2700    64.0200    10.5200     9.8480     7.9590    24.6290    -3.9390 
  257.5000     2.2670    62.5820    10.6090     9.9030     8.1130    24.6760    -3.8860 
  257.6250     2.2860    60.7070    10.8170    10.0820     7.8190    24.5930    -3.8300 
  257.7500     2.3230    59.5250    11.1290    10.3700     7.3750    24.1980    -3.7770 
  257.8750     2.3660    60.4300    11.5110    10.7360     7.1370    23.7710    -3.7010 
  258.0000     2.3970    62.8570    11.8920    11.1210     7.2290    23.5510    -3.6320 
  258.1250     2.4050    65.1780    12.1470    11.4170     7.8400    23.5580    -3.6250 
  258.2500     2.4000    65.9950    12.2150    11.5570     8.9490    23.8340    -3.5960 
  258.3750     2.3920    65.2810    12.0910    11.5200    10.3730    24.2180    -3.5310 
  258.5000     2.3860    64.1310    11.8450    11.3480    11.7260    24.4380    -3.4570 
  258.6250     2.3840    64.0420    11.6180    11.1510    12.3510    24.4390    -3.4230 
  258.7500     2.3850    65.1920    11.5310    11.0530    12.1400    24.4190    -3.3820 
  258.8750     2.3880    65.9010    11.6430    11.1200    12.4960    24.4260    -3.3460 
  259.0000     2.3880    64.1940    11.9460    11.3670    14.8530    24.4410    -3.2830 
  259.1250     2.3820    61.5110    12.3960    11.7770    16.7330    24.3260    -3.1520 
  259.2500     2.3740    61.2150    12.8820    12.2490    18.0690    24.2820    -3.0520 
  259.3750     2.3670    63.4490    13.3350    12.7160    18.5450    24.3380    -3.0160 
  259.5000     2.3670    66.0170    13.7230    13.1340    18.6750    24.3540    -3.0040 
  259.6250     2.3730    66.4600    14.0350    13.4780    18.3030    24.2260    -3.0060 
  259.7500     2.3840    65.7550    14.2970    13.7690    17.9320    24.0420    -3.0390 
  259.8750     2.3950    64.5310    14.5110    14.0120    17.7230    23.9440    -3.0530 
  260.0000     2.4060    63.7240    14.6680    14.2010    17.0890    23.9370    -3.0490 
  260.1250     2.4200    64.3680    14.7380    14.3080    17.9810    23.9980    -3.0640 
  260.2500     2.4340    64.6290    14.7310    14.3390    18.2410    24.1040    -3.0780 
  260.3750     2.4470    63.3830    14.6630    14.3070    18.1620    24.1690    -3.0460 
  260.5000     2.4570    61.5230    14.5620    14.2360    18.1040    24.1280    -3.0030 
  260.6250     2.4630    61.7250    14.4600    14.1550    18.8020    24.0420    -2.9240 
