~V
VERS. 2.00: Ver 2.00
~W
STRT.M 57.0000:
STOP.M 272.0000:
STEP.M 0.1250:
NULL. -999.2500:
UWI. F11045:
~C
DEPT.M :
DEN.GM/CC :
GR.API :
RML.OHMM :
RI. :
RXO.OHMM :
CALI.CM :
SP.MV :
~A
# ...
  169.5000     2.2520    65.9980   162.1140   144.3590   133.9890    23.4700    -3.7420 
  169.6250     2.2480    66.4990   171.3060   153.0950   147.9790    23.5510    -3.9170 
  169.7500     2.2490    66.0000   174.2070   156.1750   157.1150    23.6280    -4.1440 
  169.8750     2.2520    65.2760   173.6390   155.7130   147.4930    23.8100    -4.3480 
  170.0000     2.2590    66.3420   173.9830   155.4880   116.9380    24.0720    -4.4780 
  170.1250     2.2670    67.2650   179.5530   159.6680   119.4240    24.3160    -4.5400 
  170.2500     2.2660    65.2230   189.4670   168.0850   153.3100    24.4700    -4.5680 
  170.3750     2.2530    61.4650   199.4130   177.4470   191.8790    24.5640    -4.5780 
  170.5000     2.2350    58.2080   202.0690   181.7510   201.1390    24.6050    -4.5670 
  170.6250     2.2260    56.1630   189.1330   173.4770   191.7780    24.6230    -4.5040 
  170.7500     2.2300    55.3580   165.9050   155.3850   171.7520    24.6470    -4.4460 
  170.8750     2.2420    56.3280   141.1150   134.0320   127.1220    24.6110    -4.4170 
  171.0000     2.2570    58.7840   122.0140   116.2090    92.0370    24.5810    -4.3630 
  171.1250     2.2730    61.6200   113.2540   107.1290    87.2970    24.5790    -4.3020 
  171.2500     2.2900    64.7990   113.2020   106.1750    98.3500    24.5690    -4.2450 
  171.3750     2.3050    67.2810   120.4160   112.4440   113.3080    24.5090    -4.1930 
  171.5000     2.3110    66.7430   132.3470   123.9540   126.0810    24.4680    -4.0790 
  171.6250     2.2980    62.2380   144.1520   136.5420   134.6890    24.4190    -3.8910 
  171.7500     2.2710    59.2460   150.1590   144.4610   123.6640    24.2980    -3.6470 
  171.8750     2.2430    60.3370   147.5300   144.3600   101.4580    24.0770    -3.4450 
  172.0000     2.2280    64.5170   137.3380   136.4680    88.8310    23.9570    -3.3260 
  172.1250     2.2340    69.2070   123.3900   123.8480    87.1540    23.9970    -3.2380 
  172.2500     2.2480    71.7560   110.0370   111.0930    93.8140    24.0370    -3.1660 
  172.3750     2.2560    71.0980    98.8940   100.0930   110.9890    23.9470    -3.0890 
  172.5000     2.2530    67.4310    90.4880    91.5110   109.5700    23.7670    -3.0240 
  172.6250     2.2500    64.2400    85.5020    85.9950    78.9900    23.6610    -2.9640 
  172.7500     2.2550    64.0700    83.5640    83.2650    59.7360    23.6380    -2.8790 
  172.8750     2.2640    64.7750    84.6180    83.3360    59.6050    23.6120    -2.7620 
  173.0000     2.2700    63.9540    88.1720    85.9070    65.8100    23.6040    -2.6610 
  173.1250     2.2730    61.2070    92.7580    89.9280    74.2140    23.6460    -2.6070 
  173.2500     2.2760    59.3980    95.5320    92.8430    87.0560    23.7080    -2.5620 
  173.3750     2.2830    60.3110    94.3330    92.4850   103.3020    23.7490    -2.5080 
  173.5000     2.2920    63.1110    88.8970    88.1960    95.9680    23.7220    -2.5180 
  173.6250     2.3020    66.0110    81.6060    81.5850    74.2500    23.6750    -2.6470 
  173.7500     2.3050    68.7760    76.5950    76.3390    62.9700    23.6910    -2.8150 
  173.8750     2.2970    70.4950    76.7210    75.2170    64.8440    23.7250    -2.9790 
  174.0000     2.2770    68.6790    84.0090    80.4080    67.6180    23.7780    -3.0760 
  174.1250     2.2550    63.0440   101.4990    95.2210    72.1540    23.8390    -3.1340 
  174.2500     2.2370    59.0290   128.1960   119.1470    73.9570    23.9020    -3.1850 
  174.3750     2.2220    58.0520   161.6070   149.9150    89.5970    23.9660    -3.2820 
  174.5000     2.2120    57.9360   194.2000   180.4060   112.4120    24.0230    -3.4090 
  174.6250     2.2110    57.0850   211.0190   197.0000   126.5130    24.0880    -3.5220 
  174.7500     2.2210    59.4320   208.9570   196.1470   133.0100    24.1150    -3.6400 
  174.8750     2.2380    67.0500   195.4870   183.2670   122.0570    24.1170    -3.7350 
  175.0000     2.2600    76.4700   182.1330   168.4150   101.1790    24.0930    -3.8150 
  175.1250     2.2820    79.8150   179.1580   161.8100    89.7200    24.0420    -3.8650 
  175.2500     2.2970    75.6500   188.3440   166.1540    96.2680    24.0160    -3.9300 
  175.3750     2.3020    68.6100   209.5820   181.3790   108.9460    24.0280    -3.9770 
  175.5000     2.3010    62.1630   240.7270   205.3070   116.4390    24.0330    -3.9530 
  175.6250     2.2990    57.1050   275.2890   232.4570   135.2040    24.0110    -3.8810 
  175.7500     2.2950    53.0600   301.8270   253.9200   152.9260    24.0290    -3.8450 
  175.8750     2.2890    49.8340   314.3010   265.0860   156.4330    24.1040    -3.8730 
  176.0000     2.2750    48.6030   315.8740   267.8420   138.8960    24.2120    -3.9620 
  176.1250     2.2490    51.2760   315.9420   269.1610   115.5940    24.2670    -4.0560 
  176.2500     2.2170    55.8700   319.3240   273.5580   107.5320    24.2820    -4.1140 
  176.3750     2.1920    59.0130   320.0340   277.2100   122.5320    24.2350    -4.1160 
  176.5000     2.1780    58.3800   304.7240   269.7920   137.5650    24.1120    -4.0210 
  176.6250     2.1740    56.5690   261.7700   239.3110   119.3670    23.9920    -3.8510 
  176.7500     2.1740    58.1690   207.7390   195.4090    93.8350    23.9940    -3.6840 
  176.8750     2.1800    64.2370   159.1280   151.7150    68.2780    24.1210    -3.4850 
  177.0000     2.1950    71.2690   123.7500   117.5570    49.0150    24.2950    -3.3160 
  177.1250     2.2180    70.8500   102.3840    96.7920    48.0270    24.3930    -3.1840 
  177.2500     2.2450    66.2300    88.4710    84.8370    57.3090    24.4170    -3.0740 
  177.3750     2.2670    66.1750    82.1850    78.6150    65.1030    24.4170    -3.0040 
  177.5000     2.2800    72.5630    78.8040    75.6620    66.5120    24.4160    -3.0320 
  177.6250     2.2840    76.1850    76.7730    74.3620    65.2010    24.4200    -3.0620 
  177.7500     2.2850    73.6340    75.2150    73.5490    63.3650    24.4300    -2.9640 
  177.8750     2.2850    70.4870    74.3200    73.1680    59.5560    24.4350    -2.7920 
  178.0000     2.2860    69.7130    74.4460    73.4540    60.2430    24.4290    -2.5720 
  178.1250     2.2870    69.4120    75.6250    74.3800    61.3100    24.4310    -2.3270 
  178.2500     2.2890    69.9170    76.9180    75.1590    63.5750    24.4330    -2.0760 
  178.3750     2.2890    71.6820    77.4640    75.0700    67.2250    24.4260    -1.8390 
  178.5000     2.2920    72.8900    76.7940    73.8040    68.8270    24.4180    -1.6660 
  178.6250     2.2990    73.8760    75.1950    71.7400    63.5290    24.3920    -1.5540 
  178.7500     2.3090    75.4580    73.9020    70.0610    57.6710    24.3460    -1.4930 
  178.8750     2.3160    76.3840    73.8660    69.6080    57.2730    24.3240    -1.4700 
  179.0000     2.3160    74.0150    75.6900    70.7620    62.5320    24.3450    -1.4370 
  179.1250     2.3070    71.1080    79.9640    73.7720    69.0410    24.3360    -1.3940 
  179.2500     2.2960    70.3990    86.1250    78.1600    74.2460    24.3190    -1.3660 
  179.3750     2.2880    71.4670    93.7110    83.6860    78.9110    24.3570    -1.3370 
  179.5000     2.2830    72.7440   102.2660    90.1810    80.9000    24.4110    -1.2700 
  179.6250     2.2810    70.7530   111.4570    97.5850    87.8670    24.4330    -1.2400 
  179.7500     2.2760    66.3250   120.2380   104.9340   103.8210    24.4480    -1.3050 
  179.8750     2.2670    62.3650   126.7320   110.4960   118.5560    24.4470    -1.4110 
  180.0000     2.2600    63.0690   128.5950   112.2350   119.0090    24.4300    -1.5050 
  180.1250     2.2610    66.8770   123.7040   108.4100   110.3290    24.4290    -1.6030 
  180.2500     2.2700    67.1850   114.7600   101.1730    95.9930    24.4350    -1.6830 
  180.3750     2.2860    65.4130   104.8710    92.9820    76.9950    24.4270    -1.7180 
  180.5000     2.3040    65.5520    96.6870    86.0440    67.3420    24.4210    -1.7100 
  180.6250     2.3150    68.7370    91.8670    81.8650    67.6320    24.4220    -1.7300 
