~V
VERS. 2.00: Ver 2.00
~W
STRT.M 47.0000:
STOP.M 272.0000:
STEP.M 0.1250:
NULL. -999.2500:
UWI. F11040:
~C
DEPT.M :
DEN.GM/CC :
GR.API :
RML.OHMM :
RI. :
RXO.OHMM :
CALI.CM :
SP.MV :
~A
# ...
  114.5000     2.2150    66.6850     8.3490     6.9710     7.1080    20.3420   -18.0970 
  114.6250     2.2260    64.8810     8.3220     6.9530     7.1760    20.2990   -18.2490 
  114.7500     2.2310    61.6830     8.2900     6.9120     7.1980    20.2810   -18.3450 
  114.8750     2.2280    59.8230     8.3170     6.8990     7.2170    20.2890   -18.4370 
  115.0000     2.2150    60.3600     8.4440     6.9510     7.3350    20.3330   -18.5140 
  115.1250     2.1980    60.7670     8.6930     7.0980     7.7530    20.4330   -18.6370 
  115.2500     2.1860    60.2050     9.0060     7.3070     8.3580    20.5660   -18.7750 
  115.3750     2.1830    60.8910     9.3220     7.5380     8.7910    20.6630   -18.8900 
  115.5000     2.1880    63.0630     9.5780     7.7460     8.7950    20.7020   -18.9320 
  115.6250     2.1950    63.4310     9.7070     7.8760     8.6130    20.7100   -18.9450 
  115.7500     2.1970    61.1900     9.7220     7.9280     8.5050    20.7200   -18.9970 
  115.8750     2.1940    59.6930     9.6640     7.9230     8.5720    20.7420   -19.0270 
  116.0000     2.1910    61.4530     9.6070     7.9060     8.7410    20.7760   -19.0500 
  116.1250     2.1990    65.6270     9.6430     7.9370     8.8830    20.8190   -19.0640 
  116.2500     2.2250    69.4700     9.7830     8.0310     8.9450    20.8450   -19.0570 
  116.3750     2.2700    71.2820     9.9810     8.1680     8.9890    20.8570   -19.0180 
  116.5000     2.3190    70.0720    10.1460     8.2940     9.1190    20.8650   -18.9670 
  116.6250     2.3460    65.6770    10.1520     8.3230     9.3310    20.8490   -18.9250 
  116.7500     2.3370    60.3950     9.9750     8.2260     9.4920    20.8170   -18.8490 
  116.8750     2.2960    57.2260     9.6520     8.0160     9.3470    20.7580   -18.7960 
  117.0000     2.2430    56.2890     9.2700     7.7420     8.7780    20.6840   -18.7440 
  117.1250     2.2030    56.0750     8.9430     7.4790     8.3910    20.6520   -18.6270 
  117.2500     2.1810    56.6160     8.7220     7.2760     8.2250    20.6450   -18.5190 
  117.3750     2.1730    58.7360     8.6020     7.1420     8.1640    20.6460   -18.4340 
  117.5000     2.1720    60.6220     8.5460     7.0600     8.1320    20.6420   -18.3610 
  117.6250     2.1730    59.1640     8.5120     7.0040     8.1090    20.6290   -18.2510 
  117.7500     2.1730    57.9240     8.4730     6.9510     8.0490    20.6020   -18.1310 
  117.8750     2.1710    60.2570     8.4350     6.9020     7.9560    20.5540   -17.9600 
  118.0000     2.1680    63.0200     8.4130     6.8720     7.8350    20.4940   -17.7470 
  118.1250     2.1660    61.4030     8.4190     6.8800     7.7090    20.4800   -17.5720 
  118.2500     2.1630    57.6780     8.4500     6.9250     7.6110    20.4950   -17.3700 
  118.3750     2.1600    56.6080     8.5060     7.0080     7.5400    20.5140   -17.1130 
  118.5000     2.1580    59.2620     8.5890     7.1230     7.5360    20.5220   -16.7970 
  118.6250     2.1560    61.4780     8.6940     7.2570     7.5730    20.5120   -16.5070 
  118.7500     2.1570    61.2940     8.7820     7.3710     7.5940    20.4800   -16.1880 
  118.8750     2.1640    59.3230     8.7970     7.4160     7.6170    20.4560   -15.8650 
  119.0000     2.1790    56.5830     8.6730     7.3380     7.7020    20.5000   -15.5360 
  119.1250     2.2010    55.6690     8.3370     7.0720     7.8360    20.6650   -15.1510 
  119.2500     2.2230    58.4670     7.8340     6.6560     7.8730    20.9530   -14.7260 
  119.3750     2.2410    63.4950     7.2200     6.1360     7.5840    21.3870   -14.3050 
  119.5000     2.2530    69.2260     6.5700     5.5810     6.9590    21.9270   -13.9520 
  119.6250     2.2650    76.6590     5.9860     5.0740     6.2970    22.4130   -13.6230 
  119.7500     2.2820    83.5410     5.5290     4.6700     6.0130    22.6720   -13.3640 
  119.8750     2.3030    85.6920     5.2460     4.4050     5.7460    22.7450   -13.1830 
  120.0000     2.3220    83.9190     5.1640     4.3030     5.4360    22.7200   -13.0940 
  120.1250     2.3260    85.0770     5.3210     4.3990     5.1770    22.6880   -13.0740 
  120.2500     2.3110    86.8690     5.6440     4.6420     5.1570    22.6110   -13.0950 
  120.3750     2.2820    82.0770     6.0500     4.9750     5.3920    22.5040   -13.1430 
  120.5000     2.2520    72.9840     6.4240     5.3140     5.6430    22.3260   -13.1880 
  120.6250     2.2370    70.5990     6.6120     5.5360     5.8610    22.0530   -13.2160 
  120.7500     2.2390    75.0630     6.5740     5.5850     6.0780    21.7230   -13.2440 
  120.8750     2.2560    81.8110     6.3340     5.4590     6.1800    21.5090   -13.2400 
  121.0000     2.2790    88.7260     5.9810     5.2090     6.0020    21.5710   -13.1960 
  121.1250     2.2970    94.3580     5.6220     4.9100     5.6930    21.8560   -13.1510 
  121.2500     2.3080    95.5060     5.3240     4.6300     5.5760    22.1880   -13.0960 
  121.3750     2.3150    93.5050     5.0940     4.3890     5.6090    22.4060   -13.0650 
  121.5000     2.3240    90.8570     4.9210     4.1890     5.6480    22.4850   -13.0820 
  121.6250     2.3400    88.3850     4.8140     4.0420     5.5570    22.4960   -13.2220 
  121.7500     2.3570    87.7160     4.7930     3.9640     5.4070    22.4960   -13.4350 
  121.8750     2.3650    87.1310     4.9110     3.9960     5.3380    22.4570   -13.7160 
  122.0000     2.3570    83.1580     5.2150     4.1760     5.5220    22.3570   -14.0550 
  122.1250     2.3300    76.0630     5.7550     4.5550     5.8750    22.2190   -14.4010 
  122.2500     2.2960    72.0180     6.4530     5.0820     6.2780    22.0250   -14.7890 
  122.3750     2.2660    69.6250     7.2080     5.6950     6.6470    21.7610   -15.2040 
  122.5000     2.2440    65.3140     7.8940     6.2980     7.3210    21.4720   -15.5960 
  122.6250     2.2300    60.9370     8.3620     6.7660     7.5760    21.2520   -15.8530 
  122.7500     2.2220    58.7340     8.6100     7.0710     7.7060    21.1460   -16.0000 
  122.8750     2.2180    57.4290     8.6890     7.2280     7.8060    21.1290   -16.0550 
  123.0000     2.2200    57.2550     8.6730     7.2860     7.9900    21.1200   -16.0130 
  123.1250     2.2320    58.3670     8.5920     7.2690     8.1640    21.0540   -15.8980 
  123.2500     2.2520    58.5040     8.4300     7.1740     8.2350    20.9760   -15.7520 
  123.3750     2.2770    57.7940     8.1380     6.9690     8.2060    20.9600   -15.5780 
  123.5000     2.3020    60.1370     7.7040     6.6370     8.0170    21.0450   -15.4050 
  123.6250     2.3190    66.5330     7.1730     6.2110     7.5360    21.1990   -15.2620 
  123.7500     2.3250    71.3800     6.6890     5.8000     6.9660    21.4090   -15.1470 
  123.8750     2.3160    72.8270     6.3760     5.5060     6.5340    21.6190   -15.0590 
  124.0000     2.2920    72.7620     6.3190     5.4000     6.3500    21.7370   -15.0170 
  124.1250     2.2610    70.5580     6.5410     5.5150     6.4380    21.6420   -15.0160 
  124.2500     2.2330    65.1370     6.8610     5.7310     7.0940    21.4840   -15.0390 
  124.3750     2.2200    58.1350     7.0810     5.9070     8.4920    21.2750   -15.0770 
  124.5000     2.2240    54.2810     7.0200     5.8990     9.6070    21.0470   -15.0860 
  124.6250     2.2370    58.5660     6.5590     5.5870     7.9980    21.0030   -15.0930 
  124.7500     2.2390    67.4350     5.9000     5.0900     6.6460    21.1610   -15.0840 
  124.8750     2.2200    75.9290     5.2790     4.5760     5.5540    21.5720   -15.0990 
  125.0000     2.1840    81.1440     4.9100     4.2140     4.6880    22.2660   -15.1500 
  125.1250     2.1460    80.3920     4.9680     4.1550     4.5200    22.8460   -15.3010 
  125.2500     2.1210    75.5660     5.3670     4.3670     4.7570    22.8450   -15.5420 
  125.3750     2.1150    70.0990     6.0050     4.7920     5.2710    22.3560   -15.8270 
  125.5000     2.1250    66.5070     6.7360     5.3370     6.0580    21.7870   -16.1770 
  125.6250     2.1430    64.1060     7.3570     5.8630     6.4380    21.2300   -16.5370 
