~V
VERS. 2.00: Ver 2.00
~W
STRT.M 50.0000:
STOP.M 275.0000:
STEP.M 0.1250:
NULL. -999.2500:
UWI. F11033:
~C
DEPT.M :
DEN.GM/CC :
GR.API :
RML.OHMM :
RI. :
RXO.OHMM :
CALI.CM :
SP.MV :
~A
# ...
  263.7500     2.3340    56.6720     8.5030     7.3680     5.8350    24.4910   -19.5130 
  263.8750     2.3670    57.6640     8.6950     7.5160     6.4000    24.5630   -19.4030 
  264.0000     2.3880    57.8550     8.8600     7.6500     6.8180    24.6850   -19.2990 
  264.1250     2.3990    56.0270     8.9400     7.7360     7.2720    24.8400   -19.2720 
  264.2500     2.4080    53.6960     8.9420     7.7630     7.8130    24.9810   -19.2600 
  264.3750     2.4170    52.9550     8.8860     7.7370     8.2000    25.0420   -19.2790 
  264.5000     2.4250    53.8350     8.8090     7.6790     8.4040    25.0550   -19.3300 
  264.6250     2.4350    54.5650     8.7600     7.6260     8.7400    25.0420   -19.3480 
  264.7500     2.4440    53.3360     8.7770     7.6110     9.3760    25.0430   -19.3510 
  264.8750     2.4480    51.6550     8.8870     7.6540    10.0530    25.0390   -19.3730 
  265.0000     2.4470    52.0520     9.0870     7.7560     9.9750    25.0220   -19.3970 
  265.1250     2.4390    52.0520     9.3340     7.8980     9.5900    24.9830   -19.4470 
  265.2500     2.4250    52.0520     9.5240     8.0290     9.5510    24.9590   -19.5430 
  265.3750     2.4020    52.0520     9.5790     8.1030     9.3210    24.9510   -19.5940 
  265.5000     2.3770    52.0520     9.4790     8.0930     8.3210    24.9490   -19.6170 
  265.6250     2.3680    52.0520     9.2780     7.9940     7.4510    24.9730   -19.7020 
  265.7500     2.3780    52.0520     9.0990     7.8610     7.1680    25.0170   -19.8390 
  265.8750     2.3950    52.0520     9.0000     7.7380     7.3940    25.0570   -19.9900 
  266.0000     2.4040    52.0520     8.9690     7.6550     7.5260    25.0320   -20.1050 
  266.1250     2.4020    52.0520     8.9420     7.6170     7.4300    24.9260   -20.1290 
  266.2500     2.4000    52.0520     8.8710     7.5950     7.2300    24.8830   -20.1450 
  266.3750     2.4000    52.0520     8.7640     7.5670     7.0970    24.9170   -20.2010 
  266.5000     2.4020    52.0520     8.6730     7.5270     7.2220    24.9850   -20.2390 
  266.6250     2.4060    52.0520     8.6760     7.4920     7.4720    24.9960   -20.2240 
  266.7500     2.4160    52.0520     8.7930     7.4880     7.8800    24.9780   -20.1840 
  266.8750     2.4330    52.0520     8.9980     7.5340     8.5880    24.9660   -20.1130 
  267.0000     2.4500    52.0520     9.2150     7.6290     9.6100    24.9650   -20.1050 
  267.1250     2.4570    52.0520     9.3330     7.7500    10.2930    24.9650   -20.0850 
  267.2500     2.4560    52.0520     9.3150     7.8510    10.0800    24.9650   -19.9620 
  267.3750     2.4530    52.0520     9.1800     7.8970     9.4440    24.9640   -19.7970 
  267.5000     2.4400    52.0520     8.9900     7.8800     8.5390    24.9570   -19.6410 
  267.6250     2.4150    52.0520     8.8230     7.8110     7.5930    24.9480   -19.5770 
  267.7500     2.3910    52.0520     8.7140     7.7410     7.2020    24.9630   -19.5830 
  267.8750     2.3770    52.0520     8.6710     7.7000     7.2800    25.0290   -19.5890 
  268.0000     2.3740    52.0520     8.6960     7.7060     7.6660    25.1040   -19.5310 
  268.1250     2.3780    52.0520     8.7950     7.7600     8.3990    25.1330   -19.4730 
  268.2500     2.3880    52.0520     8.9170     7.8300     8.7650    25.1210   -19.4700 
  268.3750     2.4050    52.0520     9.0080     7.8840     8.8900    25.1130   -19.5770 
  268.5000     2.4230    52.0520     9.0240     7.8970     8.9990    25.1230   -19.6650 
  268.6250     2.4380    52.0520     8.9490     7.8640     8.7190    25.1490   -19.6620 
  268.7500     2.4490    52.0520     8.8380     7.8140     8.3790    25.1580   -19.6110 
  268.8750     2.4540    52.0520     8.7450     7.7730     8.1810    25.1170   -19.5680 
  269.0000     2.4490    52.0520     8.6960     7.7550     8.3030    25.0520   -19.5500 
  269.1250     2.4360    52.0520     8.6800     7.7460     8.2820    25.0170   -19.6240 
  269.2500     2.4230    52.0520     8.6610     7.7210     8.2650    25.0270   -19.6440 
  269.3750     2.4150    52.0520     8.6310     7.6690     8.2950    25.0340   -19.5680 
  269.5000     2.4100    52.0520     8.6020     7.6020     8.3380    25.0350   -19.5190 
  269.6250     2.4060    52.0520     8.6210     7.5440     8.3800    25.0340   -19.5070 
  269.7500     2.4060    52.0520     8.6970     7.5090     8.2570    25.0330   -19.4640 
  269.8750     2.4110    52.0520     8.7850     7.4970     8.0420    25.0240   -19.4440 
  270.0000     2.4170    52.0520     8.8350     7.4950     7.9500    25.0080   -19.4520 
  270.1250     2.4220    52.0520     8.8370     7.4950     8.1140    24.9920   -19.4050 
  270.2500     2.4270    52.0520     8.8250     7.4970     8.3090    24.9830   -19.4760 
  270.3750     2.4340    52.0520     8.8050     7.5020     8.2240    24.9710   -19.5620 
  270.5000     2.4420    52.0520     8.7760     7.5050     7.9960    24.9650   -19.6230 
  270.6250     2.4510    52.0520     8.7370     7.5050     7.8300    24.9660   -19.6210 
  270.7500     2.4600    52.0520     8.6990     7.5050     7.9140    24.9670   -19.6750 
  270.8750     2.4650    52.0520     8.6910     7.5100     7.8820    24.9650   -19.6960 
  271.0000     2.4630    52.0520     8.6930     7.5110     7.6760    24.9630   -19.6780 
  271.1250     2.4550    52.0520     8.6930     7.5110     7.3430    24.9630   -19.6720 
  271.2500     2.4390    52.0520     8.6930     7.5110     7.3160    24.9760   -19.5920 
  271.3750     2.4090    52.0520     8.6930     7.5110     7.4850    25.0270   -19.4810 
  271.5000     2.3800    52.0520     8.6930     7.5110     7.5320    25.1200   -19.4640 
  271.6250     2.3770    52.0520     8.6930     7.5110     7.3920    25.2330   -19.4660 
  271.7500     2.3940    52.0520     8.6930     7.5110     7.3850    25.2300   -19.4580 
  271.8750     2.4120    52.0520     8.6930     7.5110     7.6510    25.1240   -19.5040 
  272.0000     2.4130    52.0520     8.6930     7.5110     7.7070    24.9580   -19.6140 
  272.1250     2.3990    52.0520     8.6930     7.5110     7.5170    24.8650   -19.6730 
  272.2500     2.3880    52.0520     8.6930     7.5110     7.2270    24.8270   -19.8360 
  272.3750     2.3820    52.0520     8.6930     7.5110     7.2760    24.8210   -19.9810 
  272.5000     2.3780    52.0520     8.6930     7.5110     7.5720    24.8210   -20.0440 
  272.6250     2.3780    52.0520     8.6930     7.5110     7.7180    24.8180   -20.1710 
  272.7500     2.3860    52.0520     8.6930     7.5110     7.6950    24.8040   -20.2760 
  272.8750     2.4020    52.0520     8.6930     7.5110     7.7930    24.7720   -20.2760 
  273.0000     2.4210    52.0520     8.6930     7.5110     8.2760    24.7400  -999.2500 
  273.1250     2.4430    52.0520     8.6930     7.5110     8.9610    24.7080  -999.2500 
  273.2500     2.4620    52.0520     8.6930     7.5110     9.2580    24.6730  -999.2500 
  273.3750     2.4710    52.0520     8.6930     7.5110     9.4590    24.6320  -999.2500 
  273.5000     2.4710    52.0520     8.6930     7.5110     9.8760    24.5630  -999.2500 
  273.6250     2.4680    52.0520     8.6930     7.5110    11.3920    24.4760  -999.2500 
  273.7500     2.4630    52.0520     8.6930     7.5110    13.1900    24.3250  -999.2500 
  273.8750     2.4500    52.0520     8.6930     7.5110    13.1990    23.7100  -999.2500 
  274.0000     2.4140    52.0520     8.6930     7.5110    10.4390    22.3140  -999.2500 
  274.1250     2.3600    52.0520     8.6930     7.5110     7.7240    20.2980  -999.2500 
  274.2500     2.2710    52.0520     8.6930     7.5110     6.7760    19.4160  -999.2500 
  274.3750     2.1590    52.0520     8.6930     7.5110     6.6020    19.2070  -999.2500 
  274.5000     2.0630    52.0520     8.6930     7.5110     6.6000    19.2050  -999.2500 
  274.6250     1.9820    52.0520     8.6930     7.5110     6.6010    19.2050  -999.2500 
  274.7500     2.0130    52.0520     8.6930     7.5110     6.6030    19.2050  -999.2500 
  274.8750     2.1090    52.0520     8.6930     7.5110     6.6020    19.2050  -999.2500 
