~V
VERS. 2.00: Ver 2.00
~W
STRT.M 50.0000:
STOP.M 283.0000:
STEP.M 0.1250:
NULL. -999.2500:
UWI. F11058:
~C
DEPT.M :
DEN.GM/CC :
GR.API :
RML.OHMM :
RI. :
RXO.OHMM :
CALI.CM :
SP.MV :
~A
# ...
  241.2500     2.1340    77.9150    38.3870    30.2580    59.5890    24.2230    -8.7020 
  241.3750     2.1090    75.1370    47.8290    40.7530    78.1400    24.1690    -8.9250 
  241.5000     2.1040    72.9150    54.8540    49.9040    84.8150    23.9760    -9.1200 
  241.6250     2.1070    70.5360    56.8880    53.9640    76.3190    23.7490    -9.3190 
  241.7500     2.1140    70.3000    54.9040    53.4120    65.4270    23.7270    -9.5690 
  241.8750     2.1270    70.9710    50.5860    49.9220    60.2290    23.9450    -9.7230 
  242.0000     2.1490    71.7770    45.7400    45.2960    57.5800    24.2150    -9.7180 
  242.1250     2.1740    73.0060    41.8220    41.0740    49.4480    24.3540    -9.7340 
  242.2500     2.1950    74.0230    39.2670    38.0170    40.8180    24.4100    -9.8250 
  242.3750     2.2070    75.2240    38.1310    36.3390    37.6750    24.4300    -9.8250 
  242.5000     2.2120    76.9560    38.1980    35.9260    39.1830    24.4440    -9.8040 
  242.6250     2.2140    79.0730    39.1320    36.5460    43.2510    24.4680    -9.8410 
  242.7500     2.2130    80.0940    40.3370    37.6050    48.0050    24.4980    -9.8070 
  242.8750     2.2050    79.2740    41.6170    38.8430    49.7510    24.5180    -9.7280 
  243.0000     2.1870    78.6710    43.0990    40.2740    48.1470    24.5340    -9.7060 
  243.1250     2.1660    78.1910    45.3390    42.3850    47.9320    24.5180    -9.7280 
  243.2500     2.1510    77.9290    48.6070    45.5720    51.4490    24.4930    -9.8010 
  243.3750     2.1460    76.9130    52.7290    49.9240    60.7760    24.4520    -9.9380 
  243.5000     2.1460    73.5950    56.7990    54.7820    77.9390    24.4250   -10.0540 
  243.6250     2.1450    70.0420    58.8680    58.1310    87.0940    24.4620   -10.0860 
  243.7500     2.1420    69.0650    57.9470    58.3150    85.2140    24.5110   -10.1240 
  243.8750     2.1410    70.5710    54.1530    55.0240    77.5620    24.5340   -10.2400 
  244.0000     2.1480    72.5520    48.7290    49.5060    64.9770    24.5500   -10.3290 
  244.1250     2.1570    73.8670    43.4920    43.8270    50.7500    24.5870   -10.3150 
  244.2500     2.1620    74.8500    39.5420    39.4070    42.2400    24.6000   -10.2280 
  244.3750     2.1610    74.9380    37.0570    36.5590    43.2960    24.5940   -10.0820 
  244.5000     2.1580    74.8330    35.7710    35.0880    44.2410    24.5990    -9.8950 
  244.6250     2.1650    74.4200    35.3880    34.7650    43.2550    24.6170    -9.7350 
  244.7500     2.1940    72.1640    35.4690    35.0920    42.1670    24.6010    -9.5990 
  244.8750     2.2450    68.7080    36.0210    35.9780    42.9660    24.5430    -9.4450 
  245.0000     2.3000    68.2880    38.0530    37.5920    44.2490    24.5070    -9.3580 
  245.1250     2.3290    72.5040    42.6930    40.4050    40.4780    24.5680    -9.3870 
  245.2500     2.3210    75.4050    48.1090    44.0850    41.4200    24.6370    -9.4040 
  245.3750     2.2850    74.2530    51.8630    47.6570    47.4340    24.6280    -9.4670 
  245.5000     2.2450    71.8980    52.4490    49.5290    59.1200    24.5830    -9.6210 
  245.6250     2.2260    73.4030    49.4410    47.6660    74.7190    24.5780    -9.7090 
  245.7500     2.2280    76.4630    44.1660    42.7150    62.8390    24.5480    -9.7180 
  245.8750     2.2440    78.1340    37.9580    36.3110    41.7350    24.4850    -9.7320 
  246.0000     2.2650    78.0770    32.4660    30.3630    30.7110    24.3860    -9.7250 
  246.1250     2.2810    78.8800    29.3460    26.4830    28.4450    24.2800    -9.5780 
  246.2500     2.2870    82.2180    28.9760    24.8750    27.0640    24.2000    -9.3550 
  246.3750     2.2800    85.1630    31.7970    25.8670    25.7600    24.1620    -9.1280 
  246.5000     2.2630    82.9260    38.3520    30.1300    30.1290    24.1400    -8.9920 
  246.6250     2.2450    74.5380    50.1240    39.6480    45.9060    24.1120    -9.0820 
  246.7500     2.2300    68.1560    66.5460    54.6640    73.9530    24.1240    -9.2610 
  246.8750     2.2190    68.1240    86.0080    74.3650   104.9440    24.1380    -9.4710 
  247.0000     2.2090    70.6940   104.5220    94.9500   128.3000    24.1780    -9.7610 
  247.1250     2.1970    71.3690   115.3920   108.5660   145.4530    24.2640   -10.1170 
  247.2500     2.1820    70.5080   117.1120   112.3090   148.9290    24.3800   -10.5060 
  247.3750     2.1670    68.6520   111.7560   108.2000   146.6890    24.4070   -10.9320 
  247.5000     2.1530    66.9040   103.4930   100.5410   137.0440    24.3170   -11.3110 
  247.6250     2.1400    66.7960    96.2690    93.2660   115.6990    24.2190   -11.5660 
  247.7500     2.1310    68.7240    91.3400    88.0770   100.1450    24.1940   -11.8150 
  247.8750     2.1300    69.9780    88.3120    84.9400    96.9000    24.2490   -12.0640 
  248.0000     2.1360    69.0200    86.0610    82.9180    97.5530    24.3110   -12.2510 
  248.1250     2.1490    67.3290    83.0600    80.4860   101.4520    24.2930   -12.4710 
  248.2500     2.1640    67.1110    78.6080    76.6440   103.4380    24.2390   -12.7890 
  248.3750     2.1770    69.0410    72.9060    71.4030    88.8090    24.1880   -13.0600 
  248.5000     2.1850    71.3150    66.7900    65.5820    67.3330    24.1590   -13.2400 
  248.6250     2.1880    71.7690    61.4930    60.4330    60.5050    24.1280   -13.4720 
  248.7500     2.1860    72.3840    57.6960    56.6180    61.1750    24.1050   -13.7190 
  248.8750     2.1840    74.4440    55.8150    54.5240    63.5630    24.1390   -13.8430 
  249.0000     2.1840    76.0560    56.1670    54.4810    65.2400    24.2200   -13.8930 
  249.1250     2.1860    74.9870    59.5780    57.3280    63.1240    24.2800   -13.9440 
  249.2500     2.1900    72.5730    65.9950    63.2440    64.1890    24.2990   -13.8750 
  249.3750     2.1930    69.2350    75.4520    72.7420    74.2950    24.2780   -13.7100 
  249.5000     2.1930    65.3130    86.9390    85.5200   105.9640    24.2090   -13.4780 
  249.6250     2.1970    60.8570    96.5300    98.4210   134.0250    24.1470   -13.1550 
  249.7500     2.2110    58.3960    99.2960   105.0050   153.5460    24.2200   -12.7980 
  249.8750     2.2400    60.6620    92.7530   100.3080   152.7170    24.4100   -12.4960 
  250.0000     2.2780    67.1550    78.8510    85.2820   121.4660    24.5220   -12.1960 
  250.1250     2.3060    72.7170    63.4300    67.2490    80.5300    24.5220   -11.8520 
  250.2500     2.3090    73.8020    51.9050    53.2920    50.0810    24.5260   -11.6010 
  250.3750     2.2890    74.0160    45.9580    45.2380    36.5910    24.5940   -11.4110 
  250.5000     2.2600    76.2350    45.5920    42.9900    33.2950    24.6090   -11.2380 
  250.6250     2.2440    77.3280    51.3000    47.1580    44.6610    24.5810   -11.1420 
  250.7500     2.2490    75.3010    61.8400    56.7230    80.6290    24.6190   -11.1130 
  250.8750     2.2680    71.7470    76.1940    70.9150   126.4630    24.7120   -11.1160 
  251.0000     2.2880    68.6520    92.0580    87.3490   155.9380    24.7370   -11.0800 
  251.1250     2.2970    66.8230   105.5790   101.4640   155.4820    24.5730   -11.0490 
  251.2500     2.2990    65.9770   115.0690   110.9240   133.2530    24.2560   -10.9940 
  251.3750     2.3020    67.8250   121.5890   116.9060    98.4890    23.8360   -10.8930 
  251.5000     2.3190    72.4140   128.0830   122.7490    85.8850    23.5250   -10.7740 
  251.6250     2.3660    76.6050   138.3130   132.5720   105.5090    23.5360   -10.6030 
  251.7500     2.4490    76.4470   152.1410   147.0440   146.3240    23.7620   -10.3410 
  251.8750     2.5590    71.1390   164.7800   163.4650   198.1980    24.0400   -10.0010 
  252.0000     2.6740    63.2160   166.7020   173.3660   286.7220    24.3110    -9.7310 
  252.1250     2.7510    56.9600   146.4920   159.3530   391.3760    24.3890    -9.4070 
  252.2500     2.7670    53.5080   111.4600   122.9710   385.5030    24.4100    -8.9370 
  252.3750     2.7230    51.4690    74.1170    80.3060   265.3360    24.5020    -8.3850 
