~V
VERS. 2.00: Ver 2.00
~W
STRT.M 51.0000:
STOP.M 252.0000:
STEP.M 0.1250:
NULL. -999.2500:
UWI. F11020:
~C
DEPT.M :
DEN.GM/CC :
GR.API :
RML.OHMM :
RI. :
RXO.OHMM :
CALI.CM :
SP.MV :
~A
# ...
  152.2500     2.2640    81.7690     7.0090     5.7230     4.4450    24.6690   -17.5210 
  152.3750     2.2580    82.0200     6.9500     5.6670     4.6960    24.6260   -17.4720 
  152.5000     2.2560    84.7510     6.7850     5.5090     4.6220    24.5050   -17.3940 
  152.6250     2.2520    87.5940     6.4830     5.2210     4.1870    24.3020   -17.3050 
  152.7500     2.2410    87.5730     6.1080     4.8640     3.5860    24.0950   -17.2210 
  152.8750     2.2170    86.3820     5.7770     4.5500     3.3510    23.9750   -17.1570 
  153.0000     2.1980    87.1210     5.5520     4.3360     3.2930    23.8640   -17.1160 
  153.1250     2.2090    89.0000     5.4470     4.2360     3.2720    23.7850   -17.1160 
  153.2500     2.2570    88.1660     5.4520     4.2400     3.2690    23.6880   -17.2000 
  153.3750     2.3060    85.2160     5.5160     4.3010     3.3320    23.5580   -17.3510 
  153.5000     2.3310    84.4540     5.6070     4.3880     3.4130    23.4770   -17.5640 
  153.6250     2.3330    87.7970     5.6980     4.4740     3.4290    23.5000   -17.8080 
  153.7500     2.3270    91.7410     5.7670     4.5400     3.3690    23.6460   -18.0780 
  153.8750     2.3140    94.3230     5.8070     4.5780     3.3290    23.8510   -18.3600 
  154.0000     2.2960    97.1690     5.8160     4.5870     3.3740    23.9840   -18.6530 
  154.1250     2.2840    98.1350     5.8030     4.5740     3.4320    24.0210   -18.9420 
  154.2500     2.2920    92.4430     5.7960     4.5680     3.4330    23.9860   -19.1960 
  154.3750     2.3100    85.2250     5.8310     4.6010     3.4570    23.9470   -19.4300 
  154.5000     2.3210    83.1880     5.9340     4.6990     3.5820    23.9160   -19.6410 
  154.6250     2.3180    86.6600     6.1110     4.8680     3.8280    23.8870   -19.8470 
  154.7500     2.3060    89.2140     6.3340     5.0800     4.1990    23.9020   -20.0480 
  154.8750     2.2920    87.7450     6.5350     5.2720     4.7000    23.9840   -20.2340 
  155.0000     2.2810    84.1460     6.6480     5.3790     5.1790    24.1330   -20.3980 
  155.1250     2.2760    80.3900     6.6220     5.3540     5.3800    24.2820   -20.5320 
  155.2500     2.2840    78.2330     6.4590     5.1990     5.2410    24.3540   -20.6490 
  155.3750     2.3020    78.3210     6.2950     5.0430     5.0690    24.3740   -20.7510 
  155.5000     2.3250    80.0850     6.3090     5.0560     4.9890    24.3730   -20.8320 
  155.6250     2.3500    81.1200     6.7150     5.4440     5.3250    24.3570   -20.8730 
  155.7500     2.3790    77.8680     7.9260     6.4680     7.0370    24.3300   -20.8610 
  155.8750     2.4100    71.4940    10.5760     8.2480    11.1480    24.3330   -20.8170 
  156.0000     2.4220    65.4250    14.4150    10.8460    16.9660    24.3680   -20.7430 
  156.1250     2.3840    62.8550    18.3280    14.0040    20.2340    24.4550   -20.6560 
  156.2500     2.3050    63.9160    21.3730    16.9290    19.0640    24.6380   -20.5670 
  156.3750     2.2350    64.9780    22.7410    18.7600    17.6440    24.8730   -20.4770 
  156.5000     2.1980    63.7710    22.6880    19.3690    17.0550    25.0590   -20.4100 
  156.6250     2.1860    61.4920    22.2180    19.3250    17.5920    25.1550   -20.3850 
  156.7500     2.1850    61.5060    22.2860    19.3610    18.1170    25.1910   -20.4200 
  156.8750     2.1850    62.7180    23.1250    19.8500    18.5680    25.2160   -20.4900 
  157.0000     2.1830    62.3330    24.6110    20.8240    19.9150    25.2240   -20.5920 
  157.1250     2.1790    60.9580    26.4900    22.1860    21.9070    25.1950   -20.7190 
  157.2500     2.1760    61.9210    28.4220    23.7520    23.5490    25.1420   -20.8640 
  157.3750     2.1760    64.6630    30.0320    25.2230    24.4720    25.1120   -21.0210 
  157.5000     2.1800    66.1580    31.0630    26.3540    24.7710    25.0960   -21.1770 
  157.6250     2.1870    65.9870    31.4310    26.9910    24.8940    25.0770   -21.3200 
  157.7500     2.1950    64.8380    31.2890    27.1610    24.9440    25.0480   -21.4440 
  157.8750     2.2090    63.0770    31.0540    27.1580    24.4040    25.0220   -21.5700 
  158.0000     2.2270    60.6450    31.0020    27.2020    23.5130    24.9900   -21.7000 
  158.1250     2.2440    58.4190    31.3010    27.4550    23.5310    24.9650   -21.8450 
  158.2500     2.2530    57.4200    32.0100    28.0080    25.0960    24.9520   -21.9970 
  158.3750     2.2530    56.9720    32.9640    28.7820    26.2840    24.9360   -22.1300 
  158.5000     2.2480    55.9850    33.9460    29.6390    25.8640    24.9110   -22.2400 
  158.6250     2.2450    54.7370    34.6630    30.3690    25.8690    24.9040   -22.3280 
  158.7500     2.2480    55.0950    34.8150    30.7490    27.2740    24.9210   -22.3930 
  158.8750     2.2560    57.1860    34.4120    30.7600    28.8900    24.9430   -22.4430 
  159.0000     2.2640    59.7310    33.6230    30.5040    28.4570    24.9510   -22.4750 
  159.1250     2.2740    61.6560    32.7550    30.1740    26.0060    24.9430   -22.4810 
  159.2500     2.2820    63.4110    32.1610    30.0000    24.8920    24.9210   -22.4660 
  159.3750     2.2860    64.5750    32.0400    30.1380    25.8100    24.8950   -22.4660 
  159.5000     2.2870    64.1610    32.4530    30.6700    26.4610    24.8850   -22.4780 
  159.6250     2.2900    62.8260    33.2990    31.5820    26.5480    24.8850   -22.4940 
  159.7500     2.2980    61.9430    34.1860    32.6240    26.0650    24.8890   -22.5050 
  159.8750     2.3090    61.2570    34.2400    33.0320    25.5080    24.9050   -22.4870 
  160.0000     2.3160    60.5460    32.4290    31.7620    25.8030    24.9310   -22.4450 
  160.1250     2.3200    61.6830    28.2300    28.1520    26.4760    24.9520   -22.3810 
  160.2500     2.3240    65.1640    22.4520    22.8510    26.4920    24.9720   -22.3070 
  160.3750     2.3290    68.2360    17.1340    17.8210    21.5680    24.9980   -22.2030 
  160.5000     2.3320    69.9280    13.3930    14.1250    13.9010    25.0130   -22.0720 
  160.6250     2.3350    72.1310    11.5670    12.0890     8.7920    24.9840   -21.9410 
  160.7500     2.3390    75.1700    11.5690    11.6890     9.2030    24.8930   -21.8180 
  160.8750     2.3440    75.2490    12.7810    12.4770    12.8760    24.7650   -21.7150 
  161.0000     2.3470    70.4960    14.7870    14.2000    18.5260    24.6460   -21.6320 
  161.1250     2.3490    64.2390    17.0310    16.4410    21.0600    24.6120   -21.5610 
  161.2500     2.3480    61.8820    18.8830    18.5730    19.4220    24.6920   -21.4860 
  161.3750     2.3480    63.7620    20.1330    20.1650    17.5480    24.8100   -21.4170 
  161.5000     2.3460    66.8930    20.8840    21.1870    17.3920    24.9030   -21.3510 
  161.6250     2.3400    67.7530    21.1200    21.5930    18.1510    24.9770   -21.2560 
  161.7500     2.3320    65.5980    20.5010    21.0610    19.8200    25.0380   -21.1180 
  161.8750     2.3250    63.6200    19.0010    19.5970    21.9100    25.0870   -20.9630 
  162.0000     2.3210    64.1600    17.0360    17.6150    20.2390    25.1040   -20.7990 
  162.1250     2.3240    67.0700    15.4130    15.8590    14.2560    25.0530   -20.6460 
  162.2500     2.3330    68.4360    14.9880    15.0630    10.3510    24.9520   -20.5190 
  162.3750     2.3420    66.7830    15.9700    15.4420    12.0350    24.8640   -20.4380 
  162.5000     2.3460    64.5260    18.2730    17.0370    18.9970    24.8210   -20.4060 
  162.6250     2.3440    64.1710    21.4180    19.6360    25.8150    24.8090   -20.4390 
  162.7500     2.3460    66.0480    24.4010    22.5440    24.6290    24.8020   -20.5330 
  162.8750     2.3490    67.4480    26.1170    24.6130    23.0450    24.7820   -20.6630 
  163.0000     2.3460    67.7690    26.2370    25.2460    24.2020    24.7500   -20.8110 
  163.1250     2.3390    66.4820    25.3040    24.7200    24.5350    24.7230   -20.9560 
  163.2500     2.3330    64.3990    24.1550    23.7710    21.0280    24.7150   -21.0870 
  163.3750     2.3270    64.3400    23.1380    22.8470    19.5350    24.7040   -21.1850 
