~V
VERS. 2.00: Ver 2.00
~W
STRT.M 50.0000:
STOP.M 206.0000:
STEP.M 0.1250:
NULL. -999.2500:
UWI. F11107:
~C
DEPT.M :
DEN.GM/CC :
GR.API :
RML.OHMM :
RI. :
RXO.OHMM :
CALI.CM :
SP.MV :
~A
# ...
   95.0000     2.2730    85.5240     8.1810     6.6260     8.3210    22.2560   -20.1560 
   95.1250     2.3050    83.7400     8.7230     7.2030    10.7540    22.2120   -20.8500 
   95.2500     2.3220    83.4410     9.0480     7.6180    11.7450    22.1880   -21.5990 
   95.3750     2.3190    85.3120     9.1800     7.8540     9.9920    22.1390   -22.2850 
   95.5000     2.3040    88.9330     9.1830     7.9400     8.4920    22.0550   -22.8540 
   95.6250     2.2930    90.7680     9.1310     7.9280     8.2140    21.9480   -23.2870 
   95.7500     2.2870    90.4460     9.0890     7.8900     8.2020    21.8340   -23.6230 
   95.8750     2.2770    89.3580     9.0760     7.8600     8.0050    21.7370   -23.8810 
   96.0000     2.2560    84.7150     9.0870     7.8450     7.7350    21.6900   -24.0990 
   96.1250     2.2240    75.9220     9.0950     7.8340     7.5130    21.7180   -24.2580 
   96.2500     2.1950    70.5620     9.0810     7.8160     7.5620    21.7670   -24.3770 
   96.3750     2.1790    73.6470     9.0410     7.7850     7.7050    21.8590   -24.4910 
   96.5000     2.1780    79.5820     8.9820     7.7450     7.9430    21.9120   -24.5570 
   96.6250     2.1890    80.1950     8.9070     7.6930     7.9760    21.8920   -24.5550 
   96.7500     2.2000    78.3460     8.8150     7.6220     7.6940    21.8380   -24.5410 
   96.8750     2.2070    79.1700     8.6930     7.5260     7.3480    21.7940   -24.5280 
   97.0000     2.2100    83.5310     8.5320     7.3980     7.0630    21.7830   -24.5440 
   97.1250     2.2130    87.5830     8.3270     7.2320     7.1060    21.8620   -24.5460 
   97.2500     2.2190    87.1920     8.0990     7.0420     7.1280    21.9670   -24.5170 
   97.3750     2.2280    83.6490     7.8760     6.8430     6.9780    22.0120   -24.4790 
   97.5000     2.2380    81.0470     7.6870     6.6560     7.0260    21.9630   -24.4650 
   97.6250     2.2430    82.7230     7.5780     6.5210     6.9180    21.8400   -24.4180 
   97.7500     2.2410    86.9700     7.5590     6.4580     6.6910    21.7160   -24.2880 
   97.8750     2.2320    90.5880     7.6350     6.4800     6.6070    21.6250   -24.1350 
   98.0000     2.2180    89.5670     7.7900     6.5820     7.2530    21.5870   -23.9650 
   98.1250     2.2040    82.8280     7.9840     6.7440     7.7240    21.6710   -23.7480 
   98.2500     2.1910    75.9100     8.1590     6.9180     7.7390    21.6590   -23.5220 
   98.3750     2.1800    72.4710     8.2740     7.0660     7.5300    21.6400   -23.3050 
   98.5000     2.1740    71.4260     8.3150     7.1640     7.4480    21.7320   -23.1100 
   98.6250     2.1760    70.8840     8.2820     7.1950     7.4680    21.9160   -22.9700 
   98.7500     2.1840    72.0750     8.2170     7.1820     7.6500    22.0720   -22.8570 
   98.8750     2.1960    74.3720     8.1430     7.1420     7.8050    22.1840   -22.7480 
   99.0000     2.2050    76.1380     8.0700     7.0850     7.8970    22.2570   -22.6220 
   99.1250     2.2090    76.2230     7.9940     7.0110     7.4240    22.2660   -22.5740 
   99.2500     2.2110    77.0620     7.9030     6.9210     7.4280    22.2540   -22.5330 
   99.3750     2.2160    80.7080     7.7900     6.8130     7.4500    22.2590   -22.4740 
   99.5000     2.2290    84.6720     7.6520     6.6880     7.3400    22.2730   -22.4390 
   99.6250     2.2450    85.1910     7.5090     6.5590     7.1640    22.2880   -22.3730 
   99.7500     2.2570    83.5750     7.4060     6.4560     6.9830    22.3150   -22.2710 
   99.8750     2.2600    83.0800     7.3980     6.4160     6.8230    22.4210   -22.1370 
  100.0000     2.2510    83.8960     7.5300     6.4790     6.7370    22.6320   -22.0420 
  100.1250     2.2350    83.2930     7.8440     6.6900     6.6260    22.8110   -21.9720 
  100.2500     2.2170    81.9650     8.2750     7.0180     6.8390    22.8270   -21.9020 
  100.3750     2.1990    80.6940     8.7460     7.4160     7.5710    22.6970   -21.8450 
  100.5000     2.1820    78.4380     9.1520     7.8110     8.3760    22.5530   -21.8280 
  100.6250     2.1680    75.9900     9.3580     8.0870     8.5860    22.4370   -21.9380 
  100.7500     2.1600    74.6480     9.3450     8.1930     8.3690    22.3480   -22.1030 
  100.8750     2.1590    73.5720     9.1540     8.1300     8.4140    22.2990   -22.3270 
  101.0000     2.1660    71.3950     8.8940     7.9590     8.6070    22.2720   -22.5970 
  101.1250     2.1790    71.7500     8.7460     7.8060     8.5800    22.2310   -22.8400 
  101.2500     2.1910    76.1240     8.8450     7.7970     8.3060    22.1840   -23.0830 
  101.3750     2.1960    80.7860     9.2770     8.0240     8.3420    22.1700   -23.3340 
  101.5000     2.1910    80.9210    10.0560     8.5440     8.7670    22.2010   -23.5560 
  101.6250     2.1790    76.5500    11.1020     9.3840     9.5670    22.2180   -23.6930 
  101.7500     2.1650    73.7920    12.1080    10.3510    10.4650    22.2740   -23.7910 
  101.8750     2.1540    74.3840    12.7520    11.1930    11.9600    22.3450   -23.8420 
  102.0000     2.1470    77.8990    12.8030    11.6380    14.0700    22.4080   -23.8420 
  102.1250     2.1440    81.4540    12.2660    11.4370    14.3270    22.5170   -23.7880 
  102.2500     2.1460    83.3790    11.4810    10.7800    12.0230    22.7040   -23.6750 
  102.3750     2.1510    82.0950    10.5960     9.9010     9.2870    22.8340   -23.4980 
  102.5000     2.1600    79.5580     9.7050     9.0330     7.8190    22.8390   -23.2690 
  102.6250     2.1710    79.3380     8.9880     8.3600     7.4910    22.7460   -22.9640 
  102.7500     2.1810    80.3430     8.5260     7.8880     7.1890    22.7280   -22.5640 
  102.8750     2.1910    81.7790     8.2470     7.5790     6.7520    22.7880   -22.0540 
  103.0000     2.1990    84.7940     8.0260     7.3530     6.1950    22.8650   -21.4010 
  103.1250     2.2080    88.7550     7.7180     7.0830     6.1190    22.9030   -20.6020 
  103.2500     2.2170    89.7370     7.2470     6.6790     6.1790    22.9510   -19.6620 
  103.3750     2.2300    87.3960     6.6190     6.1240     6.3750    23.0600   -18.5750 
  103.5000     2.2470    88.6200     5.9390     5.4890     6.2430    23.2760   -17.4090 
  103.6250     2.2670   100.8440     5.4240     4.9400     5.2330    23.7080   -16.2910 
  103.7500     2.2930   116.0560     5.2340     4.6280     4.2130    24.3920   -15.3590 
  103.8750     2.3290   122.6100     5.4630     4.6540     4.0910    24.9860   -14.6920 
  104.0000     2.3700   116.2830     6.1180     5.0560     4.9640    25.2860   -14.3580 
  104.1250     2.4010   105.4130     7.1170     5.8310     7.8440    25.3000   -14.4350 
  104.2500     2.4050    99.9420     8.1370     6.7460    12.2530    25.0250   -14.8460 
  104.3750     2.3780    97.2690     8.9220     7.5740    13.3120    24.3890   -15.5720 
  104.5000     2.3280    91.6480     9.3500     8.1420    10.2480    23.5440   -16.5000 
  104.6250     2.2800    84.6990     9.5220     8.4150     8.5760    23.1210   -17.4600 
  104.7500     2.2470    82.9040     9.7820     8.6410     8.5170    23.0970   -18.3520 
  104.8750     2.2280    86.4470    10.3630     9.0500     9.2780    23.3280   -19.1170 
  105.0000     2.2110    89.4160    11.3420     9.7870    10.5240    23.6940   -19.6620 
  105.1250     2.1900    87.7290    12.6250    10.8850    12.6630    24.0130   -19.9910 
  105.2500     2.1670    84.8960    13.8800    12.0870    15.1670    24.1330   -20.1860 
  105.3750     2.1460    82.6210    14.8460    13.1320    17.1550    24.0580   -20.2350 
  105.5000     2.1340    79.7760    15.3650    13.8100    17.1890    23.9440   -20.1620 
  105.6250     2.1400    76.7160    15.3820    13.9850    17.1640    23.9480   -19.9820 
  105.7500     2.1640    76.1970    15.1410    13.8470    16.5480    24.1610   -19.6680 
  105.8750     2.2040    77.4300    14.8170    13.5650    16.0840    24.6130   -19.2160 
  106.0000     2.2560    77.8240    14.5300    13.2760    15.7180    25.1510   -18.7160 
  106.1250     2.3090    77.9600    14.3470    13.0650    16.3290    25.4410   -18.1750 
