~V
VERS. 2.00: Ver 2.00
~W
STRT.M 52.0000:
STOP.M 216.0000:
STEP.M 0.1250:
NULL. -999.2500:
UWI. F11106:
~C
DEPT.M :
DEN.GM/CC :
GR.API :
RML.OHMM :
RI. :
RXO.OHMM :
CALI.CM :
SP.MV :
~A
# ...
   85.7500     2.2090    75.4050     7.9200     5.9170     6.8810    24.2170   -15.3150 
   85.8750     2.1960    78.0830     7.8920     5.9020     6.5480    24.1930   -15.2570 
   86.0000     2.1910    79.9840     7.8430     5.9730     6.2830    24.2450   -15.1830 
   86.1250     2.1900    80.7190     7.7620     6.0250     6.1680    24.3650   -15.1150 
   86.2500     2.1880    78.8290     7.7490     6.0330     6.3000    24.5270   -15.0730 
   86.3750     2.1850    75.3810     7.8380     6.0140     6.4970    24.8850   -15.0500 
   86.5000     2.1840    75.6250     7.9780     5.9970     6.6060    24.9850   -15.0180 
   86.6250     2.1860    81.3000     8.0700     6.0010     6.5130    25.0070   -15.0030 
   86.7500     2.1890    83.6770     8.0880     6.0200     6.3850    25.1270   -15.0600 
   86.8750     2.1940    81.1870     8.0710     6.0370     6.2990    25.2370   -15.1250 
   87.0000     2.1980    78.6770     8.0580     6.0350     6.2730    25.2300   -15.1380 
   87.1250     2.2000    79.3450     8.0290     6.0010     6.2390    25.1370   -15.1580 
   87.2500     2.2020    80.2220     7.9290     5.9440     6.1670    24.7960   -15.2200 
   87.3750     2.2030    80.7980     7.7570     5.8760     6.0550    24.4600   -15.3330 
   87.5000     2.2020    82.1420     7.6040     5.8110     5.9150    24.3510   -15.5100 
   87.6250     2.1950    83.5180     7.6110     5.7580     5.8000    24.1900   -15.7230 
   87.7500     2.1860    82.2570     7.8030     5.7300     5.8170    24.1190   -15.9550 
   87.8750     2.1740    78.9830     8.1000     5.7360     6.0210    24.0220   -16.2230 
   88.0000     2.1640    77.0930     8.3480     5.7800     6.4200    23.9510   -16.5030 
   88.1250     2.1580    76.7680     8.3550     5.8630     6.5650    23.7080   -16.7320 
   88.2500     2.1550    75.3300     8.1330     5.9660     6.5580    23.3760   -16.9390 
   88.3750     2.1570    72.8460     7.8030     6.0750     6.4840    22.7720   -17.1330 
   88.5000     2.1600    71.5900     7.5420     6.1760     6.4180    22.3660   -17.2960 
   88.6250     2.1640    72.0580     7.5240     6.2450     6.3730    22.3460   -17.4190 
   88.7500     2.1680    73.3950     7.6990     6.2600     6.3570    22.3450   -17.4200 
   88.8750     2.1700    74.9980     7.9040     6.1970     6.3660    22.3550   -17.3160 
   89.0000     2.1730    74.5220     7.9690     6.0500     6.3460    22.4160   -17.1970 
   89.1250     2.1790    71.5740     7.9150     5.8550     6.2340    22.5160   -17.1000 
   89.2500     2.1900    73.3840     8.0290     5.7000     6.0690    22.7150   -17.0040 
   89.3750     2.2070    79.8400     8.5200     5.6650     5.9970    22.9040   -16.9300 
   89.5000     2.2310    83.1610     9.3810     5.8020     6.0060    22.9990   -16.9030 
   89.6250     2.2600    80.8510    10.3180     6.1470     6.5690    23.3010   -17.0110 
   89.7500     2.2880    78.8170    10.8640     6.6140     8.4140    23.4600   -17.2780 
   89.8750     2.3090    76.3300    10.7920     7.0870    12.1540    23.5050   -17.6630 
   90.0000     2.3150    69.7150    10.1840     7.4080    12.7690    23.4890   -18.1220 
   90.1250     2.2950    63.6920     9.3910     7.4310     9.5450    23.3490   -18.6190 
   90.2500     2.2580    64.7330     8.7910     7.2630     7.3170    23.1310   -19.1260 
   90.3750     2.2150    68.3860     8.4880     7.0500     6.6080    23.0000   -19.5860 
   90.5000     2.1780    69.4860     8.3890     6.9190     6.4850    22.8950   -19.9640 
   90.6250     2.1550    69.2230     8.3370     6.9350     6.4900    22.8080   -20.2190 
   90.7500     2.1450    67.7960     8.2760     7.0260     6.5140    22.5630   -20.3700 
   90.8750     2.1430    64.5080     8.2590     7.1170     6.5570    22.3180   -20.4290 
   91.0000     2.1460    61.7040     8.3350     7.1730     6.5910    22.1380   -20.4270 
   91.1250     2.1520    63.1000     8.5150     7.1850     6.6780    22.1150   -20.3410 
   91.2500     2.1580    65.2320     8.6460     7.1550     6.7640    22.0880   -20.1920 
   91.3750     2.1640    63.3980     8.5490     7.0620     6.7850    21.9740   -20.0510 
   91.5000     2.1700    60.5830     8.1690     6.9000     6.7430    21.9150   -19.9680 
   91.6250     2.1750    62.3240     7.6520     6.7000     6.6040    21.8730   -19.9050 
   91.7500     2.1790    65.9970     7.2900     6.5230     6.4290    21.8910   -19.8730 
   91.8750     2.1820    69.5320     7.2230     6.4040     6.3910    21.9760   -19.8910 
   92.0000     2.1810    71.9620     7.4440     6.3480     6.5860    22.0600   -19.9370 
   92.1250     2.1730    71.4490     7.8110     6.3330     6.8310    22.0880   -20.1040 
   92.2500     2.1630    67.4120     8.1230     6.3200     6.8720    22.2950   -20.3630 
   92.3750     2.1560    63.2160     8.3330     6.3070     6.5380    22.8090   -20.6590 
   92.5000     2.1570    64.0800     8.5190     6.3260     6.1520    23.3370   -20.9610 
   92.6250     2.1720    69.2340     8.7910     6.4440     6.3340    23.1610   -21.2810 
   92.7500     2.1920    72.6190     9.1420     6.6740     7.0780    22.4560   -21.6070 
   92.8750     2.2110    72.0130     9.4680     6.9810     7.7390    22.0900   -21.8830 
   93.0000     2.2200    67.7730     9.6520     7.2740     7.9720    21.9690   -22.0520 
   93.1250     2.2180    64.3320     9.6150     7.4290     7.8630    22.0560   -22.0960 
   93.2500     2.2100    63.7080     9.4500     7.4370     7.5650    22.2950   -22.0700 
   93.3750     2.2000    62.7830     9.2580     7.3600     7.0550    22.4210   -21.9890 
   93.5000     2.1910    59.2210     9.1280     7.2780     6.6000    22.3920   -21.8250 
   93.6250     2.1830    55.7720     9.1170     7.2370     6.4380    22.5000   -21.5990 
   93.7500     2.1760    56.1300     9.1720     7.2200     6.6130    22.7040   -21.3640 
   93.8750     2.1700    58.8040     9.2020     7.1920     6.9980    22.8430   -21.1330 
   94.0000     2.1680    59.9790     9.0970     7.1200     7.3790    23.0210   -20.9210 
   94.1250     2.1690    60.9540     8.7810     6.9720     7.1220    23.2290   -20.7190 
   94.2500     2.1730    63.0630     8.3650     6.7620     6.8840    23.5120   -20.5630 
   94.3750     2.1800    63.3080     7.9920     6.5260     6.7470    23.8070   -20.4480 
   94.5000     2.1880    60.2090     7.7660     6.3110     6.6700    23.9100   -20.4010 
   94.6250     2.1930    57.2550     7.6880     6.1840     6.6250    23.9810   -20.3940 
   94.7500     2.1950    58.1700     7.6540     6.1510     6.6630    24.0810   -20.3880 
   94.8750     2.1950    61.0610     7.6360     6.1920     6.7440    24.1290   -20.4460 
   95.0000     2.1920    61.9690     7.6300     6.2610     6.7790    24.1500   -20.6130 
   95.1250     2.1870    59.5440     7.6310     6.2950     6.7100    24.1440   -20.8600 
   95.2500     2.1800    57.2150     7.6280     6.2720     6.6080    24.1010   -21.0890 
   95.3750     2.1720    57.6110     7.5980     6.2080     6.5660    24.0170   -21.2900 
   95.5000     2.1630    58.9360     7.5360     6.1340     6.6090    23.8970   -21.5030 
   95.6250     2.1540    59.2830     7.4620     6.0840     6.6500    23.7420   -21.7910 
   95.7500     2.1450    61.4050     7.4080     6.0540     6.6630    23.6120   -22.1070 
   95.8750     2.1390    63.5580     7.3700     6.0300     6.6150    23.5840   -22.3810 
   96.0000     2.1370    62.0260     7.3420     5.9980     6.4910    23.2690   -22.5950 
   96.1250     2.1420    56.8920     7.3140     5.9520     6.2560    23.0300   -22.7580 
   96.2500     2.1520    53.3040     7.2760     5.9040     6.0620    22.8720   -22.9020 
   96.3750     2.1640    53.1630     7.2270     5.8600     5.9640    22.7800   -23.0060 
   96.5000     2.1750    55.2130     7.1860     5.8230     5.9440    22.7870   -23.0330 
   96.6250     2.1830    58.5030     7.1610     5.8050     5.8840    23.0920   -22.9170 
   96.7500     2.1890    59.8640     7.1440     5.8040     5.7900    23.1000   -22.7420 
   96.8750     2.1960    57.5340     7.1290     5.8200     5.7740    23.1240   -22.5680 
