~V
VERS. 2.00: Ver 2.00
~W
STRT.M 62.0000:
STOP.M 219.0000:
STEP.M 0.1250:
NULL. -999.2500:
UWI. F11127:
~C
DEPT.M :
SP.MV :
DEN.GM/CC :
GR.API :
RML.OHMM :
RI. :
RXO.OHMM :
CALI.CM :
~A
# ...
  208.2500    -7.5840     2.3580    63.3110     6.9220     5.8190     7.6220    24.1110 
  208.3750    -7.4280     2.3440    62.6580     6.6010     5.5350     6.9360    24.1120 
  208.5000    -7.1810     2.3300    61.9710     6.3480     5.2840     6.0830    24.0970 
  208.6250    -7.0980     2.3210    62.2240     6.2290     5.1280     5.7920    24.0680 
  208.7500    -7.1030     2.3240    62.2240     6.2820     5.1120     5.8990    23.9780 
  208.8750    -7.1040     2.3320    62.2240     6.4510     5.2030     6.0380    23.8170 
  209.0000    -7.0280     2.3260    62.2240     6.6830     5.3780     6.2950    23.6760 
  209.1250    -6.9030     2.3010    62.2240     6.9200     5.6030     6.7440    23.6500 
  209.2500    -6.8330     2.2770    62.2240     7.0970     5.8340     7.3710    23.9480 
  209.3750    -6.8910     2.2780    62.2240     7.1960     6.0300     7.8440    24.3000 
  209.5000    -7.1210     2.3010    62.2240     7.2250     6.1670     8.0120    24.4680 
  209.6250    -7.3000     2.3250    62.2240     7.2130     6.2450     7.7880    24.3430 
  209.7500    -7.4100     2.3260    62.2240     7.1990     6.2730     7.4430    24.2120 
  209.8750    -7.4460     2.3050    62.2240     7.2020     6.2760     7.2340    24.2250 
  210.0000    -7.4830     2.2830    62.2240     7.2090     6.2650     7.2430    24.3010 
  210.1250    -7.5380     2.2820    62.2240     7.1890     6.2420     7.4720    24.3230 
  210.2500    -7.5970     2.3100    62.2240     7.0870     6.1920     7.5500    24.2460 
  210.3750    -7.6420     2.3420    62.2240     6.8950     6.1030     7.1330    24.1780 
  210.5000    -7.6430     2.3580    62.2240     6.6210     5.9580     6.4910    24.1380 
  210.6250    -7.7210     2.3580    62.2240     6.2950     5.7510     6.0780    24.1580 
  210.7500    -7.7800     2.3510    62.2240     5.9560     5.4840     5.9060    24.1760 
  210.8750    -7.8250     2.3450    62.2240     5.6400     5.1940     5.6480    24.1290 
  211.0000    -7.8640     2.3410    62.2240     5.3600     4.9130     5.3140    24.0790 
  211.1250    -7.8830     2.3390    62.2240     5.1150     4.6730     5.0430    24.0540 
  211.2500    -7.8960     2.3420    62.2240     4.9150     4.5030     4.8330    24.0450 
  211.3750    -7.9040     2.3500    62.2240     4.7700     4.4000     4.6780    24.0750 
  211.5000    -7.8550     2.3580    62.2240     4.6980     4.3570     4.6430    24.0950 
  211.6250    -7.6570     2.3580    62.2240     4.7060     4.3620     4.6010    24.0810 
  211.7500    -7.3900     2.3470    62.2240     4.7960     4.4120     4.5210    24.0570 
  211.8750    -7.2020     2.3390    62.2240     4.9290     4.4960     4.6270    24.0380 
  212.0000    -7.1180     2.3390    62.2240     5.0760     4.6090     5.0160    24.0310 
  212.1250    -7.0620     2.3450    62.2240     5.2110     4.7400     5.6060    24.0680 
  212.2500    -6.9730     2.3490    62.2240     5.3110     4.8680     6.1930    24.1060 
  212.3750    -6.8540     2.3500    62.2240     5.3770     4.9670     6.5230    24.1330 
  212.5000    -6.7950     2.3490    62.2240     5.4120     5.0250     6.6950    24.1180 
  212.6250    -6.8600     2.3500    62.2240     5.4200     5.0390     6.7750    24.0910 
  212.7500    -7.0860     2.3530    62.2240     5.4060     5.0190     6.7160    24.0760 
  212.8750    -7.3610     2.3540    62.2240     5.3820     4.9930     6.7820    24.0740 
  213.0000    -7.5240     2.3530    62.2240     5.3580     4.9740     7.0920    24.0870 
  213.1250    -7.6050     2.3550    62.2240     5.3430     4.9650     7.4200    24.0770 
  213.2500    -7.7220     2.3670    62.2240     5.3330     4.9610     7.7830    24.0450 
  213.3750    -7.8740     2.3830    62.2240     5.3150     4.9580     8.2780    24.0140 
  213.5000    -8.0310     2.3940    62.2240     5.2830     4.9550     8.8620    24.0320 
  213.6250    -8.1570     2.3960    62.2240     5.2410     4.9550     9.3750    24.0490 
  213.7500    -8.2340     2.3930    62.2240     5.2150     4.9590     9.7740    24.0340 
  213.8750    -8.2580     2.3890    62.2240     5.2190     4.9650    10.4430    24.0490 
  214.0000    -8.2690     2.3820    62.2240     5.2570     4.9710    11.2200    24.0600 
  214.1250    -8.1790     2.3710    62.2240     5.3120     4.9750    11.9370    24.0490 
  214.2500    -7.9930     2.3710    62.2240     5.3630     4.9760    12.3830    24.0270 
  214.3750    -7.8370     2.3850    62.2240     5.3960     4.9760    12.5620    24.0320 
  214.5000    -7.6490     2.4030    62.2240     5.4130     4.9770    12.4210    24.0360 
  214.6250    -7.4490     2.4110    62.2240     5.4150     4.9770    11.9540    24.0070 
  214.7500    -7.2770     2.4040    62.2240     5.4150     4.9770    11.6770    24.0170 
  214.8750    -7.0560     2.3970    62.2240     5.4150     4.9770    11.3210    23.9730 
  215.0000    -6.8010     2.3970    62.2240     5.4150     4.9770    11.0010    23.9180 
  215.1250    -6.7780     2.3990    62.2240     5.4150     4.9770    10.4870    23.8990 
  215.2500    -6.8050     2.3940    62.2240     5.4150     4.9770     9.2520    23.9080 
  215.3750    -6.7380     2.3870    62.2240     5.4150     4.9770     8.9980    23.9130 
  215.5000    -6.6790     2.3860    62.2240     5.4150     4.9770     9.2160    23.9240 
  215.6250    -6.6740     2.3860    62.2240     5.4150     4.9770     9.6990    24.0020 
  215.7500    -6.6740     2.3760    62.2240     5.4150     4.9770    10.2860    24.0440 
  215.8750    -6.7140     2.3630    62.2240     5.4150     4.9770    10.8270    24.0620 
  216.0000    -6.8150     2.3640    62.2240     5.4150     4.9770    11.1530    24.0680 
  216.1250    -6.8600     2.3860    62.2240     5.4150     4.9770    11.1960    24.0610 
  216.2500    -6.9150     2.4180    62.2240     5.4150     4.9770    10.9880    24.0250 
  216.3750    -7.0250     2.4460    62.2240     5.4150     4.9770    10.9060    24.0010 
  216.5000    -7.1400     2.4660    62.2240     5.4150     4.9770    10.9820    23.9860 
  216.6250    -7.1810     2.4730    62.2240     5.4150     4.9770    11.0500    23.9640 
  216.7500    -7.1900     2.4460    62.2240     5.4150     4.9770    11.1060    23.9200 
  216.8750    -7.1900     2.3880    62.2240     5.4150     4.9770    11.3990    23.9350 
  217.0000    -7.1900     2.3020    62.2240     5.4150     4.9770    11.5890    24.0390 
  217.1250  -999.2500     2.1870    62.2240     5.4150     4.9770    11.6310    24.1740 
  217.2500  -999.2500     2.0260    62.2240     5.4150     4.9770    11.2580    24.2300 
  217.3750  -999.2500     1.8400    62.2240     5.4150     4.9770    11.1050    23.8320 
  217.5000  -999.2500     1.6810    62.2240     5.4150     4.9770    11.0710    22.5600 
  217.6250  -999.2500     1.5860    62.2240     5.4150     4.9770    10.7740    20.1960 
  217.7500  -999.2500     1.5550    62.2240     5.4150     4.9770    10.6050    19.0450 
  217.8750  -999.2500     1.5510    62.2240     5.4150     4.9770    10.5170    18.6610 
  218.0000  -999.2500     1.5520    62.2240     5.4150     4.9770    10.5160    18.6480 
  218.1250  -999.2500     1.5520    62.2240     5.4150     4.9770    10.5150    18.6480 
  218.2500  -999.2500     1.5520    62.2240     5.4150     4.9770    10.5150    18.6480 
  218.3750  -999.2500     1.5510    62.2240     5.4150     4.9770    10.5160    18.6510 
  218.5000  -999.2500     1.5480    62.2240     5.4150     4.9770    10.5170    18.6500 
  218.6250  -999.2500     1.5440    62.2240     5.4150     4.9770    10.5190    18.6480 
  218.7500  -999.2500     1.5400    62.2240     5.4150     4.9770    10.5210    18.6460 
  218.8750  -999.2500     1.5340    62.2240     5.4150     4.9770    10.5210    18.6450 
  219.0000  -999.2500     1.5270    62.2240     5.4150     4.9770    10.5230    18.6440 
