~V
VERS. 2.00: Ver 2.00
~W
STRT.M 51.0000:
STOP.M 277.0000:
STEP.M 0.1250:
NULL. -999.2500:
UWI. F11147:
~C
DEPT.M :
DEN.GM/CC :
GR.API :
RML.OHMM :
RI. :
RXO.OHMM :
CALI.CM :
SP.MV :
~A
# ...
  231.0000     2.3010    65.1110    35.2450    30.1390    30.1490    24.5510   -24.3010 
  231.1250     2.2890    63.6920    34.8830    30.1450    31.6190    24.5730   -23.5760 
  231.2500     2.2820    64.2600    33.8770    29.6370    31.8770    24.5910   -22.8030 
  231.3750     2.2920    65.0040    32.3980    28.6690    29.9490    24.6010   -22.0410 
  231.5000     2.3100    66.4070    30.7630    27.4580    27.4640    24.6080   -21.2800 
  231.6250     2.3290    66.4520    29.1050    26.1270    25.7380    24.6190   -20.4820 
  231.7500     2.3440    62.7330    27.4760    24.7680    24.7440    24.6380   -19.6470 
  231.8750     2.3480    60.6070    25.8910    23.4500    24.1730    24.6500   -18.8550 
  232.0000     2.3490    64.2920    24.3420    22.2110    22.7230    24.6500   -18.1790 
  232.1250     2.3520    68.7680    22.8630    21.0870    21.3580    24.6610   -17.6360 
  232.2500     2.3510    68.5480    21.5370    20.1120    19.6380    24.6940   -17.1750 
  232.3750     2.3390    66.0410    20.4620    19.3300    18.4170    24.7110   -16.7600 
  232.5000     2.3210    68.1700    19.5380    18.6420    17.5540    24.7180   -16.3760 
  232.6250     2.3030    73.6070    18.6110    17.9060    17.0450    24.7180   -16.0370 
  232.7500     2.2800    77.1580    17.5440    16.9850    16.4310    24.7180   -15.7840 
  232.8750     2.2420    77.1090    16.2660    15.7920    15.5890    24.7300   -15.5930 
  233.0000     2.2040    76.0370    14.9150    14.4660    14.1580    24.7740   -15.3960 
  233.1250     2.1820    78.2390    13.6720    13.1820    11.9940    24.8260   -15.1720 
  233.2500     2.1780    83.2140    12.6980    12.1280    10.5660    24.8460   -14.9170 
  233.3750     2.1900    85.0360    12.1290    11.4870    10.3110    24.8380   -14.6560 
  233.5000     2.2090    83.1750    11.8920    11.2140    10.5550    24.8440   -14.3860 
  233.6250     2.2320    81.7280    11.9150    11.2450    10.9380    24.8580   -14.1340 
  233.7500     2.2500    82.5520    12.0750    11.4610    11.6690    24.8680   -13.8980 
  233.8750     2.2600    82.5160    12.2020    11.6850    11.7100    24.8740   -13.6640 
  234.0000     2.2650    79.1740    12.1920    11.7730    11.6010    24.8950   -13.4370 
  234.1250     2.2720    74.2360    12.0270    11.6850    11.5020    24.9470   -13.1960 
  234.2500     2.2820    71.7740    11.7540    11.4600    11.4870    25.0330   -12.9640 
  234.3750     2.2910    75.4090    11.4850    11.1960    10.9780    25.1100   -12.7870 
  234.5000     2.2980    82.7540    11.3100    10.9960    10.2510    25.1610   -12.6860 
  234.6250     2.3040    86.6940    11.1820    10.8630     9.7100    25.1910   -12.6270 
  234.7500     2.3070    84.3480    10.9490    10.6910     9.6330    25.1970   -12.5730 
  234.8750     2.3080    81.2560    10.3790    10.2590    10.2420    25.1340   -12.5170 
  235.0000     2.3080    84.3240     9.5180     9.5210    10.9850    25.0400   -12.5030 
  235.1250     2.3090    92.9830     8.5990     8.6170    10.7410    24.9550   -12.5760 
  235.2500     2.3150    99.2080     7.9660     7.8300     8.8060    24.8870   -12.7380 
  235.3750     2.3290    98.3970     8.0190     7.5380     6.9520    24.8520   -12.9150 
  235.5000     2.3410    92.2250     8.7530     7.8430     7.0560    24.8490   -13.0610 
  235.6250     2.3370    83.7330    10.0860     8.7770     9.1640    24.8940   -13.1900 
  235.7500     2.3120    75.6840    11.7920    10.2310    14.0300    24.9630   -13.3120 
  235.8750     2.2820    71.7370    13.3960    11.8390    18.3650    24.9740   -13.4480 
  236.0000     2.2670    70.4310    14.4310    13.0410    17.5570    24.9480   -13.5740 
  236.1250     2.2630    69.4000    14.7970    13.5990    13.9750    24.9180   -13.6830 
  236.2500     2.2620    71.0870    14.7780    13.6780    11.9340    24.8840   -13.7510 
  236.3750     2.2660    75.7530    14.8010    13.6590    12.5420    24.8730   -13.8050 
  236.5000     2.2740    74.8380    15.0800    13.8180    14.2110    24.8850   -13.8550 
  236.6250     2.2740    66.1670    15.6220    14.2150    16.6540    24.9150   -13.9050 
  236.7500     2.2580    57.5060    16.3610    14.8220    19.1230    24.8840   -13.9590 
  236.8750     2.2360    58.3900    17.3180    15.6700    17.9560    24.6240   -14.0270 
  237.0000     2.2280    62.6080    18.5620    16.7950    16.3210    24.2950   -14.1300 
  237.1250     2.2330    63.4500    20.1640    18.2550    17.5320    24.2350   -14.2360 
  237.2500     2.2410    60.2490    22.0300    19.9980    21.5470    24.4690   -14.3550 
  237.3750     2.2490    56.1050    23.7740    21.7650    24.4570    24.7230   -14.4410 
  237.5000     2.2610    53.5000    24.8950    23.1350    25.6650    24.7660   -14.5020 
  237.6250     2.2760    53.6740    24.9780    23.6890    26.4450    24.7160   -14.5680 
  237.7500     2.2850    56.6710    23.8470    23.1290    25.8210    24.6810   -14.6420 
  237.8750     2.2860    60.2860    21.5440    21.3080    23.7150    24.6340   -14.7050 
  238.0000     2.2830    61.4970    18.7160    18.7980    20.3970    24.5650   -14.7220 
  238.1250     2.2820    62.4110    15.8630    16.0940    16.4790    24.4570   -14.6790 
  238.2500     2.2850    66.8930    13.4330    13.6560    12.6410    24.2960   -14.5930 
  238.3750     2.2920    73.1840    11.8330    11.9040    10.0630    24.1110   -14.5520 
  238.5000     2.2990    72.5310    10.9880    10.8280     8.9510    24.0080   -14.5630 
  238.6250     2.3040    64.3280    10.7820    10.3720     8.9570    24.0530   -14.5600 
  238.7500     2.3030    56.0770    11.0400    10.4200     9.4800    24.2150   -14.5320 
  238.8750     2.2980    54.9160    11.6190    10.8970    10.1060    24.3610   -14.5100 
  239.0000     2.3000    58.4170    12.3450    11.6200    10.5790    24.4630   -14.4960 
  239.1250     2.3110    61.2730    13.1450    12.4750    11.2000    24.5340   -14.5100 
  239.2500     2.3270    60.7140    13.9400    13.3310    12.0630    24.5640   -14.5450 
  239.3750     2.3450    59.7360    14.6170    14.0290    13.5590    24.5700   -14.5170 
  239.5000     2.3620    61.6060    15.1320    14.5270    15.4080    24.6030   -14.4410 
  239.6250     2.3740    65.1930    15.5300    14.8750    15.9070    24.6710   -14.3780 
  239.7500     2.3750    67.3170    15.9570    15.2040    14.5820    24.7210   -14.3310 
  239.8750     2.3550    67.5450    16.6000    15.6880    13.8770    24.7340   -14.2680 
  240.0000     2.3270    65.1330    17.3970    16.3130    15.0910    24.7620   -14.2120 
  240.1250     2.3050    62.5510    18.1480    16.9510    17.8230    24.8170   -14.1780 
  240.2500     2.2910    63.6320    18.6070    17.4240    20.0450    24.8460   -14.1540 
  240.3750     2.2880    65.5210    18.5520    17.5430    19.0460    24.7150   -14.2030 
  240.5000     2.2970    63.1960    18.1670    17.3860    17.3370    24.5190   -14.2520 
  240.6250     2.3150    59.9400    17.7190    17.1210    15.7070    24.4610   -14.2820 
  240.7500     2.3280    61.6490    17.4220    16.9290    14.7020    24.5300   -14.3370 
  240.8750     2.3200    66.0660    17.3140    16.8930    16.1140    24.5930   -14.3970 
  241.0000     2.2990    67.9060    17.1810    16.8720    16.6170    24.5960   -14.4380 
  241.1250     2.2780    68.8660    16.8060    16.6720    17.0410    24.6010   -14.4290 
  241.2500     2.2720    70.2830    16.0760    16.1420    16.7900    24.6420   -14.3550 
  241.3750     2.2820    70.6510    15.0570    15.2650    15.3890    24.6200   -14.2290 
  241.5000     2.3000    70.2740    14.0220    14.2740    13.4100    24.5430   -14.1230 
  241.6250     2.3240    71.5700    13.1030    13.3200    11.8100    24.4620   -14.0320 
  241.7500     2.3560    75.4950    12.3270    12.4770    11.2710    24.3720   -13.9220 
  241.8750     2.3940    77.5130    11.7170    11.8020    11.2160    24.2980   -13.7730 
  242.0000     2.4180    76.0700    11.3160    11.3170    11.6530    24.2710   -13.5960 
  242.1250     2.4150    72.2980    11.2560    11.1070    11.1570    24.3740   -13.4230 
