~V
VERS. 2.00: Ver 2.00
~W
STRT.M 51.0000:
STOP.M 249.0000:
STEP.M 0.1250:
NULL. -999.2500:
UWI. F11143:
~C
DEPT.M :
GR.API :
RML.OHMM :
RI. :
RXO.OHMM :
CALI.CM :
SP.MV :
DEN.GM/CC :
~A
# ...
  129.7500    68.0580    24.1920    22.5580    30.5920    23.7940   -13.3600     2.5390 
  129.8750    68.2180    27.2490    25.4410    31.6970    23.8750   -13.5370     2.5220 
  130.0000    72.2300    29.9720    28.1360    29.2360    23.9240   -13.6950     2.5050 
  130.1250    73.2850    32.0090    30.2710    30.5140    23.9510   -13.8320     2.5030 
  130.2500    71.6730    33.3100    31.7540    37.0900    23.9130   -13.9510     2.5110 
  130.3750    74.2800    33.7980    32.4960    46.2870    23.9220   -14.0650     2.5150 
  130.5000    82.2700    33.5050    32.4870    43.9700    23.9840   -14.1650     2.5050 
  130.6250    87.8790    32.6150    31.8160    34.6360    24.0210   -14.2270     2.4900 
  130.7500    87.6430    31.6710    30.9530    30.7900    23.9780   -14.2800     2.4790 
  130.8750    84.6840    31.0150    30.2310    30.5490    23.8560   -14.3290     2.4740 
  131.0000    82.9600    30.7290    29.8010    32.4780    23.7790   -14.3410     2.4770 
  131.1250    83.1040    30.5940    29.5700    33.6740    23.6760   -14.3180     2.4880 
  131.2500    82.9030    30.2260    29.2230    32.6230    23.6530   -14.2670     2.5030 
  131.3750    82.0280    29.4360    28.5520    31.4180    23.6860   -14.1940     2.5140 
  131.5000    80.2210    28.2480    27.5140    30.3380    23.7000   -14.1210     2.5180 
  131.6250    78.8420    26.8360    26.2100    29.2050    23.6800   -14.1110     2.5120 
  131.7500    78.0510    25.4230    24.8500    27.9130    23.6560   -14.1380     2.4950 
  131.8750    78.2670    24.0670    23.5070    26.6910    23.5120   -14.1430     2.4690 
  132.0000    78.9220    22.7680    22.1970    25.6460    23.4220   -14.1080     2.4330 
  132.1250    79.5870    21.5510    20.9570    23.8320    23.7030   -14.0250     2.3880 
  132.2500    80.4450    20.4550    19.8360    22.7920    24.1600   -13.9360     2.3420 
  132.3750    79.9130    19.5540    18.8940    21.4230    24.5140   -13.8750     2.3140 
  132.5000    77.0520    18.9250    18.1950    19.4550    24.6540   -13.8380     2.3190 
  132.6250    74.4330    18.6810    17.8430    19.4240    24.6230   -13.7710     2.3590 
  132.7500    73.8980    18.7710    17.8190    20.4550    24.5540   -13.6490     2.4130 
  132.8750    75.7000    19.1660    18.1300    20.9600    24.5870   -13.5310     2.4600 
  133.0000    77.2210    19.8110    18.7470    20.8910    24.8330   -13.4290     2.4850 
  133.1250    73.7480    20.6180    19.5960    21.1220    25.2830   -13.3310     2.4920 
  133.2500    67.0140    21.3990    20.4530    23.8540    25.5230   -13.2420     2.5000 
  133.3750    62.9080    21.9570    21.1060    27.0570    25.5300   -13.1030     2.5120 
  133.5000    65.0990    22.0130    21.2890    27.6570    25.4590   -12.9090     2.5170 
  133.6250    71.7840    21.0300    20.4770    26.2800    25.3670   -12.6940     2.5040 
  133.7500    78.4420    18.9350    18.5640    24.8180    25.2460   -12.4910     2.4840 
  133.8750    83.0000    15.9440    15.7460    23.0080    25.1470   -12.2920     2.4610 
  134.0000    82.2510    12.6320    12.5870    19.2130    25.0770   -12.0970     2.4330 
  134.1250    76.4650     9.7770     9.8170    13.9590    24.9480   -11.9200     2.3920 
  134.2500    73.9900     7.7370     7.7460     8.9150    24.7290   -11.7520     2.3410 
  134.3750    77.9620     6.5500     6.4100     6.1880    24.4940   -11.6070     2.2930 
  134.5000    82.7640     6.0610     5.7080     5.3990    24.2820   -11.5100     2.2730 
  134.6250    81.9120     6.1030     5.5450     5.6670    24.0290   -11.4570     2.3010 
  134.7500    79.2340     6.3490     5.6550     6.0010    23.8160   -11.4220     2.3570 
  134.8750    79.4200     6.5980     5.8640     6.0780    23.6760   -11.4050     2.4050 
  135.0000    83.4140     6.7060     6.0180     5.9180    23.5940   -11.4300     2.4150 
  135.1250    88.3490     6.6130     6.0090     5.9220    23.6170   -11.5230     2.3870 
  135.2500    90.6270     6.4230     5.8730     5.9830    23.6300   -11.6350     2.3530 
  135.3750    91.2730     6.2160     5.6700     6.0420    23.6290   -11.7550     2.3270 
  135.5000    91.8900     6.0430     5.4600     5.9840    23.6420   -11.8810     2.3090 
  135.6250    91.4620     5.9260     5.2990     5.7550    23.7060   -12.0020     2.2960 
  135.7500    88.6430     5.8570     5.2030     5.5030    23.8260   -12.1250     2.2870 
  135.8750    85.6970     5.8500     5.1760     5.4840    23.9050   -12.2490     2.2870 
  136.0000    85.7940     5.9200     5.2100     5.7390    23.9480   -12.3750     2.2930 
  136.1250    87.6190     6.0670     5.2860     6.0270    23.9920   -12.4860     2.2910 
  136.2500    88.3980     6.2340     5.3670     6.1970    24.0350   -12.5550     2.2780 
  136.3750    89.6130     6.3670     5.4260     6.3330    23.9980   -12.5910     2.2650 
  136.5000    91.8090     6.4230     5.4420     6.3470    23.8600   -12.5820     2.2680 
  136.6250    91.9770     6.3820     5.4030     6.3900    23.6940   -12.5450     2.2910 
  136.7500    90.4040     6.2950     5.3360     6.3590    23.5560   -12.5420     2.3200 
  136.8750    87.5020     6.2140     5.2630     6.2160    23.4920   -12.5530     2.3390 
  137.0000    83.2460     6.1910     5.2160     6.0050    23.5180   -12.5140     2.3420 
  137.1250    78.1700     6.2700     5.2260     6.1300    23.4830   -12.3950     2.3380 
  137.2500    77.4570     6.4040     5.2720     6.2650    23.2990   -12.2760     2.3360 
  137.3750    82.6230     6.5150     5.3110     6.3890    23.2080   -12.1610     2.3340 
  137.5000    89.8350     6.5220     5.2880     6.4970    23.4990   -12.0500     2.3280 
  137.6250    93.2120     6.3720     5.1570     6.6770    23.8160   -11.9470     2.3230 
  137.7500    92.1740     6.1480     4.9640     6.4460    23.9040   -11.8450     2.3220 
  137.8750    88.1980     5.9570     4.7800     5.6030    23.8590   -11.7430     2.3250 
  138.0000    85.1690     5.8920     4.6720     5.1180    23.8250   -11.6460     2.3270 
  138.1250    85.6190     5.9940     4.6940     5.3280    23.8250   -11.5820     2.3300 
  138.2500    87.0190     6.1780     4.8080     5.9600    23.8560   -11.5180     2.3350 
  138.3750    87.6150     6.3590     4.9570     6.3950    23.8740   -11.4720     2.3400 
  138.5000    86.4390     6.4590     5.0740     6.3620    23.8340   -11.4810     2.3390 
  138.6250    83.4230     6.4280     5.0950     6.0640    23.7590   -11.5140     2.3290 
  138.7500    81.2240     6.3230     5.0390     5.9070    23.7010   -11.4870     2.3150 
  138.8750    80.3080     6.2060     4.9480     5.8320    23.6920   -11.4090     2.3020 
  139.0000    80.1510     6.1250     4.8630     5.8330    23.7010   -11.3340     2.2900 
  139.1250    79.7110     6.1070     4.8180     5.7230    23.7370   -11.2910     2.2800 
  139.2500    78.4440     6.1320     4.8080     5.5860    23.8110   -11.2850     2.2730 
  139.3750    78.3550     6.1680     4.8170     5.6290    23.8970   -11.2870     2.2690 
  139.5000    79.5720     6.1760     4.8190     5.7950    23.9460   -11.2350     2.2670 
  139.6250    84.0140     6.1170     4.7790     5.7140    23.9050   -11.1250     2.2720 
  139.7500    88.0770     6.0000     4.6910     5.4420    23.8440   -11.0280     2.2860 
  139.8750    89.9580     5.8500     4.5660     5.0510    23.8610   -10.9800     2.3060 
  140.0000    89.9410     5.7130     4.4360     4.8170    24.0020   -10.9970     2.3270 
  140.1250    88.1300     5.6440     4.3410     4.7750    24.1020   -11.0270     2.3420 
  140.2500    87.6500     5.6480     4.2950     4.8270    24.1250   -11.0180     2.3520 
  140.3750    89.4240     5.7020     4.2970     4.9130    24.1350   -10.9630     2.3540 
  140.5000    90.7670     5.7710     4.3260     4.9710    24.1470   -10.9170     2.3490 
  140.6250    89.5650     5.8130     4.3560     4.9870    24.1410   -10.9350     2.3430 
  140.7500    88.4900     5.8140     4.3680     4.9710    24.1150   -11.0200     2.3430 
  140.8750    89.2180     5.7770     4.3570     4.9560    24.1150   -11.1100     2.3470 
