~V
VERS. 2.00: Ver 2.00
~W
STRT.M 53.0000:
STOP.M 202.0000:
STEP.M 0.1250:
NULL. -999.2500:
UWI. F11113:
~C
DEPT.M :
DEN.GM/CC :
SP.MV :
GR.API :
RML.OHMM :
RI. :
RXO.OHMM :
CALI.CM :
~A
   53.0000     0.0000   113.4490    44.0610     0.0030     0.2220    -0.1500    25.3040 
   53.1250     0.0000   113.5630    44.0100     0.0030     0.2200    -0.1490    25.3040 
   53.2500     0.0000   113.6340    42.9880     0.0080     0.2130    -0.1370    25.3040 
   53.3750     0.0000   113.6730    40.5560     0.0210     0.2100    -0.0990    25.3040 
   53.5000     2.0210   113.7270    38.9450     0.0390     0.2120    -0.0810    25.3040 
   53.6250     2.0110   113.8250    38.0770     0.0530     0.2150    -0.0540    25.3040 
   53.7500     2.0030   113.8720    36.9350     0.0560     0.2130    -0.0250    25.3040 
   53.8750     1.9990   113.8540    35.0940     0.0460     0.2060    -0.0460    25.3040 
   54.0000     1.9960   113.7670    33.5710     0.0300     0.1980    -0.0360    25.3040 
   54.1250     1.9940   113.6090    34.8640     0.0160     0.1880    -0.1360    25.3040 
   54.2500     1.9890   113.3710    38.5750     0.0080     0.1760    -0.1260    25.3040 
   54.3750     1.9830   113.0560    41.5630     0.0090     0.1650    -0.0970    25.3040 
   54.5000     1.9790   112.6890    41.8780     0.0220     0.1600    -0.0870    25.3040 
   54.6250     1.9810   112.2610    39.4370     0.0400     0.1690    -0.0920    25.3040 
   54.7500     1.9850   111.8270    36.2730     0.0510     0.1890    -0.0790    25.3040 
   54.8750     1.9870   111.3430    33.1480     0.0490     0.2110    -0.0430    25.3040 
   55.0000     1.9870   110.7940    31.2250     0.0360     0.2270    -0.0520    25.3040 
   55.1250     1.9860   110.2300    32.7160     0.0180     0.2340     0.0160    25.3040 
   55.2500     1.9890   109.6790    35.3000     0.0060     0.2380     0.1790    25.3040 
   55.3750     1.9980   109.1410    37.0630     0.0030     0.2390     0.7730    25.3040 
   55.5000     2.0100   108.5810    38.3480     0.0050     0.2360     2.0610    25.3030 
   55.6250     2.0220   107.9720    41.2640     0.0100     0.2270     1.2580    25.3010 
   55.7500     2.0280   107.3380    45.4910     0.0190     0.2190     0.4320    25.2980 
   55.8750     2.0280   106.7220    47.0860     0.0270     0.2170    -0.0180    25.2970 
   56.0000     2.0270   106.1430    43.8010     0.0310     0.2230    -0.0460    25.2930 
   56.1250     2.0290   105.5930    37.9920     0.0270     0.2350     0.0310    25.2950 
   56.2500     2.0330   105.0950    34.5510     0.0180     0.2450     0.0050    25.3020 
   56.3750     2.0320   104.6560    33.8530     0.0150     0.2480    -0.0330    25.3070 
   56.5000     2.0240   104.2840    34.2880     0.0210     0.2430     0.0310    25.3060 
   56.6250     2.0140   103.9740    34.9690     0.0340     0.2310     0.0210    25.3050 
   56.7500     2.0080   103.6790    34.8540     0.0430     0.2190     0.2420    25.3040 
   56.8750     2.0070   103.3970    34.6730     0.0430     0.2090     0.4090    25.3040 
   57.0000     2.0080   103.1460    35.7570     0.0340     0.2040     0.2090    25.3040 
   57.1250     2.0110   102.9650    37.8160     0.0230     0.1990     0.0720    25.3040 
   57.2500     2.0170   102.7810    40.0470     0.0140     0.1920     0.2160    25.3050 
   57.3750     2.0270   102.5470    41.3140     0.0090     0.1880     0.7380    25.3060 
   57.5000     2.0370   102.2460    40.2730     0.0060     0.1910     0.6960    25.3080 
   57.6250     2.0440   101.8830    36.1370     0.0040     0.2010     0.5070    25.3070 
   57.7500     2.0460   101.5120    32.5340     0.0030     0.2090     0.0650    25.3030 
   57.8750     2.0480   101.1450    32.8000     0.0030     0.2100    -0.1710    25.2990 
   58.0000     2.0490   100.7410    36.6940     0.0040     0.2040    -0.2980    25.2980 
   58.1250     2.0460   100.2220    40.5970     0.0050     0.1970    -0.1820    25.3020 
   58.2500     2.0400    99.6290    41.5190     0.0090     0.1970    -0.1300    25.3220 
   58.3750     2.0350    99.0220    40.2930     0.0210     0.2050    -0.1980    25.3470 
   58.5000     2.0350    98.4490    39.3910     0.0470     0.2180    -0.3010    25.3610 
   58.6250     2.0370    97.8900    38.2790     0.0780     0.2350    -0.2500    25.3570 
   58.7500     2.0360    97.2540    36.3190     0.0970     0.2500     0.0880    25.3530 
   58.8750     2.0340    96.4770    35.2850     0.0940     0.2580     0.4240    25.3530 
   59.0000     2.0330    95.5410    36.2150     0.0700     0.2600     0.2220    25.3590 
   59.1250     2.0360    94.4220    38.0210     0.0400     0.2580     0.0560    25.3750 
   59.2500     2.0360    93.0550    38.5080     0.0200     0.2540     0.2700    25.3980 
   59.3750     2.0370    91.3180    36.9000     0.0130     0.2450     2.1590    25.4200 
   59.5000     2.0530    89.1110    33.8880     0.0130     0.2260    10.5890    25.4470 
   59.6250     2.0990    86.1680    32.7210     0.0110     0.1930    13.8580    25.4950 
   59.7500     2.1730    82.4750    33.7930     0.0080     0.1540     3.5010    25.5440 
   59.8750     2.2690    77.8700    34.6060     0.0060     0.1180     1.3490    25.5840 
   60.0000     2.3780    72.1280    33.5370     0.0170     0.0890     0.3420    25.6050 
   60.1250     2.4720    64.6940    32.7960     0.0430     0.0720     0.0500    25.6060 
   60.2500     2.5000    55.6890    35.3570     0.0730     0.0750     0.1100    25.5680 
   60.3750     2.4380    45.1690    40.4790     0.1010     0.1180     0.4510    25.4450 
   60.5000     2.3210    33.4650    45.1690     0.1340     0.2380     1.5460    25.2340 
   60.6250     2.2110    21.4130    46.6250     0.2180     0.5140     3.7700    25.1070 
   60.7500     2.1430     9.8730    46.0900     0.4640     0.9880     5.4460    25.0600 
   60.8750     2.1120    -0.7140    45.8230     1.0160     1.6800     5.8710    25.0550 
   61.0000     2.0930    -9.9710    46.1620     1.7470     2.4900     5.6840    25.0640 
   61.1250     2.0660   -17.2410    46.3870     2.1500     3.1710     5.6210    25.1010 
   61.2500     2.0420   -22.5120    47.5590     2.2600     3.6310     5.6850    25.1840 
   61.3750     2.0510   -25.6730    51.4620     2.3050     3.9490     5.5950    25.2930 
   61.5000     2.1090   -27.0030    58.3670     2.4320     4.2530     5.2640    25.3040 
   61.6250     2.2080   -27.1070    68.0020     2.7480     4.6700     5.3860    25.1440 
   61.7500     2.3080   -26.8850    78.4270     3.2310     5.2760     6.0450    24.9090 
   61.8750     2.3950   -26.6270    84.8930     3.8780     6.1430     7.0140    24.6830 
   62.0000     2.4660   -26.4750    82.6870     4.7080     7.3070     8.3430    24.4910 
   62.1250     2.4970   -26.5670    73.5520     5.7810     8.7340     9.2920    24.3860 
   62.2500     2.4690   -26.9000    66.4510     6.9790    10.1290     9.7800    24.3060 
   62.3750     2.3900   -27.5270    66.1510     8.0080    11.1270     9.3990    24.2280 
   62.5000     2.2930   -28.3880    71.1190     8.4000    11.4020     8.9300    24.1410 
   62.6250     2.2220   -29.3640    75.1540     7.7890    10.7980     8.7490    24.1430 
   62.7500     2.1910   -30.3370    74.7760     6.8240     9.7550     8.7750    24.2340 
   62.8750     2.1900   -31.2230    72.4460     5.9800     8.6080     8.9850    24.3830 
   63.0000     2.1990   -31.9920    70.0900     5.3990     7.5800     9.0820    24.5170 
   63.1250     2.2010   -32.5810    69.3110     5.0950     6.8260     9.0960    24.5980 
   63.2500     2.1960   -33.0900    72.9830     4.9860     6.3380     8.8980    24.6350 
   63.3750     2.1880   -33.5480    78.3450     5.0390     6.1120     8.6400    24.6410 
   63.5000     2.1810   -33.9980    78.6430     5.2320     6.1470     8.4870    24.6470 
   63.6250     2.1750   -34.4900    73.1090     5.5790     6.4820     9.8340    24.6510 
   63.7500     2.1720   -35.0120    70.6380     6.0830     7.0450    11.3180    24.6410 
   63.8750     2.1700   -35.5720    70.6030     6.7610     7.7660    12.5760    24.6270 
   64.0000     2.1660   -36.1310    66.8140     7.4980     8.5190    12.1080    24.6650 
   64.1250     2.1530   -36.7050    60.6360     7.8860     9.0800    11.7150    24.8000 
