~V
VERS. 2.00: Ver 2.00
~W
STRT.M 45.0000:
STOP.M 268.0000:
STEP.M 0.1250:
NULL. -999.2500:
UWI. F11184:
~C
DEPT.M :
SP.MV :
GR.API :
RI. :
RML.OHMM :
RXO.OHMM :
DEN.GM/CC :
~A
# ...
   96.5000   -27.6580    53.0320     4.4500     4.8730     5.2670     2.0790 
   96.6250   -27.5620    55.8020     4.5360     4.9630     5.7820     2.0840 
   96.7500   -27.4230    56.9460     5.2740     5.7380     5.9940     2.1380 
   96.8750   -27.2240    58.3470     6.7780     7.3170    10.9150     2.2800 
   97.0000   -26.9670    59.9540     8.7720     9.4100    25.0600     2.4560 
   97.1250   -26.6630    59.3810    10.0320    10.7330    40.2200     2.5790 
   97.2500   -26.3410    57.5470     9.7070    10.3930    47.7360     2.6180 
   97.3750   -26.0270    57.6690     8.1840     8.7930    44.0400     2.5750 
   97.5000   -25.7420    60.5230     5.8950     6.3890    27.8590     2.4810 
   97.6250   -25.5000    67.6050     4.3650     4.7830    10.2270     2.3750 
   97.7500   -25.2990    77.2700     3.4990     3.8740     3.9070     2.2980 
   97.8750   -25.1340    85.4180     3.1690     3.5280     4.3740     2.2480 
   98.0000   -24.9820    87.8180     3.2850     3.6500     4.5510     2.1990 
   98.1250   -24.8120    85.0290     3.5670     3.9450     4.6890     2.1570 
   98.2500   -24.5840    81.2490     3.7960     4.1860     5.0900     2.1420 
   98.3750   -24.2540    78.8010     3.8960     4.2910     5.3100     2.1600 
   98.5000   -23.8160    79.4940     3.8560     4.2480     4.8730     2.1940 
   98.6250   -23.2850    82.1780     3.7520     4.1400     4.1560     2.2110 
   98.7500   -22.7180    82.3840     3.6100     3.9900     3.9530     2.1970 
   98.8750   -22.1730    80.1370     3.4840     3.8580     4.0030     2.1730 
   99.0000   -21.6950    80.4990     3.3800     3.7490     3.8250     2.1710 
   99.1250   -21.3160    85.8620     3.2900     3.6540     3.6080     2.1930 
   99.2500   -21.0330    92.4820     3.2090     3.5690     3.4510     2.2180 
   99.3750   -20.8500    95.3670     3.1230     3.4800     3.4060     2.2370 
   99.5000   -20.7580    94.2130     3.0430     3.3950     3.4400     2.2470 
   99.6250   -20.7640    91.4380     2.9560     3.3040     3.5260     2.2460 
   99.7500   -20.8620    89.9670     2.8370     3.1790     3.6010     2.2400 
   99.8750   -21.0620    92.0160     2.6970     3.0310     3.4690     2.2440 
  100.0000   -21.3670    93.6980     2.6610     2.9940     3.2090     2.2570 
  100.1250   -21.7970    92.3000     2.8170     3.1580     3.0930     2.2690 
  100.2500   -22.3480    90.2010     3.1670     3.5250     3.8600     2.2870 
  100.3750   -23.0130    87.4660     3.7370     4.1240     8.1690     2.3060 
  100.5000   -23.7350    81.6250     4.4130     4.8340    11.5750     2.2840 
  100.6250   -24.4330    71.6400     4.9860     5.4350     8.2390     2.1990 
  100.7500   -25.0220    63.3730     5.3080     5.7730     4.9240     2.1060 
  100.8750   -25.4200    59.9900     5.3990     5.8690     4.8770     2.0600 
  101.0000   -25.6110    59.4610     5.4570     5.9300     4.7330     2.0400 
  101.1250   -25.5890    60.4360     5.6470     6.1290     4.6910     2.0280 
  101.2500   -25.4140    62.0090     5.8240     6.3160     7.0700     2.0660 
  101.3750   -25.1300    63.8550     5.7340     6.2210    13.9340     2.1820 
  101.5000   -24.8010    66.8860     5.2920     5.7560    16.5820     2.2980 
  101.6250   -24.4730    71.4040     4.6650     5.0990     9.4090     2.3190 
  101.7500   -24.1770    76.6280     4.0550     4.4580     4.1060     2.2650 
  101.8750   -23.9230    79.1450     3.6120     3.9930     4.1130     2.2060 
  102.0000   -23.6980    78.3330     3.4010     3.7710     4.0760     2.1810 
  102.1250   -23.4860    76.0930     3.3640     3.7320     3.7040     2.1800 
  102.2500   -23.2760    75.2720     3.4590     3.8310     3.5440     2.1840 
  102.3750   -23.0690    75.9390     3.5760     3.9550     3.6950     2.1790 
  102.5000   -22.8720    76.8610     3.6370     4.0190     3.9100     2.1710 
  102.6250   -22.6870    78.2040     3.6310     4.0120     3.9350     2.1810 
  102.7500   -22.5190    79.3230     3.5590     3.9370     3.7400     2.2090 
  102.8750   -22.3840    79.3140     3.4330     3.8040     3.4610     2.2310 
  103.0000   -22.3070    79.7180     3.3120     3.6780     3.5830     2.2310 
  103.1250   -22.3200    81.9130     3.2510     3.6140     4.0450     2.2160 
  103.2500   -22.4340    81.7770     3.3250     3.6920     3.9030     2.2100 
  103.3750   -22.6530    78.2100     3.5270     3.9030     3.5520     2.2270 
  103.5000   -22.9480    74.7210     3.7540     4.1410     4.6960     2.2710 
  103.6250   -23.2960    72.8240     3.9590     4.3570     7.7540     2.3280 
  103.7500   -23.6600    71.2020     4.0420     4.4440     8.7100     2.3500 
  103.8750   -24.0110    70.7010     4.0020     4.4020     5.8650     2.3070 
  104.0000   -24.3260    74.5430     3.8950     4.2900     3.8480     2.2390 
  104.1250   -24.5730    79.8990     3.7770     4.1660     3.8380     2.1920 
  104.2500   -24.7290    80.8530     3.7210     4.1070     4.3090     2.1720 
  104.3750   -24.7640    76.4570     3.7340     4.1210     4.7720     2.1700 
  104.5000   -24.6820    72.2800     3.7830     4.1730     5.1800     2.1850 
  104.6250   -24.5030    73.4420     3.9240     4.3210     5.1980     2.1980 
  104.7500   -24.2780    77.1690     4.1650     4.5730     4.4120     2.2080 
  104.8750   -24.0570    77.4080     4.4940     4.9180     4.6180     2.2530 
  105.0000   -23.8660    74.1350     4.7920     5.2320     7.2020     2.3480 
  105.1250   -23.7100    69.9800     5.1050     5.5600     9.6510     2.4230 
  105.2500   -23.5810    68.1170     5.3860     5.8550     8.5790     2.4160 
  105.3750   -23.4760    67.9400     5.5310     6.0070     6.2510     2.3720 
  105.5000   -23.3970    67.4150     5.4650     5.9380     6.7440     2.3670 
  105.6250   -23.3480    67.0620     5.1090     5.5650     7.7860     2.3760 
  105.7500   -23.3150    68.1450     4.6070     5.0370     6.4570     2.3360 
  105.8750   -23.2820    71.8980     4.0430     4.4450     4.7420     2.2740 
  106.0000   -23.2370    77.1660     3.4900     3.8650     3.7710     2.2510 
  106.1250   -23.1850    81.1380     3.0520     3.4040     3.4490     2.2650 
  106.2500   -23.1520    82.8390     2.8360     3.1770     3.5380     2.2730 
  106.3750   -23.1700    81.7970     2.8420     3.1850     3.4700     2.2670 
  106.5000   -23.2470    81.5240     3.0010     3.3510     3.7770     2.2540 
  106.6250   -23.3780    82.6760     3.2160     3.5770     4.3150     2.2410 
  106.7500   -23.5410    82.8650     3.4140     3.7850     4.5210     2.2350 
  106.8750   -23.7190    81.1840     3.5570     3.9350     4.5400     2.2410 
  107.0000   -23.9060    79.2400     3.6630     4.0470     4.5900     2.2450 
  107.1250   -24.1060    78.6060     3.7860     4.1750     4.6770     2.2450 
  107.2500   -24.3290    78.2050     4.1270     4.5340     4.7840     2.2670 
  107.3750   -24.5910    76.9330     4.7160     5.1520     5.7310     2.3370 
  107.5000   -24.9010    74.3180     5.4490     5.9220     8.9010     2.4340 
  107.6250   -25.2710    68.6550     6.0930     6.5980    13.1150     2.4930 
  107.7500   -25.6970    62.5890     6.3730     6.8920    13.8660     2.4520 
  107.8750   -26.1630    60.8810     6.1740     6.6820    10.1740     2.3180 
  108.0000   -26.6390    62.9790     5.6610     6.1440     6.7840     2.1830 
  108.1250   -27.0840    65.7160     5.0880     5.5420     5.8080     2.1200 
  108.2500   -27.4730    65.6430     4.6970     5.1320     5.6820     2.1180 
  108.3750   -27.7830    64.2590     4.5110     4.9370     5.5530     2.1410 
  108.5000   -28.0210    63.6570     4.4840     4.9080     5.3770     2.1610 
  108.6250   -28.1920    64.1800     4.5030     4.9280     5.2460     2.1630 
  108.7500   -28.3130    64.3270     4.5330     4.9590     5.1760     2.1450 
  108.8750   -28.3900    63.1340     4.5880     5.0170     5.1160     2.1230 
  109.0000   -28.4350    62.5060     4.6810     5.1150     5.0160     2.1090 
  109.1250   -28.4500    64.1770     4.8450     5.2870     4.9510     2.1000 
  109.2500   -28.4400    67.8240     5.1460     5.6040     5.0640     2.1050 
