~V
VERS. 2.00: Ver 2.00
~W
STRT.M 55.0000:
STOP.M 210.0000:
STEP.M 0.1250:
NULL. -999.2500:
UWI. F11105:
~C
DEPT.M :
DEN.GM/CC :
GR.API :
RML.OHMM :
RI. :
RXO.OHMM :
CALI.CM :
SP.MV :
~A
# ...
  178.7500     2.3580    58.2180   145.3790   124.6200    48.6700    20.7490   -26.8370 
  178.8750     2.3950    60.7400   169.5330   147.0820    51.1300    20.7000   -26.2820 
  179.0000     2.4530    59.6450   209.3690   186.4850    72.0340    20.6330   -25.6850 
  179.1250     2.5130    53.3540   257.6990   237.0670    87.9780    20.5790   -25.0980 
  179.2500     2.5500    48.3760   278.0650   268.4250    89.4490    20.5190   -24.5080 
  179.3750     2.5550    45.9900   237.6400   247.2680    88.2660    20.3140   -23.9180 
  179.5000     2.5350    45.8640   158.7260   176.8200    89.2730    20.2970   -23.3310 
  179.6250     2.5080    47.1100    93.7850   104.4170    70.5050    20.2150   -22.6830 
  179.7500     2.4880    49.3280    53.3650    57.0470    44.4500    20.1520   -21.9680 
  179.8750     2.4780    53.0570    30.4510    31.1680    27.7840    20.1590   -21.2710 
  180.0000     2.4730    59.1810    18.0960    18.0890    17.6290    20.2160   -20.6530 
  180.1250     2.4670    66.0150    12.3260    12.1790    10.0710    20.3190   -20.1560 
  180.2500     2.4530    69.0620     9.4340     9.1300     6.8260    20.3330   -19.7360 
  180.3750     2.4340    69.1940     8.1240     7.6290     5.9480    20.3190   -19.4020 
  180.5000     2.4120    67.0840     7.6810     7.0160     6.0580    20.3440   -19.1850 
  180.6250     2.3930    60.4190     7.7530     6.9850     6.5480    20.4820   -19.1040 
  180.7500     2.3790    53.0440     8.0220     7.2070     7.0080    20.8600   -19.1180 
  180.8750     2.3730    49.8090     8.3680     7.5460     7.3740    21.2650   -19.2330 
  181.0000     2.3750    50.7820     8.7560     7.9360     7.4570    21.2920   -19.4490 
  181.1250     2.3770    50.6130     9.2210     8.3890     7.6430    21.2090   -19.6810 
  181.2500     2.3750    49.9260     9.7470     8.9070     7.9850    21.9200   -19.9570 
  181.3750     2.3640    48.7950    10.2470     9.4320     8.3360    22.7700   -20.1770 
  181.5000     2.3490    45.4690    10.5830     9.8360     8.7510    22.7130   -20.2990 
  181.6250     2.3320    43.7120    10.5600     9.9090     8.9140    22.3230   -20.2650 
  181.7500     2.3160    46.5940    10.1920     9.6270     8.7020    21.8700   -20.1420 
  181.8750     2.3040    51.3170     9.5640     9.0540     7.4930    21.4720   -19.9500 
  182.0000     2.2960    53.1930     8.8210     8.3330     6.3660    21.4100   -19.6610 
  182.1250     2.2960    53.5040     8.1230     7.6220     6.2110    21.4720   -19.2660 
  182.2500     2.3070    56.1370     7.5510     7.0070     6.4650    21.1750   -18.7800 
  182.3750     2.3320    60.8190     7.1260     6.5140     6.5580    21.1930   -18.2930 
  182.5000     2.3680    68.7380     6.8390     6.1470     6.3490    21.8180   -17.8560 
  182.6250     2.4090    80.2260     6.6780     5.9180     6.1110    21.2350   -17.5510 
  182.7500     2.4420    88.6940     6.6040     5.7910     5.9480    20.6990   -17.3350 
  182.8750     2.4570    89.8480     6.5960     5.7470     5.7960    20.3880   -17.1920 
  183.0000     2.4470    85.8850     6.6230     5.7610     5.6940    20.3260   -17.1200 
  183.1250     2.4160    83.7710     6.6550     5.7970     5.6210    20.4030   -17.1860 
  183.2500     2.3820    85.0560     6.6740     5.8220     5.5250    20.6600   -17.3190 
  183.3750     2.3580    87.0260     6.6960     5.8330     5.5940    21.2760   -17.5260 
  183.5000     2.3490    88.3930     6.7540     5.8510     5.9050    23.0060   -17.7810 
  183.6250     2.3510    89.5230     6.8900     5.9170     6.1290    23.3480   -18.0620 
  183.7500     2.3520    90.1970     7.1050     6.0490     6.1280    23.4710   -18.3160 
  183.8750     2.3490    89.4700     7.3760     6.2340     6.2310    23.4470   -18.5150 
  184.0000     2.3440    88.1120     7.6540     6.4300     6.5670    23.4590   -18.6370 
  184.1250     2.3430    86.5470     7.8460     6.5600     6.9830    23.4350   -18.6730 
  184.2500     2.3460    85.2650     7.8950     6.5820     7.1070    23.3810   -18.6840 
  184.3750     2.3500    84.8060     7.7930     6.4950     6.6500    23.2380   -18.6770 
  184.5000     2.3530    83.7740     7.6000     6.3420     6.2640    23.2040   -18.6580 
  184.6250     2.3530    82.3150     7.4830     6.2300     6.2230    23.2810   -18.6170 
  184.7500     2.3520    81.6770     7.6200     6.2690     6.4160    22.8860   -18.5920 
  184.8750     2.3510    83.7770     8.1450     6.5470     6.7220    22.3570   -18.5660 
  185.0000     2.3480    85.9440     9.1330     7.1300     7.2510    22.2450   -18.5560 
  185.1250     2.3410    83.4500    10.5840     8.0810     8.7150    22.2470   -18.5610 
  185.2500     2.3290    78.8610    12.1420     9.2130    10.8300    22.1920   -18.5940 
  185.3750     2.3150    74.3430    13.3960    10.2550    11.9380    22.0650   -18.6350 
  185.5000     2.3050    72.7460    13.9970    10.8970    11.9260    21.9370   -18.6560 
  185.6250     2.2980    73.9050    13.8170    10.9260    11.7380    21.8340   -18.6750 
  185.7500     2.2930    75.9830    13.3040    10.6140    11.1770    21.9390   -18.6960 
  185.8750     2.2880    79.4220    12.7910    10.2160     9.9780    21.9250   -18.6910 
  186.0000     2.2850    82.0010    12.4560     9.9050     9.6360    22.0850   -18.7130 
  186.1250     2.2890    81.7580    12.3660     9.7740    11.5100    21.8450   -18.7330 
  186.2500     2.3000    81.1680    12.4810     9.8030    12.9340    21.7730   -18.7380 
  186.3750     2.3140    82.1270    12.8350    10.0090    12.2850    21.7280   -18.7200 
  186.5000     2.3250    84.1980    13.4600    10.4110    10.1250    21.6540   -18.7090 
  186.6250     2.3280    82.2250    14.2920    10.9970    11.0500    21.5120   -18.6660 
  186.7500     2.3250    77.1080    15.0150    11.5830    13.9530    21.3950   -18.5820 
  186.8750     2.3120    72.3010    15.2720    11.9260    16.2150    21.2320   -18.4740 
  187.0000     2.2870    71.9600    14.8080    11.8010    15.2790    21.1180   -18.2530 
  187.1250     2.2520    77.1820    13.6520    11.1050    11.9640    21.3440   -17.9500 
  187.2500     2.2230    82.9790    12.4050    10.1980     9.5940    21.4800   -17.5800 
  187.3750     2.2120    86.4650    11.4820     9.3980     9.0630    21.8600   -17.2050 
  187.5000     2.2210    86.0330    11.0220     8.8930     8.9390    22.8890   -16.8450 
  187.6250     2.2440    84.1070    10.9500     8.7360     9.0110    23.3880   -16.5480 
  187.7500     2.2670    85.3600    10.9780     8.7440     9.2560    23.5510   -16.3090 
  187.8750     2.2860    90.0340    10.9490     8.7760     9.8330    23.4270   -16.2070 
  188.0000     2.3060    92.4410    10.8010     8.7320     9.6990    22.9030   -16.2370 
  188.1250     2.3340    86.3470    10.5640     8.5890     8.7320    21.8880   -16.3380 
  188.2500     2.3660    78.6150    10.3510     8.4240     7.7590    21.4250   -16.4790 
  188.3750     2.3920    74.1300    10.2330     8.3020     7.5520    21.5620   -16.6430 
  188.5000     2.4030    73.1450    10.2340     8.2670     7.6740    21.8290   -16.8070 
  188.6250     2.3940    70.8840    10.3480     8.3400     7.8500    22.4260   -16.9150 
  188.7500     2.3730    69.5860    10.5080     8.4730     7.6410    22.9160   -17.0000 
  188.8750     2.3480    73.3690    10.6580     8.6120     7.2560    22.8840   -16.9930 
  189.0000     2.3320    80.0530    10.7410     8.6920     7.2460    22.5310   -16.9730 
  189.1250     2.3340    82.1320    10.6650     8.6320     8.0200    22.1240   -16.9780 
  189.2500     2.3480    80.5120    10.4080     8.4250     8.6380    21.7660   -17.0320 
  189.3750     2.3590    80.6060     9.9940     8.1020     8.5050    21.4170   -17.0590 
  189.5000     2.3530    82.1930     9.5180     7.7350     6.9010    21.3640   -17.0910 
  189.6250     2.3270    80.0920     9.1280     7.4250     5.5230    21.7660   -17.1540 
  189.7500     2.3010    74.4070     8.8890     7.2190     5.1120    22.6930   -17.2300 
  189.8750     2.2850    68.8860     8.8010     7.1180     5.3490    23.2420   -17.2820 
