~V
VERS. 2.00: Ver 2.00
~W
STRT.M 62.0000:
STOP.M 219.0000:
STEP.M 0.1250:
NULL. -999.2500:
UWI. F11127:
~C
DEPT.M :
SP.MV :
DEN.GM/CC :
GR.API :
RML.OHMM :
RI. :
RXO.OHMM :
CALI.CM :
~A
# ...
  140.7500    -9.8190     2.2570    77.1600     6.7250     6.0300     6.9600    24.2790 
  140.8750    -9.5890     2.2470    80.4360     6.2430     5.6860     6.6740    24.5430 
  141.0000    -9.4880     2.2520    84.1160     5.8450     5.3490     6.2170    24.6950 
  141.1250    -9.4940     2.2710    85.6720     5.5780     5.0560     5.7610    24.6070 
  141.2500    -9.5460     2.2890    85.0940     5.4020     4.8380     5.5330    24.4140 
  141.3750    -9.6250     2.2850    84.1020     5.2960     4.6870     5.4620    24.4630 
  141.5000    -9.7020     2.2650    83.2630     5.2480     4.6010     5.3750    24.8030 
  141.6250    -9.7410     2.2410    82.4360     5.2460     4.5730     5.3080    25.1740 
  141.7500    -9.7580     2.2240    81.4500     5.2890     4.5970     5.3960    25.2620 
  141.8750    -9.7170     2.2130    81.3290     5.3710     4.6560     5.5600    25.1590 
  142.0000    -9.6070     2.2100    82.5180     5.4940     4.7470     5.7760    25.0130 
  142.1250    -9.4760     2.2210    83.5480     5.6500     4.8670     5.8830    24.9320 
  142.2500    -9.2940     2.2430    83.6370     5.8140     5.0090     5.9360    24.9380 
  142.3750    -9.0330     2.2610    82.7610     5.9450     5.1420     6.0660    24.9800 
  142.5000    -8.7370     2.2670    81.8420     6.0040     5.2280     6.2610    25.0270 
  142.6250    -8.4410     2.2610    82.3130     5.9610     5.2320     6.3880    25.0540 
  142.7500    -8.1410     2.2520    85.4520     5.8060     5.1260     6.3860    25.0360 
  142.8750    -7.8980     2.2480    89.2430     5.6120     4.9610     6.1690    24.8920 
  143.0000    -7.8120     2.2560    92.2670     5.4570     4.8020     5.7250    24.6200 
  143.1250    -7.8770     2.2690    95.6500     5.4140     4.7190     5.2640    24.2490 
  143.2500    -7.9910     2.2750    98.6410     5.5270     4.7650     5.2240    24.0100 
  143.3750    -8.0690     2.2680    99.3560     5.7230     4.8980     5.5690    23.9880 
  143.5000    -8.0700     2.2550    96.8720     5.9130     5.0540     5.9960    24.0030 
  143.6250    -8.1120     2.2470    92.7000     6.0080     5.1550     6.2120    23.9240 
  143.7500    -8.2400     2.2510    88.5680     5.9450     5.1290     6.0260    23.8230 
  143.8750    -8.3860     2.2590    85.8910     5.7860     5.0040     5.6430    23.7810 
  144.0000    -8.3850     2.2650    85.7370     5.6170     4.8390     5.3260    23.7790 
  144.1250    -8.2490     2.2680    88.1820     5.5150     4.7020     5.1980    23.8400 
  144.2500    -8.1770     2.2680    92.6700     5.5320     4.6470     5.3860    24.0060 
  144.3750    -8.2280     2.2660    97.7920     5.6330     4.6640     5.7150    24.2200 
  144.5000    -8.3270     2.2600   101.5800     5.7790     4.7310     6.0060    24.3710 
  144.6250    -8.4320     2.2550   103.0940     5.9460     4.8270     6.1540    24.4220 
  144.7500    -8.5740     2.2530   101.7300     6.1510     4.9610     6.2740    24.4040 
  144.8750    -8.7590     2.2530    99.1740     6.4480     5.1630     6.4980    24.3750 
  145.0000    -8.9630     2.2540    96.6570     6.9080     5.4830     6.8940    24.3520 
  145.1250    -9.1430     2.2540    94.9930     7.5830     5.9760     7.6270    24.3410 
  145.2500    -9.2730     2.2590    92.5780     8.4970     6.6970     8.6440    24.3550 
  145.3750    -9.3810     2.2680    88.6490     9.5060     7.5650     9.8950    24.3570 
  145.5000    -9.4760     2.2800    84.2540    10.4220     8.4470    11.2400    24.3110 
  145.6250    -9.5400     2.2970    81.4980    11.0210     9.1530    12.2350    24.2200 
  145.7500    -9.5490     2.3220    81.1050    11.0370     9.4050    12.5790    24.1600 
  145.8750    -9.4910     2.3440    81.2660    10.5530     9.1840    12.1810    24.1680 
  146.0000    -9.3870     2.3440    81.3470     9.7440     8.5860    10.9850    24.1190 
  146.1250    -9.2770     2.3160    81.7950     8.8620     7.8140     9.3360    24.0710 
  146.2500    -9.2220     2.2800    83.3750     8.1700     7.1030     8.0380    24.0460 
  146.3750    -9.2470     2.2580    86.1670     7.7650     6.5820     7.4680    24.0410 
  146.5000    -9.3050     2.2530    89.3900     7.6910     6.3150     7.4060    24.0290 
  146.6250    -9.3440     2.2630    91.3110     7.9800     6.3420     7.5680    23.9980 
  146.7500    -9.3890     2.2830    90.8570     8.7230     6.7590     8.2270    23.9340 
  146.8750    -9.4970     2.3060    87.8220     9.8330     7.5240     9.6910    23.8930 
  147.0000    -9.7000     2.3300    83.4440    11.1890     8.5880    12.0240    23.8370 
  147.1250    -9.9330     2.3430    78.4540    12.5670     9.8190    14.7890    23.7490 
  147.2500   -10.0620     2.3240    73.9930    13.5790    10.9410    16.4030    23.7920 
  147.3750   -10.0890     2.2820    71.1990    14.0090    11.6890    16.4850    24.0210 
  147.5000   -10.1850     2.2410    70.0150    13.8240    11.9280    15.6250    24.3090 
  147.6250   -10.3150     2.2190    70.3740    13.2020    11.7070    14.5610    24.4630 
  147.7500   -10.3850     2.2200    72.6480    12.4340    11.2100    13.0370    24.4570 
  147.8750   -10.4060     2.2330    75.5250    11.7220    10.6660    12.1790    24.4080 
  148.0000   -10.3930     2.2480    76.8360    11.0400    10.0970    11.8860    24.3730 
  148.1250   -10.2970     2.2620    75.7340    10.2710     9.4370    11.8070    24.3620 
  148.2500   -10.1550     2.2750    76.0510     9.3050     8.5970    11.2110    24.3620 
  148.3750    -9.9980     2.2860    80.1980     8.2250     7.6380     9.7240    24.3620 
  148.5000    -9.7400     2.2890    85.9070     7.1750     6.6770     7.7230    24.3580 
  148.6250    -9.4300     2.2830    89.9340     6.3120     5.8470     6.1590    24.3350 
  148.7500    -9.1380     2.2770    89.9360     5.7800     5.2840     5.5840    24.2270 
  148.8750    -8.8560     2.2760    88.3570     5.5310     4.9710     5.3780    24.0790 
  149.0000    -8.6090     2.2790    87.6290     5.5080     4.8750     5.3330    24.0310 
  149.1250    -8.4260     2.2800    88.4130     5.6350     4.9390     5.3540    24.1380 
  149.2500    -8.2660     2.2800    89.6370     5.8370     5.1030     5.5070    24.1910 
  149.3750    -8.1240     2.2810    89.9410     6.0320     5.2880     5.7290    24.1500 
  149.5000    -8.0760     2.2820    88.6930     6.1850     5.4560     5.9620    24.0900 
  149.6250    -8.0900     2.2820    85.6730     6.2880     5.5920     6.0890    24.0620 
  149.7500    -8.0950     2.2780    83.6840     6.3660     5.6970     6.1170    24.0850 
  149.8750    -8.0570     2.2690    84.1840     6.4650     5.7990     6.2210    24.1280 
  150.0000    -8.0000     2.2600    85.7860     6.6160     5.9210     6.4730    24.1550 
  150.1250    -8.0540     2.2580    87.0840     6.8270     6.0770     6.7680    24.1660 
  150.2500    -8.2630     2.2610    86.7410     7.0830     6.2680     7.1570    24.1750 
  150.3750    -8.4960     2.2630    84.6490     7.3360     6.4670     7.5150    24.2080 
  150.5000    -8.6470     2.2650    82.7670     7.5490     6.6420     7.7560    24.2800 
  150.6250    -8.8200     2.2690    83.6370     7.7020     6.7670     7.8320    24.3160 
  150.7500    -9.0790     2.2740    86.6980     7.7890     6.8230     7.7100    24.2930 
  150.8750    -9.3870     2.2760    88.6300     7.8480     6.8400     7.6180    24.2480 
  151.0000    -9.6080     2.2730    89.5410     7.9180     6.8480     7.5350    24.2020 
  151.1250    -9.7140     2.2670    89.9050     8.0330     6.8850     7.5330    24.1320 
  151.2500    -9.7690     2.2620    89.3230     8.2320     6.9910     7.8650    24.0800 
  151.3750    -9.7720     2.2610    88.7260     8.5050     7.1740     8.3650    24.1190 
  151.5000    -9.7000     2.2630    87.0960     8.8410     7.4330     9.0340    24.2410 
  151.6250    -9.5670     2.2630    83.0340     9.2700     7.7630     9.8020    24.3690 
  151.7500    -9.4070     2.2620    78.7150     9.7870     8.1730    10.5830    24.3650 
  151.8750    -9.2590     2.2640    77.9770    10.4220     8.6620    11.0350    24.3550 
