~V
VERS. 2.00: Ver 2.00
~W
STRT.M 50.0000:
STOP.M 264.0000:
STEP.M 0.1250:
NULL. -999.2500:
UWI. F11182:
~C
DEPT.M :
SP.MV :
GR.API :
RI. :
RML.OHMM :
RXO.OHMM :
DEN.GM/CC :
~A
# ...
  127.2500   -11.2640    58.6630     6.6510     7.0690     6.5110     2.2370 
  127.3750   -10.9960    62.3700     6.3870     6.7650     6.1370     2.1920 
  127.5000   -10.8410    61.5550     6.1690     6.5230     6.2150     2.1680 
  127.6250   -10.6430    56.8350     5.9220     6.2680     6.9910     2.1500 
  127.7500   -10.5380    55.1590     5.7840     6.1220     7.3320     2.1520 
  127.8750   -10.4300    56.8980     5.6380     5.9760     6.7780     2.1640 
  128.0000   -10.3920    58.4250     5.5920     5.9390     6.1030     2.1720 
  128.1250   -10.3690    61.1360     5.5860     5.9510     5.8370     2.1690 
  128.2500   -10.3580    61.9650     5.6120     5.9910     6.3360     2.1580 
  128.3750   -10.3190    61.7890     5.6470     6.0240     6.8410     2.1410 
  128.5000   -10.2640    62.6500     5.6530     6.0210     6.9260     2.1290 
  128.6250   -10.1400    64.9930     5.6120     5.9550     7.4770     2.1130 
  128.7500   -10.0390    64.6740     5.5590     5.8830     7.6590     2.1080 
  128.8750    -9.8870    59.7530     5.4640     5.7760     7.3460     2.1110 
  129.0000    -9.7960    57.0390     5.4040     5.7100     6.9480     2.1130 
  129.1250    -9.6780    56.8500     5.3300     5.6400     6.3130     2.1090 
  129.2500    -9.6060    59.0290     5.2880     5.6010     6.3660     2.1090 
  129.3750    -9.5080    62.0250     5.2350     5.5600     6.6970     2.1110 
  129.5000    -9.4530    61.8880     5.2030     5.5340     6.6830     2.1110 
  129.6250    -9.3990    59.6340     5.1690     5.4930     6.6330     2.1070 
  129.7500    -9.3830    58.2340     5.1540     5.4720     6.3690     2.1070 
  129.8750    -9.3750    57.7690     5.1380     5.4490     6.1310     2.1100 
  130.0000    -9.3620    57.8080     5.1400     5.4480     6.6290     2.1060 
  130.1250    -9.3080    59.0320     5.1420     5.4470     7.2880     2.0900 
  130.2500    -9.2470    60.2090     5.1390     5.4320     7.3610     2.0800 
  130.3750    -9.1380    60.2630     5.1290     5.3910     7.3870     2.0780 
  130.5000    -9.0770    60.4280     5.1340     5.3750     7.1810     2.0880 
  130.6250    -9.0440    59.6550     5.2150     5.4360     7.0640     2.1200 
  130.7500    -9.0770    59.1720     5.2950     5.5160     7.0870     2.1390 
  130.8750    -9.2160    59.6020     5.3920     5.6240    10.7410     2.1390 
  131.0000    -9.4440    62.2600     5.3350     5.5490    23.6360     2.1320 
  131.1250    -9.7380    62.1590     5.0060     5.1750    20.0300     2.1430 
  131.2500    -9.9580    60.7290     4.7130     4.8550    11.3720     2.1560 
  131.3750   -10.3060    61.1390     4.2980     4.4360     6.0780     2.1500 
  131.5000   -10.5320    62.5220     4.1190     4.2890     5.5470     2.1300 
  131.6250   -10.8390    63.8970     4.0190     4.2560     5.4870     2.1060 
  131.7500   -11.0200    63.1110     3.9660     4.2250     5.5120     2.1020 
  131.8750   -11.2850    62.4090     3.7890     4.0230     5.2230     2.1200 
  132.0000   -11.4780    62.9310     3.6370     3.8280     4.9900     2.1500 
  132.1250   -11.8150    68.4230     3.4820     3.6200     4.4640     2.2270 
  132.2500   -12.0630    73.0520     3.5860     3.7310     4.0680     2.3040 
  132.3750   -12.4290    74.6220     4.1690     4.4120     5.8060     2.4550 
  132.5000   -12.6410    71.0150     4.8280     5.1890    12.6890     2.5340 
  132.6250   -12.8770    63.1500     5.8800     6.3950    25.8270     2.5050 
  132.7500   -12.9680    60.0550     6.2300     6.7410    24.4720     2.3920 
  132.8750   -13.0040    60.7320     6.0130     6.4050    11.1610     2.2330 
  133.0000   -12.9600    63.5710     5.5400     5.8240     6.0310     2.1940 
  133.1250   -12.8050    67.2470     4.7320     4.9090     4.8150     2.1880 
  133.2500   -12.6530    68.5120     4.4960     4.6980     4.8780     2.1730 
  133.3750   -12.3770    68.7270     4.3820     4.6460     5.0540     2.1370 
  133.5000   -12.1770    66.5640     4.3840     4.6920     5.0920     2.1250 
  133.6250   -11.8770    61.8500     4.4030     4.7370     5.1410     2.1290 
  133.7500   -11.6820    60.6450     4.3780     4.7120     5.1850     2.1370 
  133.8750   -11.4010    61.9530     4.3030     4.6100     5.0400     2.1510 
  134.0000   -11.2170    62.3720     4.2380     4.5260     4.8620     2.1540 
  134.1250   -10.9420    61.6520     4.1610     4.4230     4.4590     2.1370 
  134.2500   -10.7530    62.4660     4.1490     4.4020     4.2940     2.1160 
  134.3750   -10.4590    65.1750     4.2160     4.4720     4.4490     2.0960 
  134.5000   -10.2580    67.1650     4.3020     4.5650     4.5930     2.0950 
  134.6250    -9.9690    66.0730     4.4490     4.7220     4.8720     2.0950 
  134.7500    -9.8020    62.9340     4.5350     4.8030     5.0510     2.0950 
  134.8750    -9.6170    58.7500     4.6100     4.8510     5.1890     2.0940 
  135.0000    -9.5460    57.7750     4.6390     4.8500     5.3080     2.0970 
  135.1250    -9.5140    57.0910     4.6670     4.8330     5.4590     2.1110 
  135.2500    -9.5350    56.7640     4.6720     4.8190     5.5140     2.1200 
  135.3750    -9.6230    56.5840     4.6780     4.8110     5.4310     2.1220 
  135.5000    -9.7210    56.9990     4.6800     4.8180     5.2020     2.1160 
  135.6250    -9.9420    57.4290     4.6860     4.8430     5.0730     2.1140 
  135.7500   -10.1440    57.6950     4.6660     4.8400     5.2490     2.1150 
  135.8750   -10.5300    58.8150     4.5850     4.7920     5.4990     2.1170 
  136.0000   -10.8380    60.9090     4.4600     4.6820     5.5840     2.1200 
  136.1250   -11.3620    64.3220     4.1660     4.3820     6.2280     2.1330 
  136.2500   -11.7400    65.5410     3.8960     4.1000     6.6370     2.1500 
  136.3750   -12.3180    66.2020     3.4380     3.5950     5.6260     2.1850 
  136.5000   -12.6880    67.0230     3.1510     3.2780     4.6170     2.2150 
  136.6250   -13.1780    68.4820     2.8540     2.9570     4.1320     2.2520 
  136.7500   -13.4330    68.9420     2.8390     2.9480     3.9670     2.2470 
  136.8750   -13.6690    69.0360     3.1200     3.2830     3.7630     2.1780 
  137.0000   -13.7130    68.6590     3.5870     3.8280     4.3870     2.1130 
  137.1250   -13.6060    67.9940     4.6230     5.0160     6.3170     2.0460 
  137.2500   -13.4420    67.8830     5.3570     5.8190     7.3270     2.0350 
  137.3750   -13.1180    66.3340     6.0270     6.4790     7.7940     2.0560 
  137.5000   -12.8900    64.3610     6.0160     6.3870     7.4990     2.0850 
  137.6250   -12.5780    63.1490     5.4390     5.6480     6.4870     2.1140 
  137.7500   -12.4030    62.9960     4.9150     5.0400     5.8230     2.1190 
  137.8750   -12.1870    64.3880     4.3250     4.4100     5.0020     2.1080 
  138.0000   -12.0670    65.3350     4.1250     4.2240     4.6490     2.0980 
  138.1250   -11.9150    65.0060     4.0650     4.2300     4.8360     2.0860 
  138.2500   -11.8350    62.7690     4.1340     4.3550     5.0760     2.0870 
  138.3750   -11.7560    58.7200     4.3140     4.6130     5.2370     2.1110 
  138.5000   -11.7400    58.2530     4.4020     4.7300     5.5160     2.1380 
  138.6250   -11.7710    59.1630     4.4320     4.7850     5.7190     2.1720 
  138.7500   -11.8210    58.9480     4.3790     4.7360     5.4280     2.1770 
  138.8750   -11.9220    57.8380     4.2340     4.5790     4.9500     2.1590 
  139.0000   -11.9970    57.7770     4.1300     4.4630     4.8400     2.1410 
  139.1250   -12.1270    57.9330     4.0130     4.3220     4.8790     2.1270 
  139.2500   -12.2390    57.3560     3.9890     4.2740     4.9090     2.1300 
  139.3750   -12.4770    57.1430     4.1440     4.4170     5.0570     2.1660 
  139.5000   -12.6900    58.5540     4.4290     4.7210     5.2620     2.2350 
  139.6250   -13.0840    61.5490     5.2830     5.6870     6.0700     2.4090 
  139.7500   -13.3780    62.5220     6.2290     6.7970     8.7870     2.5220 
  139.8750   -13.8150    63.3420     7.8480     8.6440    15.7900     2.5910 
  140.0000   -14.0730    63.9230     8.3990     9.1500    18.1700     2.5680 
