~V
VERS. 2.00: Ver 2.00
~W
STRT.M 55.0000:
STOP.M 207.0000:
STEP.M 0.1250:
NULL. -999.2500:
UWI. F11112:
~C
DEPT.M :
SP.MV :
RML.OHMM :
RI. :
RXO.OHMM :
CALI.CM :
DEN.GM/CC :
GR.API :
~A
   55.0000   135.2270  -999.2500  -999.2500  -999.2500  -999.2500  -999.2500  -999.2500 
   55.1250   135.1590  -999.2500  -999.2500  -999.2500  -999.2500  -999.2500  -999.2500 
   55.2500   134.9030  -999.2500  -999.2500  -999.2500  -999.2500  -999.2500  -999.2500 
   55.3750   134.4730  -999.2500  -999.2500  -999.2500  -999.2500  -999.2500  -999.2500 
   55.5000   133.8780  -999.2500  -999.2500  -999.2500  -999.2500  -999.2500  -999.2500 
   55.6250   133.1580  -999.2500  -999.2500  -999.2500  -999.2500  -999.2500  -999.2500 
   55.7500   132.3410  -999.2500  -999.2500  -999.2500  -999.2500  -999.2500  -999.2500 
   55.8750   131.4560  -999.2500  -999.2500  -999.2500  -999.2500  -999.2500  -999.2500 
   56.0000   130.4930  -999.2500  -999.2500  -999.2500  -999.2500  -999.2500  -999.2500 
   56.1250   129.5030  -999.2500  -999.2500  -999.2500  -999.2500  -999.2500  -999.2500 
   56.2500   128.5880 950599.7500     0.2630 12679.4500    25.3050  -999.2500    44.4360 
   56.3750   127.8290 950599.7500     0.2630 12679.4500    25.3050  -999.2500    44.4360 
   56.5000   127.2610 950599.7500     0.2630 12679.4500    25.3050  -999.2500    43.2370 
   56.6250   126.7890 950599.7500     0.2640 12679.4500    25.3020  -999.2500    41.8460 
   56.7500   126.3400 950599.7500     0.2660 12679.4500    25.3000     1.9320    41.9110 
   56.8750   125.8800 950599.7500     0.2690 12679.4500    25.2980     1.9320    43.5800 
   57.0000   125.4190 950599.7500     0.2730 12679.4500    25.2950     1.9320    46.1980 
   57.1250   125.0560 950599.7500     0.2780 12679.4500    25.2920     1.9290    49.3050 
   57.2500   124.8840 950599.7500     0.2850 12679.4500    25.2940     1.9300    51.6330 
   57.3750   124.8160 950599.7500     0.2930 12679.4500    25.3010     1.9380    51.4830 
   57.5000   124.7520 950599.7500     0.3010 12679.4500    25.3040     1.9510    49.3970 
   57.6250   124.7280 950599.7500     0.3080 12679.4500    25.3040     1.9620    47.4200 
   57.7500   124.7590 950599.7500     0.3140 12679.4500    25.3060     1.9720    46.4050 
   57.8750   124.8290 950599.7500     0.3180 12679.4500    25.3060     1.9890    45.3040 
   58.0000   124.9320 950599.7500     0.3210 12679.4500    25.3060     2.0150    44.6760 
   58.1250   125.0220 950599.7500     0.3240 12679.4500    25.3060     2.0490    45.3670 
   58.2500   124.9810 950599.7500     0.3250 12679.4500    25.3040     2.0840    46.2000 
   58.3750   124.8580 950599.7500     0.3260 12679.4500    25.2910     2.1040    45.6760 
   58.5000   124.7530 950599.7500     0.3270 12679.4500    25.2720     2.0960    44.7870 
   58.6250   124.6820 950599.7500     0.3300 12679.4500    25.2580     2.0580    44.3040 
   58.7500   124.5730 950599.7500     0.3350 12679.4500    25.2510     2.0160    42.9820 
   58.8750   124.4260 950599.7500     0.3400 12679.4500    25.2480     2.0000    41.2510 
   59.0000   124.2780 950599.7500     0.3420 12679.4500    25.2450     2.0250    40.0920 
   59.1250   124.0720 950599.7500     0.3400 12679.4500    25.2420     2.0960    39.8060 
   59.2500   123.7980 926967.5630     0.3320 12679.4500    25.2320     2.2020    39.7970 
   59.3750   123.4630 808549.1250     0.3180 12679.4500    25.2170     2.2980    40.3380 
   59.5000   123.0400 618837.5630     0.2990 12679.4500    25.2010     2.3310    42.3740 
   59.6250   122.4740 381338.3130     0.2740 11612.3960    25.1970     2.2780    46.0400 
   59.7500   121.6930  1640.2860     0.2460  9824.1410    25.1970     2.1920    48.7940 
   59.8750   120.5650    42.3430     0.2190  6836.6940    25.1980     2.1450    48.9340 
   60.0000   118.7220     5.1180     0.1960  2098.0110    25.1970     2.1510    46.8850 
   60.1250   115.6580     1.1160     0.1830   253.8630    25.1960     2.2050    44.5380 
   60.2500   110.2980     0.4440     0.1850     0.4600    25.2080     2.2990    43.3260 
   60.3750   102.2740     0.2880     0.2060     1.1730    25.2850     2.4100    43.8860 
   60.5000    91.5710     0.3790     0.2650     2.4600    25.5450     2.4970    46.7950 
   60.6250    79.0570     0.6760     0.4000     4.4000    26.1810     2.4950    50.6440 
   60.7500    65.6020     1.2710     0.7000     6.3460    27.6720     2.3600    53.7680 
   60.8750    51.8230     2.1660     1.2060     6.8300    30.0780     2.1770    57.8040 
   61.0000    38.0360     3.3100     1.9440     6.6820    32.6120     2.0140    63.1750 
   61.1250    24.7240     4.5810     2.8860     6.7000    33.8860     1.9000    67.6320 
   61.2500    12.8460     5.7150     3.9330     7.3190    32.7980     1.8560    67.9030 
   61.3750     2.9900     6.4820     4.8970     8.6460    30.2650     1.8750    66.2770 
   61.5000    -4.6490     6.9560     5.6520     9.7860    27.7480     1.9470    65.8280 
   61.6250   -10.6990     7.3090     6.1340     9.4580    26.4850     2.0380    67.5540 
   61.7500   -15.7530     7.5880     6.3220     8.8610    26.3650     2.0870    69.2360 
   61.8750   -20.1900     7.8110     6.3430     8.5780    26.4350     2.0900    68.7300 
   62.0000   -23.9440     8.0250     6.3030     8.5340    26.4390     2.0830    68.0660 
   62.1250   -26.9330     8.2790     6.2860     8.4890    26.3540     2.0840    70.8260 
   62.2500   -29.0460     8.5880     6.3270     8.5660    26.2720     2.0910    76.0920 
   62.3750   -30.5120     8.8810     6.3860     8.7080    26.2620     2.0980    78.1280 
   62.5000   -31.4520     9.0800     6.4190     8.8100    26.3800     2.1060    75.8360 
   62.6250   -32.0470     9.1460     6.4020     8.7790    26.6050     2.1130    72.6780 
   62.7500   -32.4140     9.0830     6.3280     8.6300    26.8760     2.1180    71.9940 
   62.8750   -32.6230     8.9800     6.2320     8.5010    27.1140     2.1200    72.8830 
   63.0000   -32.7220     8.9030     6.1480     8.3530    27.3060     2.1180    73.7110 
   63.1250   -32.8020     8.8920     6.1020     8.2620    27.5160     2.1160    74.5090 
   63.2500   -32.8920     8.9450     6.1060     8.3320    27.8370     2.1150    75.2100 
   63.3750   -32.9360     8.9800     6.1260     8.4800    28.2700     2.1150    74.3860 
   63.5000   -32.9480     8.9080     6.1170     8.6170    28.7220     2.1170    72.0540 
   63.6250   -32.9110     8.6580     6.0310     8.6040    29.1230     2.1210    69.8860 
   63.7500   -32.7670     8.2120     5.8310     8.2160    29.4530     2.1250    70.7030 
   63.8750   -32.5320     7.7180     5.5660     7.6430    29.7860     2.1280    74.1790 
   64.0000   -32.3610     7.3220     5.3090     7.0070    30.1250     2.1230    78.6660 
   64.1250   -32.3910     7.1340     5.1380     6.4640    30.4240     2.1070    83.2920 
   64.2500   -32.5820     7.2290     5.1300     6.4570    30.6170     2.0720    86.2150 
   64.3750   -32.8850     7.5080     5.2590     7.1360    30.7500     2.0280    85.5310 
   64.5000   -33.3160     7.8660     5.4770     7.7870    30.8770     1.9850    80.1870 
   64.6250   -33.8240     8.1840     5.7110     8.0320    30.9950     1.9570    72.2370 
   64.7500   -34.3310     8.3440     5.8810     7.9530    31.0410     1.9450    67.8590 
   64.8750   -34.8670     8.3640     5.9630     7.8490    30.9860     1.9400    68.0220 
   65.0000   -35.3450     8.3300     5.9750     7.7490    30.8270     1.9370    70.7700 
   65.1250   -35.5810     8.3570     5.9630     7.6690    30.5840     1.9400    72.9440 
   65.2500   -35.5730     8.5310     5.9820     7.7080    30.3830     1.9500    72.8490 
   65.3750   -35.5100     8.7750     6.0400     7.8310    30.3390     1.9580    71.5210 
   65.5000   -35.4380     9.0020     6.1210     8.0050    30.4530     1.9560    69.4660 
   65.6250   -35.3600     9.1190     6.1900     8.1560    30.6210     1.9430    67.3130 
   65.7500   -35.3520     8.9450     6.2050     8.2410    30.5090     1.9320    66.0090 
   65.8750   -35.3870     8.7370     6.1600     8.2290    29.9920     1.9350    66.0050 
   66.0000   -35.4450     8.5200     6.0670     8.1150    29.3260     1.9580    67.4350 
   66.1250   -35.5600     8.3610     5.9600     8.0220    28.8740     1.9940    69.4170 
