~V
VERS. 2.00: Ver 2.00
~W
STRT.M 56.0000:
STOP.M 269.0000:
STEP.M 0.1250:
NULL. -999.2500:
UWI. F11148:
~C
DEPT.M :
GR.API :
RML.OHMM :
RI. :
RXO.OHMM :
SP.MV :
DEN.GM/CC :
CALI.CM :
~A
# ...
  123.5000    46.1920    24.6540    23.4230    20.5400    -8.1920     2.5570    24.2260 
  123.6250    45.6740    24.0570    22.9490    21.1970    -8.2710     2.5590    24.0980 
  123.7500    46.4860    23.4910    22.4630    20.7960    -8.3460     2.5480    23.8610 
  123.8750    46.2690    23.0420    22.0390    18.9310    -8.4200     2.5260    23.6480 
  124.0000    44.9560    22.7660    21.7440    17.1040    -8.4950     2.5020    23.5630 
  124.1250    45.4730    22.6690    21.6060    17.1080    -8.5750     2.4860    23.5730 
  124.2500    49.7130    22.7060    21.6100    17.7420    -8.6120     2.4800    23.6240 
  124.3750    54.1320    22.7420    21.6350    18.0880    -8.6170     2.4820    23.6390 
  124.5000    55.4950    22.6730    21.5700    17.9230    -8.6190     2.4940    23.6190 
  124.6250    53.0580    22.4690    21.3620    17.6750    -8.6110     2.5130    23.6050 
  124.7500    48.5900    22.2140    21.0620    17.7800    -8.5650     2.5320    23.6040 
  124.8750    46.0240    22.0570    20.8190    17.3730    -8.4390     2.5450    23.6050 
  125.0000    45.7820    22.0790    20.7210    17.1210    -8.2590     2.5500    23.6050 
  125.1250    45.0530    22.2820    20.7940    17.2040    -8.0850     2.5540    23.5890 
  125.2500    43.3200    22.5940    21.0050    18.3480    -7.9710     2.5700    23.5350 
  125.3750    45.7840    22.8850    21.2440    19.9140    -7.8090     2.5920    23.4760 
  125.5000    51.5240    23.1050    21.4540    19.9430    -7.5880     2.6120    23.4960 
  125.6250    53.9670    23.2480    21.6110    19.0810    -7.3940     2.6230    23.5680 
  125.7500    51.9050    23.3220    21.6980    19.2840    -7.3020     2.6260    23.6700 
  125.8750    50.4420    23.3630    21.7460    19.1930    -7.2470     2.6260    23.7670 
  126.0000    50.5010    23.3630    21.7610    19.7680    -7.1870     2.6230    23.8200 
  126.1250    50.5510    23.2720    21.7150    20.1270    -7.1060     2.6180    23.8360 
  126.2500    50.9890    22.9970    21.5250    18.7420    -7.0340     2.6110    23.8400 
  126.3750    52.4820    22.5560    21.1890    18.2220    -7.0440     2.6050    23.8530 
  126.5000    53.6720    21.9800    20.7280    18.4130    -7.0960     2.5960    23.8820 
  126.6250    53.8850    21.2880    20.1540    18.2150    -7.1410     2.5850    23.9050 
  126.7500    53.7930    20.4810    19.4510    17.3180    -7.1870     2.5720    23.9080 
  126.8750    53.8810    19.6100    18.6620    16.5090    -7.2470     2.5600    23.8740 
  127.0000    53.5450    18.7540    17.8590    16.2040    -7.3310     2.5510    23.7780 
  127.1250    51.7520    18.0300    17.1560    16.5280    -7.4270     2.5470    23.6270 
  127.2500    50.6970    17.6490    16.7680    15.4950    -7.5290     2.5510    23.4960 
  127.3750    51.2790    17.5580    16.6690    15.1810    -7.6120     2.5630    23.4370 
  127.5000    53.0130    17.4580    16.5510    14.5650    -7.6820     2.5790    23.3400 
  127.6250    53.9480    17.5320    16.6290    15.1260    -7.7130     2.5890    23.3080 
  127.7500    53.6300    17.5910    16.7420    15.5470    -7.7150     2.5820    23.3140 
  127.8750    53.5520    17.4920    16.7320    15.6840    -7.7330     2.5610    23.3600 
  128.0000    53.9320    17.2250    16.5610    15.2960    -7.7290     2.5410    23.4720 
  128.1250    54.5110    16.9150    16.3060    14.4040    -7.7050     2.5320    23.5720 
  128.2500    55.4590    16.8120    16.1720    13.6600    -7.6440     2.5330    23.6090 
  128.3750    54.3750    16.9960    16.2720    13.7640    -7.5610     2.5370    23.6110 
  128.5000    49.7880    17.3490    16.5540    14.6960    -7.5020     2.5430    23.6150 
  128.6250    45.5390    17.6240    16.8350    15.7900    -7.4780     2.5510    23.6340 
  128.7500    45.4290    17.5170    16.8390    16.2190    -7.4110     2.5610    23.6580 
  128.8750    45.7950    17.0460    16.5130    16.0960    -7.3070     2.5690    23.6880 
  129.0000    43.6000    16.3950    15.9800    14.5300    -7.2810     2.5710    23.7340 
  129.1250    41.6850    15.8250    15.4560    12.7110    -7.3430     2.5670    23.8070 
  129.2500    43.3610    15.5520    15.1550    12.3710    -7.4070     2.5610    23.8950 
  129.3750    45.2720    15.5110    15.0770    12.6740    -7.4710     2.5540    24.0080 
  129.5000    46.1300    15.5680    15.1380    12.7440    -7.5890     2.5450    24.1000 
  129.6250    46.3550    15.5820    15.2110    12.6170    -7.7630     2.5310    24.1430 
  129.7500    46.2120    15.4260    15.1550    12.2900    -7.9600     2.5130    24.1560 
  129.8750    45.3320    15.0990    14.9330    12.1500    -8.1500     2.4970    24.1510 
  130.0000    47.7240    14.6120    14.5460    12.2000    -8.3270     2.4840    24.1490 
  130.1250    54.8030    13.9960    14.0250    12.1530    -8.5000     2.4770    24.1670 
  130.2500    59.0650    13.3180    13.4250    11.9930    -8.6540     2.4730    24.1880 
  130.3750    56.8360    12.7120    12.8590    11.3680    -8.7810     2.4690    24.1780 
  130.5000    52.2970    12.2930    12.4210    10.4250    -8.8840     2.4650    24.1470 
  130.6250    50.5060    12.1320    12.1850     9.7930    -8.9810     2.4630    24.1300 
  130.7500    50.8780    12.2600    12.2020    10.1510    -9.0940     2.4630    24.1620 
  130.8750    51.6060    12.5640    12.3920    10.8770    -9.1940     2.4650    24.2250 
  131.0000    54.5760    12.9980    12.7130    11.2480    -9.2490     2.4680    24.3210 
  131.1250    60.6100    13.5810    13.1670    11.3740    -9.2790     2.4690    24.4530 
  131.2500    65.3910    14.4260    13.8380    12.0310    -9.3950     2.4680    24.5720 
  131.3750    65.6920    15.0910    14.7470    12.9270    -9.5410     2.4680    24.6320 
  131.5000    63.1420    15.9530    15.8880    13.9450    -9.6420     2.4700    24.6430 
  131.6250    62.1180    17.3410    17.1690    15.6690    -9.7180     2.4760    24.6060 
  131.7500    65.9480    18.5650    18.3580    18.6090    -9.8440     2.4840    24.4890 
  131.8750    71.3910    19.4330    19.2390    20.6220   -10.0470     2.4870    24.3350 
  132.0000    75.1460    19.9010    19.7260    20.3740   -10.2900     2.4810    24.2500 
  132.1250    75.9070    20.0720    19.8840    19.7440   -10.5100     2.4690    24.2610 
  132.2500    74.3740    20.1240    19.8630    20.0620   -10.6620     2.4590    24.3590 
  132.3750    72.4840    20.2400    19.8650    19.7070   -10.8510     2.4570    24.4700 
  132.5000    71.4500    20.4730    19.9740    19.6950   -11.1040     2.4590    24.5560 
  132.6250    72.2120    20.8200    20.2110    20.5660   -11.3390     2.4630    24.5600 
  132.7500    72.7710    21.3550    20.6360    20.2450   -11.5480     2.4660    24.5320 
  132.8750    72.0330    22.1740    21.3190    21.1840   -11.7900     2.4690    24.5060 
  133.0000    70.7270    23.3430    22.3350    22.0780   -12.0730     2.4680    24.5000 
  133.1250    71.4110    24.7390    23.6240    23.2560   -12.3870     2.4600    24.4920 
  133.2500    74.8920    25.9250    24.8560    23.4610   -12.6950     2.4510    24.3930 
  133.3750    77.5560    26.4340    25.5630    25.2920   -12.9880     2.4530    24.1350 
  133.5000    77.7010    26.0260    25.4470    29.5510   -13.2760     2.4650    23.7720 
  133.6250    77.2920    24.8400    24.5470    32.2160   -13.5640     2.4720    23.4840 
  133.7500    77.9400    23.3510    23.2210    27.5510   -13.8160     2.4650    23.3100 
  133.8750    78.2330    22.1070    21.9900    22.4800   -14.0280     2.4590    23.2130 
  134.0000    77.3350    21.3270    21.0850    20.4510   -14.1890     2.4650    23.1670 
  134.1250    76.7510    20.9990    20.5550    20.4470   -14.2960     2.4770    23.1440 
  134.2500    77.4440    20.9200    20.2900    20.0220   -14.3690     2.4860    23.1220 
  134.3750    79.0130    20.7410    20.0010    20.1490   -14.4170     2.4870    23.1290 
  134.5000    80.2800    20.3010    19.5260    20.2070   -14.4200     2.4820    23.1460 
  134.6250    80.0650    19.6220    18.8570    20.5280   -14.4100     2.4730    23.1530 
