~V
VERS. 2.00: Ver 2.00
~W
STRT.M 62.0000:
STOP.M 277.0000:
STEP.M 0.1250:
NULL. -999.2500:
UWI. F11155:
~C
DEPT.M :
SP.MV :
DEN.GM/CC :
GR.API :
RML.OHMM :
RI. :
RXO.OHMM :
CALI.CM :
~A
# ...
  197.0000   -27.0510     2.2730    73.6090    33.4680    34.5520    43.5000    25.0330 
  197.1250   -26.6840     2.2890    79.5600    23.9860    24.8870    27.3940    24.6490 
  197.2500   -26.4170     2.2990    88.4840    18.3080    18.8350    15.5720    24.0710 
  197.3750   -26.2570     2.3040    95.3070    15.7850    15.6630    10.6330    23.5370 
  197.5000   -26.2340     2.3090    96.5540    16.1630    14.9780    10.6650    23.1530 
  197.6250   -26.3610     2.3160    92.9350    19.4450    16.7540    15.1050    22.9660 
  197.7500   -26.6630     2.3120    87.0000    26.4280    21.9810    30.1920    23.3700 
  197.8750   -27.0690     2.2920    80.9480    36.6250    30.7190    53.4490    24.2350 
  198.0000   -27.5440     2.2660    76.0010    48.9910    42.4610    70.5990    25.0540 
  198.1250   -28.0580     2.2510    74.3050    60.8020    54.6860    73.6100    25.3740 
  198.2500   -28.5480     2.2510    75.5640    67.6300    62.6350    69.6930    25.2560 
  198.3750   -28.9950     2.2550    73.9390    69.4040    65.5010    64.7970    25.1440 
  198.5000   -29.3780     2.2580    68.9240    68.3110    65.1370    65.2390    25.1210 
  198.6250   -29.6690     2.2560    64.5560    66.4340    63.6840    70.6540    25.1650 
  198.7500   -29.8450     2.2520    64.9470    64.1970    61.9630    72.1830    25.2480 
  198.8750   -29.9350     2.2500    66.1940    60.7190    59.3580    65.2540    25.3510 
  199.0000   -29.9650     2.2540    67.0700    55.1510    54.9160    59.0980    25.4380 
  199.1250   -29.9620     2.2630    68.6690    47.6230    48.4020    56.9370    25.4580 
  199.2500   -29.9290     2.2760    69.8920    39.4660    40.7550    51.4560    25.3980 
  199.3750   -29.8770     2.2910    71.7460    32.3010    33.6670    38.2420    25.3080 
  199.5000   -29.8110     2.3120    75.1290    26.6990    27.8950    24.6840    25.2310 
  199.6250   -29.7480     2.3360    79.6040    22.5580    23.5150    19.3080    25.1970 
  199.7500   -29.7000     2.3530    82.1420    19.5810    20.3170    18.7750    25.1630 
  199.8750   -29.6780     2.3610    82.1530    17.1810    17.7230    18.4700    25.1520 
  200.0000   -29.6610     2.3640    84.3290    15.1930    15.5470    15.6520    25.1490 
  200.1250   -29.6140     2.3690    89.7640    13.6570    13.7880    12.6900    25.1520 
  200.2500   -29.5120     2.3780    95.1670    13.0140    12.7500    11.1870    25.1650 
  200.3750   -29.3550     2.3910    94.6650    13.6990    12.6870    10.9110    25.1730 
  200.5000   -29.1520     2.4060    89.0980    16.4410    14.1370    11.7630    25.1860 
  200.6250   -28.8880     2.4180    82.5340    22.2530    18.1240    14.8060    25.1790 
  200.7500   -28.5720     2.4260    74.3680    33.3610    27.3340    27.1500    25.0520 
  200.8750   -28.1890     2.4390    65.6860    50.4070    43.0630    62.9010    24.7950 
  201.0000   -27.7420     2.4540    59.4760    72.8570    65.0110   116.7500    24.5870 
  201.1250   -27.2400     2.4520    56.7740    94.5380    87.1330   138.9000    24.6100 
  201.2500   -26.7070     2.4360    57.4010    98.2740    93.3150   122.9740    24.7460 
  201.3750   -26.1780     2.4410    60.3750    82.4900    80.4500   100.4830    24.7360 
  201.5000   -25.6390     2.4790    66.6000    59.3960    58.5590    65.1190    24.6150 
  201.6250   -25.1100     2.5280    72.6790    39.4030    38.5560    39.3740    24.4950 
  201.7500   -24.5960     2.5600    73.4240    26.1850    25.3950    29.5850    24.3800 
  201.8750   -24.1150     2.5800    70.1870    17.7510    17.1140    22.9850    24.2650 
  202.0000   -23.6940     2.5970    64.3200    12.7670    12.1510    14.8270    24.1820 
  202.1250   -23.3700     2.5970    58.9450    10.0650     9.3200     9.0130    24.2420 
  202.2500   -23.1660     2.5710    56.3970     7.5370     7.9430     7.5900    24.4400 
  202.3750   -23.0650     2.5460    55.7130     7.1480     7.2890     7.5060    24.6290 
  202.5000   -23.0740     2.5330    57.9540     7.1050     7.0930     7.7480    24.7530 
  202.6250   -23.1750     2.5210    60.5900     7.2370     7.1650     7.3850    24.8170 
  202.7500   -23.3260     2.4930    60.0380     7.4290     7.3670     7.3450    24.7970 
  202.8750   -23.5170     2.4590    57.6130     7.6130     7.5840     7.2080    24.6340 
  203.0000   -23.7440     2.4390    55.3890     7.7700     7.7720     7.3640    24.3740 
  203.1250   -23.9810     2.4410    53.0560     7.8670     7.8970     7.8200    24.1270 
  203.2500   -24.2130     2.4600    49.3700     7.8520     7.9050     8.3390    23.9630 
  203.3750   -24.4110     2.4780    49.0550     7.7290     7.7960     9.1830    23.9200 
  203.5000   -24.5680     2.4880    53.5360     7.5310     7.5980     9.4740    24.0700 
  203.6250   -24.6890     2.4880    59.2540     7.3290     7.3710     8.8630    24.2630 
  203.7500   -24.8050     2.4750    61.3070     7.2110     7.1960     8.0630    24.3130 
  203.8750   -24.9240     2.4640    59.0930     7.1980     7.1100     7.8030    24.3520 
  204.0000   -25.0290     2.4690    55.1790     7.2780     7.1160     7.9540    24.4600 
  204.1250   -25.1160     2.4940    52.2460     7.4110     7.1940     8.2040    24.5750 
  204.2500   -25.1720     2.5180    50.6640     7.5250     7.2970     8.2520    24.6720 
  204.3750   -25.2040     2.5190    48.3310     7.5370     7.3400     7.7620    24.7210 
  204.5000   -25.2230     2.5060    45.2440     7.3730     7.2360     7.5490    24.6950 
  204.6250   -25.2380     2.5000    45.3940     7.0020     6.9170     7.0160    24.5590 
  204.7500   -25.2580     2.5130    49.3420     6.4350     6.3570     6.6780    24.0290 
  204.8750   -25.3140     2.5320    50.6520     5.8430     5.7100     6.2360    23.3660 
  205.0000   -25.4210     2.5390    48.5440     5.3770     5.1310     5.5140    23.2860 
  205.1250   -25.5800     2.5160    47.7940     5.1600     4.7540     4.6880    23.6840 
  205.2500   -25.7930     2.4690    51.2950     5.3010     4.7080     4.1920    24.0910 
  205.3750   -26.0470     2.4270    55.0240     5.6830     4.9300     4.3890    24.3290 
  205.5000   -26.3090     2.3980    56.4070     6.1210     5.2970     5.2580    24.5190 
  205.6250   -26.5750     2.3780    55.8260     6.3400     5.5850     6.3610    24.6740 
  205.7500   -26.8620     2.3630    53.0480     6.0370     5.4830     6.6520    24.7410 
  205.8750   -27.1180     2.3540    52.3930     5.3920     5.0210     6.3770    24.7720 
  206.0000   -27.3380     2.3510    56.4650     4.7250     4.4160     5.6710    24.6740 
  206.1250   -27.5330     2.3560    60.8280     4.3300     3.9270     4.7650    24.3960 
  206.2500   -27.7250     2.3670    60.2190     4.4260     3.7840     4.8400    24.0720 
  206.3750   -27.9170     2.3820    58.9460     4.9420     3.9980     6.2100    24.2170 
  206.5000   -28.1010     2.4000    61.9300     5.8000     4.5540     7.3850    24.5700 
  206.6250   -28.2780     2.4230    68.2290     6.8260     5.3700     7.5240    24.8150 
  206.7500   -28.4260     2.4540    72.6020     7.6680     6.2350     8.0690    24.8170 
  206.8750   -28.5490     2.4820    75.2280     8.0570     6.8540     9.5190    24.8100 
  207.0000   -28.6500     2.4990    81.5450     8.0020     7.1090    10.3050    24.8310 
  207.1250   -28.7230     2.4970    92.0760     7.8000     7.1260     9.5850    24.8480 
  207.2500   -28.7580     2.4770    96.6030     7.8800     7.2020     8.5410    24.9410 
  207.3750   -28.7870     2.4530    92.6530     8.3990     7.5520     8.0650    25.0470 
  207.5000   -28.8210     2.4400    87.7170     9.2950     8.2280     8.9280    25.1040 
  207.6250   -28.8330     2.4400    88.8520    10.2740     9.0860    11.3140    25.0890 
  207.7500   -28.8130     2.4350    94.2240    10.6780     9.6410    13.4700    24.9580 
  207.8750   -28.7660     2.4070    98.5670    10.1040     9.4330    12.8380    24.7150 
  208.0000   -28.6860     2.3420    98.1830     8.6590     8.4150     9.7810    24.3960 
  208.1250   -28.5950     2.2120    90.4690     6.9380     6.9960     6.3100    24.1090 
