~V
VERS. 2.00: Ver 2.00
~W
STRT.M 58.0000:
STOP.M 208.0000:
STEP.M 0.1250:
NULL. -999.2500:
UWI. F11103:
~C
DEPT.M :
DEN.GM/CC :
SP.MV :
GR.API :
RML.OHMM :
RI. :
RXO.OHMM :
CALI.CM :
~A
# ...
   91.7500     2.1750   -31.9050    56.2940     8.3890     7.5660    11.3740    25.0420 
   91.8750     2.1710   -31.9740    57.5300     8.0860     7.2970    10.3170    25.0420 
   92.0000     2.1690   -32.0020    60.0120     7.8730     7.0730     9.1870    25.0420 
   92.1250     2.1710   -32.0630    62.5230     7.7990     6.9490     9.0560    25.0420 
   92.2500     2.1770   -32.1210    64.2520     7.9060     6.9720    10.2440    25.0420 
   92.3750     2.1870   -32.1590    65.7420     8.2190     7.1720    11.3540    25.0420 
   92.5000     2.2030   -32.1670    67.1970     8.7530     7.5870    11.7930    25.0420 
   92.6250     2.2220   -32.1940    66.8590     9.3900     8.1380    11.9380    25.0410 
   92.7500     2.2420   -32.2390    65.3710     9.9960     8.7250    12.0260    25.0360 
   92.8750     2.2590   -32.3320    63.6780    10.4100     9.2040    11.8840    25.0130 
   93.0000     2.2700   -32.4400    60.9870    10.4460     9.3900    11.3650    24.9730 
   93.1250     2.2700   -32.5680    58.2050    10.1630     9.2800    10.8680    25.0040 
   93.2500     2.2590   -32.6930    57.6920     9.6900     8.9480    10.7170    25.0360 
   93.3750     2.2370   -32.8170    59.1830     9.1880     8.5210    10.9630    25.0400 
   93.5000     2.2090   -32.9300    60.2540     8.7910     8.1230    11.3510    25.0180 
   93.6250     2.1850   -33.0100    61.0190     8.5040     7.7990    11.6480    24.9420 
   93.7500     2.1690   -33.0350    61.6540     8.2800     7.5430    11.7420    24.8860 
   93.8750     2.1630   -32.9960    60.9830     8.0700     7.3220    11.4750    24.8760 
   94.0000     2.1670   -32.8790    60.1280     7.8620     7.1200    10.8200    24.8770 
   94.1250     2.1760   -32.6890    60.0960     7.7040     6.9570    10.4220    24.8820 
   94.2500     2.1890   -32.4760    59.9240     7.6610     6.8850    10.6930    24.9100 
   94.3750     2.2050   -32.2540    59.6940     7.7770     6.9520    10.9440    24.9520 
   94.5000     2.2210   -32.0570    60.2800     8.0670     7.1900    10.9290    24.9990 
   94.6250     2.2340   -31.8950    60.7230     8.4290     7.5170    11.1630    25.1160 
   94.7500     2.2420   -31.7780    60.2640     8.7440     7.8370    12.3170    25.2960 
   94.8750     2.2420   -31.6940    58.3750     8.8810     8.0350    13.8720    25.4880 
   95.0000     2.2320   -31.6720    57.2720     8.7140     7.9970    14.0700    25.7940 
   95.1250     2.2140   -31.6650    58.1370     8.3270     7.7640    11.8760    26.0990 
   95.2500     2.1910   -31.6620    61.9570     7.8480     7.4180    10.4600    26.2240 
   95.3750     2.1690   -31.6360    66.4180     7.4210     7.0580    10.1260    26.3020 
   95.5000     2.1530   -31.5830    66.8750     7.1790     6.7920    10.1230    26.3440 
   95.6250     2.1440   -31.5180    62.7280     7.1200     6.6570     9.9390    26.4440 
   95.7500     2.1420   -31.4760    57.7440     7.2090     6.6570     9.9740    26.5240 
   95.8750     2.1450   -31.4490    57.4560     7.3970     6.7700    10.3580    26.5740 
   96.0000     2.1490   -31.4580    62.0840     7.6410     6.9690    10.9210    26.6320 
   96.1250     2.1540   -31.5020    65.7220     7.8930     7.1960    11.3780    26.7490 
   96.2500     2.1580   -31.5910    65.3160     8.1100     7.4080    11.6320    26.8320 
   96.3750     2.1610   -31.7260    62.8550     8.2540     7.5670    11.7070    26.8630 
   96.5000     2.1620   -31.8910    62.3090     8.2780     7.6310    11.6770    26.8880 
   96.6250     2.1610   -32.0560    62.9560     8.1870     7.5940    11.4810    26.9510 
   96.7500     2.1590   -32.2170    63.1100     7.9850     7.4480    11.1160    27.0410 
   96.8750     2.1560   -32.3750    63.1750     7.6960     7.2080    10.4980    27.0400 
   97.0000     2.1560   -32.5420    64.7220     7.3760     6.9160     9.8870    26.9560 
   97.1250     2.1570   -32.7180    66.4080     7.1150     6.6520     9.2740    26.9400 
   97.2500     2.1620   -32.9260    67.6420     6.9930     6.4750     8.7690    26.9310 
   97.3750     2.1680   -33.1640    69.2750     7.0680     6.4350     8.6770    26.8960 
   97.5000     2.1750   -33.4440    69.2680     7.3790     6.5870     8.9590    26.8650 
   97.6250     2.1810   -33.7450    66.3290     7.8280     6.8900     9.3750    26.8480 
   97.7500     2.1860   -34.0420    63.4880     8.3120     7.2880     9.6620    26.7930 
   97.8750     2.1890   -34.3320    62.4830     8.7170     7.6910    10.1790    26.7370 
   98.0000     2.1890   -34.5850    61.4700     8.9070     7.9650    11.5390    26.6740 
   98.1250     2.1870   -34.7850    60.0310     8.8830     8.0520    12.7990    26.6320 
   98.2500     2.1820   -34.8850    59.8800     8.6980     7.9590    12.7380    26.6270 
   98.3750     2.1750   -34.8780    58.7590     8.4380     7.7450    12.0640    26.6290 
   98.5000     2.1660   -34.7780    55.5360     8.2000     7.4960    11.3860    26.6280 
   98.6250     2.1560   -34.6260    53.8710     8.0330     7.2910    10.9210    26.6150 
   98.7500     2.1470   -34.4190    54.8440     7.9360     7.1490    10.8250    26.5610 
   98.8750     2.1380   -34.2090    55.7290     7.8710     7.0540    10.9450    26.5030 
   99.0000     2.1310   -33.9850    54.9680     7.7870     6.9680    10.9540    26.4700 
   99.1250     2.1260   -33.8040    57.0930     7.6870     6.8770    10.8140    26.4650 
   99.2500     2.1230   -33.6640    62.3780     7.6060     6.7980    10.4320    26.4640 
   99.3750     2.1230   -33.6070    67.1760     7.5870     6.7590     9.8890    26.4550 
   99.5000     2.1260   -33.6040    68.4120     7.6660     6.7860     9.6020    26.3840 
   99.6250     2.1300   -33.6440    66.7950     7.8070     6.8600    10.0080    26.1640 
   99.7500     2.1360   -33.6940    64.6340     7.9610     6.9540    10.7000    26.0060 
   99.8750     2.1410   -33.7250    63.0400     8.0770     7.0370    10.9750    25.9430 
  100.0000     2.1450   -33.7060    62.3990     8.1220     7.0780    10.5350    25.8520 
  100.1250     2.1480   -33.6380    62.4380     8.1210     7.0820     9.9430    25.8390 
  100.2500     2.1500   -33.5190    62.4410     8.1080     7.0640     9.6970    25.8360 
  100.3750     2.1500   -33.3180    62.9020     8.1090     7.0440     9.9260    25.8360 
  100.5000     2.1490   -33.0180    63.6070     8.1370     7.0450    10.0800    25.8360 
  100.6250     2.1480   -32.6820    64.7670     8.1740     7.0700    10.0340    25.8370 
  100.7500     2.1450   -32.3170    64.2480     8.2040     7.1170     9.8450    25.8460 
  100.8750     2.1420   -31.9230    59.3690     8.2240     7.1750     9.5790    25.9030 
  101.0000     2.1390   -31.4780    53.6120     8.2400     7.2380     9.7960    25.9680 
  101.1250     2.1350   -30.9900    53.0870     8.2480     7.2950    10.3000    26.0430 
  101.2500     2.1320   -30.4520    55.7520     8.2390     7.3380    10.5980    26.0550 
  101.3750     2.1310   -29.8800    56.3060     8.2090     7.3630    10.3920    26.0530 
  101.5000     2.1320   -29.2510    56.3250     8.1630     7.3690    10.0290    26.0230 
  101.6250     2.1360   -28.5360    58.4160     8.1070     7.3540     9.9040    25.9060 
  101.7500     2.1420   -27.7660    60.7670     8.0210     7.3030    10.0220    25.7800 
  101.8750     2.1510   -26.9410    62.3450     7.8770     7.1900    10.1650    25.6920 
  102.0000     2.1630   -26.1080    64.3110     7.6440     6.9790     9.9540    25.6170 
  102.1250     2.1740   -25.2880    64.8160     7.3700     6.7040     9.4170    25.5870 
  102.2500     2.1840   -24.5130    64.9980     7.1170     6.4240     8.6290    25.5830 
  102.3750     2.1910   -23.8060    66.8310     6.9330     6.1950     7.8290    25.5790 
  102.5000     2.1960   -23.1880    69.3650     6.8190     6.0460     7.5340    25.5640 
  102.6250     2.1990   -22.6200    68.5460     6.7040     5.9310     7.6390    25.5320 
  102.7500     2.2040   -22.0830    65.5670     6.5320     5.8080     7.9860    25.5340 
  102.8750     2.2110   -21.6050    67.7930     6.2870     5.6500     8.0750    25.5910 
