~V
VERS. 2.00: Ver 2.00
~W
STRT.M 50.0000:
STOP.M 221.0000:
STEP.M 0.1250:
NULL. -999.2500:
UWI. F11120:
~C
DEPT.M :
DEN.GM/CC :
GR.API :
RML.OHMM :
RI. :
RXO.OHMM :
CALI.CM :
SP.MV :
~A
   50.0000  -999.2500    37.4490   806.6990     1.4840     0.0000    26.0480  -999.2500 
   50.1250  -999.2500    35.8430   814.5450     1.4790     0.0000    26.0480  -999.2500 
   50.2500  -999.2500    35.4460   747.7580     1.4730     0.0000    26.0480  -999.2500 
   50.3750  -999.2500    37.8750   651.5120     1.4670     0.0000    26.0480  -999.2500 
   50.5000  -999.2500    41.5790   550.1490     1.4590     0.0000    26.0460  -999.2500 
   50.6250  -999.2500    41.5920   419.9960     1.4510     0.0010    26.0440  -999.2500 
   50.7500  -999.2500    39.5460   293.4420     1.4430     0.0020    26.0440  -999.2500 
   50.8750  -999.2500    41.2840   207.6810     1.4370     0.0030    26.0460  -999.2500 
   51.0000  -999.2500    46.2890   162.8240     1.4310     0.0020    26.0480  -999.2500 
   51.1250  -999.2500    46.1760   146.5430     1.4280     0.0000    26.0500  -999.2500 
   51.2500  -999.2500    40.6820   144.9520     1.4280     0.0000    26.0500  -999.2500 
   51.3750  -999.2500    35.8660   153.4970     1.4310     0.0000    26.0480  -999.2500 
   51.5000  -999.2500    34.3410   168.8910     1.4370     0.0000    26.0460  -999.2500 
   51.6250     0.0000    34.6890   186.9660     1.4440     0.0000    26.0470  -999.2500 
   51.7500     0.0000    35.4550   188.6130     1.4480     0.0000    26.0480  -999.2500 
   51.8750     0.0000    36.4410   159.1500     1.4460     0.0000    26.0480  -999.2500 
   52.0000     0.0000    36.8000   120.9120     1.4370     0.0000    26.0480  -999.2500 
   52.1250     0.0000    37.5440   102.4600     1.4260     0.0000    26.0480  -999.2500 
   52.2500     0.0000    40.2210   106.3950     1.4190     0.0000    26.0470  -999.2500 
   52.3750     1.3990    42.8670   140.1050     1.4200     0.0000    26.0460  -999.2500 
   52.5000     1.8580    43.3100   231.8070     1.4270     0.0000    26.0460  -999.2500 
   52.6250     1.8480    40.4350   488.1330     1.4360     0.0000    26.0450  -999.2500 
   52.7500     1.8410    37.8610   770.1800     1.4410     0.0000    26.0440  -999.2500 
   52.8750     1.8370    38.1400   692.4480     1.4400     0.0000    26.0430  -999.2500 
   53.0000     1.8400    38.9230   485.2420     1.4340     0.0000    26.0420     0.0000 
   53.1250     1.8560    36.0950   377.5510     1.4240     0.0000    26.0420     0.0000 
   53.2500     1.8830    33.7990   330.7780     1.4130     0.0000    26.0430    73.8830 
   53.3750     1.9130    36.6710   332.2920     1.4030     0.0000    26.0440   148.0000 
   53.5000     1.9320    41.3050   375.3680     1.3960     0.0000    26.0460   148.3800 
   53.6250     1.9290    41.0450   407.2280     1.3900     0.0000    26.0470   148.7400 
   53.7500     1.9130    38.3410   334.0020     1.3830     0.0000    26.0450   149.0870 
   53.8750     1.8970    36.0710   207.1240     1.3790     0.0000    26.0440   149.4300 
   54.0000     1.8840    34.8690   123.6710     1.3810     0.0000    26.0450   149.7780 
   54.1250     1.8700    35.9710    92.1290     1.3870     0.0000    26.0480   150.1240 
   54.2500     1.8600    38.8830    84.8550     1.3900     0.0000    26.0490   150.4690 
   54.3750     1.8590    40.5890    97.8800     1.3850     0.0000    26.0470   150.8310 
   54.5000     1.8720    39.7990   139.4460     1.3740     0.0000    26.0440   151.1940 
   54.6250     1.9030    38.8840   234.0980     1.3620     0.0010    26.0440   151.5480 
   54.7500     1.9320    38.0160   289.6860     1.3480     0.0000    26.0450   151.9050 
   54.8750     1.9410    36.4360   205.0780     1.3300     0.0000    26.0470   152.2310 
   55.0000     1.9320    34.5710   116.6950     1.3100     0.0000    26.0480   152.4960 
   55.1250     1.9330    34.0930    80.0280     1.3020     0.0000    26.0480   152.6910 
   55.2500     1.9540    34.7690    62.2700     1.3170     0.0000    26.0480   152.8020 
   55.3750     1.9770    35.3250    51.2840     1.3510     0.0000    26.0480   152.7790 
   55.5000     1.9890    34.7000    42.2970     1.3860     0.0000    26.0480   152.6040 
   55.6250     1.9960    34.1180    36.1540     1.4040     0.0000    26.0480   152.2290 
   55.7500     2.0100    37.2480    33.6210     1.3990     0.0000    26.0480   151.6460 
   55.8750     2.0270    42.1390    35.2160     1.3790     0.0000    26.0480   150.8760 
   56.0000     2.0450    44.8580    41.4770     1.3510     0.0000    26.0480   149.9360 
   56.1250     2.0650    42.4860    52.5080     1.3250     0.0000    26.0480   148.8060 
   56.2500     2.0830    38.1790    62.7210     1.3070     0.0000    26.0480   147.5630 
   56.3750     2.0940    35.0750    65.5160     1.2970     0.0000    26.0480   146.2760 
   56.5000     2.1040    33.8040    61.5300     1.2960     0.0000    26.0480   144.9890 
   56.6250     2.1070    34.8040    56.3680     1.2990     0.0000    26.0480   143.7610 
   56.7500     2.0940    36.6570    52.9190     1.3020     0.0000    26.0480   142.6520 
   56.8750     2.0600    38.6600    52.5660     1.3070     0.0000    26.0480   141.6770 
   57.0000     2.0170    40.5210    55.9110     1.3130     0.0000    26.0490   140.8440 
   57.1250     1.9930    41.4420    62.9260     1.3200     0.0000    26.0600   140.1980 
   57.2500     1.9930    41.1430    69.8400     1.3270     0.0000    26.0840   139.6960 
   57.3750     2.0030    39.8720    71.3630     1.3330     0.0000    26.1070   139.2960 
   57.5000     2.0060    39.2910    65.0910     1.3380     0.0000    26.1160   138.9450 
   57.6250     1.9970    40.2260    54.8630     1.3420     0.0000    26.1150   138.5860 
   57.7500     1.9860    39.7390    46.2160     1.3460     0.0000    26.1160   138.1590 
   57.8750     1.9800    37.7470    40.5090     1.3490     0.0000    26.1170   137.6260 
   58.0000     1.9860    36.7590    37.8820     1.3510     0.0010    26.1160   136.9460 
   58.1250     1.9990    36.8180    38.5070     1.3510     0.0010    26.1150   136.0010 
   58.2500     2.0120    37.3080    41.1060     1.3500     0.0000    26.1160   134.7410 
   58.3750     2.0210    39.0510    44.5770     1.3480     0.0000    26.1170   133.1260 
   58.5000     2.0290    41.0440    47.8180     1.3460     0.0000    26.1170   131.1390 
   58.6250     2.0320    39.8540    51.3410     1.3470     0.0000    26.1170   128.6710 
   58.7500     2.0370    37.7350    57.4870     1.3430     0.0000    26.1170   125.7280 
   58.8750     2.0490    37.6910    67.2840     1.3220     0.0000    26.1170   122.2260 
   59.0000     2.0740    37.9830    70.1080     1.2610     0.0000    26.1170   118.0770 
   59.1250     2.1160    36.8220    42.4830     1.1240     0.0000    26.1170   113.0740 
   59.2500     2.1730    36.3350    17.3620     0.9280     0.0010    26.1150   107.2240 
   59.3750     2.2440    37.1280     6.3810     0.7330     0.0040    26.1090   100.3960 
   59.5000     2.3250    38.5810     2.3560     0.5900     0.0080    26.1010    92.4780 
   59.6250     2.4100    40.1870     1.1240     0.5220     0.0370    26.1030    83.2050 
   59.7500     2.4740    42.9710     0.7840     0.5050     0.2070    26.1290    72.8230 
   59.8750     2.4780    46.9360     0.9430     0.5410     0.8000    26.2650    61.5410 
   60.0000     2.3970    52.8280     1.4800     0.6540     2.0010    26.7290    49.7270 
   60.1250     2.2640    62.1900     2.4700     0.9230     3.5170    27.7250    37.9170 
   60.2500     2.1600    72.3090     3.8920     1.3990     4.3710    28.6050    26.7240 
   60.3750     2.1210    79.2360     5.6280     2.1270     4.8710    28.6080    16.6610 
   60.5000     2.1440    82.3420     7.2460     3.0770     5.6760    27.8670     8.0970 
   60.6250     2.1970    83.7500     8.2170     4.1180     7.6640    27.1370     1.5100 
   60.7500     2.2520    85.1500     8.8230     5.0720     9.9680    26.8740    -3.3800 
   60.8750     2.3000    84.3840     9.4590     5.8500    10.7180    26.8290    -6.7290 
   61.0000     2.3280    81.6830    10.2510     6.4000     9.2450    26.8320    -8.8130 
   61.1250     2.3210    81.0200    11.0150     6.6510     8.2550    26.8290    -9.8900 
