~V
VERS. 2.00: Ver 2.00
~W
STRT.M 40.0000:
STOP.M 206.0000:
STEP.M 0.1250:
NULL. -999.2500:
UWI. F11104:
~C
DEPT.M :
GR.API :
RML.OHMM :
RI. :
RXO.OHMM :
CALI.CM :
SP.MV :
DEN.GM/CC :
~A
# ...
  175.0000    64.6510    69.9280    60.8070    31.2010    21.4840   -16.9030     2.2470 
  175.1250    60.1900    72.6400    63.1650    28.5860    21.4760   -16.8540     2.2290 
  175.2500    57.8960    75.8650    65.9690    27.2740    21.5500   -16.7950     2.2110 
  175.3750    58.9180    79.5910    69.2100    26.7180    21.8230   -16.7570     2.1910 
  175.5000    60.4050    83.8450    72.9080    26.2100    22.3240   -16.7590     2.1680 
  175.6250    60.7770    88.8290    77.2430    26.8930    22.8580   -16.7710     2.1450 
  175.7500    59.4740    94.3230    82.0200    30.2670    23.1970   -16.7440     2.1290 
  175.8750    57.6600    99.7750    86.7610    32.3130    23.3100   -16.6460     2.1280 
  176.0000    57.5880   104.2750    90.6740    39.1160    23.2600   -16.4780     2.1430 
  176.1250    60.1610   106.6020    92.6980    46.2210    23.0550   -16.2780     2.1660 
  176.2500    63.2240   107.0790    93.1130    49.8440    22.7950   -16.0480     2.1820 
  176.3750    63.1060   106.7340    92.8120    53.3060    22.6110   -15.7680     2.1870 
  176.5000    60.9440   106.9480    92.9980    66.9540    22.5830   -15.4620     2.1870 
  176.6250    59.1330   108.9490    94.7390   101.5410    22.6640   -15.2020     2.1930 
  176.7500    58.0150   112.3560    97.7010   154.5620    22.7360   -14.9970     2.2060 
  176.8750    56.9450   116.2630   101.0980   168.2140    22.7520   -14.8030     2.2170 
  177.0000    54.7310   119.6080   104.0070   119.5420    22.7100   -14.5800     2.2210 
  177.1250    51.0420   121.6180   105.7550    78.8640    22.5800   -14.3190     2.2250 
  177.2500    49.5870   122.8350   106.8130    60.4090    22.3510   -14.0620     2.2510 
  177.3750    51.3830   124.0300   107.8520    57.1510    22.0830   -13.8120     2.3170 
  177.5000    52.8860   125.8180   109.4070    55.5530    21.8850   -13.5440     2.4260 
  177.6250    50.5580   128.3180   111.5810    46.0670    21.8340   -13.2210     2.5510 
  177.7500    48.4160   130.6900   113.6440    42.1570    21.8480   -12.8750     2.6450 
  177.8750    49.8350   131.7960   114.6050    43.1730    21.8610   -12.5430     2.6900 
  178.0000    51.9140   130.2890   113.2950    50.1200    21.8500   -12.2310     2.6960 
  178.1250    49.7210   124.2950   108.0830    54.9070    21.7820   -11.8800     2.6820 
  178.2500    45.5890   114.3390    99.4250    53.4860    21.6770   -11.4880     2.6650 
  178.3750    44.5400   101.7500    88.4780    44.8080    21.5730   -11.0900     2.6510 
  178.5000    47.7800    88.6880    77.1200    34.9930    21.5020   -10.7030     2.6390 
  178.6250    52.4930    77.6410    67.5140    28.3240    21.4750   -10.3160     2.6220 
  178.7500    54.3220    69.5190    60.4510    24.3710    21.4660    -9.9120     2.5960 
  178.8750    53.7080    64.5420    56.1240    23.0400    21.4830    -9.4980     2.5680 
  179.0000    53.4730    62.4650    54.3180    24.5490    21.5880    -9.0930     2.5490 
  179.1250    54.8890    63.0720    54.8450    30.5980    21.8920    -8.7380     2.5530 
  179.2500    56.0890    65.3200    56.8000    39.3740    22.3570    -8.4140     2.5790 
  179.3750    55.7800    68.7700    59.8000    50.6820    22.8700    -8.1120     2.6150 
  179.5000    53.7380    73.1590    63.6170    80.1700    23.2450    -7.8400     2.6480 
  179.6250    50.7210    78.4900    68.2520   117.2700    23.3070    -7.6160     2.6730 
  179.7500    49.8190    84.2240    73.2380   151.2070    23.1740    -7.4230     2.6990 
  179.8750    51.3670    88.4300    76.8950   183.4220    23.0240    -7.2420     2.7280 
  180.0000    53.7520    86.7280    75.4160   215.1600    22.9480    -7.0480     2.7450 
  180.1250    56.0440    64.5120    63.6100   309.6680    22.8800    -6.8180     2.7210 
  180.2500    58.2310    41.5650    46.1100   285.5720    22.7720    -6.5560     2.6560 
  180.3750    60.0160    30.1260    29.6790   138.7250    22.6690    -6.2620     2.5690 
  180.5000    61.9280    18.1130    18.0660    41.1730    22.5500    -5.9440     2.4840 
  180.6250    65.1950    10.8700    11.7820    14.2940    22.3090    -5.6090     2.4210 
  180.7500    66.9530     7.4050     8.3900     6.6470    22.0080    -5.2770     2.3820 
  180.8750    66.5320     5.9320     6.6880     5.1750    21.8070    -4.9630     2.3610 
  181.0000    66.6760     5.5080     5.9660     5.3770    21.7560    -4.6800     2.3530 
  181.1250    68.1150     5.6800     5.8990     5.8810    21.7810    -4.4480     2.3570 
  181.2500    67.0130     6.0190     6.1070     6.1380    21.8710    -4.2670     2.3680 
  181.3750    61.6960     6.3140     6.4010     6.2740    22.1100    -4.1140     2.3840 
  181.5000    56.2510     6.4730     6.6710     6.3400    22.5040    -3.9710     2.4010 
  181.6250    56.4250     6.5090     6.8730     6.5430    22.9590    -3.8270     2.4120 
  181.7500    60.1630     6.4980     7.0000     7.2810    23.3190    -3.6780     2.4140 
  181.8750    62.8640     6.4740     7.0340     7.7200    23.4880    -3.5280     2.4050 
  182.0000    62.0740     6.4530     6.9740     6.8860    23.4350    -3.3780     2.3880 
  182.1250    59.0970     6.4240     6.8420     6.4450    23.2420    -3.2330     2.3670 
  182.2500    56.1010     6.3760     6.6940     6.3510    23.0840    -3.0960     2.3490 
  182.3750    54.1730     6.3090     6.5710     6.1290    22.9910    -2.9740     2.3320 
  182.5000    53.2690     6.2410     6.4960     5.8460    22.9120    -2.8530     2.3180 
  182.6250    52.2960     6.1880     6.4610     6.1830    22.8690    -2.7060     2.3090 
  182.7500    52.7980     6.1450     6.4160     6.6050    22.9790    -2.5190     2.3110 
  182.8750    55.4490     6.0980     6.3140     6.4280    23.2790    -2.2810     2.3240 
  183.0000    58.9800     6.0260     6.1340     5.9830    23.6530    -1.9790     2.3420 
  183.1250    63.3810     5.9130     5.8910     5.7320    23.9040    -1.6140     2.3590 
  183.2500    71.3230     5.7610     5.6440     5.6450    23.9960    -1.2230     2.3700 
  183.3750    80.4190     5.5780     5.4280     5.5010    24.0040    -0.8340     2.3760 
  183.5000    83.1560     5.3790     5.2530     5.3770    23.9770    -0.4790     2.3780 
  183.6250    79.9870     5.2090     5.1150     5.2740    23.8860    -0.2020     2.3810 
  183.7500    79.3130     5.1100     5.0000     5.1490    23.7590    -0.0160     2.3920 
  183.8750    80.9380     5.1160     4.9300     5.1740    23.6660     0.0750     2.4180 
  184.0000    79.6680     5.2490     4.9440     5.3360    23.6420     0.0770     2.4510 
  184.1250    78.7710     5.5430     5.1060     5.5210    23.6530     0.0270     2.4640 
  184.2500    83.1620     5.9770     5.3970     5.4440    23.6460    -0.0400     2.4440 
  184.3750    88.0390     6.5050     5.7550     5.7190    23.6010    -0.0970     2.4000 
  184.5000    87.3400     6.9910     6.0710     6.5930    23.5020    -0.1280     2.3530 
  184.6250    80.7410     7.1780     6.2010     7.3380    23.3770    -0.1350     2.3260 
  184.7500    75.7540     7.0030     6.1360     6.8990    23.2760    -0.1300     2.3240 
  184.8750    76.2850     6.5730     5.9380     6.0830    23.2710    -0.1450     2.3360 
  185.0000    81.3790     6.1160     5.7080     5.6760    23.4590    -0.1940     2.3530 
  185.1250    87.0720     5.8810     5.5500     5.8680    23.8130    -0.2750     2.3640 
  185.2500    90.2330     5.8820     5.4930     6.5140    24.1090    -0.3630     2.3640 
  185.3750    91.9870     6.0070     5.5160     7.1800    24.2240    -0.4380     2.3510 
  185.5000    92.7040     6.1230     5.5740     7.4180    24.2210    -0.4740     2.3280 
  185.6250    92.9610     6.2280     5.6630     7.5530    24.2140    -0.4320     2.3190 
  185.7500    95.3280     6.5020     5.8460     7.3830    24.2080    -0.3060     2.3440 
  185.8750    95.9600     7.1260     6.2250     7.0790    24.1690    -0.1010     2.4110 
  186.0000    89.8570     8.1780     6.8800     7.1860    24.0840     0.1640     2.4990 
  186.1250    77.8290     9.5670     7.8000     8.7730    23.9620     0.4460     2.5570 
