~V
VERS. 2.00: Ver 2.00
~W
STRT.M 54.0000:
STOP.M 273.0000:
STEP.M 0.1250:
NULL. -999.2500:
UWI. F11158:
~C
DEPT.M :
SP.MV :
DEN.GM/CC :
GR.API :
RML.OHMM :
RI. :
RXO.OHMM :
CALI.CM :
~A
# ...
  256.5000   -12.4890     2.3900    57.5460    13.4830    11.8340    12.7390    24.2420 
  256.6250   -12.5680     2.4140    57.7370    13.5690    11.9350    12.6710    24.2950 
  256.7500   -12.6800     2.4290    59.8600    13.5790    11.9650    13.4550    24.2960 
  256.8750   -12.8210     2.4300    62.1310    13.5720    11.9640    14.4070    24.3200 
  257.0000   -12.9590     2.4250    63.9640    13.6050    11.9770    14.2800    24.3820 
  257.1250   -13.1040     2.4240    64.8410    13.7240    12.0450    13.6760    24.4010 
  257.2500   -13.2340     2.4270    66.0090    13.9520    12.1940    13.1690    24.3240 
  257.3750   -13.3590     2.4280    66.5450    14.2460    12.4020    12.9960    24.2070 
  257.5000   -13.4550     2.4200    64.4990    14.5610    12.6390    12.8270    24.0930 
  257.6250   -13.5030     2.4060    60.5480    14.8440    12.8620    12.3870    24.0210 
  257.7500   -13.5110     2.3880    58.0740    15.0550    13.0350    11.8810    23.9720 
  257.8750   -13.4750     2.3690    58.8070    15.2020    13.1520    12.1330    23.9320 
  258.0000   -13.4260     2.3590    62.0210    15.2960    13.2170    13.4850    23.8620 
  258.1250   -13.3730     2.3650    65.3400    15.3480    13.2410    15.3670    23.7980 
  258.2500   -13.3270     2.3860    66.2990    15.3650    13.2340    15.4780    23.8430 
  258.3750   -13.2990     2.4050    64.4940    15.3610    13.2150    14.7220    23.9330 
  258.5000   -13.2790     2.4100    62.9660    15.3580    13.2010    14.2550    23.9790 
  258.6250   -13.2720     2.3980    63.5210    15.4040    13.2230    13.8230    23.9690 
  258.7500   -13.2720     2.3740    65.2800    15.5990    13.3530    13.8120    23.9620 
  258.8750   -13.2800     2.3590    66.2700    16.0160    13.6550    14.9050    23.9400 
  259.0000   -13.2840     2.3690    66.2310    16.6680    14.1620    17.5730    23.9320 
  259.1250   -13.3030     2.4020    65.9670    17.4650    14.8300    21.5770    23.9780 
  259.2500   -13.3290     2.4410    66.5850    18.1750    15.5010    25.7060    24.0010 
  259.3750   -13.3670     2.4660    68.2880    18.5230    15.9240    27.2350    23.9570 
  259.5000   -13.4250     2.4730    69.3170    18.3410    15.9130    24.7980    23.9080 
  259.6250   -13.4860     2.4610    67.9660    17.6410    15.4290    20.1490    23.9200 
  259.7500   -13.5390     2.4300    66.0460    16.6280    14.6040    16.1320    23.9800 
  259.8750   -13.5810     2.3930    65.9250    15.6270    13.7220    13.0540    23.9890 
  260.0000   -13.6140     2.3690    66.2450    14.8020    12.9400    10.8580    23.9060 
  260.1250   -13.6070     2.3670    65.6000    14.2040    12.3320     9.3960    23.6960 
  260.2500   -13.5590     2.3810    65.2040    13.7930    11.8980     8.5890    23.3380 
  260.3750   -13.4660     2.3940    65.9610    13.4660    11.5620     8.1610    23.1340 
  260.5000   -13.3380     2.3990    66.6960    13.1850    11.2820     8.0470    23.2290 
  260.6250   -13.1900     2.3990    67.4440    12.9430    11.0410     8.0230    23.4660 
  260.7500   -13.0520     2.3980    68.3240    12.7490    10.8390     7.8880    23.5740 
  260.8750   -12.9150     2.4040    68.5760    12.5980    10.6750     7.5840    23.4870 
  261.0000   -12.7350     2.4090    68.4780    12.4970    10.5570     7.5010    23.3010 
  261.1250   -12.5390     2.4000    68.4780    12.4550    10.4950     7.7090    23.1430 
  261.2500   -12.3770     2.3660    68.4780    12.4880    10.4950     7.9450    23.2030 
  261.3750   -12.2200     2.3260    68.4780    12.5700    10.5340     8.1680    23.4360 
  261.5000   -12.0590     2.2990    68.4780    12.6650    10.5890     8.3770    23.6540 
  261.6250   -11.9270     2.2960    68.4780    12.7330    10.6340     8.7130    23.7480 
  261.7500   -11.8130     2.3160    68.4780    12.7590    10.6520     9.3790    23.7620 
  261.8750   -11.6990     2.3450    68.4780    12.7590    10.6490    10.9310    23.7640 
  262.0000   -11.6380     2.3830    68.4780    12.7450    10.6260    13.7930    23.7570 
  262.1250   -11.6230     2.4200    68.4780    12.7060    10.5680    16.0780    23.7240 
  262.2500   -11.6130     2.4390    68.4780    12.6080    10.4530    13.7820    23.6630 
  262.3750   -11.6020     2.4340    68.4780    12.4380    10.2760    10.3980    23.6240 
  262.5000   -11.6100     2.4200    68.4780    12.2130    10.0500     8.0610    23.6190 
  262.6250   -11.6330     2.4100    68.4780    11.9830     9.8080     7.1000    23.6330 
  262.7500   -11.6420     2.4110    68.4780    11.8100     9.6000     6.6510    23.6410 
  262.8750   -11.6790     2.4140    68.4780    11.7090     9.4450     6.2410    23.6040 
  263.0000   -11.7330     2.4150    68.4780    11.6530     9.3380     6.0650    23.5380 
  263.1250   -11.7770     2.4160    68.4780    11.5900     9.2490     6.3540    23.5070 
  263.2500   -11.8080     2.4190    68.4780    11.4690     9.1440     6.8670    23.5650 
  263.3750   -11.8520     2.4200    68.4780    11.2980     9.0110     7.2600    23.6160 
  263.5000   -11.8830     2.4120    68.4780    11.1240     8.8700     7.3190    23.6110 
  263.6250   -11.8900     2.3970    68.4780    11.0190     8.7620     7.0930    23.5460 
  263.7500   -11.8960     2.3800    68.4780    11.0390     8.7270     7.1160    23.4450 
  263.8750   -11.8950     2.3690    68.4780    11.1580     8.7590     7.6310    23.3810 
  264.0000   -11.8840     2.3680    68.4780    11.3250     8.8350     7.8740    23.3800 
  264.1250   -11.8550     2.3780    68.4780    11.4790     8.9180     7.3710    23.4180 
  264.2500   -11.8070     2.3980    68.4780    11.5720     8.9790     6.8360    23.4470 
  264.3750   -11.7360     2.4140    68.4780    11.6090     9.0120     6.8240    23.4360 
  264.5000   -11.6650     2.4210    68.4780    11.6120     9.0250     7.3200    23.3840 
  264.6250   -11.6070     2.4210    68.4780    11.6040     9.0310     7.9410    23.3280 
  264.7500   -11.5470     2.4180    68.4780    11.5970     9.0350     8.0860    23.3250 
  264.8750   -11.4940     2.4130    68.4780    11.5910     9.0380     8.5200    23.3770 
  265.0000   -11.4560     2.4030    68.4780    11.5910     9.0400     8.9930    23.4230 
  265.1250   -11.4520     2.3890    68.4780    11.6020     9.0410     8.1390    23.4270 
  265.2500   -11.4730     2.3840    68.4780    11.6280     9.0440     7.2250    23.4120 
  265.3750   -11.5060     2.3880    68.4780    11.6630     9.0490     7.7060    23.4430 
  265.5000   -11.5610     2.3990    68.4780    11.6940     9.0560     9.2220    23.5540 
  265.6250   -11.6070     2.4060    68.4780    11.7050     9.0620     9.6950    23.7180 
  265.7500   -11.6640     2.4090    68.4780    11.6860     9.0640     8.5810    23.8360 
  265.8750   -11.7090     2.4180    68.4780    11.6450     9.0610     7.7930    23.8850 
  266.0000   -11.7350     2.4320    68.4780    11.6000     9.0570     8.0640    23.8740 
  266.1250   -11.7350     2.4330    68.4780    11.5710     9.0510     8.7720    23.7890 
  266.2500   -11.7460     2.4060    68.4780    11.5700     9.0470     8.9350    23.6080 
  266.3750   -11.7990     2.3650    68.4780    11.5870     9.0430     7.7730    23.4570 
  266.5000   -11.8240     2.3290    68.4780    11.6080     9.0410     6.5580    23.3260 
  266.6250   -11.8170     2.3070    68.4780    11.6230     9.0410     5.6620    23.1840 
  266.7500   -11.7980     2.3080    68.4780    11.6260     9.0420     5.3800    22.8670 
  266.8750   -11.7930     2.3210    68.4780    11.6250     9.0430     5.6500    22.2610 
  267.0000   -11.7940     2.3350    68.4780    11.6250     9.0430     6.0010    21.3940 
  267.1250   -11.8060     2.3450    68.4780    11.6250     9.0430     5.7550    20.4060 
  267.2500   -11.8160     2.3560    68.4780    11.6250     9.0430     5.2350    19.4000 
  267.3750   -11.7860     2.3680    68.4780    11.6250     9.0430     4.9320    18.4070 
  267.5000   -11.7740     2.3760    68.4780    11.6250     9.0430     4.8980    17.4260 
  267.6250   -11.7830     2.3780    68.4780    11.6250     9.0430     5.0850    16.5950 
