~V
VERS. 2.00: Ver 2.00
~W
STRT.M 52.0000:
STOP.M 239.0000:
STEP.M 0.1250:
NULL. -999.2500:
UWI. F11118:
~C
DEPT.M :
DEN.GM/CC :
GR.API :
RML.OHMM :
RI. :
RXO.OHMM :
CALI.CM :
SP.MV :
~A
# ...
  232.0000     2.3300    63.7500     9.3570     7.9980     9.0090    24.4930   -18.1360 
  232.1250     2.3710    63.7500     9.3840     8.0200     8.6010    24.1620   -18.3290 
  232.2500     2.4030    63.7500     9.4100     8.0430     8.3140    23.9970   -18.4860 
  232.3750     2.4160    63.7500     9.4300     8.0600     8.4480    23.9830   -18.6610 
  232.5000     2.4070    63.7500     9.4330     8.0620     9.2740    23.9920   -18.7870 
  232.6250     2.3830    63.7500     9.4130     8.0450    10.0070    24.0050   -18.7750 
  232.7500     2.3580    63.7500     9.3870     8.0230    10.4840    24.0480   -18.7810 
  232.8750     2.3420    63.7500     9.3790     8.0160     9.7290    24.0810   -18.8410 
  233.0000     2.3380    63.7500     9.4070     8.0400     8.2240    24.1060   -18.8650 
  233.1250     2.3430    63.7500     9.4610     8.0860     7.4080    23.9040   -18.8850 
  233.2500     2.3500    63.7500     9.4930     8.1140     7.3090    23.8100   -18.9200 
  233.3750     2.3560    63.7500     9.4810     8.1030     7.4020    23.9540   -18.9270 
  233.5000     2.3640    63.7500     9.4310     8.0610     7.2780    23.9900   -18.9010 
  233.6250     2.3750    63.7500     9.3650     8.0040     7.4090    23.9940   -18.7800 
  233.7500     2.3850    63.7500     9.3070     7.9550     7.7690    23.9640   -18.5250 
  233.8750     2.3850    63.7500     9.2690     7.9220     8.1580    23.9990   -18.0960 
  234.0000     2.3740    63.7500     9.2480     7.9040     8.1030    24.0630   -17.5140 
  234.1250     2.3600    63.7500     9.2330     7.8920     7.3350    24.0470   -16.7600 
  234.2500     2.3580    63.7500     9.2290     7.8880     6.9120    23.9710   -15.8960 
  234.3750     2.3720    63.7500     9.2500     7.9060     7.1180    23.7510   -15.0370 
  234.5000     2.3960    63.7500     9.2900     7.9400     7.8710    23.4410   -14.1990 
  234.6250     2.4160    63.7500     9.2900     7.9400     9.1070    23.3080   -13.4950 
  234.7500     2.4230    63.7500     9.2900     7.9400    10.4160    23.2710   -12.8640 
  234.8750     2.4180    63.7500     9.2900     7.9400    11.2660    23.4360   -12.3070 
  235.0000     2.4100    63.7500     9.2900     7.9400    11.6650    23.6870   -11.9210 
  235.1250     2.4050    63.7500     9.2900     7.9400    11.4400    23.7360   -11.7250 
  235.2500     2.4050    63.7500     9.2900     7.9400    10.9750    23.7880   -11.6030 
  235.3750     2.4050    63.7500     9.2900     7.9400    10.7640    23.8250   -11.4620 
  235.5000     2.4000    63.7500     9.2900     7.9400    11.2000    23.8990   -11.3270 
  235.6250     2.3860    63.7500     9.2900     7.9400    11.5050    23.9480   -11.1500 
  235.7500     2.3670    63.7500     9.2900     7.9400    11.4060    23.9860   -11.0000 
  235.8750     2.3470    63.7500     9.2900     7.9400    11.1900    23.9920   -10.9190 
  236.0000     2.3320    63.7500     9.2900     7.9400    11.1590    23.9890   -10.8740 
  236.1250     2.3250    63.7500     9.2900     7.9400    11.2880    23.9630   -10.8500 
  236.2500     2.3200    63.7500     9.2900     7.9400    11.3620    23.8970   -10.8460 
  236.3750     2.3110    63.7500     9.2900     7.9400    11.3150    23.7210   -10.8840 
  236.5000     2.2940    63.7500     9.2900     7.9400    11.0650    23.5890   -10.9040 
  236.6250     2.2700    63.7500     9.2900     7.9400    10.6480    23.5210   -10.9540 
  236.7500     2.2470    63.7500     9.2900     7.9400    10.1590    23.4290   -11.0160 
  236.8750     2.2300    63.7500     9.2900     7.9400     9.6510    23.3230   -11.0600 
  237.0000     2.2130    63.7500     9.2900     7.9400     9.2980    23.0140   -11.0850 
  237.1250     2.1700    63.7500     9.2900     7.9400     8.5110    22.2380   -11.0910 
  237.2500     2.0920    63.7500     9.2900     7.9400     7.1130    20.0610   -11.1150 
  237.3750     1.9920    63.7500     9.2900     7.9400     5.7570    15.5860   -11.1260 
  237.5000     1.8960    63.7500     9.2900     7.9400     5.1310    13.1000   -11.1390 
  237.6250     1.8280    63.7500     9.2900     7.9400     5.0260    12.7140  -999.2500 
  237.7500     1.7890    63.7500     9.2900     7.9400     5.0210    12.6700  -999.2500 
  237.8750     1.7730    63.7500     9.2900     7.9400     5.0210    12.6700  -999.2500 
  238.0000     1.7720    63.7500     9.2900     7.9400     5.0220    12.6700  -999.2500 
  238.1250     1.7740    63.7500     9.2900     7.9400     5.0210    12.6700  -999.2500 
  238.2500     1.7770    63.7500     9.2900     7.9400     5.0210    12.6700  -999.2500 
  238.3750     1.7770    63.7500     9.2900     7.9400     5.0220    12.6700  -999.2500 
  238.5000     1.7760    63.7500     9.2900     7.9400     5.0220    12.6700  -999.2500 
  238.6250     1.7750    63.7500     9.2900     7.9400     5.0220    12.6700  -999.2500 
  238.7500     1.7760    63.7500     9.2900     7.9400     5.0240    12.6690  -999.2500 
  238.8750     1.7770    63.7500     9.2900     7.9400     5.0250    12.6680  -999.2500 
  239.0000     1.7780    63.7500     9.2900     7.9400     5.0240    12.6600  -999.2500 
