~V
VERS. 2.00: Ver 2.00
~W
STRT.M 50.0000:
STOP.M 221.0000:
STEP.M 0.1250:
NULL. -999.2500:
UWI. F11120:
~C
DEPT.M :
DEN.GM/CC :
GR.API :
RML.OHMM :
RI. :
RXO.OHMM :
CALI.CM :
SP.MV :
~A
# ...
   95.0000     2.1350    56.3100    11.2490     9.3990    12.8160    26.6590   -21.1280 
   95.1250     2.1060    59.1600    10.3490     8.7100    11.7180    26.8970   -21.7360 
   95.2500     2.0980    62.0500     9.9830     8.2940    11.6180    27.0870   -22.2570 
   95.3750     2.1030    62.9350     9.8550     8.0450    11.5710    27.1770   -22.6380 
   95.5000     2.1150    61.8310     9.7260     7.8500    11.2760    27.1940   -22.8410 
   95.6250     2.1270    60.7730     9.4750     7.6370    10.6070    27.1750   -22.8110 
   95.7500     2.1400    60.3980     9.1590     7.4040    10.0890    27.1360   -22.5990 
   95.8750     2.1520    61.1300     8.8540     7.1760     9.5930    27.0930   -22.2470 
   96.0000     2.1640    63.4720     8.6190     6.9790     9.2270    27.0650   -21.8210 
   96.1250     2.1710    65.1810     8.4830     6.8400     9.0740    27.0560   -21.4040 
   96.2500     2.1760    65.7080     8.4090     6.7480     9.0240    27.0560   -21.0500 
   96.3750     2.1800    65.4510     8.3630     6.6860     8.9280    27.0560   -20.7880 
   96.5000     2.1830    65.6440     8.3230     6.6410     8.8650    27.0490   -20.6320 
   96.6250     2.1850    66.5760     8.2920     6.6070     8.8090    27.0290   -20.6170 
   96.7500     2.1830    66.3880     8.2910     6.5910     8.7700    26.9930   -20.7390 
   96.8750     2.1750    66.3220     8.3530     6.6110     8.6620    26.9340   -20.9940 
   97.0000     2.1600    65.8540     8.5040     6.6860     8.5890    26.7940   -21.3540 
   97.1250     2.1420    63.5210     8.7690     6.8370     8.8480    26.5860   -21.7810 
   97.2500     2.1250    60.8800     9.1080     7.0490     9.3590    26.3970   -22.2350 
   97.3750     2.1140    61.0550     9.4830     7.3060     9.9320    26.3050   -22.7070 
   97.5000     2.1110    65.1580     9.8700     7.5930    10.3430    26.2940   -23.1950 
   97.6250     2.1220    67.5000    10.3090     7.9260    10.6500    26.3120   -23.6950 
   97.7500     2.1380    66.4440    10.8790     8.3320    10.9850    26.3220   -24.1860 
   97.8750     2.1520    63.8590    11.6440     8.8460    11.5000    26.3240   -24.6520 
   98.0000     2.1610    61.5070    12.5940     9.4750    12.3360    26.3270   -25.0800 
   98.1250     2.1660    60.0080    13.5690    10.1480    14.4180    26.3610   -25.4610 
   98.2500     2.1670    59.1120    14.2860    10.7020    18.1030    26.4450   -25.8150 
   98.3750     2.1590    59.6120    14.5180    10.9820    21.4610    26.5440   -26.1560 
   98.5000     2.1440    61.5690    14.1890    10.9060    20.3530    26.5650   -26.4890 
   98.6250     2.1290    62.1420    13.4010    10.4940    15.2160    26.4670   -26.7990 
   98.7500     2.1230    61.8600    12.5330     9.9690    12.4950    26.3240   -27.0740 
   98.8750     2.1280    61.0980    11.8250     9.4870    11.7410    26.1970   -27.3060 
   99.0000     2.1390    60.5400    11.4010     9.1470    11.7730    26.0860   -27.5030 
   99.1250     2.1510    61.0580    11.3040     9.0040    11.8060    26.0010   -27.6780 
   99.2500     2.1650    61.4170    11.3920     8.9980    11.8060    25.9690   -27.8260 
   99.3750     2.1800    61.2590    11.5510     9.0690    11.8240    25.9700   -27.9300 
   99.5000     2.1920    59.9590    11.6890     9.1550    12.0000    25.9910   -27.9780 
   99.6250     2.2000    59.8430    11.7230     9.1940    12.2980    26.0350   -27.9620 
   99.7500     2.1990    61.3260    11.6460     9.1650    12.5310    26.0730   -27.9020 
   99.8750     2.1900    61.4480    11.4740     9.0720    12.7600    26.0960   -27.8130 
  100.0000     2.1790    60.6960    11.2570     8.9410    13.0310    26.0890   -27.7000 
  100.1250     2.1720    59.3650    11.0680     8.8150    12.7490    26.0430   -27.5560 
  100.2500     2.1660    57.4680    10.9600     8.7350    12.4500    26.0000   -27.3910 
  100.3750     2.1650    55.2700    10.9430     8.7160    12.3270    25.9710   -27.2080 
  100.5000     2.1720    55.1220    10.9930     8.7530    12.3920    25.9550   -27.0120 
  100.6250     2.1840    57.3590    11.0620     8.8230    12.6040    25.9380   -26.8010 
  100.7500     2.1930    59.0240    11.1090     8.8920    12.7300    25.9200   -26.5720 
  100.8750     2.1920    60.5030    11.1380     8.9520    12.6750    25.9100   -26.3150 
  101.0000     2.1860    62.5510    11.1750     9.0100    12.5030    25.9090   -26.0200 
  101.1250     2.1880    64.9550    11.2440     9.0770    12.3870    25.9240   -25.6790 
  101.2500     2.1980    65.4980    11.2960     9.1250    12.3200    25.9670   -25.2920 
  101.3750     2.2090    63.7450    11.2280     9.0980    12.3000    26.0380   -24.8600 
  101.5000     2.2140    61.3490    10.9220     8.9270    12.1640    26.1260   -24.3890 
  101.6250     2.2130    61.5050    10.2480     8.5350    11.5660    26.2110   -23.8860 
  101.7500     2.2110    64.4740     9.3280     7.9810    10.5440    26.2980   -23.3780 
  101.8750     2.2050    67.7730     8.3600     7.3760     9.4170    26.3660   -22.8930 
  102.0000     2.1910    69.6290     7.5960     6.8600     8.6720    26.3980   -22.4700 
  102.1250     2.1760    69.7440     7.3390     6.6160     7.8720    26.3940   -22.1590 
  102.2500     2.1680    68.4030     7.6350     6.6960     7.4740    26.3540   -21.9560 
  102.3750     2.1680    65.2650     8.4440     7.1080     7.9080    26.2740   -21.8460 
  102.5000     2.1650    61.3580     9.5430     7.7490     9.0870    26.2100   -21.7970 
  102.6250     2.1560    59.9880    10.3770     8.2950     9.7400    26.1760   -21.7780 
  102.7500     2.1550    62.4160    10.4350     8.3850    10.2340    26.1670   -21.7530 
  102.8750     2.1710    66.4750     9.6120     7.9120    10.5940    26.2430   -21.7000 
  103.0000     2.1970    69.2630     8.2880     7.0820     9.5920    26.5110   -21.6020 
  103.1250     2.2160    71.8900     7.1300     6.2890     7.3810    26.8680   -21.4570 
  103.2500     2.2190    75.5840     6.5370     5.8010     5.9250    27.0160   -21.3100 
  103.3750     2.2100    77.7520     6.6470     5.7300     6.5000    26.7980   -21.2180 
  103.5000     2.1980    75.6170     7.5350     6.1540     8.3440    26.3690   -21.2360 
  103.6250     2.2040    69.0670     9.4500     7.2830    10.1270    26.1450   -21.4150 
  103.7500     2.2370    62.4980    12.2810     9.1250    12.4070    26.1200   -21.7270 
  103.8750     2.3010    59.9300    15.7880    11.6560    16.9140    26.2850   -22.1570 
  104.0000     2.3860    62.5080    19.2770    14.5320    25.4780    26.5680   -22.6860 
  104.1250     2.4570    66.7930    21.2100    16.6670    35.3890    26.7830   -23.2920 
  104.2500     2.4780    67.7050    20.8030    17.1110    36.6980    26.7540   -23.9300 
  104.3750     2.4340    66.4070    18.3690    15.8060    28.3880    26.4660   -24.5730 
  104.5000     2.3420    66.0700    15.1340    13.5880    18.7590    26.0440   -25.1990 
  104.6250     2.2490    66.9600    12.4390    11.4880    14.2650    25.8200   -25.7910 
  104.7500     2.1870    66.7690    10.7020     9.9520    12.2780    25.7680   -26.3480 
  104.8750     2.1590    64.6250     9.8570     9.0060    11.5020    25.7880   -26.8690 
  105.0000     2.1500    60.9770     9.6610     8.5460    11.4750    25.7870   -27.3490 
  105.1250     2.1480    57.5340     9.8420     8.4570    11.6090    25.7240   -27.7680 
  105.2500     2.1460    56.3380    10.0700     8.5190    11.7570    25.6860   -28.1110 
  105.3750     2.1450    58.1310    10.1930     8.6080    11.7820    25.6800   -28.3530 
  105.5000     2.1450    61.3540    10.1680     8.6410    11.6620    25.6950   -28.4730 
  105.6250     2.1440    64.2770    10.0130     8.5780    11.4420    25.7280   -28.4490 
  105.7500     2.1420    66.4330     9.8120     8.4600    11.2800    25.7440   -28.3320 
  105.8750     2.1390    67.0380     9.6090     8.3230    11.1330    25.7490   -28.1490 
  106.0000     2.1380    65.3630     9.4380     8.1900    10.9330    25.7480   -27.9280 
  106.1250     2.1440    63.1170     9.3370     8.0760    10.8410    25.7460   -27.6780 
