~V
VERS. 2.00: Ver 2.00
~W
STRT.M 58.0000:
STOP.M 208.0000:
STEP.M 0.1250:
NULL. -999.2500:
UWI. F11103:
~C
DEPT.M :
DEN.GM/CC :
SP.MV :
GR.API :
RML.OHMM :
RI. :
RXO.OHMM :
CALI.CM :
~A
# ...
   80.5000     2.3080   -23.5150    77.9520     9.5710     7.8830     9.6270    26.5950 
   80.6250     2.3270   -24.1570    74.9740    10.9800     9.1040    17.2140    26.3310 
   80.7500     2.3380   -24.9080    71.2950    11.6690     9.8850    22.5890    26.2840 
   80.8750     2.3340   -25.7600    70.6300    11.2800     9.8620    17.6600    26.3130 
   81.0000     2.3120   -26.6810    71.8270    10.0320     9.0600    11.4130    26.3660 
   81.1250     2.2770   -27.6560    73.1000     8.7920     8.1120     9.3270    26.4150 
   81.2500     2.2370   -28.6090    74.1460     7.9970     7.3870     8.9790    26.2900 
   81.3750     2.2000   -29.5400    72.3620     7.7440     7.0260     9.1370    26.0960 
   81.5000     2.1750   -30.3950    69.6390     7.9440     7.0450     9.3080    26.0280 
   81.6250     2.1630   -31.1680    68.1960     8.3010     7.2510     9.4810    26.1030 
   81.7500     2.1610   -31.8350    67.9010     8.6450     7.5150     9.4650    26.1470 
   81.8750     2.1650   -32.4050    67.6590     8.8770     7.7400     9.2700    26.1550 
   82.0000     2.1710   -32.8400    66.6470     8.9470     7.8500     9.2560    26.1550 
   82.1250     2.1740   -33.1660    64.6400     8.9120     7.8570     9.4430    26.1570 
   82.2500     2.1730   -33.3910    62.9640     8.8290     7.7930     9.6480    26.1660 
   82.3750     2.1670   -33.5180    63.3620     8.7520     7.7030     9.8420    26.2200 
   82.5000     2.1570   -33.5160    62.8100     8.7180     7.6260    10.0450    26.2210 
   82.6250     2.1480   -33.4310    59.1300     8.7200     7.5630    10.3640    26.1920 
   82.7500     2.1410   -33.2540    56.7750     8.7270     7.4950    10.6170    26.1710 
   82.8750     2.1380   -33.0080    61.3790     8.6960     7.3940    10.5010    26.2200 
   83.0000     2.1380   -32.7410    72.2450     8.5970     7.2480    10.0250    26.2340 
   83.1250     2.1390   -32.4660    77.7260     8.4670     7.0840     9.5730    26.2610 
   83.2500     2.1380   -32.1950    73.3740     8.3540     6.9370     9.5960    26.2800 
   83.3750     2.1360   -31.9420    65.7850     8.2980     6.8370     9.8300    26.2020 
   83.5000     2.1350   -31.7560    66.1410     8.3250     6.8180    10.0020    25.9970 
   83.6250     2.1350   -31.5920    70.1200     8.4010     6.8710    10.1790    25.8770 
   83.7500     2.1370   -31.4960    70.8030     8.5000     6.9810    10.4560    25.8410 
   83.8750     2.1400   -31.4620    69.1300     8.6050     7.1190    10.7010    25.8350 
   84.0000     2.1450   -31.4690    68.7500     8.7090     7.2450    10.8650    25.8230 
   84.1250     2.1500   -31.4870    68.2190     8.8050     7.3300    10.9530    25.7790 
   84.2500     2.1540   -31.5290    67.5400     8.8890     7.3700    10.7800    25.7040 
   84.3750     2.1560   -31.5860    67.4450     8.9520     7.3720    10.5050    25.6750 
   84.5000     2.1550   -31.6540    66.2600     8.9720     7.3480    10.6750    25.6700 
   84.6250     2.1530   -31.7190    62.5180     8.9420     7.3120    10.9390    25.6700 
   84.7500     2.1510   -31.7420    60.2030     8.8550     7.2640    10.8760    25.6700 
   84.8750     2.1500   -31.7040    61.7060     8.7140     7.1950    10.5700    25.6750 
   85.0000     2.1520   -31.6480    63.3780     8.5400     7.0950    10.6000    25.6990 
   85.1250     2.1590   -31.5440    62.6390     8.4050     6.9960    11.0250    25.7490 
   85.2500     2.1690   -31.4160    61.0170     8.4020     6.9650    11.5180    25.7600 
   85.3750     2.1850   -31.2490    60.4610     8.6120     7.0820    11.8460    25.7750 
   85.5000     2.2060   -31.0360    60.2440     9.0830     7.4200    12.4040    25.8660 
   85.6250     2.2290   -30.8040    59.6250     9.6660     7.9010    14.6910    25.9890 
   85.7500     2.2510   -30.6050    58.1860    10.1650     8.3960    21.2760    26.1140 
   85.8750     2.2660   -30.4270    58.0070    10.3500     8.7150    31.8710    26.1830 
   86.0000     2.2690   -30.2640    62.3660    10.0080     8.6290    28.9880    26.3880 
   86.1250     2.2560   -30.1320    68.4520     9.3320     8.2140    18.1010    26.8160 
   86.2500     2.2290   -30.0050    70.1670     8.5770     7.6460    12.1540    27.1920 
   86.3750     2.1920   -29.9040    66.6370     7.9720     7.1210    10.5200    27.3180 
   86.5000     2.1520   -29.8300    62.3760     7.6750     6.7970    10.4220    27.3360 
   86.6250     2.1170   -29.7680    58.0930     7.6020     6.6620    10.2510    27.3500 
   86.7500     2.0880   -29.6930    52.3340     7.6360     6.6520     9.6230    27.4330 
   86.8750     2.0630   -29.5950    48.0180     7.6630     6.6840     8.8790    27.6200 
   87.0000     2.0410   -29.3960    50.8530     7.6120     6.6940     8.3180    27.8510 
   87.1250     2.0210   -29.1630    57.1590     7.5030     6.6650     7.9550    28.0010 
   87.2500     2.0070   -28.8940    61.8390     7.3610     6.6010     7.7360    28.0060 
   87.3750     2.0000   -28.5720    64.0650     7.2050     6.5160     7.6310    27.8490 
   87.5000     2.0060   -28.1700    65.9090     7.0400     6.4220     7.5030    27.3880 
   87.6250     2.0220   -27.7490    67.7180     6.8780     6.3240     7.3170    26.9860 
   87.7500     2.0480   -27.3010    67.0540     6.7450     6.2210     7.3980    26.5930 
   87.8750     2.0780   -26.8590    64.9380     6.6680     6.1150     7.5580    26.1810 
   88.0000     2.1080   -26.4510    66.5320     6.6680     6.0250     7.3660    25.9360 
   88.1250     2.1340   -26.0850    71.2250     6.7110     5.9700     7.0430    25.7810 
   88.2500     2.1550   -25.7520    74.6390     6.7590     5.9550     7.1000    25.7340 
   88.3750     2.1700   -25.4640    76.5390     6.7790     5.9630     7.5760    25.6290 
   88.5000     2.1800   -25.2460    80.1950     6.7290     5.9440     8.3490    25.5250 
   88.6250     2.1880   -25.0780    82.6800     6.6120     5.8590     8.1920    25.4500 
   88.7500     2.1940   -24.9680    79.2310     6.4490     5.7030     7.7220    25.3250 
   88.8750     2.1980   -24.9410    74.0120     6.3030     5.5250     7.2300    25.2800 
   89.0000     2.2010   -25.0820    75.5190     6.2960     5.4380     6.8470    25.2720 
   89.1250     2.2010   -25.3150    80.6040     6.4840     5.5180     6.8660    25.2670 
   89.2500     2.1990   -25.6480    82.7350     6.8710     5.7900     7.6910    25.2350 
   89.3750     2.1940   -26.0540    79.5160     7.3930     6.2250    10.6900    25.2770 
   89.5000     2.1860   -26.5720    74.7340     7.9010     6.7210    17.1300    25.3380 
   89.6250     2.1790   -27.1480    71.3510     8.2480     7.1270    19.9880    25.3490 
   89.7500     2.1740   -27.7790    68.1550     8.3880     7.3580    14.7510    25.3550 
   89.8750     2.1720   -28.4190    64.2350     8.3820     7.4200    10.9140    25.3720 
   90.0000     2.1740   -29.0050    59.9360     8.3510     7.3850    10.2590    25.4280 
   90.1250     2.1770   -29.5060    57.7460     8.3720     7.3500    10.6820    25.4330 
   90.2500     2.1810   -29.9250    59.8110     8.4300     7.3400    11.0980    25.4200 
   90.3750     2.1840   -30.2700    64.0120     8.4730     7.3380    11.3180    25.3610 
   90.5000     2.1850   -30.5240    65.0240     8.4530     7.3120    11.2310    25.4910 
   90.6250     2.1850   -30.7200    64.1320     8.4030     7.2760    10.9590    25.7160 
   90.7500     2.1850   -30.8790    64.1210     8.3820     7.2650    10.3770    25.7760 
   90.8750     2.1840   -31.0110    65.6410     8.4390     7.3160     9.5580    25.3960 
   91.0000     2.1850   -31.1280    67.9520     8.5890     7.4540    10.0910    24.9490 
   91.1250     2.1860   -31.2230    70.7050     8.7780     7.6400    10.6760    24.7890 
   91.2500     2.1860   -31.3270    70.9900     8.9430     7.8250    11.1380    24.7670 
   91.3750     2.1860   -31.4650    66.2470     9.0140     7.9510    11.5230    24.8590 
   91.5000     2.1840   -31.6320    59.9800     8.9190     7.9410    11.8820    25.0120 
   91.6250     2.1800   -31.7870    56.7450     8.6920     7.8000    11.8610    25.0370 
