~V
VERS. 2.00: Ver 2.00
~W
STRT.M 63.0000:
STOP.M 219.0000:
STEP.M 0.1250:
NULL. -999.2500:
UWI. F11123:
~C
DEPT.M :
GR.API :
RML.OHMM :
RI. :
RXO.OHMM :
CALI.CM :
SP.MV :
DEN.GM/CC :
~A
# ...
  209.2500    76.4290     7.5760     8.4970     6.1900    25.1200    -7.6940     2.2580 
  209.3750    76.4290     7.0650     7.9020     5.6850    25.1570    -6.9040     2.1850 
  209.5000    76.4290     6.6990     7.4560     5.3360    25.2000    -6.1590     2.1310 
  209.6250    76.4290     6.4790     7.1770     5.3610    25.2430    -5.5680     2.1200 
  209.7500    76.4290     6.3480     7.0090     5.3320    25.2800    -5.1190     2.1390 
  209.8750    76.4290     6.2570     6.9030     5.4080    25.3030    -4.8010     2.1720 
  210.0000    76.4290     6.1690     6.8230     5.6450    25.3020    -4.6230     2.2040 
  210.1250    76.4290     6.0870     6.7730     5.8370    25.2740    -4.5970     2.2330 
  210.2500    76.4290     6.0530     6.7690     6.3150    25.2350    -4.6590     2.2650 
  210.3750    76.4290     6.0890     6.8140     7.2330    25.1910    -4.7940     2.2970 
  210.5000    76.4290     6.1720     6.8870     7.7170    25.1490    -4.9830     2.3180 
  210.6250    76.4290     6.2450     6.9530     7.6500    25.1170    -5.1590     2.3200 
  210.7500    76.4290     6.2850     6.9900     7.8190    25.0900    -5.2960     2.3100 
  210.8750    76.4290     6.3080     7.0010     8.2940    25.0690    -5.4060     2.2940 
  211.0000    76.4290     6.3310     6.9970     8.2500    25.0560    -5.4840     2.2770 
  211.1250    76.4290     6.3510     6.9900     7.6350    24.9860    -5.4870     2.2640 
  211.2500    76.4290     6.3580     6.9860     7.7360    24.9850    -5.4490     2.2590 
  211.3750    76.4290     6.3520     6.9860     7.9930    24.9800    -5.3870     2.2610 
  211.5000    76.4290     6.3430     6.9900     7.8820    24.9730    -5.3380     2.2690 
  211.6250    76.4290     6.3480     6.9970     6.4820    24.9530    -5.3240     2.2770 
  211.7500    76.4290     6.3650     7.0020     5.8380    24.9190    -5.3500     2.2810 
  211.8750    76.4290     6.3820     7.0060     5.5930    24.8800    -5.3910     2.2810 
  212.0000    76.4290     6.3850     7.0080     5.1860    24.8750    -5.4560     2.2800 
  212.1250    76.4290     6.3850     7.0080     5.2650    24.9070    -5.5840     2.2810 
  212.2500    76.4290     6.3850     7.0080     6.2720    24.9170    -5.7220     2.2850 
  212.3750    76.4290     6.3850     7.0080     7.7800    24.9140    -5.8310     2.2950 
  212.5000    76.4290     6.3850     7.0080     7.5290    24.8870    -5.9050     2.3050 
  212.6250    76.4290     6.3850     7.0080     6.7030    24.8870    -5.9430     2.3080 
  212.7500    76.4290     6.3850     7.0080     6.4560    24.8700    -5.9670     2.3030 
  212.8750    76.4290     6.3850     7.0080     6.0160    24.8600    -5.9740     2.2940 
  213.0000    76.4290     6.3850     7.0080     5.4460    24.8580    -5.9860     2.2930 
  213.1250    76.4290     6.3850     7.0080     6.1700    24.8520    -6.0140     2.3120 
  213.2500    76.4290     6.3850     7.0080     8.0170    24.8210    -6.0700     2.3390 
  213.3750    76.4290     6.3850     7.0080     8.7260    24.7910    -6.1510     2.3590 
  213.5000    76.4290     6.3850     7.0080     7.7620    24.7970    -6.3060     2.3580 
  213.6250    76.4290     6.3850     7.0080     5.9000    24.7940    -6.5840     2.3450 
  213.7500    76.4290     6.3850     7.0080     5.7410    24.7940    -6.9330     2.3330 
  213.8750    76.4290     6.3850     7.0080     5.9190    24.7950    -7.3350     2.3180 
  214.0000    76.4290     6.3850     7.0080     5.8420    24.7990    -7.7570     2.2930 
  214.1250    76.4290     6.3850     7.0080     5.3470    24.7900    -8.1510     2.2550 
  214.2500    76.4290     6.3850     7.0080     4.9850    24.7540    -8.5030     2.2170 
  214.3750    76.4290     6.3850     7.0080     4.7230    24.6990    -8.7930     2.1860 
  214.5000    76.4290     6.3850     7.0080     4.5980    24.6700    -8.8450     2.1650 
  214.6250    76.4290     6.3850     7.0080     4.5710    24.6660    -8.8450     2.1540 
  214.7500    76.4290     6.3850     7.0080     4.5710    24.6640  -999.2500     2.1460 
  214.8750    76.4290     6.3850     7.0080     4.5700    24.6600  -999.2500     2.1420 
  215.0000    76.4290     6.3850     7.0080     4.5700    24.6640  -999.2500     2.1440 
  215.1250    76.4290     6.3850     7.0080     4.5690    24.6620  -999.2500     2.1500 
  215.2500    76.4290     6.3850     7.0080     4.5700    24.6380  -999.2500     2.1550 
  215.3750    76.4290     6.3850     7.0080     4.5690    24.6420  -999.2500     2.1560 
  215.5000    76.4290     6.3850     7.0080     4.5690    24.6480  -999.2500     2.1520 
  215.6250    76.4290     6.3850     7.0080     4.5670    24.6680  -999.2500     2.1440 
  215.7500    76.4290     6.3850     7.0080     4.5670    24.6670  -999.2500     2.1380 
  215.8750    76.4290     6.3850     7.0080     4.5690    24.6720  -999.2500     2.1360 
  216.0000    76.4290     6.3850     7.0080     4.5700    24.6680  -999.2500     2.1360 
  216.1250    76.4290     6.3850     7.0080     4.5680    24.6660  -999.2500     2.1400 
  216.2500    76.4290     6.3850     7.0080     4.5670    24.6700  -999.2500     2.1440 
  216.3750    76.4290     6.3850     7.0080     4.5660    24.6700  -999.2500     2.1450 
  216.5000    76.4290     6.3850     7.0080     4.5660    24.6700  -999.2500     2.1450 
  216.6250    76.4290     6.3850     7.0080     4.5650    24.6650  -999.2500     2.1450 
  216.7500    76.4290     6.3850     7.0080     4.5650    24.6650  -999.2500     2.1470 
  216.8750    76.4290     6.3850     7.0080     4.5650    24.6650  -999.2500     2.1520 
  217.0000  -999.2500  -999.2500  -999.2500  -999.2500  -999.2500  -999.2500     2.1560 
  217.1250  -999.2500  -999.2500  -999.2500  -999.2500  -999.2500  -999.2500     2.1580 
  217.2500  -999.2500  -999.2500  -999.2500  -999.2500  -999.2500  -999.2500     2.1550 
  217.3750  -999.2500  -999.2500  -999.2500  -999.2500  -999.2500  -999.2500     2.1500 
  217.5000  -999.2500  -999.2500  -999.2500  -999.2500  -999.2500  -999.2500     2.1430 
  217.6250  -999.2500  -999.2500  -999.2500  -999.2500  -999.2500  -999.2500     2.1400 
  217.7500  -999.2500  -999.2500  -999.2500  -999.2500  -999.2500  -999.2500     2.1390 
  217.8750  -999.2500  -999.2500  -999.2500  -999.2500  -999.2500  -999.2500     2.1420 
  218.0000  -999.2500  -999.2500  -999.2500  -999.2500  -999.2500  -999.2500     2.1440 
  218.1250  -999.2500  -999.2500  -999.2500  -999.2500  -999.2500  -999.2500     2.1460 
  218.2500  -999.2500  -999.2500  -999.2500  -999.2500  -999.2500  -999.2500     2.1480 
  218.3750  -999.2500  -999.2500  -999.2500  -999.2500  -999.2500  -999.2500     2.1500 
  218.5000  -999.2500  -999.2500  -999.2500  -999.2500  -999.2500  -999.2500  -999.2500 
  218.6250  -999.2500  -999.2500  -999.2500  -999.2500  -999.2500  -999.2500  -999.2500 
  218.7500  -999.2500  -999.2500  -999.2500  -999.2500  -999.2500  -999.2500  -999.2500 
  218.8750  -999.2500  -999.2500  -999.2500  -999.2500  -999.2500  -999.2500  -999.2500 
  219.0000  -999.2500  -999.2500  -999.2500  -999.2500  -999.2500  -999.2500  -999.2500 
