~V
VERS. 2.00: Ver 2.00
~W
STRT.M 40.0000:
STOP.M 206.0000:
STEP.M 0.1250:
NULL. -999.2500:
UWI. F11104:
~C
DEPT.M :
GR.API :
RML.OHMM :
RI. :
RXO.OHMM :
CALI.CM :
SP.MV :
DEN.GM/CC :
~A
# ...
  197.5000    64.8220     8.4820     6.9670     8.9610    23.9190     1.2510     2.3570 
  197.6250    64.8220     8.6080     7.0110     9.5440    23.9120     1.2060     2.3290 
  197.7500    64.8220     8.5820     6.9910     7.2400    23.9100     1.2210     2.3040 
  197.8750    64.8220     8.4330     6.9410     5.8010    23.9110     1.2980     2.2970 
  198.0000    64.8220     8.2250     6.8810     5.3630    23.9130     1.4310     2.3180 
  198.1250    64.8220     8.0750     6.8350     5.3350    23.9230     1.6080     2.3630 
  198.2500    64.8220     8.0440     6.8180     5.1070    23.9470     1.8280     2.4190 
  198.3750    64.8220     8.1110     6.8350     4.6720    23.9690     2.0360     2.4560 
  198.5000    64.8220     8.2010     6.8780     4.4400    23.9760     2.2120     2.4560 
  198.6250    64.8220     8.2520     6.9370     4.9290    23.9880     2.3580     2.4170 
  198.7500    64.8220     8.2640     6.9940     5.8090    24.0340     2.4250     2.3500 
  198.8750    64.8220     8.2510     7.0320     6.3070    24.1070     2.4210     2.2750 
  199.0000    64.8220     8.2320     7.0460     5.8040    24.1730     2.3700     2.2130 
  199.1250    64.8220     8.2230     7.0440     5.6440    24.2180     2.2790     2.1780 
  199.2500    64.8220     8.2240     7.0350     5.6310    24.2740     2.1930     2.1820 
  199.3750    64.8220     8.2340     7.0270     5.5930    24.2670     2.1280     2.2330 
  199.5000    64.8220     8.2570     7.0220     5.4020    24.1420     2.0920     2.2980 
  199.6250    64.8220     8.2880     7.0260     5.1960    23.9540     2.0670     2.3510 
  199.7500    64.8220     8.3050     7.0400     4.9880    23.8470     2.0450     2.3740 
  199.8750    64.8220     8.3040     7.0580     4.9190    23.8280     2.0260     2.3710 
  200.0000    64.8220     8.2820     7.0800     5.2700    23.8300     1.9790     2.3610 
  200.1250    64.8220     8.2310     7.1060     5.8000    23.8190     1.8970     2.3570 
  200.2500    64.8220     8.5280     7.2300     6.3030    23.8000     1.7960     2.3650 
  200.3750    64.8220     9.9990     8.9280     6.3840    23.7820     1.6880     2.3820 
  200.5000    64.8220    14.2220    15.3240     6.6330    23.7680     1.5880     2.3960 
  200.6250    64.8220    23.2480    28.8260     6.9910    23.7650     1.5120     2.3940 
  200.7500    64.8220    35.3070    44.9430     7.0200    23.7920     1.4500     2.3760 
  200.8750    64.8220    35.3070    44.9430     6.6730    23.8380     1.4230     2.3510 
  201.0000    64.8220    35.3070    44.9430     6.4530    23.8800     1.3880     2.3380 
  201.1250    64.8220    35.3070    44.9430     6.9400    23.9020     1.3350     2.3480 
  201.2500    64.8220    35.3070    44.9430     8.0070    23.9180     1.2410     2.3770 
  201.3750    64.8220    35.3070    44.9430     9.9000    23.9420     1.1280     2.4170 
  201.5000    64.8220    35.3070    44.9430    12.6520    23.9670     1.0150     2.4560 
  201.6250    64.8220    35.3070    44.9430    15.5690    23.9820     0.9150     2.4900 
  201.7500    64.8220    35.3070    44.9430    13.8220    23.9960     0.8300     2.5150 
  201.8750    64.8220    35.3070    44.9430    12.8060    24.0280     0.7760     2.5170 
  202.0000    64.8220    35.3070    44.9430    13.0860    24.0630     0.7590     2.4880 
  202.1250    64.8220    35.3070    44.9430    13.0600    24.0500     0.7510     2.4260 
  202.2500    64.8220    35.3070    44.9430    12.6290    24.0970  -999.2500     2.3470 
  202.3750    64.8220    35.3070    44.9430    10.9660    23.9010  -999.2500     2.2730 
  202.5000    64.8220    35.3070    44.9430     9.0870    22.7600  -999.2500     2.2200 
  202.6250    64.8220    35.3070    44.9430     6.7320    20.6670  -999.2500     2.1910 
  202.7500    64.8220    35.3070    44.9430     5.5310    18.8690  -999.2500     2.1800 
  202.8750    64.8220    35.3070    44.9430     5.1530    18.1780  -999.2500     2.1790 
  203.0000    64.8220    35.3070    44.9430     5.1270    18.1710  -999.2500     2.1760 
  203.1250    64.8220    35.3070    44.9430     5.1270    18.2000  -999.2500     2.1690 
  203.2500    64.8220    35.3070    44.9430     5.1270    18.1920  -999.2500     2.1620 
  203.3750    64.8220    35.3070    44.9430     5.1260    18.1910  -999.2500     2.1570 
  203.5000    64.8220    35.3070    44.9430     5.1250    18.1920  -999.2500     2.1560 
  203.6250    64.8220    35.3070    44.9430     5.1240    18.1910  -999.2500     2.1560 
  203.7500    64.8220    35.3070    44.9430     5.1240    18.1910  -999.2500     2.1530 
  203.8750    64.8220    35.3070    44.9430     5.1240    18.1920  -999.2500     2.1360 
  204.0000    64.8220    35.3070    44.9430     5.1240    18.1940  -999.2500     2.1170 
  204.1250    64.8220    35.3070    44.9430     5.1240    18.1920  -999.2500     2.1360 
  204.2500    64.8220    35.3070    44.9430     5.1240    18.1870  -999.2500  -999.2500 
  204.3750    64.8220    35.3070    44.9430     5.1220    18.1820  -999.2500  -999.2500 
  204.5000    64.8220    35.3070    44.9430     5.1210    18.1780  -999.2500  -999.2500 
  204.6250    64.8220    35.3070    44.9430     5.1220    18.1780  -999.2500  -999.2500 
  204.7500    64.8220    35.3070    44.9430     5.1220    18.1800  -999.2500  -999.2500 
  204.8750    64.8220    35.3070    44.9430     5.1220    18.1830  -999.2500  -999.2500 
  205.0000    64.8220    35.3070    44.9430     5.1210    18.1860  -999.2500  -999.2500 
  205.1250    64.8220    35.3070    44.9430     5.1200    18.1870  -999.2500  -999.2500 
  205.2500    64.8220    35.3070    44.9430     5.1190    18.1820  -999.2500  -999.2500 
  205.3750    64.8220    35.3070    44.9430     5.1180    18.1750  -999.2500  -999.2500 
  205.5000    64.8220    35.3070    44.9430     5.1180    18.1680  -999.2500  -999.2500 
  205.6250    64.8220    35.3070    44.9430     5.1200    18.1620  -999.2500  -999.2500 
  205.7500  -999.2500  -999.2500  -999.2500  -999.2500  -999.2500  -999.2500  -999.2500 
  205.8750  -999.2500  -999.2500  -999.2500  -999.2500  -999.2500  -999.2500  -999.2500 
  206.0000  -999.2500  -999.2500  -999.2500  -999.2500  -999.2500  -999.2500  -999.2500 
