~V
VERS. 2.00: Ver 2.00
~W
STRT.M 51.0000:
STOP.M 249.0000:
STEP.M 0.1250:
NULL. -999.2500:
UWI. F11143:
~C
DEPT.M :
GR.API :
RML.OHMM :
RI. :
RXO.OHMM :
CALI.CM :
SP.MV :
DEN.GM/CC :
~A
# ...
  174.7500    66.8390    77.3990    77.6600    93.7060    24.3000   -27.1960     2.2520 
  174.8750    68.3210    84.2350    84.4660    89.3460    24.2830   -27.5710     2.2500 
  175.0000    67.6480    88.3740    86.6510    81.4110    24.2530   -27.9560     2.2530 
  175.1250    63.1650    92.9600    87.6530    85.9650    24.1880   -28.2910     2.2590 
  175.2500    60.2280    99.7160    89.9950    93.8780    24.1270   -28.5600     2.2640 
  175.3750    61.1810   108.3630    93.9310   105.8640    24.0670   -28.7780     2.2670 
  175.5000    63.5710   117.3910    98.5990   118.7740    24.0330   -28.9440     2.2690 
  175.6250    63.9980   124.0070   102.1520   123.5590    24.0270   -29.0720     2.2820 
  175.7500    63.2300   126.8370   103.3970   116.8160    24.0320   -29.1450     2.3010 
  175.8750    63.3600   126.0240   102.2670   108.8400    24.0880   -29.1310     2.3090 
  176.0000    63.3880   122.6820    99.4450   101.2810    24.1730   -29.0840     2.2940 
  176.1250    63.1430   117.7480    95.5350   105.0540    24.2080   -29.0610     2.2650 
  176.2500    66.1510   112.5480    91.3740   102.3550    24.1910   -29.0530     2.2460 
  176.3750    71.5710   108.4680    87.8990    97.2200    24.1570   -29.0500     2.2400 
  176.5000    73.1560   107.1190    86.3080    95.5080    24.1330   -29.0650     2.2430 
  176.6250    67.3260   111.0400    88.6820    87.7360    24.1380   -29.1230     2.2480 
  176.7500    61.0780   120.7400    95.8530    84.7180    24.1870   -29.2320     2.2520 
  176.8750    58.3510   136.0190   108.0460   115.7310    24.2860   -29.3740     2.2510 
  177.0000    58.5530   154.6200   123.6270   163.9000    24.3910   -29.4850     2.2470 
  177.1250    59.9360   170.6600   138.0280   185.4670    24.4650   -29.5370     2.2470 
  177.2500    61.1130   178.5740   146.5050   179.1440    24.5240   -29.5550     2.2520 
  177.3750    61.2680   176.8450   147.2440   175.0420    24.5570   -29.5410     2.2560 
  177.5000    61.1720   168.4970   141.8740   164.6250    24.5530   -29.5030     2.2590 
  177.6250    62.3690   158.2510   133.8760   153.7340    24.5420   -29.4420     2.2560 
  177.7500    62.6340   148.6670   125.9680   145.3470    24.5460   -29.3560     2.2460 
  177.8750    60.3790   139.6700   118.3580   135.1590    24.5570   -29.2700     2.2330 
  178.0000    57.0320   131.1870   111.0130   122.0780    24.5490   -29.2030     2.2260 
  178.1250    56.3070   124.0250   104.5220   108.2840    24.5030   -29.1450     2.2290 
  178.2500    58.2200   119.0220    99.5540    94.5350    24.4520   -29.0720     2.2350 
  178.3750    61.8330   117.0060    96.8290    86.4760    24.4160   -28.9800     2.2410 
  178.5000    66.2080   118.3010    96.7760    89.0960    24.4040   -28.8730     2.2440 
  178.6250    68.9180   122.8690    99.6520    98.3650    24.3520   -28.7460     2.2440 
  178.7500    68.7080   129.1200   104.3500   108.5350    24.2300   -28.6100     2.2440 
  178.8750    65.4480   135.9830   110.1250   113.2420    24.0550   -28.4740     2.2440 
  179.0000    62.3990   142.6850   116.3650   115.9070    23.9020   -28.3470     2.2440 
  179.1250    65.6490   148.8640   122.7400   116.3790    23.8410   -28.2530     2.2460 
  179.2500    70.7800   154.6470   129.1400   116.5920    23.8570   -28.2010     2.2480 
  179.3750    71.2730   159.8800   135.3210   118.0050    23.8950   -28.1710     2.2490 
  179.5000    66.2750   164.1610   140.7830   119.7480    23.8710   -28.1390     2.2480 
  179.6250    62.4310   166.8470   144.8100   121.7130    23.8480   -28.0890     2.2470 
  179.7500    64.7390   167.1260   146.8590   121.1570    23.9230   -28.0350     2.2480 
  179.8750    68.1580   162.2670   144.8670   113.1490    24.0420   -27.9820     2.2510 
  180.0000    69.0440   148.6780   135.5250   100.5760    24.0850   -27.9190     2.2570 
  180.1250    69.0420   124.3670   115.5960    99.7830    24.0330   -27.8360     2.2670 
  180.2500    70.4840    96.6050    90.7080   108.3570    23.9390   -27.7450     2.2770 
  180.3750    73.0890    72.1320    67.6310    94.4390    23.8370   -27.6760     2.2900 
  180.5000    75.3450    54.8050    50.8890    58.7640    23.8560   -27.6500     2.3060 
  180.6250    76.2340    46.5250    42.2830    36.9270    24.0770   -27.6880     2.3200 
  180.7500    76.3370    45.2540    39.4330    27.4080    24.2490   -27.7810     2.3240 
  180.8750    75.2360    50.6180    41.8260    24.5720    24.1370   -27.9060     2.3160 
  181.0000    72.8570    62.6950    49.9910    28.9380    23.7600   -28.0580     2.3000 
  181.1250    68.6940    82.7060    66.1420    55.2760    23.8420   -28.2390     2.2790 
  181.2500    64.1250   108.2130    88.5860    99.1280    24.3450   -28.4300     2.2590 
  181.3750    61.0730   135.1450   113.3010   132.3230    24.8200   -28.6390     2.2460 
  181.5000    59.4970   156.9630   133.7550   147.8380    24.9990   -28.8450     2.2410 
  181.6250    57.9720   166.8240   143.5910   154.9060    24.9640   -28.9910     2.2410 
  181.7500    55.9280   167.8050   145.3120   155.7070    24.8460   -29.0790     2.2400 
  181.8750    54.3360   164.1070   142.4270   152.0980    24.6730   -29.1310     2.2390 
  182.0000    55.9050   158.7310   137.7150   148.2220    24.5050   -29.1490     2.2380 
  182.1250    61.6060   153.0490   132.6700   143.9520    24.4220   -29.1370     2.2380 
  182.2500    64.4900   147.6050   128.0020   139.1850    24.3830   -29.1150     2.2390 
  182.3750    60.9730   142.5420   123.9410   133.4090    24.3690   -29.0750     2.2390 
  182.5000    55.1110   137.9540   120.5820   124.9690    24.3400   -29.0260     2.2380 
  182.6250    54.7750   134.1910   118.1500   114.7320    24.2590   -28.9900     2.2380 
  182.7500    58.3090   131.4290   116.6420   107.2370    24.1610   -28.9350     2.2410 
  182.8750    62.3470   129.4230   115.9060   104.0660    24.1560   -28.8660     2.2460 
  183.0000    65.0470   126.6410   114.7820   102.9780    24.2440   -28.7940     2.2530 
  183.1250    65.4640   119.0840   109.6570   102.6950    24.3830   -28.7280     2.2630 
  183.2500    64.6620   105.1450    98.3730   102.6420    24.4370   -28.6470     2.2760 
  183.3750    63.6890    86.6350    82.0810   104.3900    24.4440   -28.5430     2.2900 
  183.5000    63.5840    68.2150    65.1550   101.4920    24.4420   -28.4150     2.3020 
  183.6250    66.5920    55.1230    52.6650    76.6550    24.4830   -28.2570     2.3060 
  183.7500    72.1550    48.1960    45.4530    46.3080    24.5430   -28.1430     2.2980 
  183.8750    75.7380    47.1660    43.2030    30.5000    24.5300   -28.0690     2.2820 
  184.0000    73.8560    51.2930    45.4290    33.3530    24.3950   -28.0240     2.2660 
  184.1250    70.4370    60.1320    52.4510    53.9300    24.2420   -28.0420     2.2600 
  184.2500    69.8060    71.3160    62.7710    71.0640    24.1540   -28.1330     2.2600 
  184.3750    69.4680    82.6440    74.4680    79.5790    24.1420   -28.2700     2.2610 
  184.5000    67.9340    91.8130    84.7430    89.6960    24.1480   -28.4500     2.2620 
  184.6250    66.1830    97.1660    90.9890    94.2020    24.1330   -28.6960     2.2650 
  184.7500    66.1160   100.3140    94.3410    89.9900    24.0630   -28.9560     2.2700 
  184.8750    67.0290   102.9690    96.4580    82.8040    23.9210   -29.2080     2.2740 
  185.0000    67.5020   106.2320    98.6140    82.5380    23.7060   -29.4570     2.2750 
  185.1250    67.8710   109.9700   101.0400    92.8170    23.6550   -29.6730     2.2730 
  185.2500    68.8490   112.6200   102.6140   101.1090    23.7760   -29.8590     2.2690 
  185.3750    70.7520   112.4940   101.8990   109.6820    23.9560   -30.0680     2.2670 
  185.5000    72.0060   108.8230    98.1340   126.3340    24.0620   -30.2860     2.2660 
  185.6250    70.1270   102.7030    92.0640   144.5380    24.1340   -30.4920     2.2660 
  185.7500    65.8780    97.6150    86.6080   127.2660    24.2490   -30.6670     2.2710 
  185.8750    61.6880    96.2480    84.1320    99.3060    24.3400   -30.8200     2.2780 
