~V
VERS. 2.00: Ver 2.00
~W
STRT.M 63.0000:
STOP.M 208.0000:
STEP.M 0.1250:
NULL. -999.2500:
UWI. F11108:
~C
DEPT.M :
GR.API :
RML.OHMM :
RI. :
RXO.OHMM :
CALI.CM :
SP.MV :
DEN.GM/CC :
~A
# ...
  175.5000    69.4800   190.0090   169.0420   170.3160    24.8380   -25.6800     2.2080 
  175.6250    68.3050   182.4490   163.6950   164.1420    24.8110   -25.7050     2.2200 
  175.7500    68.1710   172.2480   155.8700   155.6490    24.7470   -25.6440     2.2270 
  175.8750    67.5070   160.4410   146.3750   147.0770    24.7020   -25.5370     2.2280 
  176.0000    67.3270   148.4060   136.1490   136.2710    24.6990   -25.4970     2.2250 
  176.1250    71.1050   137.7570   126.3660   119.0780    24.7100   -25.5690     2.2260 
  176.2500    75.9080   128.9410   117.9340   102.3190    24.7190   -25.6320     2.2330 
  176.3750    77.2790   121.9520   111.3570    90.8380    24.7210   -25.5800     2.2440 
  176.5000    75.5840   116.6360   106.6660    85.4100    24.7280   -25.4000     2.2550 
  176.6250    74.2340   112.7630   103.4890    85.7350    24.7350   -25.2650     2.2590 
  176.7500    75.1390   109.2650   100.7010    91.9560    24.7230   -25.2230     2.2600 
  176.8750    77.0630   105.6180    97.7190    94.1250    24.6740   -25.1890     2.2600 
  177.0000    77.7850   101.9550    94.5140    91.5300    24.6250   -25.0580     2.2630 
  177.1250    77.4080    99.0750    91.7370    86.5320    24.5670   -24.7590     2.2710 
  177.2500    79.1500    97.4470    89.9780    75.1630    24.4890   -24.4660     2.2810 
  177.3750    82.1050    97.0050    89.3410    65.9910    24.4090   -24.3100     2.2870 
  177.5000    81.3890    97.1560    89.3900    70.7690    24.3950   -24.1610     2.2880 
  177.6250    75.3740    97.0380    89.3420    92.0360    24.3730   -23.8800     2.2860 
  177.7500    71.4600    96.3560    88.7960    94.4590    24.2210   -23.5750     2.2860 
  177.8750    71.4850    95.4480    87.9920    75.8730    23.9540   -23.2830     2.2900 
  178.0000    73.2490    94.8960    87.4980    59.1490    23.7610   -23.0380     2.2980 
  178.1250    75.5860    94.9960    87.7930    60.1420    23.7040   -22.8160     2.3000 
  178.2500    76.4660    94.9220    88.2610    71.8880    23.7520   -22.5920     2.2960 
  178.3750    76.2240    93.4630    87.7700    87.7610    23.9180   -22.3490     2.2910 
  178.5000    74.9590    89.7160    85.2410    88.7970    24.1410   -22.1530     2.2910 
  178.6250    74.4810    83.7310    80.2470    79.0710    24.1640   -22.0700     2.3010 
  178.7500    75.8870    77.6060    74.5360    64.8670    24.0130   -21.9820     2.3180 
  178.8750    78.1520    73.1960    69.9230    52.7550    23.8410   -21.8570     2.3340 
  179.0000    79.0780    71.6310    67.7880    47.3160    23.7740   -21.7440     2.3450 
  179.1250    75.4660    73.1640    68.8320    52.3560    23.6820   -21.7860     2.3480 
  179.2500    69.7830    75.9020    71.4870    63.4170    23.6200   -21.8900     2.3480 
  179.3750    67.0480    78.1310    74.0820    74.2610    23.6110   -21.9210     2.3470 
  179.5000    70.8970    78.5400    75.1080    79.6460    23.7510   -21.9210     2.3480 
  179.6250    77.7440    76.6620    73.6810    77.9200    24.0230   -21.9770     2.3450 
  179.7500    78.5360    74.0220    71.0600    66.8770    24.2890   -22.0980     2.3330 
  179.8750    74.4660    72.0790    68.6970    55.4360    24.5180   -22.2780     2.3100 
  180.0000    71.9440    71.8270    67.7860    54.9550    24.7310   -22.4090     2.2820 
  180.1250    72.6210    73.6720    69.0340    61.7870    24.9670   -22.3920     2.2590 
  180.2500    71.9390    76.6130    71.6100    72.2860    25.3820   -22.3970     2.2470 
  180.3750    69.6690    79.8470    74.6970    81.7560    25.8250   -22.4840     2.2460 
  180.5000    68.0580    82.9240    77.6880    80.6910    26.0390   -22.6040     2.2530 
  180.6250    68.4670    86.2180    80.7010    71.8600    26.0080   -22.6420     2.2630 
  180.7500    71.0880    90.7690    84.7000    61.0480    25.9940   -22.6100     2.2620 
  180.8750    75.5850    97.5220    90.7550    53.5820    26.0570   -22.5550     2.2340 
  181.0000    79.5510   106.4600    99.1840    54.0400    26.0220   -22.4940     2.1770 
  181.1250    78.3800   114.9650   108.0240    63.1340    25.7250   -22.3840     2.1230 
  181.2500    72.0120   118.3540   112.8480    82.5040    25.2120   -22.1770     2.1210 
  181.3750    65.2470   113.4630   110.1680   119.4260    24.7330   -21.9280     2.1950 
  181.5000    63.6640   101.0830    99.7220   131.3830    24.4670   -21.6760     2.3270 
  181.6250    68.0250    86.6240    85.3640   108.0410    24.3190   -21.4190     2.4540 
  181.7500    72.2990    76.8080    73.8060    65.9690    23.9980   -21.1060     2.5230 
  181.8750    72.8710    74.9700    69.2510    40.6570    23.5210   -20.7330     2.5310 
  182.0000    71.8290    83.2500    74.3700    34.8470    23.1560   -20.4190     2.5100 
  182.1250    71.2350   103.9980    93.1710    65.7090    23.3920   -20.2350     2.5080 
  182.2500    68.7150   133.0340   124.6060   116.9280    23.7560   -20.0530     2.5390 
  182.3750    64.2280   169.5280   166.1440   158.7900    23.8070   -19.8070     2.5950 
  182.5000    62.1780   210.1620   209.7820   183.9080    23.7160   -19.5340     2.6540 
  182.6250    64.1440   240.3970   239.8320   228.8430    23.7110   -19.3010     2.6970 
  182.7500    65.8400   247.0680   248.4180   265.3030    23.7680   -19.1650     2.7160 
  182.8750    67.4840   229.6780   236.1710   300.0560    23.8530   -19.0380     2.7110 
  183.0000    71.8990   199.4910   210.3490   265.8810    23.9100   -18.8440     2.6850 
  183.1250    77.7790   168.1730   179.9560   197.5190    23.8580   -18.6450     2.6500 
  183.2500    79.5700   141.7270   152.3560   156.5760    23.9030   -18.4900     2.6250 
  183.3750    76.4510   121.7620   130.4480   151.7450    24.0080   -18.4000     2.6170 
  183.5000    73.4610   107.9920   114.9340   143.3330    24.0300   -18.3320     2.6240 
  183.6250    74.2630    98.5300   104.7940   108.7140    24.0080   -18.2170     2.6310 
  183.7500    75.6650    88.8300    95.3850    86.6570    24.0210   -18.0750     2.6310 
  183.8750    73.4980    76.0980    83.1630    92.2060    24.1090   -17.9290     2.6280 
  184.0000    68.7350    59.9900    66.8270   126.2020    24.2230   -17.7400     2.6300 
  184.1250    63.0250    43.2200    48.6120   131.0320    24.2110   -17.4830     2.6360 
  184.2500    57.8700    29.3280    32.8880    77.4160    24.2390   -17.2210     2.6370 
  184.3750    56.1410    19.6910    21.7080    31.5350    24.2920   -16.9810     2.6230 
  184.5000    59.6410    14.0010    14.9800    14.6790    24.2620   -16.7510     2.5930 
  184.6250    64.6410    11.5130    11.8400    10.8480    24.2210   -16.6000     2.5550 
  184.7500    64.5230    10.6840    10.5220    10.3560    24.2780   -16.5560     2.5160 
  184.8750    59.2510    10.8600    10.3580    11.3290    24.4110   -16.6440     2.4760 
  185.0000    54.1040    11.5550    10.9020    11.9100    24.4250   -16.8360     2.4360 
  185.1250    53.5310    12.3070    11.7450    12.9560    24.2930   -17.0240     2.4050 
  185.2500    54.1120    12.7180    12.3900    15.0500    24.3030   -17.0770     2.3920 
  185.3750    53.4550    12.6010    12.5390    17.4050    24.3690   -16.9800     2.4010 
  185.5000    53.1090    11.9600    12.0940    17.9540    24.3700   -16.7880     2.4220 
  185.6250    55.3400    10.9630    11.1470    14.5230    24.3220   -16.4080     2.4410 
  185.7500    59.3220     9.9520    10.0700    11.9880    24.2680   -15.8230     2.4490 
  185.8750    62.5530     9.1270     9.0960    11.1020    24.2410   -15.1060     2.4450 
  186.0000    64.1340     8.6000     8.3700     9.9340    24.2110   -14.3640     2.4360 
  186.1250    67.0290     8.4420     8.0050     8.8400    24.1920   -13.6900     2.4230 
  186.2500    72.8890     8.5290     7.9210     8.0790    24.2530   -13.0770     2.4060 
  186.3750    80.0110     8.7280     8.0150     8.0660    24.3740   -12.5000     2.3910 
  186.5000    87.0900     8.8740     8.1320     7.5360    24.4840   -11.9960     2.3850 
  186.6250    93.5670     8.7670     8.0600     7.9220    24.4840   -11.6260     2.3930 
