~V
VERS. 2.00: Ver 2.00
~W
STRT.M 60.0000:
STOP.M 282.0000:
STEP.M 0.1250:
NULL. -999.2500:
UWI. F11159:
~C
DEPT.M :
GR.API :
RML.OHMM :
RI. :
RXO.OHMM :
CALI.CM :
SP.MV :
DEN.GM/CC :
~A
# ...
  150.0000    93.9390     4.6540     3.5570     3.9710    26.5830   -13.5380     2.0780 
  150.1250    94.5850     4.6380     3.5440     4.0510    25.3040   -13.5800     2.0810 
  150.2500    92.5150     4.6490     3.5490     4.0900    24.7210   -13.6960     2.0910 
  150.3750    92.1600     4.6760     3.5650     4.0840    24.4930   -13.8580     2.1130 
  150.5000    95.4360     4.7140     3.5900     4.0780    24.4640   -14.0320     2.1390 
  150.6250    96.3530     4.7530     3.6210     4.1240    24.4470   -14.2030     2.1570 
  150.7500    93.1940     4.7880     3.6530     4.1440    24.3840   -14.3800     2.1590 
  150.8750    91.0260     4.8160     3.6800     4.1630    24.2580   -14.5250     2.1510 
  151.0000    93.4010     4.8360     3.6990     4.1910    24.0620   -14.6360     2.1440 
  151.1250    95.6630     4.8490     3.7070     4.2530    23.7730   -14.7160     2.1550 
  151.2500    94.2670     4.8530     3.7090     4.2680    23.2630   -14.7670     2.1820 
  151.3750    91.5330     4.8500     3.7080     4.2440    23.2470   -14.8240     2.2130 
  151.5000    90.1450     4.8410     3.7080     4.2300    23.8200   -14.8860     2.2310 
  151.6250    90.0170     4.8250     3.7060     4.2830    23.9540   -14.9600     2.2220 
  151.7500    90.0290     4.8090     3.7010     4.3320    23.9910   -15.0240     2.1950 
  151.8750    90.4650     4.8100     3.7010     4.3700    24.0120   -15.1020     2.1680 
  152.0000    90.5590     4.8550     3.7220     4.4040    24.1120   -15.1860     2.1560 
  152.1250    88.2650     4.9830     3.7930     4.4060    24.1800   -15.2720     2.1690 
  152.2500    87.3400     5.1990     3.9200     4.4120    24.3060   -15.3720     2.2010 
  152.3750    89.2020     5.4970     4.1060     4.6080    24.4080   -15.4480     2.2430 
  152.5000    90.7230     5.8370     4.3390     5.1350    24.4540   -15.5210     2.2840 
  152.6250    90.1570     6.1500     4.5840     5.6200    24.4400   -15.5910     2.3050 
  152.7500    89.7990     6.3800     4.8000     5.8490    24.3570   -15.6680     2.2960 
  152.8750    89.2490     6.5050     4.9580     6.0280    24.2630   -15.7620     2.2570 
  153.0000    87.3300     6.5250     5.0410     6.3910    24.2350   -15.8870     2.1910 
  153.1250    86.6060     6.4550     5.0400     6.2900    24.2220   -16.0260     2.1130 
  153.2500    88.5650     6.3470     4.9870     6.1770    24.2310   -16.1860     2.0480 
  153.3750    90.5910     6.2340     4.9080     5.7430    24.2310   -16.3740     2.0140 
  153.5000    91.3500     6.1440     4.8290     5.3070    24.2330   -16.5470     2.0130 
  153.6250    91.6590     6.0990     4.7770     4.9600    24.2810   -16.7130     2.0350 
  153.7500    91.7670     6.0820     4.7520     4.9670    24.0810   -16.8820     2.0500 
  153.8750    92.0780     6.0770     4.7460     5.0660    23.8880   -17.0470     2.0480 
  154.0000    93.7510     6.0830     4.7530     5.2680    23.6570   -17.1870     2.0370 
  154.1250    95.3860     6.1180     4.7820     5.2330    23.6490   -17.3080     2.0420 
  154.2500    95.5080     6.2100     4.8410     4.9200    23.9310   -17.4190     2.0790 
  154.3750    93.3120     6.3930     4.9490     4.8700    24.0520   -17.5400     2.1420 
  154.5000    90.3220     6.6810     5.1260     5.4780    24.0720   -17.7180     2.2130 
  154.6250    89.7600     7.0780     5.3930     6.1570    24.0740   -17.9470     2.2660 
  154.7500    92.4860     7.5350     5.7310     6.2700    24.0790   -18.2070     2.2910 
  154.8750    94.2760     8.0170     6.1200     6.7540    24.0750   -18.4710     2.2920 
  155.0000    91.5430     8.4840     6.5240     7.7720    24.0730   -18.7320     2.2730 
  155.1250    88.0920     8.9210     6.9130     8.9750    24.0690   -18.9860     2.2490 
  155.2500    90.3200     9.3850     7.3080     9.5310    24.0230   -19.2050     2.2330 
  155.3750    93.8450     9.9380     7.7530     9.4990    23.9650   -19.3770     2.2340 
  155.5000    90.6870    10.6080     8.2790     9.1590    23.9810   -19.4950     2.2490 
  155.6250    83.6240    11.3630     8.8830     9.5940    24.0620   -19.5450     2.2680 
  155.7500    82.1490    12.0370     9.4730    10.7670    23.9470   -19.5370     2.2780 
  155.8750    85.3550    12.4250     9.9150    13.0980    23.8660   -19.4980     2.2760 
  156.0000    86.4300    12.3730    10.0830    12.1930    23.8450   -19.4460     2.2640 
  156.1250    84.6230    11.8970     9.9330    10.4410    23.8500   -19.4030     2.2470 
  156.2500    84.9660    11.3270     9.6660     9.9860    23.8860   -19.3730     2.2300 
  156.3750    87.4490    10.8950     9.4520    10.1860    23.9240   -19.3420     2.2160 
  156.5000    88.3340    10.7400     9.4150    10.3460    23.9970   -19.2930     2.2080 
  156.6250    85.4500    10.9510     9.6550    10.9260    24.0410   -19.2380     2.2100 
  156.7500    81.1720    11.4500    10.1300    11.8080    24.1270   -19.1830     2.2200 
  156.8750    77.0540    12.1970    10.8140    12.3520    24.1770   -19.1380     2.2350 
  157.0000    74.7960    13.1040    11.6430    11.9000    24.2850   -19.0730     2.2500 
  157.1250    75.6580    13.8660    12.3920    11.6240    24.4980   -18.9700     2.2540 
  157.2500    78.7230    14.0020    12.6510    12.1050    24.5250   -18.8510     2.2430 
  157.3750    81.5180    13.1140    12.0340    13.8090    24.4930   -18.7360     2.2190 
  157.5000    82.9350    11.1910    10.4880    14.7370    24.3100   -18.6280     2.1890 
  157.6250    85.4070     8.7820     8.4420    11.2720    24.1870   -18.5100     2.1650 
  157.7500    88.3040     6.7760     6.6270     7.3250    24.2070   -18.4020     2.1550 
  157.8750    89.9070     5.6110     5.3900     5.0870    24.3550   -18.2800     2.1600 
  158.0000    91.0120     5.4530     4.8660     4.5210    24.3780   -18.1880     2.1780 
  158.1250    90.9650     6.6610     5.3130     5.4570    24.3820   -18.1590     2.2050 
  158.2500    85.4320     9.3540     6.8710     8.5130    24.3770   -18.1820     2.2300 
  158.3750    74.4700    13.9090     9.9740    15.9000    24.3780   -18.2460     2.2460 
  158.5000    65.2590    20.5320    15.0850    28.9090    24.3860   -18.3590     2.2470 
  158.6250    64.0680    28.6450    22.3240    42.9720    24.4010   -18.5270     2.2310 
  158.7500    65.4950    35.6390    29.5170    43.9380    24.4720   -18.7100     2.2080 
  158.8750    65.7080    39.3050    34.2370    36.3640    24.6030   -18.9210     2.1840 
  159.0000    64.7700    39.6760    35.7230    29.9370    24.6860   -19.1280     2.1630 
  159.1250    65.6410    38.9820    35.3620    26.6830    24.6920   -19.3080     2.1460 
  159.2500    67.7960    39.2820    35.2010    27.5900    24.6970   -19.4670     2.1320 
  159.3750    67.9510    41.0650    35.9380    35.0000    24.6950   -19.6030     2.1220 
  159.5000    66.0730    44.1940    37.7150    51.0940    24.6920   -19.7200     2.1160 
  159.6250    65.2670    48.2100    40.4370    62.8770    24.7150   -19.8300     2.1160 
  159.7500    64.5340    52.1320    43.4710    64.9560    24.8670   -19.9370     2.1180 
  159.8750    61.8970    55.2070    46.2840    64.9560    25.1860   -20.0160     2.1220 
  160.0000    58.2820    56.9850    48.4390    63.7410    25.4110   -20.0810     2.1270 
  160.1250    57.2910    57.3950    49.6340    61.0470    25.3750   -20.1030     2.1310 
  160.2500    58.4950    57.3540    50.3080    59.6280    25.2450   -20.0900     2.1340 
  160.3750    60.1600    57.5830    51.0210    58.8250    25.0700   -20.0480     2.1350 
  160.5000    60.2480    58.1160    52.0450    55.3890    25.0250   -19.9830     2.1360 
  160.6250    56.4530    57.2190    52.3210    52.9900    25.0650   -19.9000     2.1460 
  160.7500    52.3400    52.6910    49.7890    53.4580    25.0730   -19.7970     2.1710 
  160.8750    52.9280    43.8240    43.1290    58.2050    25.0800   -19.6930     2.2070 
  161.0000    58.6160    32.6270    33.4490    62.8170    25.0650   -19.5980     2.2450 
  161.1250    67.5490    22.7660    24.0420    46.2330    24.9460   -19.5500     2.2730 
