~V
VERS. 2.00: Ver 2.00
~W
STRT.M 47.0000:
STOP.M 248.0000:
STEP.M 0.1250:
NULL. -999.2500:
UWI. F11134:
~C
DEPT.M :
GR.API :
RML.OHMM :
RI. :
RXO.OHMM :
CALI.CM :
SP.MV :
DEN.GM/CC :
~A
# ...
  227.0000    50.4130    24.2440    23.4120    35.3300    25.0620   -18.9890     2.3980 
  227.1250    47.8500    20.6800    20.0220    24.6590    25.0750   -18.0980     2.4200 
  227.2500    46.6410    18.2090    17.6090    18.1430    25.1000   -17.2820     2.4210 
  227.3750    46.4070    16.7840    16.1440    15.5190    25.1280   -16.5610     2.4040 
  227.5000    46.3390    15.9480    15.2510    14.9900    25.1470   -15.9380     2.3880 
  227.6250    46.4350    15.1450    14.4420    15.5900    25.1440   -15.4140     2.3840 
  227.7500    48.1470    14.0060    13.3740    16.1950    25.1190   -14.9800     2.3930 
  227.8750    52.4010    12.4720    11.9650    14.6240    25.1050   -14.6240     2.4020 
  228.0000    58.2370    10.8970    10.4990    11.8130    25.1310   -14.3340     2.3960 
  228.1250    64.4110     9.7200     9.3480    10.0780    25.1650   -14.0910     2.3820 
  228.2500    69.2400     9.2250     8.7530     9.3560    25.1530   -13.8950     2.3790 
  228.3750    69.6010     9.6320     8.9220     9.3390    25.1060   -13.7310     2.3980 
  228.5000    66.8940    10.8890     9.8670    10.7670    25.0690   -13.5720     2.4270 
  228.6250    65.4140    12.7200    11.4300    13.7220    25.0480   -13.4180     2.4430 
  228.7500    65.4630    14.6810    13.2740    17.2450    25.0300   -13.2650     2.4380 
  228.8750    64.0920    16.0210    14.6990    19.7690    25.0240   -13.0890     2.4150 
  229.0000    60.6080    16.2260    15.1090    20.5380    25.0180   -12.8830     2.3970 
  229.1250    57.0840    15.3430    14.4350    18.6200    25.0010   -12.6630     2.4010 
  229.2500    55.3290    13.8400    13.0820    14.8090    24.9780   -12.4350     2.4280 
  229.3750    54.9030    12.3600    11.6430    12.7960    24.9660   -12.2210     2.4550 
  229.5000    54.2640    11.3040    10.5130    12.4370    24.9730   -12.0650     2.4600 
  229.6250    52.9440    10.7680     9.8150    11.8730    24.9830   -11.9580     2.4480 
  229.7500    51.8290    10.6780     9.5210    11.2560    24.9840   -11.8690     2.4340 
  229.8750    52.2150    10.8700     9.5330    10.9700    24.9820   -11.8030     2.4300 
  230.0000    52.6720    11.1150     9.6720    10.7990    24.9830   -11.7750     2.4340 
  230.1250    51.3310    11.2270     9.7690    10.6060    24.9940   -11.7870     2.4400 
  230.2500    49.6050    11.1260     9.7290    10.1070    25.0070   -11.8270     2.4380 
  230.3750    50.0940    10.8190     9.5290     9.7970    24.9380   -11.8720     2.4240 
  230.5000    51.9120    10.4190     9.2400     9.7400    24.7560   -11.8950     2.4000 
  230.6250    53.1170    10.0510     8.9560     9.6650    24.6240   -11.8940     2.3760 
  230.7500    54.1620     9.7940     8.7410     9.5720    24.7040   -11.8830     2.3620 
  230.8750    55.6910     9.6800     8.6250     9.4680    24.8700   -11.8630     2.3650 
  231.0000    55.3280     9.6590     8.5800     9.3600    24.9400   -11.8290     2.3800 
  231.1250    52.1890     9.6490     8.5500     9.2540    24.9200   -11.7760     2.3980 
  231.2500    49.5130     9.5890     8.4900     9.1590    24.8710   -11.7060     2.4120 
  231.3750    49.9850     9.4610     8.3780     9.0700    24.8260   -11.6340     2.4190 
  231.5000    51.6450     9.2940     8.2290     8.9850    24.7780   -11.5580     2.4220 
  231.6250    51.8100     9.1330     8.0750     8.9090    24.7300   -11.4820     2.4180 
  231.7500    50.5680     9.0010     7.9350     8.8430    24.6790   -11.4210     2.4110 
  231.8750    49.5970     8.8970     7.8210     8.7880    24.6190   -11.3780     2.4030 
  232.0000    49.9160     8.8190     7.7420     8.7300    24.5910   -11.3440     2.4000 
  232.1250    51.5040     8.7880     7.7140     8.6680    24.6390   -11.3200     2.3970 
  232.2500    53.6710     8.8430     7.7650     8.6120    24.7110   -11.3150     2.3910 
  232.3750    55.7980     9.0330     7.9320     8.5750    24.7390   -11.3300     2.3840 
  232.5000    57.2370     9.3450     8.2020     8.5750    24.7440   -11.3640     2.3790 
  232.6250    58.0160     9.7120     8.5220     8.6170    24.7770   -11.4150     2.3750 
  232.7500    59.3320    10.0430     8.8220     8.6850    24.8400   -11.4750     2.3680 
  232.8750    61.3050    10.2530     9.0270     8.7710    24.9660   -11.5370     2.3550 
  233.0000    62.2520    10.3430     9.1260     8.8940    25.1760   -11.6050     2.3420 
  233.1250    61.1310    10.3800     9.1630     9.0700    25.3810   -11.6760     2.3350 
  233.2500    59.5380    10.4420     9.1980     9.2870    25.4090   -11.7350     2.3420 
  233.3750    59.5720    10.5890     9.2840     9.5210    25.2630   -11.7670     2.3670 
  233.5000    61.6490    10.8180     9.4320     9.7620    25.1240   -11.7740     2.3960 
  233.6250    65.3130    11.0910     9.6230    10.0030    25.0810   -11.7570     2.4150 
  233.7500    69.3970    11.3780     9.8380    10.2230    25.1050   -11.7220     2.4180 
  233.8750    71.2800    11.6690    10.0710    10.6110    25.1340   -11.6780     2.4100 
  234.0000    70.1100    11.9700    10.3250    10.9440    25.1390   -11.6200     2.4050 
  234.1250    67.9710    12.2850    10.6020    10.9060    25.1110   -11.5470     2.4090 
  234.2500    66.7850    12.5970    10.8880    12.3040    25.0800   -11.4660     2.4190 
  234.3750    66.4570    12.8610    11.1470    14.6730    25.0750   -11.3870     2.4270 
  234.5000    66.5740    13.0450    11.3470    16.2920    25.0810   -11.3170     2.4330 
  234.6250    66.4830    13.1500    11.4860    15.9940    25.0800   -11.2570     2.4380 
  234.7500    65.6980    13.2170    11.5940    14.7680    25.0790   -11.2100     2.4410 
  234.8750    63.6700    13.3320    11.7360    14.4000    25.0860   -11.1770     2.4400 
  235.0000    61.2460    13.5560    11.9640    14.9490    25.1270   -11.1580     2.4330 
  235.1250    59.8570    13.8850    12.2800    16.1150    25.2400   -11.1750     2.4210 
  235.2500    60.3460    14.2520    12.6390    16.8320    25.3710   -11.2250     2.4120 
  235.3750    62.3190    14.5110    12.9300    15.7980    25.3580   -11.2830     2.4200 
  235.5000    63.8410    14.5370    13.0430    13.8170    25.1890   -11.3520     2.4440 
  235.6250    63.9520    14.2990    12.9250    12.4180    25.0600   -11.4350     2.4630 
  235.7500    63.1980    13.8680    12.6110    11.6180    25.0270   -11.5020     2.4610 
  235.8750    62.2790    13.3840    12.2030    10.8630    24.9990   -11.5640     2.4460 
  236.0000    62.0890    12.9770    11.8180    10.2850    24.9390   -11.6200     2.4370 
  236.1250    63.7400    12.7080    11.5310    10.5290    24.8950   -11.6510     2.4370 
  236.2500    66.1340    12.5730    11.3640    11.2240    24.8890   -11.6910     2.4430 
  236.3750    65.3850    12.5460    11.3150    11.5790    24.9150   -11.7430     2.4460 
  236.5000    61.9980    12.5940    11.3600    11.9320    24.9600   -11.7620     2.4420 
  236.6250    61.8820    12.6930    11.4750    12.9400    25.0110   -11.7550     2.4320 
  236.7500    66.7880    12.8330    11.6460    13.7730    25.0480   -11.7390     2.4270 
  236.8750    69.5710    12.9940    11.8500    13.8890    25.0570   -11.7060     2.4310 
  237.0000    65.5040    13.1640    12.0630    13.3560    25.0550   -11.6590     2.4410 
  237.1250    59.7760    13.3450    12.2800    12.7430    25.0560   -11.6090     2.4480 
  237.2500    59.0140    13.5630    12.5140    12.3690    25.0640   -11.5460     2.4500 
  237.3750    62.5210    13.8550    12.7990    12.5490    25.0790   -11.4640     2.4500 
  237.5000    65.3300    14.2290    13.1500    13.2660    25.0850   -11.3850     2.4540 
  237.6250    65.9550    14.6500    13.5500    14.1010    25.0730   -11.3090     2.4650 
  237.7500    65.9230    15.0580    13.9510    14.6060    25.0590   -11.2420     2.4820 
  237.8750    65.9230    15.3680    14.2730    14.9060    25.0550   -11.2020     2.4990 
  238.0000    65.9230    15.5420    14.4690    15.0880    25.0550   -11.1820     2.5120 
  238.1250    65.9230    15.5930    14.5380    15.1560    25.0530   -11.1610     2.5210 
