~V
VERS. 2.00: Ver 2.00
~W
STRT.M 55.0000:
STOP.M 210.0000:
STEP.M 0.1250:
NULL. -999.2500:
UWI. F11105:
~C
DEPT.M :
DEN.GM/CC :
GR.API :
RML.OHMM :
RI. :
RXO.OHMM :
CALI.CM :
SP.MV :
~A
# ...
  190.0000     2.2810    66.6200     8.8190     7.0880     5.2010    23.0380   -17.2950 
  190.1250     2.2770    67.3630     8.8730     7.0770     4.9620    23.4250   -17.2860 
  190.2500     2.2660    68.4940     8.9000     7.0460     5.1620    23.5240   -17.2470 
  190.3750     2.2490    69.7140     8.8760     6.9880     5.6910    23.4870   -17.2030 
  190.5000     2.2330    70.8910     8.7990     6.9150     6.1310    22.9750   -17.1380 
  190.6250     2.2250    70.7520     8.6940     6.8510     6.5520    21.8170   -17.0640 
  190.7500     2.2220    68.2960     8.6170     6.8200     6.6370    21.2040   -16.9930 
  190.8750     2.2240    66.2060     8.6070     6.8390     6.3960    20.8500   -17.0450 
  191.0000     2.2350    65.1050     8.6840     6.9100     6.4020    20.7630   -17.2260 
  191.1250     2.2600    64.2570     8.8500     7.0290     6.8490    21.2960   -17.4370 
  191.2500     2.2900    64.4190     9.0630     7.1730     7.4890    22.4000   -17.5720 
  191.3750     2.3090    64.3670     9.3060     7.3350     7.4380    23.1100   -17.6100 
  191.5000     2.3040    62.7220     9.5720     7.5220     7.7400    23.2370   -17.5880 
  191.6250     2.2690    61.7300     9.8770     7.7570     7.8600    23.0980   -17.5780 
  191.7500     2.2250    63.3680    10.2230     8.0400     7.7070    23.0220   -17.5980 
  191.8750     2.1960    66.2560    10.6010     8.3580     7.0290    22.8430   -17.6410 
  192.0000     2.1970    68.6740    10.9690     8.6790     7.1230    22.7170   -17.6020 
  192.1250     2.2330    71.5830    11.2350     8.9390     8.1870    22.5800   -17.4970 
  192.2500     2.2850    74.6490    11.3520     9.0890     9.0700    22.5180   -17.4600 
  192.3750     2.3390    76.5800    11.3080     9.1090     9.8410    23.0330   -17.5640 
  192.5000     2.3810    76.2050    11.1440     9.0140    10.5560    23.4190   -17.7870 
  192.6250     2.4000    73.8220    10.9360     8.8450     8.7820    23.4040   -18.0120 
  192.7500     2.3970    70.8600    10.7620     8.6720     8.0620    23.3430   -18.2160 
  192.8750     2.3710    65.8010    10.6560     8.5420     7.7680    23.3760   -18.3000 
  193.0000     2.3320    58.7850    10.6270     8.4870     7.4430    23.3390   -18.3390 
  193.1250     2.2970    56.9140    10.6930     8.5360     7.3390    23.3380   -18.3610 
  193.2500     2.2800    62.5830    10.8320     8.6710     8.2530    23.3240   -18.3730 
  193.3750     2.2860    68.2820    11.0280     8.8720     9.3330    23.2860   -18.3270 
  193.5000     2.3060    66.3640    11.2540     9.1020     9.9370    23.1720   -18.2000 
  193.6250     2.3260    59.5190    11.4760     9.3090     9.7880    23.1400   -18.0420 
  193.7500     2.3330    57.9220    11.6730     9.4630     9.5840    23.1110   -17.8290 
  193.8750     2.3280    61.3930    11.8270     9.5510     9.5870    22.8840   -17.6570 
  194.0000     2.3170    64.0050    11.9100     9.5740     9.5720    22.8980   -17.5740 
  194.1250     2.3130    62.3730    11.8800     9.5280     9.9930    22.9320   -17.5770 
  194.2500     2.3220    61.1040    11.7570     9.4350    10.2650    23.0930   -17.5690 
  194.3750     2.3420    61.7990    11.5750     9.3080     9.6600    22.9580   -17.6010 
  194.5000     2.3650    63.1350    11.3810     9.1690     8.9610    22.9190   -17.6490 
  194.6250     2.3770    65.2380    11.2210     9.0500     8.2270    23.0840   -17.6980 
  194.7500     2.3730    65.5240    11.1010     8.9710     8.1220    22.7970   -17.7480 
  194.8750     2.3580    63.2490    11.0190     8.9360     8.4320    22.4090   -17.7700 
  195.0000     2.3470    62.2390    10.9710     8.9380     8.6050    22.6990   -17.7430 
  195.1250     2.3520    64.5790    10.9590     8.9610     8.5210    22.8840   -17.6880 
  195.2500     2.3660    64.9260    10.9400     8.9690     8.7960    23.1790   -17.6490 
  195.3750     2.3750    60.6420    10.8710     8.9260     8.9960    23.2640   -17.6010 
  195.5000     2.3590    55.9860    10.7300     8.8050     8.8310    23.1530   -17.5680 
  195.6250     2.3150    55.9170    10.5090     8.6000     8.4820    22.9950   -17.4980 
  195.7500     2.2670    57.0620    10.2470     8.3590     8.2460    22.9360   -17.4680 
  195.8750     2.2390    58.2860     9.9800     8.1350     7.9140    23.0070   -17.4290 
  196.0000     2.2390    59.6530     9.7430     7.9700     7.2330    22.9910   -17.3680 
  196.1250     2.2670    62.0680     9.5910     7.8930     6.7790    22.8570   -17.2710 
  196.2500     2.2970    63.8440     9.5430     7.8890     6.8250    22.8160   -17.1990 
  196.3750     2.3140    65.7810     9.6060     7.9460     7.0990    22.6010   -17.1350 
  196.5000     2.3100    67.2800     9.7720     8.0550     7.2930    22.4910   -17.0590 
  196.6250     2.2880    65.6620    10.0380     8.2410     7.3280    21.9100   -17.0220 
  196.7500     2.2660    63.1390    10.3790     8.5080     7.4600    21.9000   -17.0020 
  196.8750     2.2560    62.8460    10.7650     8.8400     7.9550    22.3630   -17.0290 
  197.0000     2.2650    64.5650    11.1330     9.1750     9.1130    22.4960   -17.0550 
  197.1250     2.2920    64.8840    11.3430     9.3840    10.2470    22.2690   -17.1000 
  197.2500     2.3200    63.7710    11.3210     9.3920     9.9570    22.0100   -17.1450 
  197.3750     2.3360    63.7110    11.0840     9.1960     9.0900    21.9820   -17.1990 
  197.5000     2.3350    65.4520    10.7360     8.8740     8.6560    21.8430   -17.2340 
  197.6250     2.3270    67.7590    10.4120     8.5520     8.4200    21.8780   -17.2910 
  197.7500     2.3250    68.2720    10.1770     8.3190     8.3590    22.5480   -17.3020 
  197.8750     2.3280    67.8080    10.0360     8.1980     8.3640    23.0940   -17.2810 
  198.0000     2.3290    67.2630     9.9730     8.1710     8.3620    23.2660   -17.2670 
  198.1250     2.3230    65.6600     9.9970     8.2160     8.8560    23.3660   -17.2540 
  198.2500     2.3130    63.0340    10.1180     8.3070     9.2820    23.4360   -17.2190 
  198.3750     2.3120    62.2990    10.3550     8.4600     9.9180    23.5040   -17.1340 
  198.5000     2.3270    64.7420    10.7010     8.7000    11.5900    23.4270   -17.0490 
  198.6250     2.3580    67.6760    11.1170     9.0390    17.3770    23.1480   -16.9170 
  198.7500     2.3870    68.1690    11.4840     9.3870    27.7330    22.7460   -16.8180 
  198.8750     2.3970    66.9690    11.6610     9.6250    29.6210    22.5200   -16.7150 
  199.0000     2.3820    66.1650    11.5330     9.6430    22.1170    22.6200   -16.5750 
  199.1250     2.3510    65.4360    11.0580     9.3660    14.5340    22.4830   -16.4000 
  199.2500     2.3220    63.2860    10.4610     8.9370     9.8210    22.6090   -16.2010 
  199.3750     2.3080    61.9650     9.9460     8.5050     7.4750    22.6350   -16.0240 
  199.5000     2.3070    61.8580     9.6520     8.1960     6.4350    22.8000   -15.8630 
  199.6250     2.3070    61.8580     9.6510     8.1020     6.0090    22.9280   -15.7430 
  199.7500     2.2980    61.8580     9.8350     8.1740     6.0800    23.0100   -15.6230 
  199.8750     2.2800    61.8580    10.1000     8.3470     6.6470    22.9510   -15.5120 
  200.0000     2.2620    61.8580    10.3460     8.5400     7.0930    22.7700   -15.4680 
  200.1250     2.2560    61.8580    10.4990     8.6870     7.6230    22.4790   -15.5020 
  200.2500     2.2590    61.8580    10.5980     8.7850     8.0700    22.4740   -15.5910 
  200.3750     2.2640    61.8580    10.6970     8.8560     8.1270    22.6740   -15.7030 
  200.5000     2.2670    61.8580    10.8330     8.9210     8.0040    22.7780   -15.8430 
  200.6250     2.2710    61.8580    11.0170     8.9990     8.0810    22.8950   -15.9550 
  200.7500     2.2890    61.8580    11.2300     9.1050     7.8760    23.2790   -16.0420 
  200.8750     2.3240    61.8580    11.4780     9.2650     7.7130    23.3210   -16.0790 
  201.0000     2.3660    61.8580    11.7760     9.5010     8.1400    23.3160   -16.0710 
  201.1250     2.3930    61.8580    12.1280     9.8180     8.5900    23.1830   -16.0820 
