~V
VERS. 2.00: Ver 2.00
~W
STRT.M 62.0000:
STOP.M 219.0000:
STEP.M 0.1250:
NULL. -999.2500:
UWI. F11127:
~C
DEPT.M :
SP.MV :
DEN.GM/CC :
GR.API :
RML.OHMM :
RI. :
RXO.OHMM :
CALI.CM :
~A
# ...
  163.2500   -17.1630     2.1890    66.2220   149.5140   133.1940   141.4640    24.6790 
  163.3750   -17.4740     2.1790    67.7260   155.9530   140.6060   153.1360    24.6990 
  163.5000   -17.8330     2.1720    67.7300   160.6150   147.0410   161.9270    24.6940 
  163.6250   -18.1210     2.1690    66.1170   161.1610   150.3100   166.0780    24.6790 
  163.7500   -18.2170     2.1670    63.4110   154.6440   147.3870   163.6750    24.6530 
  163.8750   -18.2860     2.1670    61.5220   141.9380   138.3380   156.5240    24.6190 
  164.0000   -18.4390     2.1740    62.3580   125.0350   124.2720   142.2280    24.5770 
  164.1250   -18.6280     2.1890    65.7710   107.4450   107.9670   120.4710    24.5410 
  164.2500   -18.8170     2.2110    68.7590    93.7050    93.6800    96.6280    24.5340 
  164.3750   -18.9940     2.2360    69.4330    85.4900    84.0760    77.2500    24.5040 
  164.5000   -19.1540     2.2600    67.7050    83.1560    80.1970    69.7740    24.4270 
  164.6250   -19.3240     2.2850    65.8870    86.2350    81.9800    76.5760    24.3130 
  164.7500   -19.4930     2.3110    65.0680    94.1980    89.1240    94.8540    24.1580 
  164.8750   -19.6410     2.3230    64.9580   104.4840    99.0090   111.1990    24.0780 
  165.0000   -19.8260     2.3120    65.2980   115.0450   109.5570   118.1180    24.0710 
  165.1250   -20.0410     2.2850    65.8830   123.8510   118.6850   122.9260    24.1820 
  165.2500   -20.2150     2.2620    66.7960   128.8270   124.2350   125.7930    24.2240 
  165.3750   -20.3800     2.2390    67.6720   130.3660   126.3700   123.7530    24.1800 
  165.5000   -20.6100     2.2110    68.3380   129.3450   125.7900   117.5890    24.1860 
  165.6250   -20.8430     2.1870    67.6480   126.7680   123.4460   110.8740    24.2620 
  165.7500   -21.1040     2.1760    64.3670   123.1540   119.9430   107.6360    24.2600 
  165.8750   -21.3990     2.1730    61.8820   118.9680   115.8910   104.4820    24.2210 
  166.0000   -21.6550     2.1750    62.7010   114.4090   111.5670   101.4560    24.1990 
  166.1250   -21.8380     2.1810    64.9220   109.6840   107.1910    97.7380    24.1780 
  166.2500   -21.9670     2.1900    66.3440   105.0810   102.9960    93.4730    24.1350 
  166.3750   -22.0820     2.1990    67.6550   100.8680    99.1650    89.5220    24.1030 
  166.5000   -22.1830     2.2090    69.3510    97.1980    95.8390    86.3650    24.0860 
  166.6250   -22.3300     2.2220    69.9200    94.0420    93.0290    82.7860    24.0340 
  166.7500   -22.4490     2.2360    68.9030    91.2200    90.6200    80.7580    23.9360 
  166.8750   -22.4670     2.2460    68.3830    88.4010    88.2790    80.0080    23.8450 
  167.0000   -22.4530     2.2510    68.2480    85.4380    85.8060    78.7100    23.7900 
  167.1250   -22.6070     2.2520    69.4310    82.3760    83.1640    75.0790    23.7420 
  167.2500   -22.8670     2.2500    72.5590    79.5200    80.5700    69.9050    23.6540 
  167.3750   -23.0710     2.2500    75.1320    77.1470    78.3180    64.0900    23.5320 
  167.5000   -23.2220     2.2530    75.6880    75.3700    76.5470    57.6990    23.4020 
  167.6250   -23.3310     2.2550    75.5710    74.1070    75.1980    52.7680    23.2260 
  167.7500   -23.4120     2.2510    77.1980    73.1460    74.0450    53.5860    23.0060 
  167.8750   -23.4500     2.2490    78.2350    72.2070    72.8020    57.3700    22.7480 
  168.0000   -23.4370     2.2550    76.4010    71.2950    71.4390    60.8740    22.7130 
  168.1250   -23.3580     2.2620    73.1030    70.6970    70.2150    62.3640    22.9970 
  168.2500   -23.2510     2.2560    72.1510    71.1940    69.8550    64.9680    23.4280 
  168.3750   -23.1020     2.2380    73.3130    73.3560    70.9690    69.5380    23.8480 
  168.5000   -22.8970     2.2180    73.5690    77.7210    74.1390    74.5620    24.1080 
  168.6250   -22.7390     2.2040    71.7940    84.5720    79.7290    81.6820    24.2760 
  168.7500   -22.6120     2.1970    68.5980    94.1040    88.0690    91.0730    24.3330 
  168.8750   -22.5340     2.1920    65.4010   105.0930    98.0610   104.6680    24.3390 
  169.0000   -22.5310     2.1890    63.8040   116.1980   108.4760   120.5830    24.2970 
  169.1250   -22.5740     2.1910    64.9340   125.7310   117.6880   136.0990    24.2390 
  169.2500   -22.5160     2.2060    67.4790   131.4460   123.4450   139.4210    24.2070 
  169.3750   -22.3200     2.2290    67.6160   133.2940   125.4400   132.3480    24.1710 
  169.5000   -22.1420     2.2410    66.0960   132.1320   124.2810   120.2900    24.1390 
  169.6250   -21.9270     2.2290    67.0000   129.5830   121.4420   110.9250    24.1520 
  169.7500   -21.7570     2.1920    69.5210   127.0520   118.4730   107.6060    24.2740 
  169.8750   -21.6060     2.1570    68.9800   124.4170   115.6810   112.4740    24.4860 
  170.0000   -21.3670     2.1370    65.9130   120.4260   112.0810   123.5620    24.6470 
  170.1250   -21.0300     2.1320    63.2530   113.8390   106.4430   131.8900    24.7080 
  170.2500   -20.8530     2.1300    63.3720   104.1810    98.0500   135.1920    24.7180 
  170.3750   -20.9110     2.1230    65.0570    93.5120    88.5230   114.7120    24.7240 
  170.5000   -20.9490     2.1140    67.9720    83.7650    79.5870    81.3040    24.7560 
  170.6250   -20.9470     2.1150    71.3620    76.2280    72.5480    64.5260    24.7900 
  170.7500   -20.9370     2.1400    73.0420    71.4830    68.1270    68.6220    24.7690 
  170.8750   -20.9590     2.1790    72.9890    68.4080    65.3770    74.2250    24.6650 
  171.0000   -21.0340     2.2150    72.6480    66.1050    63.4830    73.8740    24.5520 
  171.1250   -21.1700     2.2350    74.1300    63.7460    61.6710    67.7680    24.5370 
  171.2500   -21.3060     2.2420    75.9320    60.4630    59.0770    61.7000    24.5670 
  171.3750   -21.3930     2.2480    76.1490    55.9390    55.2660    58.2710    24.6100 
  171.5000   -21.3710     2.2560    76.7640    50.0750    50.0250    56.1040    24.6480 
  171.6250   -21.3260     2.2700    79.7730    43.0860    43.4540    52.0730    24.6810 
  171.7500   -21.2660     2.2930    82.6430    35.7000    36.1720    44.4170    24.6680 
  171.8750   -21.1850     2.3250    83.2410    29.1750    29.5150    36.1080    24.5670 
  172.0000   -21.0850     2.3580    82.9420    24.4660    24.4720    27.1540    24.4040 
  172.1250   -20.9380     2.3820    82.5620    22.0270    21.5090    20.8810    24.3240 
  172.2500   -20.7460     2.3810    82.4400    21.9940    20.8330    19.0360    24.3040 
  172.3750   -20.5080     2.3610    83.0970    23.2610    21.5590    22.2270    24.2440 
  172.5000   -20.3430     2.3360    83.5900    24.8760    22.9270    26.9800    24.1220 
  172.6250   -20.2240     2.3180    83.0420    25.8740    24.0540    29.4180    24.0300 
  172.7500   -20.1140     2.3130    82.9200    25.2750    23.8880    28.3240    24.0750 
  172.8750   -20.0560     2.3170    84.5330    23.2650    22.3020    25.1760    24.0790 
  173.0000   -20.0350     2.3270    86.4390    20.5080    19.7800    20.2620    24.0040 
  173.1250   -19.9770     2.3380    87.3130    17.9510    17.2170    16.3200    23.8970 
  173.2500   -19.9330     2.3490    90.0540    16.5520    15.5290    14.5500    23.8110 
  173.3750   -20.0070     2.3630    94.1520    16.4240    14.8930    14.1760    23.7630 
  173.5000   -20.1810     2.3750    95.3420    17.5090    15.3090    15.1170    23.7310 
  173.6250   -20.3250     2.3720    91.9100    19.5980    16.6750    17.5920    23.7240 
  173.7500   -20.4180     2.3470    86.8750    22.3620    18.8340    21.3190    23.8400 
  173.8750   -20.4960     2.3210    83.7130    25.1070    21.2130    24.8320    24.0870 
  174.0000   -20.5500     2.3070    81.2840    27.2710    23.2960    27.5440    24.2720 
  174.1250   -20.5600     2.3060    78.6750    28.4300    24.6100    28.8850    24.2190 
  174.2500   -20.5180     2.3070    77.8460    28.3460    24.7670    28.7000    23.9900 
  174.3750   -20.4470     2.3020    79.4130    27.6420    24.1940    27.6050    23.8030 
