~V
VERS. 2.00: Ver 2.00
~W
STRT.M 50.0000:
STOP.M 170.0000:
STEP.M 0.1250:
NULL. -999.2500:
UWI. F11116:
~C
DEPT.M :
SP.MV :
DEN.GM/CC :
GR.API :
RML.OHMM :
RI. :
RXO.OHMM :
CALI.CM :
~A
# ...
  162.5000   -10.4500     2.2050    65.0300    66.7580    53.2400    86.5170    25.9420 
  162.6250   -10.3470     2.1860    65.0300    78.8870    60.7550   117.5400    25.9330 
  162.7500   -10.2670     2.1660    65.0300    87.5580    65.9980   119.7170    25.9400 
  162.8750   -10.2150     2.1520    65.0300    90.4510    67.7870   119.9730    25.9080 
  163.0000   -10.2050     2.1500    65.0300    89.8450    67.5760   114.3960    25.7810 
  163.1250   -10.2100     2.1610    65.0300    87.7880    66.6110   100.0400    25.6160 
  163.2500   -10.2090     2.1810    65.0300    85.5390    65.6940    86.5000    25.5180 
  163.3750   -10.2210     2.1980    65.0300    83.5140    65.1320    79.6910    25.5190 
  163.5000   -10.2470     2.2020    65.0300    81.7060    64.8150    75.0320    25.5460 
  163.6250   -10.2610     2.1930    65.0300    80.1930    64.6420    69.9720    25.5770 
  163.7500   -10.2640     2.1770    65.0300    79.1660    64.5460    66.5210    25.6110 
  163.8750   -10.2830     2.1650    65.0300    78.9670    64.5340    66.9000    25.6310 
  164.0000   -10.3210     2.1640    65.0300    79.6240    64.6140    67.0960    25.6350 
  164.1250   -10.3690     2.1730    65.0300    81.0730    64.8050    67.5140    25.6430 
  164.2500   -10.4500     2.1890    65.0300    82.9270    65.0930    67.0860    25.6720 
  164.3750   -10.5390     2.2090    65.0300    84.5640    65.4120    63.6750    25.7210 
  164.5000   -10.6320     2.2270    65.0300    85.6790    65.6750    59.3830    25.7560 
  164.6250   -10.7290     2.2400    65.0300    86.2660    65.8390    56.8700    25.7900 
  164.7500   -10.7850     2.2400    65.0300    86.4830    65.9100    59.0980    25.9390 
  164.8750   -10.8010     2.2190    65.0300    86.5260    65.9250    62.4810    26.2750 
  165.0000   -10.7960     2.1890    65.0300    86.5530    65.9290    62.8760    26.5350 
  165.1250   -10.8010     2.1670    65.0300    86.5640    65.9300    60.4380    26.4970 
  165.2500   -10.8030     2.1730    65.0300    86.5640    65.9300    60.5240    26.2390 
  165.3750   -10.8110     2.2120    65.0300    86.5640    65.9300    61.5100    26.0640 
  165.5000   -10.8240     2.2400    65.0300    86.5640    65.9300    61.7120    26.0900 
  165.6250   -10.8720     2.2240    65.0300    86.5640    65.9300    60.7180    26.3320 
  165.7500   -10.9350     2.1580    65.0300    86.5640    65.9300    57.0680    26.7870 
  165.8750   -10.9710     2.0700    65.0300    86.5640    65.9300    53.4760    27.1600 
  166.0000   -10.9580     2.0030    65.0300    86.5640    65.9300    59.2930    27.0370 
  166.1250   -10.8910     1.9860    65.0300    86.5640    65.9300    67.4660    26.4600 
  166.2500   -10.7890     2.0260    65.0300    86.5640    65.9300    79.4680    25.8660 
  166.3750   -10.6720     2.1030    65.0300    86.5640    65.9300    77.8660    25.6450 
  166.5000   -10.5740     2.1730    65.0300    86.5640    65.9300    85.1100    25.6480 
  166.6250   -10.5150     2.2150    65.0300    86.5640    65.9300   102.8790    25.7230 
  166.7500   -10.5080     2.2240    65.0300    86.5640    65.9300   133.8430    25.8640 
  166.8750   -10.5590     2.1960    65.0300    86.5640    65.9300   179.5100    26.1430 
  167.0000   -10.6430     2.1480    65.0300    86.5640    65.9300   218.1950    26.4800 
  167.1250   -10.7540     2.0980    65.0300    86.5640    65.9300   238.8990    26.6260 
  167.2500   -10.8670     2.0660    65.0300    86.5640    65.9300   256.4840    26.3210 
  167.3750   -10.9710     2.0720    65.0300    86.5640    65.9300   259.9650    25.6180 
  167.5000   -11.0480     2.1080    65.0300    86.5640    65.9300   324.2110    25.0270 
  167.6250   -11.1190     2.1440    65.0300    86.5640    65.9300   458.7200    24.8510 
  167.7500   -11.1620     2.1360    65.0300    86.5640    65.9300   553.4400    24.7000 
  167.8750   -11.1860     2.0680    65.0300    86.5640    65.9300   582.5020    23.0290 
  168.0000   -11.1790     1.9790    65.0300    86.5640    65.9300   393.7320    20.0570 
  168.1250   -11.1860     1.8960    65.0300    86.5640    65.9300   315.1280    17.3850 
  168.2500   -11.1940     1.8350    65.0300    86.5640    65.9300   294.0330    16.2710 
  168.3750  -999.2500     1.8050    65.0300    86.5640    65.9300   294.1750    16.3720 
  168.5000  -999.2500     1.7940    65.0300    86.5640    65.9300   293.9490    16.4380 
  168.6250  -999.2500     1.7930    65.0300    86.5640    65.9300   293.9030    16.4250 
  168.7500  -999.2500     1.7930    65.0300    86.5640    65.9300   294.1550    16.4240 
  168.8750  -999.2500     1.7940    65.0300    86.5640    65.9300   294.0480    16.4240 
  169.0000  -999.2500     1.7960    65.0300    86.5640    65.9300   293.9970    16.4250 
  169.1250  -999.2500     1.7980    65.0300    86.5640    65.9300   294.0420    16.4260 
  169.2500  -999.2500     1.8010    65.0300    86.5640    65.9300   293.7920    16.4270 
  169.3750  -999.2500     1.8050    65.0300    86.5640    65.9300   294.1640    16.4260 
  169.5000  -999.2500     1.8070    65.0300    86.5640    65.9300   294.5370    16.4240 
  169.6250  -999.2500     1.8060    65.0300    86.5640    65.9300   294.4680    16.4210 
  169.7500  -999.2500  -999.2500    65.0300    86.5640    65.9300   293.8260    16.4180 
  169.8750  -999.2500  -999.2500    65.0300    86.5640    65.9300   293.6250    16.4170 
  170.0000  -999.2500  -999.2500  -999.2500  -999.2500  -999.2500  -999.2500  -999.2500 
