~V
VERS. 2.00: Ver 2.00
~W
STRT.M 45.0000:
STOP.M 250.0000:
STEP.M 0.1250:
NULL. -999.2500:
UWI. F11133:
~C
DEPT.M :
SP.MV :
DEN.GM/CC :
GR.API :
RML.OHMM :
RI. :
RXO.OHMM :
CALI.CM :
~A
# ...
  157.5000   -18.8400     2.2520    72.0670    18.7790    15.5290    18.7920    24.7600 
  157.6250   -18.8260     2.2410    69.2630    20.8580    17.4430    21.8930    24.7190 
  157.7500   -18.8110     2.2350    67.5660    22.6310    19.1830    24.1320    24.6320 
  157.8750   -18.8010     2.2360    65.9560    23.7470    20.3720    24.9950    24.5290 
  158.0000   -18.8010     2.2440    63.9750    24.1520    20.8770    24.2350    24.4540 
  158.1250   -18.8040     2.2600    61.9230    23.9420    20.7500    22.3750    24.4170 
  158.2500   -18.7900     2.2810    60.9440    23.1990    20.0810    21.2500    24.4090 
  158.3750   -18.7380     2.3010    61.7270    21.8450    18.8540    21.0560    24.4040 
  158.5000   -18.6410     2.3170    64.2600    19.7530    17.0100    18.9370    24.3920 
  158.6250   -18.4970     2.3300    68.3060    16.9320    14.5890    15.1760    24.3820 
  158.7500   -18.3220     2.3390    71.9250    13.7550    11.9310    13.1900    24.3920 
  158.8750   -18.1280     2.3410    73.3350    10.8440     9.5260    11.9350    24.4120 
  159.0000   -17.9200     2.3320    72.8930     8.7370     7.7310     9.1070    24.4240 
  159.1250   -17.7110     2.3140    72.9400     7.6750     6.6910     6.2600    24.4050 
  159.2500   -17.5240     2.2980    75.1290     7.6410     6.4160     5.2840    24.3340 
  159.3750   -17.3680     2.2930    76.9160     8.3270     6.7470     5.9900    24.2450 
  159.5000   -17.2410     2.2930    75.1390     9.1340     7.3100     8.0960    24.1920 
  159.6250   -17.1540     2.2940    71.3790     9.4940     7.7070    10.8820    24.2150 
  159.7500   -17.0900     2.2930    69.2250     9.0260     7.5970    11.6300    24.3440 
  159.8750   -17.0350     2.2910    70.0130     7.9480     7.0230     9.1090    24.5260 
  160.0000   -16.9840     2.2900    72.1120     6.9490     6.3980     6.3190    24.6510 
  160.1250   -16.9330     2.2900    73.8700     6.4900     6.0500     5.5130    24.7000 
  160.2500   -16.8840     2.2940    73.7050     6.8260     6.2080     6.3840    24.7200 
  160.3750   -16.8500     2.2990    71.4460     7.9690     6.9560     8.3900    24.7370 
  160.5000   -16.8350     2.3010    69.2950     9.6060     8.1450    10.5480    24.7390 
  160.6250   -16.8330     2.3020    68.0290    11.2890     9.4780    12.0510    24.7230 
  160.7500   -16.8330     2.3040    66.2380    12.3940    10.4510    13.2950    24.7100 
  160.8750   -16.8290     2.3050    63.8900    12.5570    10.7050    13.9630    24.7060 
  161.0000   -16.8250     2.3060    63.2750    12.0590    10.3910    12.7460    24.7070 
  161.1250   -16.8260     2.3060    64.7980    11.3990     9.8630    10.7390    24.7140 
  161.2500   -16.8210     2.3050    66.2990    10.9920     9.4360    10.5140    24.7300 
  161.3750   -16.8050     2.3020    65.7840    10.9220     9.2100    12.1760    24.7460 
  161.5000   -16.7830     2.2980    64.4040    10.9410     9.0600    12.7920    24.7410 
  161.6250   -16.7490     2.2940    64.7730    10.7690     8.8260    11.4080    24.7150 
  161.7500   -16.7060     2.2960    67.0030    10.2290     8.3960     9.9090    24.6820 
  161.8750   -16.6780     2.3050    68.9630     9.4100     7.8110     9.0230    24.6520 
  162.0000   -16.6890     2.3160    70.9030     8.6380     7.2580     8.4700    24.6320 
  162.1250   -16.7220     2.3240    74.4650     8.1660     6.8950     7.7300    24.6140 
  162.2500   -16.7770     2.3280    77.6190     8.0780     6.7990     7.5600    24.5910 
  162.3750   -16.8610     2.3290    76.2910     8.2480     6.9150     8.3040    24.5690 
  162.5000   -16.9700     2.3240    72.5200     8.4390     7.0940     9.1180    24.5600 
  162.6250   -17.0920     2.3150    71.7070     8.5100     7.2300     9.2110    24.5540 
  162.7500   -17.2300     2.3050    74.5110     8.4180     7.2620     8.4440    24.5500 
  162.8750   -17.3800     2.2980    77.6960     8.2190     7.1980     7.5020    24.5660 
  163.0000   -17.5230     2.2940    79.8870     7.9970     7.0860     7.2210    24.6280 
  163.1250   -17.6580     2.2870    80.9410     7.7870     6.9580     7.4740    24.7140 
  163.2500   -17.7790     2.2830    80.2650     7.6210     6.8440     7.8080    24.7620 
  163.3750   -17.8770     2.2860    78.2360     7.5530     6.7850     7.7630    24.7680 
  163.5000   -17.9700     2.2980    77.1470     7.6310     6.8160     7.3540    24.7500 
  163.6250   -18.0800     2.3100    77.8610     7.8590     6.9470     7.0040    24.7250 
  163.7500   -18.2160     2.3160    79.3610     8.1670     7.1480     7.2590    24.7140 
  163.8750   -18.3650     2.3150    80.1380     8.4330     7.3420     8.0540    24.7220 
  164.0000   -18.5260     2.3080    79.3000     8.5610     7.4610     8.7640    24.7290 
  164.1250   -18.7090     2.3020    76.8760     8.5630     7.4990     8.9640    24.7230 
  164.2500   -18.9250     2.3010    74.2930     8.5760     7.5290     8.8670    24.7120 
  164.3750   -19.1790     2.3040    73.1050     8.7960     7.6750     9.0410    24.7070 
  164.5000   -19.4600     2.3060    74.1540     9.3530     8.0400     9.8740    24.7060 
  164.6250   -19.7530     2.3040    76.1920    10.2980     8.6890    11.6490    24.7060 
  164.7500   -20.0580     2.2980    76.8180    11.6230     9.6590    13.9630    24.7060 
  164.8750   -20.3940     2.2890    75.6280    13.2530    10.9260    15.8860    24.7060 
  165.0000   -20.7490     2.2770    73.5530    15.0720    12.4040    17.3130    24.7060 
  165.1250   -21.1120     2.2590    71.3740    17.0480    14.0540    18.8780    24.7030 
  165.2500   -21.4770     2.2420    70.1980    19.2230    15.8830    21.0610    24.6780 
  165.3750   -21.8330     2.2300    70.4650    21.6180    17.9100    24.0700    24.6260 
  165.5000   -22.1800     2.2210    70.8310    24.0490    20.0280    26.7350    24.6150 
  165.6250   -22.5330     2.2110    70.3490    26.0730    21.9150    27.3900    24.7450 
  165.7500   -22.8880     2.2050    69.0740    26.9330    22.9200    26.7700    24.9390 
  165.8750   -23.2370     2.2100    66.8620    26.1280    22.5200    26.2960    24.9970 
  166.0000   -23.5920     2.2270    65.4990    24.0810    20.9800    24.8630    24.9040 
  166.1250   -23.9590     2.2510    68.0080    21.6910    19.0140    21.1020    24.7440 
  166.2500   -24.3470     2.2710    72.8910    19.9950    17.4600    16.6900    24.6170 
  166.3750   -24.7770     2.2810    74.4040    19.6150    16.8390    14.7840    24.5770 
  166.5000   -25.2570     2.2760    71.3820    20.5530    17.2360    16.6450    24.6280 
  166.6250   -25.8000     2.2620    68.2410    22.7020    18.6750    21.1110    24.7200 
  166.7500   -26.4160     2.2470    68.0500    25.9400    21.1950    26.4030    24.7640 
  166.8750   -27.0900     2.2400    68.9250    30.1300    24.7680    30.6410    24.7110 
  167.0000   -27.7920     2.2380    67.7970    35.2020    29.2900    34.6730    24.5990 
  167.1250   -28.5160     2.2330    65.0380    41.4600    34.9360    42.9160    24.4620 
  167.2500   -29.2640     2.2190    62.8030    49.6300    42.2970    57.8970    24.3420 
  167.3750   -30.0220     2.2010    61.3460    60.4880    52.1480    75.9250    24.2870 
  167.5000   -30.7710     2.1840    58.7110    74.2180    64.8580   105.9080    24.2780 
  167.6250   -31.4850     2.1700    54.8650    90.3760    80.2190   163.4730    24.2940 
  167.7500   -32.1500     2.1620    52.5710   106.8890    96.4610   219.9510    24.3170 
  167.8750   -32.7710     2.1640    53.3550   120.3880   110.4780   223.4180    24.3320 
  168.0000   -33.3690     2.1730    55.4350   128.5360   119.8360   184.7110    24.3390 
  168.1250   -33.9420     2.1870    56.9920   131.3200   124.0860   161.0400    24.3470 
  168.2500   -34.4690     2.2040    57.6180   130.8020   124.6980   148.4850    24.3670 
  168.3750   -34.9420     2.2190    58.0030   129.8440   124.3230   135.2310    24.3950 
  168.5000   -35.3670     2.2290    58.0200   130.3130   125.1400   125.0780    24.4370 
  168.6250   -35.7550     2.2320    56.6210   132.2520   127.5310   125.1920    24.5370 
