~V
VERS. 2.00: Ver 2.00
~W
STRT.M 54.0000:
STOP.M 273.0000:
STEP.M 0.1250:
NULL. -999.2500:
UWI. F11158:
~C
DEPT.M :
SP.MV :
DEN.GM/CC :
GR.API :
RML.OHMM :
RI. :
RXO.OHMM :
CALI.CM :
~A
# ...
  166.5000   -29.9920     2.2850    55.0030   123.0040   112.2360   117.3230    24.0770 
  166.6250   -30.5940     2.2750    58.7850   125.1570   115.1600   105.7650    24.0670 
  166.7500   -31.1620     2.2660    63.8040   127.8960   117.2020    89.6090    24.0980 
  166.8750   -31.6990     2.2560    65.4670   135.5670   123.1150    95.6470    24.2300 
  167.0000   -32.2020     2.2430    63.8430   148.9100   134.0750   120.6840    24.4720 
  167.1250   -32.6340     2.2280    61.5550   166.6880   149.1280   139.8560    24.7790 
  167.2500   -32.9930     2.2140    59.9690   185.4010   165.3140   139.7550    25.1770 
  167.3750   -33.3160     2.2040    59.0890   199.5080   178.0910   152.7500    25.5320 
  167.5000   -33.6040     2.2020    59.0350   205.1970   184.3130   181.3690    25.7380 
  167.6250   -33.8470     2.2070    58.5360   202.0980   183.2260   193.0770    25.8020 
  167.7500   -34.0450     2.2210    57.5070   192.9220   176.4200   172.0040    25.7980 
  167.8750   -34.2080     2.2380    57.4040   182.2040   167.5300   148.2060    25.7770 
  168.0000   -34.3550     2.2550    58.1650   172.4810   158.8490   136.4440    25.7640 
  168.1250   -34.4980     2.2660    58.5130   165.6320   152.3290   128.2540    25.8090 
  168.2500   -34.6280     2.2700    58.2880   163.0010   149.5480   120.7030    25.9310 
  168.3750   -34.7380     2.2650    59.5670   164.2730   150.4660   116.3140    26.0480 
  168.5000   -34.8360     2.2510    62.8960   169.1470   154.8780   117.0210    26.1660 
  168.6250   -34.9250     2.2300    65.6140   176.8280   162.1380   125.1100    26.2390 
  168.7500   -34.9940     2.2120    64.1200   185.4580   170.6770   139.1800    26.1810 
  168.8750   -35.0410     2.2040    60.0890   191.8060   177.5950   149.9060    26.0440 
  169.0000   -35.0660     2.2080    56.7680   192.8550   180.1680   147.3340    25.9220 
  169.1250   -35.0730     2.2160    55.9080   186.6060   176.3060   143.1220    25.8560 
  169.2500   -35.0640     2.2270    57.9260   173.3930   165.6000   138.6700    25.8200 
  169.3750   -35.0470     2.2380    61.2340   157.7820   151.6290   123.2640    25.8010 
  169.5000   -35.0100     2.2450    63.5300   143.6350   137.9170   106.3940    25.7810 
  169.6250   -34.9870     2.2470    63.8170   133.9000   127.5860    96.6290    25.7650 
  169.7500   -35.0080     2.2450    63.9110   130.5120   122.9010    85.4380    25.7770 
  169.8750   -35.0520     2.2420    64.3050   132.9390   123.7420    81.4300    25.7960 
  170.0000   -35.0860     2.2340    62.6540   140.6350   129.7590    88.8600    25.8000 
  170.1250   -35.1070     2.2220    59.8020   152.3570   139.8650   107.0090    25.7920 
  170.2500   -35.1180     2.2120    58.8170   165.7630   151.9510   122.7670    25.7870 
  170.3750   -35.1490     2.2080    59.5950   177.1840   162.6280   129.6970    25.7990 
  170.5000   -35.2170     2.2070    60.2160   183.7310   169.2270   130.9810    25.8040 
  170.6250   -35.2930     2.2080    59.8540   183.9460   170.1940   127.5010    25.7960 
  170.7500   -35.3370     2.2100    59.6480   178.4560   165.7210   124.1350    25.7730 
  170.8750   -35.3410     2.2100    61.6330   170.5430   158.6420   120.3240    25.7460 
  171.0000   -35.3190     2.2100    65.3800   162.2170   150.8900   115.3380    25.7330 
  171.1250   -35.2570     2.2080    67.1150   154.4990   143.6260   108.2990    25.7300 
  171.2500   -35.1470     2.2100    63.1870   147.3410   137.0400   100.5170    25.7300 
  171.3750   -34.9880     2.2130    58.5120   139.8870   130.3950    97.8110    25.7260 
  171.5000   -34.7730     2.2150    58.7670   131.5180   123.0140    98.4140    25.7140 
  171.6250   -34.5010     2.2190    61.9250   122.1700   114.6460    94.1270    25.6920 
  171.7500   -34.1930     2.2280    63.3980   112.5530   105.7520    81.6510    25.6670 
  171.8750   -33.8740     2.2410    64.1070   104.0470    97.5450    68.9600    25.6560 
  172.0000   -33.5400     2.2520    66.4560    97.9950    91.2630    62.3860    25.6520 
  172.1250   -33.1920     2.2560    68.6400    95.6520    88.1210    61.6790    25.6380 
  172.2500   -32.8380     2.2520    66.8160    98.2100    89.2910    63.0620    25.5960 
  172.3750   -32.4800     2.2460    62.8130   105.3890    94.6340    65.2550    25.5380 
  172.5000   -32.1280     2.2390    59.8440   116.9100   103.9660    71.2710    25.5040 
  172.6250   -31.7870     2.2290    58.2170   131.7620   116.3950    87.3770    25.4790 
  172.7500   -31.4630     2.2190    57.3950   147.7030   129.8910   111.6840    25.4280 
  172.8750   -31.1550     2.2140    58.8320   161.2030   141.2910   120.3410    25.3400 
  173.0000   -30.8780     2.2160    62.1300   169.6190   148.2520   111.7440    25.2400 
  173.1250   -30.6230     2.2230    63.7660   172.1840   149.9560    99.2360    25.1600 
  173.2500   -30.3690     2.2300    62.0890   170.4750   147.5430    90.0740    25.1410 
  173.3750   -30.1390     2.2340    61.5630   167.8740   144.0140    85.2880    25.1850 
  173.5000   -29.9620     2.2360    63.4220   165.9970   140.9800    85.0370    25.2780 
  173.6250   -29.8360     2.2380    63.6960   165.3690   139.0860    88.1950    25.3750 
  173.7500   -29.7290     2.2370    62.4930   165.7990   138.2720    92.6520    25.4490 
  173.8750   -29.6150     2.2340    64.1610   166.5640   137.9200    96.6410    25.4830 
  174.0000   -29.4720     2.2310    66.6330   167.1230   137.5720   100.7980    25.4850 
  174.1250   -29.3210     2.2270    64.9800   167.0470   136.8770   104.5360    25.4770 
  174.2500   -29.1740     2.2230    61.2180   166.1430   135.7120   105.5750    25.4890 
  174.3750   -29.0130     2.2190    61.3930   164.7370   134.4060   102.7220    25.4970 
  174.5000   -28.8130     2.2160    62.9650   163.0400   133.3010    95.4000    25.4740 
  174.6250   -28.5700     2.2120    60.7750   160.8610   132.4560    83.3630    25.3580 
  174.7500   -28.3000     2.2080    58.0330   157.6590   131.6130    70.3420    25.0960 
  174.8750   -28.0260     2.2110    60.1160   153.5580   130.6850    64.3680    24.7810 
  175.0000   -27.7620     2.2200    63.9890   149.3830   130.1120    69.0050    24.5400 
  175.1250   -27.5220     2.2290    65.5140   146.4840   130.7550    78.3080    24.4250 
  175.2500   -27.2920     2.2340    64.8960   145.9040   133.4250    79.1280    24.4070 
  175.3750   -27.0520     2.2370    64.4990   146.1680   137.0390    78.1510    24.4140 
  175.5000   -26.7940     2.2400    63.5590   143.5930   138.4270    85.7850    24.3910 
  175.6250   -26.5350     2.2490    62.8090   133.1960   132.4250    96.0970    24.3070 
  175.7500   -26.2910     2.2630    64.2380   112.3030   114.8260    97.9860    24.1870 
  175.8750   -26.0730     2.2820    65.6090    86.6430    90.1550    82.2020    24.1170 
  176.0000   -25.8770     2.3030    67.1150    62.5730    65.4140    51.5990    24.0950 
  176.1250   -25.7000     2.3220    71.3720    44.2200    46.1380    26.4580    24.0720 
  176.2500   -25.5960     2.3400    78.2680    32.7020    34.1330    14.6730    24.0210 
  176.3750   -25.6010     2.3580    82.9650    25.9550    27.0790    11.2000    23.9820 
  176.5000   -25.7640     2.3680    82.8750    22.9230    23.5710    10.7640    24.0400 
  176.6250   -26.0890     2.3660    79.1680    23.2250    22.9410    12.2910    24.2230 
  176.7500   -26.5520     2.3500    74.8700    27.4310    25.4960    15.8420    24.5000 
  176.8750   -27.0870     2.3220    72.3880    36.0240    31.8510    26.1550    24.8230 
  177.0000   -27.6870     2.2840    70.0690    50.0820    43.6350    51.4080    25.1090 
  177.1250   -28.3490     2.2470    64.8990    70.3970    62.6040    84.0590    25.2600 
  177.2500   -29.0510     2.2230    59.4250    96.0860    88.6270    99.2850    25.2940 
  177.3750   -29.7650     2.2150    58.0270   121.1240   114.8510    97.5560    25.2960 
  177.5000   -30.4540     2.2140    59.5380   138.1410   132.6670    97.6560    25.2940 
  177.6250   -31.0910     2.2160    60.0060   142.8060   137.0730    97.4330    25.2950 
