~V
VERS. 2.00: Ver 2.00
~W
STRT.M 47.0000:
STOP.M 248.0000:
STEP.M 0.1250:
NULL. -999.2500:
UWI. F11134:
~C
DEPT.M :
GR.API :
RML.OHMM :
RI. :
RXO.OHMM :
CALI.CM :
SP.MV :
DEN.GM/CC :
~A
# ...
  148.2500    80.7000     5.6030     4.8310     4.9910    24.7860   -13.9350     2.3550 
  148.3750    80.2480     5.5930     4.8650     5.0300    24.8160   -13.9370     2.3490 
  148.5000    80.1820     5.5880     4.8990     5.0680    24.8310   -13.9210     2.3480 
  148.6250    80.8340     5.5990     4.9310     5.0790    24.8450   -13.8600     2.3480 
  148.7500    80.7630     5.6260     4.9620     5.0610    24.8560   -13.7930     2.3470 
  148.8750    79.1130     5.6580     4.9950     5.0450    24.8530   -13.7650     2.3430 
  149.0000    76.1790     5.6810     5.0280     5.0600    24.8350   -13.7500     2.3390 
  149.1250    73.4020     5.6920     5.0530     5.1010    24.8060   -13.7160     2.3380 
  149.2500    72.6200     5.6860     5.0600     5.1070    24.7740   -13.6760     2.3410 
  149.3750    73.6310     5.6480     5.0330     5.0660    24.7350   -13.6640     2.3470 
  149.5000    74.4560     5.5660     4.9620     5.0160    24.6990   -13.6940     2.3500 
  149.6250    74.4130     5.4520     4.8640     4.9740    24.6600   -13.7550     2.3480 
  149.7500    74.2290     5.3600     4.7850     4.9440    24.6010   -13.8410     2.3430 
  149.8750    74.8020     5.4090     4.8180     4.9990    24.5400   -13.9550     2.3320 
  150.0000    77.1940     5.7090     5.0510     5.4430    24.5060   -14.1170     2.3150 
  150.1250    80.8450     6.3280     5.5450     6.7820    24.5100   -14.3040     2.2950 
  150.2500    81.3000     7.2740     6.3230     8.5990    24.5520   -14.4860     2.2760 
  150.3750    76.2000     8.4340     7.3250    10.1200    24.6240   -14.6620     2.2600 
  150.5000    70.4100     9.5320     8.3490    10.7870    24.6960   -14.8360     2.2470 
  150.6250    68.1620    10.2810     9.1430    10.7540    24.7780   -14.9920     2.2360 
  150.7500    67.3110    10.5410     9.5460    10.4500    24.9050   -15.1130     2.2280 
  150.8750    63.7910    10.3730     9.5420    10.0260    24.9860   -15.2060     2.2240 
  151.0000    59.7400    10.0430     9.3190     9.6450    24.9300   -15.2750     2.2240 
  151.1250    59.1120     9.8070     9.0950     9.5040    24.7730   -15.3270     2.2270 
  151.2500    60.6300     9.8160     9.0130     9.6160    24.6910   -15.3600     2.2300 
  151.3750    60.7910    10.2120     9.2120     9.9520    24.8140   -15.3730     2.2330 
  151.5000    60.3380    11.0560     9.7770    10.5200    25.0080   -15.4040     2.2380 
  151.6250    61.6640    12.3180    10.7280    11.6660    25.1100   -15.4860     2.2470 
  151.7500    62.9710    13.8760    12.0190    13.7400    25.1100   -15.6000     2.2570 
  151.8750    60.6790    15.4550    13.4770    16.6310    25.0630   -15.6840     2.2650 
  152.0000    57.1340    16.7070    14.7940    18.8190    24.9860   -15.7440     2.2670 
  152.1250    56.1260    17.3830    15.6790    18.7960    24.8960   -15.8270     2.2640 
  152.2500    58.2530    17.4290    15.9960    17.0690    24.8490   -15.9150     2.2580 
  152.3750    62.5120    16.9720    15.7810    15.9120    24.8960   -15.9580     2.2550 
  152.5000    66.5480    16.2790    15.2510    16.3460    24.9800   -15.9570     2.2550 
  152.6250    67.8740    15.5560    14.6090    16.0660    25.0250   -15.9260     2.2540 
  152.7500    66.1090    14.8800    13.9550    14.5180    25.0370   -15.8600     2.2520 
  152.8750    64.9170    14.2710    13.3430    13.1050    25.0550   -15.7720     2.2540 
  153.0000    66.6040    13.7170    12.7910    12.3350    25.0740   -15.6840     2.2600 
  153.1250    68.6580    13.2160    12.3100    12.0420    25.0820   -15.5910     2.2630 
  153.2500    68.2340    12.8120    11.9360    12.1720    25.0830   -15.5010     2.2600 
  153.3750    65.9760    12.6320    11.7670    12.3470    25.0830   -15.4350     2.2520 
  153.5000    63.9670    12.8110    11.9100    12.4300    25.0830   -15.3870     2.2440 
  153.6250    63.8550    13.4700    12.4690    13.2030    25.0820   -15.3410     2.2420 
  153.7500    65.1180    14.7190    13.5590    15.6430    25.0800   -15.2950     2.2460 
  153.8750    64.5740    16.6670    15.3240    20.8220    25.0840   -15.2440     2.2500 
  154.0000    60.5050    19.1720    17.7080    25.2900    25.1070   -15.1850     2.2490 
  154.1250    54.7580    21.8680    20.4310    26.8290    25.1250   -15.1300     2.2420 
  154.2500    50.9790    24.2940    23.0530    27.0010    25.1180   -15.0890     2.2320 
  154.3750    50.7060    25.9350    24.9760    29.8170    25.1060   -15.0520     2.2240 
  154.5000    51.8160    26.6220    25.9110    31.4880    25.1100   -15.0120     2.2170 
  154.6250    52.3270    26.3970    25.8380    29.2430    25.0960   -14.9940     2.2130 
  154.7500    51.8920    25.2090    24.7100    25.4170    25.0480   -15.0350     2.2140 
  154.8750    52.7280    22.9450    22.4590    23.1500    25.0000   -15.1400     2.2220 
  155.0000    56.7180    19.9840    19.5270    22.5680    24.9730   -15.2600     2.2340 
  155.1250    62.5520    17.1240    16.7040    20.4150    24.9470   -15.3640     2.2480 
  155.2500    66.4960    15.1560    14.6660    15.3640    24.9050   -15.4710     2.2600 
  155.3750    65.5980    14.8360    13.9940    11.6950    24.8760   -15.5810     2.2690 
  155.5000    61.8740    16.3860    14.8890    13.0750    24.8800   -15.6670     2.2690 
  155.6250    57.8680    19.6050    17.3540    20.4830    24.9340   -15.6960     2.2610 
  155.7500    53.5770    23.8300    21.1180    30.2580    25.0290   -15.6680     2.2500 
  155.8750    50.2360    27.1000    24.6500    34.5090    25.1040   -15.6220     2.2450 
  156.0000    49.9650    27.2200    25.5880    31.6720    25.1010   -15.5730     2.2500 
  156.1250    52.2840    23.8620    23.1050    26.4610    25.0110   -15.5120     2.2610 
  156.2500    54.8130    18.8300    18.7280    21.3050    24.8700   -15.4560     2.2690 
  156.3750    57.1350    14.4000    14.6070    15.6360    24.7370   -15.4380     2.2730 
  156.5000    59.9470    11.4430    11.6550    10.6720    24.6420   -15.4590     2.2720 
  156.6250    62.2700     9.7800     9.8060     8.4360    24.5900   -15.5080     2.2680 
  156.7500    63.8570     9.0880     8.8400     8.5220    24.5750   -15.5810     2.2620 
  156.8750    66.3760     9.2060     8.6610     8.7410    24.5980   -15.6690     2.2580 
  157.0000    68.7170    10.0370     9.1930     8.5690    24.6590   -15.7730     2.2590 
  157.1250    67.7380    11.5600    10.4090     9.4770    24.7410   -15.8860     2.2610 
  157.2500    62.5420    13.7940    12.3400    12.7090    24.8120   -16.0040     2.2580 
  157.3750    56.8170    16.6570    15.0080    17.4960    24.8350   -16.1270     2.2480 
  157.5000    54.5750    19.7330    18.1340    21.6300    24.8000   -16.2630     2.2370 
  157.6250    55.8990    22.3800    21.1170    24.1670    24.7250   -16.4040     2.2310 
  157.7500    57.4410    23.9940    23.2400    25.3400    24.6270   -16.5230     2.2300 
  157.8750    56.7890    24.2110    23.8960    24.9440    24.5470   -16.6120     2.2340 
  158.0000    55.8340    23.3980    23.3090    23.7980    24.5060   -16.7080     2.2420 
  158.1250    56.2390    22.1680    22.1030    21.9790    24.4940   -16.8210     2.2480 
  158.2500    56.7490    20.8910    20.7260    19.2400    24.4930   -16.9020     2.2480 
  158.3750    57.4760    19.6980    19.4150    16.6800    24.5100   -16.9250     2.2430 
  158.5000    59.7610    18.5460    18.2070    15.5270    24.5740   -16.9300     2.2380 
  158.6250    62.7380    17.3510    17.0390    14.9770    24.6950   -16.9560     2.2340 
  158.7500    64.4430    16.0890    15.8550    14.2460    24.8350   -16.9940     2.2370 
  158.8750    64.6320    14.8110    14.6620    13.2090    24.9270   -17.0340     2.2530 
  159.0000    64.2020    13.6120    13.5240    12.1070    24.9440   -17.1030     2.2850 
  159.1250    64.0580    12.5740    12.5200    11.0380    24.9030   -17.2060     2.3230 
  159.2500    65.2630    11.7530    11.7120     9.9140    24.8380   -17.3230     2.3600 
  159.3750    68.3940    11.1840    11.1510     9.3350    24.7860   -17.4600     2.3860 
