~V
VERS. 2.00: Ver 2.00
~W
STRT.M 54.0000:
STOP.M 273.0000:
STEP.M 0.1250:
NULL. -999.2500:
UWI. F11158:
~C
DEPT.M :
SP.MV :
DEN.GM/CC :
GR.API :
RML.OHMM :
RI. :
RXO.OHMM :
CALI.CM :
~A
# ...
   65.2500   -34.0670     2.2310    60.5800     8.0980     8.6790    11.4150    28.1050 
   65.3750   -34.5680     2.1900    60.8880     7.6210     7.9670     9.5320    28.2130 
   65.5000   -34.9340     2.1780    62.6480     7.3860     7.4850     8.7570    28.1200 
   65.6250   -35.1550     2.1760    65.7700     7.3180     7.2200     8.4510    28.3900 
   65.7500   -35.2260     2.1740    67.7050     7.3210     7.1120     8.3650    28.9450 
   65.8750   -35.2050     2.1700    66.7480     7.3030     7.0650     8.2000    29.1620 
   66.0000   -35.1520     2.1670    63.0620     7.2280     7.0260     7.9600    28.9030 
   66.1250   -35.1200     2.1660    59.4830     7.0910     6.9560     7.9610    28.4400 
   66.2500   -35.1370     2.1630    59.3420     6.9330     6.8520     8.1610    28.1810 
   66.3750   -35.1810     2.1600    60.6700     6.8850     6.8000     8.2660    28.1200 
   66.5000   -35.2580     2.1640    61.8240     7.1240     6.9630     8.2730    28.1580 
   66.6250   -35.3860     2.1820    63.8210     7.8620     7.5570     8.4680    28.2300 
   66.7500   -35.5850     2.2270    66.2730     9.3040     8.7930     9.6730    28.1950 
   66.8750   -35.8750     2.3060    66.9440    11.2980    10.5560    13.4740    27.7260 
   67.0000   -36.2660     2.4040    67.6860    13.3810    12.4700    22.0480    26.8930 
   67.1250   -36.7590     2.4800    70.7840    14.5790    13.7440    36.3090    26.1500 
   67.2500   -37.3520     2.4750    72.6400    13.9260    13.5130    50.5310    25.9480 
   67.3750   -38.0180     2.3930    71.2470    12.0610    12.0740    43.3540    26.2490 
   67.5000   -38.7430     2.2890    70.6980    10.0700    10.2260    21.6080    26.6900 
   67.6250   -39.4790     2.2130    73.3930     8.6590     8.6730    11.1780    26.6380 
   67.7500   -40.1860     2.1850    75.9240     8.0220     7.7480     9.4130    26.2010 
   67.8750   -40.8400     2.1800    74.0220     7.9060     7.3490     9.4070    25.9820 
   68.0000   -41.4370     2.1780    68.5270     8.1080     7.3290     9.3800    26.1120 
   68.1250   -41.9650     2.1720    62.0600     8.4200     7.5090     9.3050    26.4970 
   68.2500   -42.4030     2.1690    60.2000     8.6650     7.7120     9.4100    26.9130 
   68.3750   -42.7570     2.1710    63.5510     8.7890     7.8410     9.6050    27.1590 
   68.5000   -43.0210     2.1750    66.3690     8.8170     7.8890     9.7250    27.2630 
   68.6250   -43.2250     2.1750    65.3860     8.7860     7.8790     9.7740    27.1810 
   68.7500   -43.4130     2.1720    63.3010     8.7220     7.8330     9.9570    27.0260 
   68.8750   -43.5940     2.1660    64.1650     8.6490     7.7690    10.2350    27.0380 
   69.0000   -43.7650     2.1520    65.2280     8.5790     7.6940    10.4070    27.5870 
   69.1250   -43.9230     2.1240    62.7490     8.5280     7.6140    10.4410    28.8260 
   69.2500   -44.0550     2.0910    58.7220     8.5090     7.5360    10.2730    30.1850 
   69.3750   -44.1530     2.0750    57.2150     8.5210     7.4680    10.2170    30.7990 
   69.5000   -44.2090     2.0870    58.4350     8.5620     7.4200    10.2300    30.5800 
   69.6250   -44.2020     2.1180    59.5540     8.6300     7.3920    10.2600    30.0280 
   69.7500   -44.1130     2.1440    60.9750     8.7220     7.3820    10.3280    29.5350 
   69.8750   -43.9740     2.1610    64.5580     8.8190     7.3750    10.3030    29.2470 
   70.0000   -43.7940     2.1730    67.2160     8.8960     7.3540    10.1820    29.2680 
   70.1250   -43.5510     2.1850    65.8680     8.9240     7.2970    10.0040    29.5130 
   70.2500   -43.2600     2.1950    63.4080     8.8870     7.1870     9.7430    29.8440 
   70.3750   -42.9470     2.2010    64.8560     8.8060     7.0380     9.4820    30.1460 
   70.5000   -42.6240     2.2030    69.9050     8.7020     6.8700     9.2120    30.3910 
   70.6250   -42.3350     2.2040    74.7230     8.5920     6.7070     8.7070    30.5140 
   70.7500   -42.1160     2.1950    75.0350     8.4840     6.5700     8.0840    30.3760 
   70.8750   -41.9620     2.1780    71.5100     8.4060     6.4740     7.5690    29.8950 
   71.0000   -41.8590     2.1620    68.5370     8.4450     6.4640     7.7300    29.3250 
   71.1250   -41.7860     2.1620    68.5750     8.7510     6.6310     8.5250    29.0060 
   71.2500   -41.7090     2.1850    70.7710     9.4600     7.0760     9.2410    28.9220 
   71.3750   -41.6160     2.2240    71.5620    10.4610     7.7600    10.2720    28.7160 
   71.5000   -41.5420     2.2790    69.8550    11.5090     8.5520    13.3160    28.2130 
   71.6250   -41.5330     2.3480    67.9430    12.2010     9.1820    21.5360    27.7390 
   71.7500   -41.6020     2.4050    68.2760    12.1200     9.3090    34.1550    27.9130 
   71.8750   -41.6940     2.3970    68.8200    11.3400     8.8970    31.6910    28.8430 
   72.0000   -41.7680     2.3190    67.4790    10.2180     8.1480    20.0090    29.7920 
   72.1250   -41.8560     2.2260    65.1490     9.2030     7.3730    12.3340    29.9110 
   72.2500   -41.9820     2.1690    64.0700     8.6180     6.8250    10.3020    29.8540 
   72.3750   -42.1440     2.1410    62.8190     8.4370     6.5510     9.7610    30.0960 
   72.5000   -42.3220     2.1310    60.4870     8.5300     6.5080     9.8630    30.2290 
   72.6250   -42.4440     2.1330    59.3550     8.7260     6.6040    10.1440    29.9880 
   72.7500   -42.4670     2.1410    61.0560     8.9000     6.7420    10.2790    29.7840 
   72.8750   -42.4090     2.1460    62.9780     9.0140     6.8590    10.2120    29.8670 
   73.0000   -42.2730     2.1450    62.5460     9.0820     6.9430    10.1220    30.0980 
   73.1250   -42.0560     2.1400    60.2590     9.1240     6.9990    10.1410    30.2420 
   73.2500   -41.7180     2.1390    58.7860     9.1520     7.0310    10.2180    30.1930 
   73.3750   -41.2720     2.1450    59.6130     9.1800     7.0500    10.2100    30.0650 
   73.5000   -40.7320     2.1520    63.6130     9.2090     7.0550    10.1890    30.0310 
   73.6250   -40.1230     2.1550    68.1010     9.2280     7.0400    10.1370    30.1530 
   73.7500   -39.4440     2.1500    69.3680     9.2010     6.9850    10.0140    30.2990 
   73.8750   -38.7170     2.1430    69.3800     9.0950     6.8740     9.7870    30.3420 
   74.0000   -37.9990     2.1430    71.2880     8.8860     6.6980     9.3590    30.2010 
   74.1250   -37.3460     2.1540    74.1120     8.5970     6.4700     8.7530    29.9020 
   74.2500   -36.8870     2.1710    75.4890     8.3300     6.2510     8.0340    29.5910 
   74.3750   -36.7070     2.1880    76.9940     8.2180     6.1240     7.4590    29.3270 
   74.5000   -36.8390     2.2060    79.6070     8.3410     6.1460     7.2370    29.1540 
   74.6250   -37.2920     2.2240    81.7790     8.7130     6.3390     7.6090    29.0810 
   74.7500   -38.0470     2.2330    80.1870     9.2620     6.6870     8.7970    29.0930 
   74.8750   -39.0060     2.2240    75.7440     9.8010     7.0790    10.1270    29.1580 
   75.0000   -40.0860     2.2060    71.6140    10.1740     7.4030    10.7320    29.2910 
   75.1250   -41.2060     2.1880    68.5700    10.2850     7.5680    10.6360    29.5140 
   75.2500   -42.2610     2.1730    64.5600    10.1340     7.5330    10.5020    29.8030 
   75.3750   -43.1490     2.1550    59.4860     9.8720     7.3780    10.4500    30.1280 
   75.5000   -43.8080     2.1360    57.3290     9.6230     7.1890    10.4190    30.5690 
   75.6250   -44.1940     2.1210    58.7520     9.4630     7.0350    10.3070    31.0290 
   75.7500   -44.3140     2.1180    59.5120     9.4050     6.9470    10.2400    31.1840 
   75.8750   -44.2570     2.1200    58.4140     9.4000     6.9050    10.6630    31.0350 
   76.0000   -44.0890     2.1170    58.1200     9.4210     6.8910    11.4270    30.9620 
   76.1250   -43.8640     2.1100    59.5550     9.4570     6.8900    11.8470    31.1400 
   76.2500   -43.6170     2.1060    59.9570     9.5040     6.8980    11.2930    31.4130 
   76.3750   -43.3640     2.1120    59.2890     9.5500     6.9090    10.8820    31.4340 
