~V
VERS. 2.00: Ver 2.00
~W
STRT.M 50.0000:
STOP.M 248.0000:
STEP.M 0.1250:
NULL. -999.2500:
UWI. F11129:
~C
DEPT.M :
SP.MV :
DEN.GM/CC :
GR.API :
RML.OHMM :
RI. :
RXO.OHMM :
CALI.CM :
~A
# ...
  117.5000   -26.4050     2.1850    77.8860     7.9000     6.6240     8.1720    22.0490 
  117.6250   -25.6740     2.1940    75.9700     7.7300     6.4470     7.7740    22.3030 
  117.7500   -25.1100     2.1960    75.9550     7.6180     6.3110     7.8470    22.4410 
  117.8750   -24.6830     2.1920    80.5310     7.5770     6.2400     8.0660    22.4640 
  118.0000   -24.3610     2.1830    87.7750     7.6060     6.2320     8.2630    22.4520 
  118.1250   -24.2120     2.1750    90.4600     7.7070     6.2910     8.3360    22.4120 
  118.2500   -24.2710     2.1690    84.8000     7.8990     6.4280     8.3040    22.3500 
  118.3750   -24.4770     2.1700    76.8990     8.2120     6.6670     8.2960    22.2940 
  118.5000   -24.7640     2.1830    75.1600     8.6590     7.0160     8.5530    22.2520 
  118.6250   -25.0830     2.2040    77.9740     9.2290     7.4740     9.2150    22.1690 
  118.7500   -25.3770     2.2260    79.2300     9.8470     7.9930    10.2270    21.9440 
  118.8750   -25.6670     2.2380    78.8810    10.3770     8.4690    11.2050    21.5730 
  119.0000   -25.9750     2.2430    79.4390    10.6860     8.7900    11.7770    21.2520 
  119.1250   -26.2480     2.2470    79.4220    10.7250     8.9020    11.9600    21.0950 
  119.2500   -26.4590     2.2460    77.9470    10.5760     8.8350    11.9890    21.0470 
  119.3750   -26.6370     2.2350    77.4060    10.4340     8.7110    12.0120    20.9900 
  119.5000   -26.8000     2.2220    78.7100    10.5000     8.6840    12.0380    20.8730 
  119.6250   -26.9450     2.2120    77.8130    10.8750     8.8510    12.5400    20.7750 
  119.7500   -27.0700     2.2040    73.3060    11.5880     9.2760    13.8610    20.8470 
  119.8750   -27.1490     2.1960    69.2010    12.5700     9.9580    15.8450    21.1620 
  120.0000   -27.1850     2.1900    68.8600    13.6590    10.8100    18.2620    21.6550 
  120.1250   -27.2080     2.1880    70.5450    14.7090    11.7370    20.3070    22.1700 
  120.2500   -27.2090     2.1880    70.2420    15.5670    12.6160    21.3950    22.6200 
  120.3750   -27.1530     2.1870    68.1240    16.1390    13.3360    22.1760    23.0330 
  120.5000   -27.0200     2.1830    67.5150    16.4420    13.8520    23.0430    23.3640 
  120.6250   -26.8110     2.1770    68.0780    16.5110    14.1530    23.4990    23.5740 
  120.7500   -26.5210     2.1700    67.3590    16.3890    14.2570    23.0260    23.6980 
  120.8750   -26.1280     2.1640    65.6670    16.1250    14.2090    21.8500    23.7900 
  121.0000   -25.6060     2.1570    64.6590    15.7610    14.0650    20.6450    23.8580 
  121.1250   -24.9660     2.1470    63.0890    15.2990    13.8400    19.7600    23.8810 
  121.2500   -24.2610     2.1370    61.2190    14.7190    13.5160    19.0760    23.8180 
  121.3750   -23.5140     2.1400    62.3170    13.9890    13.0620    18.2070    23.6610 
  121.5000   -22.6750     2.1620    65.2520    13.1000    12.4490    16.9610    23.4800 
  121.6250   -21.7080     2.1880    65.3930    12.0770    11.6700    15.6720    23.3210 
  121.7500   -20.6640     2.2060    62.6760    11.0350    10.7880    14.4270    23.2270 
  121.8750   -19.6260     2.2250    62.6370    10.1030     9.9210    12.8770    23.2310 
  122.0000   -18.6180     2.2660    67.3570     9.3250     9.1520    11.3490    23.2820 
  122.1250   -17.6550     2.3270    71.3120     8.6700     8.4900     9.8260    23.3380 
  122.2500   -16.7930     2.3840    69.8040     8.0670     7.9010     9.3270    23.3710 
  122.3750   -16.0510     2.4060    65.7580     7.4470     7.3280     9.5800    23.3240 
  122.5000   -15.4220     2.3850    65.4150     6.7940     6.7370     8.5010    23.1290 
  122.6250   -14.9440     2.3410    70.4770     6.1660     6.1600     6.9180    22.7530 
  122.7500   -14.6130     2.3080    77.0720     5.6890     5.6940     6.1290    22.3530 
  122.8750   -14.3560     2.3010    80.9330     5.5100     5.4550     5.9880    22.1400 
  123.0000   -14.1400     2.3150    81.9980     5.7240     5.5310     6.0940    22.0550 
  123.1250   -13.9670     2.3450    81.3320     6.3880     5.9890     6.3840    22.0320 
  123.2500   -13.7740     2.3900    77.4670     7.4630     6.8580     7.2980    22.0800 
  123.3750   -13.5210     2.4370    70.2410     8.6940     7.9870     9.3660    22.2170 
  123.5000   -13.2350     2.4630    64.2810     9.5700     8.9530    11.9770    22.4540 
  123.6250   -12.9320     2.4580    62.5560     9.6250     9.2720    13.3500    22.8450 
  123.7500   -12.6340     2.4280    64.2390     8.7900     8.7220    12.3940    23.2880 
  123.8750   -12.3610     2.3920    68.7860     7.6430     7.6920     9.8400    23.5460 
  124.0000   -12.0900     2.3750    75.1300     6.9640     6.8700     7.6960    23.5960 
  124.1250   -11.7880     2.3860    78.9690     7.1630     6.6510     7.0470    23.5480 
  124.2500   -11.4890     2.4280    75.8180     8.7670     7.3430     8.7630    23.5210 
  124.3750   -11.2570     2.4910    66.9820    12.6820     9.2060    13.4750    23.5420 
  124.5000   -11.0870     2.5510    58.7450    17.6660    12.3100    20.3200    23.5810 
  124.6250   -10.9370     2.5920    54.4540    22.1590    16.5140    26.8480    23.6280 
  124.7500   -10.8120     2.6080    53.6620    26.8150    20.9300    30.8230    23.6200 
  124.8750   -10.7510     2.6120    53.7940    29.6560    24.1250    31.5120    23.5300 
  125.0000   -10.7420     2.6100    52.5280    30.0280    25.3720    29.6980    23.4460 
  125.1250   -10.7770     2.6000    50.3380    28.8390    25.0770    27.5560    23.3930 
  125.2500   -10.8650     2.5840    48.8970    27.3470    24.1340    25.7180    23.3220 
  125.3750   -10.9910     2.5690    48.7670    26.2990    23.2360    23.7570    23.2210 
  125.5000   -11.1290     2.5600    47.9100    25.8410    22.6770    22.9820    23.1000 
  125.6250   -11.2740     2.5560    45.0340    25.9240    22.5230    23.7780    22.9730 
  125.7500   -11.4220     2.5580    42.6020    26.4210    22.7620    24.7280    22.8910 
  125.8750   -11.5770     2.5600    43.0600    27.1390    23.2850    24.6320    22.8860 
  126.0000   -11.7530     2.5610    44.9860    27.8510    23.8990    24.8850    22.9010 
  126.1250   -11.9340     2.5630    46.3470    28.4010    24.4490    27.1930    22.9690 
  126.2500   -12.0900     2.5630    47.3160    28.6750    24.8000    29.0660    23.0400 
  126.3750   -12.2180     2.5600    49.1790    28.6800    24.9180    27.8010    23.0720 
  126.5000   -12.3280     2.5550    51.0790    28.5680    24.9030    25.7670    23.1070 
  126.6250   -12.4430     2.5480    51.7840    28.4820    24.8720    25.3160    23.1480 
  126.7500   -12.5720     2.5390    51.5490    28.5280    24.9240    25.8180    23.1460 
  126.8750   -12.7010     2.5320    51.1510    28.7080    25.0950    25.3110    23.0650 
  127.0000   -12.8170     2.5340    50.5530    28.9160    25.3300    24.2110    22.9340 
  127.1250   -12.9160     2.5450    49.2510    29.0740    25.5620    23.9610    22.8150 
  127.2500   -13.0050     2.5580    48.2690    29.1950    25.7600    24.1550    22.7750 
  127.3750   -13.1090     2.5610    49.1940    29.3490    25.9500    23.7360    22.8190 
  127.5000   -13.2770     2.5570    51.2970    29.5350    26.1410    23.5010    22.8300 
  127.6250   -13.5000     2.5550    52.3930    29.6110    26.2500    24.5250    22.7080 
  127.7500   -13.7050     2.5540    51.7150    29.3450    26.1120    25.9500    22.5270 
  127.8750   -13.8690     2.5500    50.5420    28.5890    25.5940    25.2800    22.4000 
  128.0000   -14.0650     2.5400    50.5770    27.4320    24.7150    22.5660    22.3150 
  128.1250   -14.3190     2.5240    52.8050    26.0640    23.5870    20.2680    22.2590 
  128.2500   -14.5580     2.5050    56.4670    24.7950    22.4450    19.4730    22.2300 
  128.3750   -14.7450     2.4880    59.0000    23.9310    21.5660    19.4730    22.2240 
  128.5000   -14.8940     2.4780    59.9170    23.6130    21.1210    19.4220    22.2300 
  128.6250   -14.9970     2.4750    60.0420    23.8550    21.1590    19.5860    22.2400 
