~V
VERS. 2.00: Ver 2.00
~W
STRT.M 56.0000:
STOP.M 252.0000:
STEP.M 0.1250:
NULL. -999.2500:
UWI. F11142:
~C
DEPT.M :
SP.MV :
DEN.GM/CC :
GR.API :
RML.OHMM :
RI. :
RXO.OHMM :
CALI.CM :
~A
   56.0000     0.0000  -999.2500  -999.2500  -999.2500  -999.2500  -999.2500  -999.2500 
   56.1250    29.1010  -999.2500  -999.2500  -999.2500  -999.2500  -999.2500  -999.2500 
   56.2500    58.4270  -999.2500     0.0000     0.0000     0.0000     0.0000     0.0000 
   56.3750    58.8620  -999.2500     0.0000     0.0000     0.0000     0.0000     0.0000 
   56.5000    59.4340  -999.2500     0.0000     0.0000     0.0000     0.0000     0.0000 
   56.6250    60.1130  -999.2500     0.0000     0.0000     0.0000     0.0000     0.0000 
   56.7500    60.7880  -999.2500    37.9990     0.5690     0.1390     6.7140    18.7880 
   56.8750    61.3460  -999.2500    52.9300     0.7900     0.1830     7.1030    25.0190 
   57.0000    61.7480  -999.2500    55.1280     0.8120     0.1810     4.6770    24.9780 
   57.1250    62.1340  -999.2500    55.9380     0.8160     0.1790     3.6880    24.9240 
   57.2500    62.4600  -999.2500    55.3760     0.8070     0.1780     3.8130    24.9020 
   57.3750    62.5970  -999.2500    54.2240     0.8020     0.1760     4.3340    24.9520 
   57.5000    62.4300  -999.2500    53.0590     0.8100     0.1750     4.9620    25.1090 
   57.6250    62.0660  -999.2500    52.0370     0.8230     0.1740     5.0860    25.2740 
   57.7500    61.6620  -999.2500    50.3090     0.8280     0.1730     4.2230    25.3440 
   57.8750    61.3770  -999.2500    47.5480     0.8210     0.1740     3.3310    25.3490 
   58.0000    61.2870  -999.2500    45.1590     0.7990     0.1770     2.9710    25.3380 
   58.1250    61.2790  -999.2500    45.0500     0.7760     0.1810     2.5310    25.3320 
   58.2500    61.3360  -999.2500    46.1270     0.7600     0.1870     1.8440    25.3290 
   58.3750    61.5230  -999.2500    45.8740     0.7640     0.1930     1.1060    25.3200 
   58.5000    61.9490  -999.2500    45.5170     0.8050     0.1940     0.6660    25.3080 
   58.6250    62.5700  -999.2500    46.6780     0.8750     0.1910     0.5410    25.2900 
   58.7500    63.2730  -999.2500    47.7910     0.9600     0.1850     0.5880    25.2800 
   58.8750    63.9770  -999.2500    46.7540     1.0330     0.1800     0.6870    25.2750 
   59.0000    64.6020  -999.2500    44.9030     1.0620     0.1780     0.6760    25.2760 
   59.1250    65.1580  -999.2500    44.8220     1.0440     0.1810     0.6330    25.2760 
   59.2500    65.6810  -999.2500    45.3950     0.9880     0.1880     0.8810    25.2780 
   59.3750    66.1310  -999.2500    45.1560     0.9100     0.1950     1.5080    25.2890 
   59.5000    66.4150  -999.2500    44.7950     0.8400     0.2010     2.4160    25.3340 
   59.6250    66.5560  -999.2500    45.0050     0.8050     0.2040     3.3400    25.4050 
   59.7500    66.6270  -999.2500    45.5190     0.8160     0.2050     3.7230    25.4480 
   59.8750    66.5950  -999.2500    45.7760     0.8680     0.2050     3.1800    25.4590 
   60.0000    66.4060  -999.2500    46.0230     0.9450     0.2060     2.7500    25.4450 
   60.1250    66.0340     0.0000    46.7890     1.0200     0.2090     2.4720    25.4450 
   60.2500    65.5060     0.0000    48.5070     1.0780     0.2150     2.2810    25.4560 
   60.3750    64.8920     0.0000    51.4190     1.1110     0.2210     2.2360    25.4730 
   60.5000    64.1890     0.4660    54.6210     1.1190     0.2250     2.5310    25.4820 
   60.6250    63.4370     1.8490    56.8940     1.1100     0.2260     2.9500    25.4840 
   60.7500    62.6890     1.8130    58.2270     1.0970     0.2250     3.3630    25.4830 
   60.8750    62.0240     1.7800    58.2260     1.0940     0.2230     3.4890    25.4820 
   61.0000    61.5430     1.7680    56.5970     1.1140     0.2200     3.2660    25.4810 
   61.1250    61.3680     1.7740    54.5430     1.1560     0.2200     2.9150    25.4810 
   61.2500    61.5310     1.8010    53.9560     1.2160     0.2200     2.3650    25.4740 
   61.3750    62.0120     1.8520    55.1570     1.2750     0.2190     1.4010    25.4480 
   61.5000    62.8970     1.9270    56.3510     1.2940     0.2160     0.3990    25.3110 
   61.6250    64.0040     2.0140    56.7830     1.2550     0.2120    -0.1220    24.9380 
   61.7500    65.1620     2.1060    57.0550     1.1690     0.2080    -0.2740    24.3390 
   61.8750    66.3020     2.1870    57.4110     1.0660     0.2060    -0.2680    23.9470 
   62.0000    67.4240     2.2350    57.1190     0.9870     0.2050    -0.2010    23.9520 
   62.1250    68.5030     2.2660    56.1170     0.9420     0.2070    -0.1390    24.0810 
   62.2500    69.5720     2.2990    55.3190     0.9180     0.2080    -0.1110    24.1320 
   62.3750    70.6660     2.3260    54.8840     0.8930     0.2070    -0.1020    24.0430 
   62.5000    71.7120     2.3260    53.3140     0.8420     0.2000    -0.0710    23.8810 
   62.6250    72.5890     2.3180    51.3900     0.7510     0.1880    -0.0360    23.8720 
   62.7500    73.2050     2.3270    50.5420     0.6160     0.1710    -0.0170    23.9920 
   62.8750    73.4010     2.3630    50.8680     0.4600     0.1550    -0.0070    23.9600 
   63.0000    72.6470     2.4120    51.5850     0.3560     0.1480     0.0640    23.7610 
   63.1250    70.5350     2.4660    53.1440     0.3610     0.1610     0.3190    23.5440 
   63.2500    66.4640     2.5210    55.2540     0.5350     0.2230     1.1530    23.4350 
   63.3750    60.0770     2.5450    57.0750     0.9850     0.3860     3.4140    23.4580 
   63.5000    51.3300     2.5130    59.1420     1.9690     0.7760     7.0010    23.6220 
   63.6250    41.2720     2.4590    63.7000     3.4750     1.4510    11.0780    23.7380 
   63.7500    30.4440     2.3940    68.8630     5.3170     2.4160    14.6660    23.7520 
   63.8750    19.3240     2.3070    71.1380     7.0880     3.5750    14.1460    23.6730 
   64.0000     8.5830     2.2070    71.3020     7.9720     4.6610    10.4080    23.7370 
   64.1250    -1.1900     2.1360    72.2140     7.8390     5.4160     9.2270    23.8400 
   64.2500    -9.3700     2.1060    73.5050     7.2960     5.8200     9.2090    23.8070 
   64.3750   -15.5330     2.0990    74.8370     6.9450     6.0270     9.4590    23.8630 
   64.5000   -19.5080     2.0950    77.9640     6.9460     6.1720     9.6840    24.0730 
   64.6250   -22.0950     2.0920    81.5280     7.1040     6.3130     9.4950    24.4690 
   64.7500   -23.7010     2.0980    82.6140     7.3080     6.4550     9.0750    24.7370 
   64.8750   -24.6760     2.1140    82.1970     7.5240     6.6060     8.8650    24.7910 
   65.0000   -25.2300     2.1360    82.0580     7.7900     6.7840     8.9520    24.7030 
   65.1250   -25.5490     2.1500    80.9020     8.1160     6.9860     9.2380    24.7820 
   65.2500   -25.6620     2.1540    78.6570     8.4500     7.1820     9.6220    25.1580 
   65.3750   -25.6040     2.1500    77.0720     8.6950     7.3220    10.1150    25.4010 
   65.5000   -25.3950     2.1420    77.1060     8.7250     7.3410    10.1750    25.1670 
   65.6250   -25.0700     2.1300    77.3520     8.5630     7.2470     9.8620    24.8910 
   65.7500   -24.5800     2.1150    77.7320     8.2900     7.0730     9.2110    24.6370 
   65.8750   -23.8460     2.1050    79.3830     8.0150     6.8740     8.5360    24.3740 
   66.0000   -22.8240     2.1100    81.5150     7.8250     6.7010     8.1540    24.1410 
   66.1250   -21.6580     2.1230    82.1750     7.6940     6.5470     7.9920    23.9710 
   66.2500   -20.4700     2.1370    82.1660     7.5610     6.3760     7.8750    23.8000 
   66.3750   -19.2690     2.1480    84.2510     7.3680     6.1510     7.7710    23.6990 
   66.5000   -18.0500     2.1610    89.2280     7.1100     5.8510     7.3050    23.6230 
   66.6250   -16.9130     2.1850    95.4640     6.8780     5.5350     6.4490    23.5490 
   66.7500   -15.9730     2.2200   101.9530     6.7620     5.2840     5.3990    23.4730 
   66.8750   -15.3930     2.2530   107.2010     6.8210     5.1760     4.9010    23.4130 
   67.0000   -15.3810     2.2540   108.2820     7.0770     5.2890     5.2650    23.3920 
   67.1250   -15.8200     2.2220   104.1350     7.4350     5.5820     6.2350    23.3640 
