~V
VERS. 2.00: Ver 2.00
~W
STRT.M 55.0000:
STOP.M 240.0000:
STEP.M 0.1250:
NULL. -999.2500:
UWI. F11138:
~C
DEPT.M :
SP.MV :
DEN.GM/CC :
GR.API :
RML.OHMM :
RI. :
RXO.OHMM :
CALI.CM :
~A
# ...
   66.2500   -27.3930     2.1590    86.4230     8.3030     7.7960     9.1450    22.8620 
   66.3750   -28.6360     2.1590    82.0190     8.4800     7.8410     9.9240    22.8870 
   66.5000   -29.6870     2.1670    79.3300     8.5860     7.8630    10.3520    23.0420 
   66.6250   -30.3500     2.1840    81.4960     8.5320     7.7850    10.1570    23.2660 
   66.7500   -30.5850     2.2060    87.1470     8.3980     7.6410    10.0160    23.3810 
   66.8750   -30.4260     2.2280    91.8860     8.3320     7.5300     9.7590    23.3820 
   67.0000   -29.9500     2.2460    93.1160     8.4930     7.5700     9.2890    23.3040 
   67.1250   -29.1630     2.2580    92.1750     8.9970     7.8700     9.5940    23.2540 
   67.2500   -28.2960     2.2600    89.9070     9.6990     8.3450    11.1440    23.3030 
   67.3750   -27.5530     2.2330    86.3390    10.4040     8.8640    14.1250    23.4430 
   67.5000   -27.0690     2.1700    83.1830    10.8890     9.2580    19.1040    23.5740 
   67.6250   -26.9970     2.1010    82.5600    10.9270     9.3240    26.9690    23.5420 
   67.7500   -27.2490     2.0610    82.0330    10.6180     9.0900    23.0760    23.3230 
   67.8750   -27.7210     2.0510    79.2810    10.1510     8.6680    14.7830    23.0720 
   68.0000   -28.3140     2.0560    75.4640     9.7170     8.2100    11.3520    22.9950 
   68.1250   -29.0390     2.0660    74.0980     9.4360     7.8400    11.0720    23.3560 
   68.2500   -29.8280     2.0760    76.5620     9.2670     7.5740    11.1220    23.9840 
   68.3750   -30.5940     2.0850    80.3670     9.1570     7.3960    10.6950    24.5650 
   68.5000   -31.2680     2.0970    81.0380     9.0890     7.2930    10.3860    24.9450 
   68.6250   -31.8250     2.1090    78.3150     9.1480     7.3090    10.3720    24.9350 
   68.7500   -32.4190     2.1040    76.2330     9.4160     7.4800    10.5140    24.6420 
   68.8750   -33.1270     2.0700    75.8440     9.9100     7.8250    11.2620    24.4070 
   69.0000   -33.8990     2.0160    75.4690    10.5390     8.2950    13.2460    24.3850 
   69.1250   -34.5670     1.9860    73.2280    11.0860     8.7550    16.9520    24.5580 
   69.2500   -35.0950     1.9930    71.0790    11.3500     9.0510    23.5460    24.9890 
   69.3750   -35.5270     2.0180    70.1980    11.2440     9.0860    30.6520    25.9350 
   69.5000   -35.9070     2.0400    70.0830    10.8210     8.8560    22.7980    26.6660 
   69.6250   -36.2380     2.0520    68.9920    10.2630     8.4510    12.4610    25.8420 
   69.7500   -36.4260     2.0620    67.8140     9.7810     8.0370     9.6520    24.4140 
   69.8750   -36.3980     2.0760    68.3300     9.4430     7.6920     8.9560    23.4890 
   70.0000   -36.1690     2.0930    70.2810     9.2350     7.4410     8.7220    23.0940 
   70.1250   -35.8230     2.1090    72.2300     9.1240     7.2930     8.6570    22.8020 
   70.2500   -35.4190     2.1180    73.2990     9.0800     7.2240     8.6030    22.5360 
   70.3750   -34.9640     2.1210    73.8370     9.1250     7.2320     8.3170    22.2690 
   70.5000   -34.4660     2.1180    73.8720     9.2850     7.3230     7.9350    22.1120 
   70.6250   -33.9840     2.1090    72.1610     9.5500     7.4920     7.9770    22.0740 
   70.7500   -33.5390     2.0970    69.6390     9.8300     7.6870     8.5960    22.2060 
   70.8750   -33.1210     2.0880    67.4660    10.0510     7.8640     9.4200    22.5890 
   71.0000   -32.7210     2.0840    67.2100    10.1690     7.9910    10.1490    23.2610 
   71.1250   -32.4140     2.0850    68.2890    10.1670     8.0470    10.6040    23.9750 
   71.2500   -32.2170     2.0890    68.4470    10.0980     8.0580    10.9150    24.4120 
   71.3750   -32.0620     2.0960    67.6760    10.0030     8.0430    11.0190    24.4460 
   71.5000   -31.8660     2.1040    68.0620     9.9030     8.0180    11.1170    24.3250 
   71.6250   -31.5550     2.1120    70.9090     9.8070     7.9900    11.0330    24.2600 
   71.7500   -31.1740     2.1160    73.9380     9.7190     7.9640    10.8460    24.2000 
   71.8750   -30.7690     2.1160    76.5850     9.6480     7.9500    10.4530    24.1510 
   72.0000   -30.3340     2.1140    78.4190     9.5940     7.9470     9.8100    24.0400 
   72.1250   -29.7150     2.1140    79.2710     9.5370     7.9410     9.0650    23.7340 
   72.2500   -28.8630     2.1230    79.6530     9.4400     7.9060     8.6560    23.2540 
   72.3750   -27.8060     2.1510    80.3640     9.2640     7.8140     8.7360    22.7700 
   72.5000   -26.5870     2.1920    83.1490     8.9880     7.6490     8.8050    22.6170 
   72.6250   -25.2900     2.2290    88.4980     8.6130     7.4040     8.3720    22.6830 
   72.7500   -24.0020     2.2470    95.0260     8.2120     7.1230     7.7100    22.7690 
   72.8750   -22.7370     2.2570   101.2050     7.8540     6.8500     7.2030    22.9000 
   73.0000   -21.4970     2.2740   104.7650     7.5990     6.6280     7.0190    23.1180 
   73.1250   -20.3350     2.2910   105.3960     7.4900     6.4960     6.7930    23.2800 
   73.2500   -19.3110     2.2990   105.6840     7.4780     6.4340     6.4470    23.4210 
   73.3750   -18.4660     2.3000   107.5300     7.5020     6.4100     6.3050    23.5740 
   73.5000   -17.8410     2.3040   109.9240     7.4860     6.3700     6.2680    23.6960 
   73.6250   -17.4180     2.3160   108.7760     7.3370     6.2500     6.4560    23.7450 
   73.7500   -17.1110     2.3280   105.5310     7.0570     6.0410     6.4260    23.7700 
   73.8750   -16.9330     2.3360   103.6400     6.7190     5.7860     6.2720    23.8070 
   74.0000   -16.9190     2.3480   105.4330     6.5030     5.5960     5.9710    23.9020 
   74.1250   -17.1200     2.3730   107.7610     6.7710     5.7040     5.8380    24.0510 
   74.2500   -17.5320     2.4080   105.9170     7.7130     6.2480     6.2810    24.2150 
   74.3750   -18.1730     2.4520   100.6290     9.3660     7.2940     7.8600    24.3210 
   74.5000   -19.0490     2.5000    93.8150    11.4910     8.7430    10.9340    24.3300 
   74.6250   -20.2270     2.5150    86.4240    13.4390    10.2410    16.5400    24.1910 
   74.7500   -21.6400     2.4490    79.1660    14.4830    11.2610    25.4070    23.9400 
   74.8750   -23.2630     2.3150    73.1550    14.2030    11.4100    30.7830    23.7440 
   75.0000   -25.0550     2.1810    69.2810    12.7520    10.6540    23.2620    23.6950 
   75.1250   -26.9030     2.1090    67.9680    10.9120     9.4410    14.5420    23.7470 
   75.2500   -28.6890     2.0870    68.3590     9.5380     8.4070    12.0610    23.7610 
   75.3750   -30.3480     2.0910    69.0360     8.8490     7.7590    11.3910    23.6860 
   75.5000   -31.8240     2.1030    67.9060     8.7210     7.4860    10.7910    23.4980 
   75.6250   -32.9770     2.1160    65.7860     8.9160     7.4960    10.7600    23.3550 
   75.7500   -33.8260     2.1270    66.0490     9.1460     7.5980    11.0330    23.3080 
   75.8750   -34.3860     2.1320    69.2850     9.3040     7.7000    11.7000    23.3730 
   76.0000   -34.6980     2.1250    73.6750     9.3700     7.7580    12.1930    23.5610 
   76.1250   -34.8240     2.0990    76.5550     9.3680     7.7660    12.0200    23.7410 
   76.2500   -34.8300     2.0620    77.7220     9.3440     7.7520    11.7290    23.9560 
   76.3750   -34.7440     2.0360    77.1910     9.3170     7.7280    11.5110    24.2150 
   76.5000   -34.6130     2.0350    75.1540     9.2900     7.6940    11.2870    24.5310 
   76.6250   -34.4370     2.0550    73.6180     9.2320     7.6240    11.0990    24.5720 
   76.7500   -34.2680     2.0750    73.6540     9.1130     7.4980    11.0920    24.2120 
   76.8750   -34.1220     2.0840    74.9430     8.9120     7.3080    11.1040    23.8050 
   77.0000   -34.0210     2.0840    76.4940     8.6450     7.0670    10.6980    23.6860 
   77.1250   -34.0000     2.0810    77.3070     8.3760     6.8210     9.9060    23.7140 
   77.2500   -34.0330     2.0820    77.1570     8.1830     6.6200     9.3600    23.6180 
   77.3750   -34.0850     2.0840    76.5420     8.1060     6.4920     9.2670    23.3610 
