~V
VERS. 2.00: Ver 2.00
~W
STRT.M 63.0000:
STOP.M 208.0000:
STEP.M 0.1250:
NULL. -999.2500:
UWI. F11108:
~C
DEPT.M :
GR.API :
RML.OHMM :
RI. :
RXO.OHMM :
CALI.CM :
SP.MV :
DEN.GM/CC :
~A
# ...
  108.0000    70.3660    21.6930    19.3850    31.2320    23.7540   -19.5160     2.1740 
  108.1250    68.6660    22.1220    19.9410    27.6470    24.3950   -19.8380     2.1840 
  108.2500    70.2020    22.0230    19.9720    26.4600    25.1460   -20.1810     2.1760 
  108.3750    73.1350    21.6580    19.6660    26.3400    25.6460   -20.5750     2.1600 
  108.5000    74.4500    21.3260    19.2880    26.3760    25.6400   -21.0110     2.1450 
  108.6250    73.4250    21.2790    19.1060    25.3880    25.2720   -21.4580     2.1440 
  108.7500    72.9360    21.4680    19.1590    24.2420    25.0520   -21.8900     2.1560 
  108.8750    72.6010    21.7090    19.3420    25.8560    25.0140   -22.3170     2.1780 
  109.0000    73.3280    21.7510    19.4540    28.1330    24.8710   -22.7380     2.2000 
  109.1250    75.7760    21.2860    19.2120    27.3960    24.4130   -23.1530     2.2060 
  109.2500    76.2420    20.3050    18.5380    22.7480    23.8190   -23.5320     2.1950 
  109.3750    74.6970    18.9060    17.4620    19.3240    23.2910   -23.8600     2.1760 
  109.5000    74.9630    17.2920    16.1290    16.6340    22.8600   -24.1360     2.1650 
  109.6250    79.2890    15.7280    14.7560    15.2820    22.5840   -24.3160     2.1720 
  109.7500    83.0410    14.4090    13.5440    14.2460    22.4600   -24.3890     2.1880 
  109.8750    84.1950    13.4380    12.6060    12.9260    22.4730   -24.3710     2.2020 
  110.0000    84.2870    12.8550    11.9960    11.3570    22.6010   -24.2830     2.2130 
  110.1250    83.1310    12.6990    11.7800    11.0560    22.7500   -24.1000     2.2250 
  110.2500    79.2170    12.8220    11.8530    11.5260    22.8770   -23.8220     2.2400 
  110.3750    75.1180    13.0900    12.1190    12.7160    22.9460   -23.4340     2.2490 
  110.5000    73.2100    13.3270    12.4270    13.8290    22.9870   -22.9340     2.2380 
  110.6250    72.7680    13.2890    12.5390    14.5140    23.0390   -22.3250     2.2000 
  110.7500    71.2390    12.8720    12.3050    14.5800    23.1160   -21.6340     2.1540 
  110.8750    70.2350    12.0660    11.6700    13.2200    23.1610   -20.8650     2.1210 
  111.0000    73.5030    10.9700    10.7050    11.8580    23.2100   -20.0160     2.1220 
  111.1250    78.0570     9.7860     9.5760    10.9580    23.3180   -19.0920     2.1690 
  111.2500    78.2780     8.7700     8.5320     9.6010    23.4700   -18.1880     2.2390 
  111.3750    76.5080     8.0930     7.7420     7.9280    23.6060   -17.3900     2.3090 
  111.5000    78.7550     7.8560     7.3140     6.8140    23.6970   -16.7270     2.3590 
  111.6250    83.7220     8.1490     7.3700     6.5570    23.5880   -16.2410     2.3780 
  111.7500    83.9180     8.7990     7.8110     6.8120    23.3580   -15.9060     2.3790 
  111.8750    80.1960     9.6200     8.5210     9.5500    23.1430   -15.6890     2.3750 
  112.0000    77.6590    10.3540     9.2930    11.3680    23.0920   -15.5550     2.3730 
  112.1250    77.4730    10.6580     9.7940    10.7210    23.1260   -15.4770     2.3720 
  112.2500    78.6700    10.4640     9.8530    10.4870    23.1480   -15.4140     2.3670 
  112.3750    82.0110     9.8640     9.4710    10.1580    23.1180   -15.2920     2.3570 
  112.5000    85.3610     9.0920     8.8150     9.1910    23.0640   -15.0910     2.3450 
  112.6250    84.7110     8.4750     8.1680     8.7390    23.0400   -14.7990     2.3340 
  112.7500    84.7840     8.1940     7.7560     8.4680    23.1020   -14.4620     2.3250 
  112.8750    87.1470     8.2840     7.6650     9.4330    23.2890   -14.1070     2.3230 
  113.0000    88.5490     8.6510     7.8700    14.8100    23.4590   -13.7480     2.3360 
  113.1250    86.5910     9.0840     8.2410    15.7210    23.4910   -13.3880     2.3700 
  113.2500    84.7330     9.3230     8.5330    16.1380    23.4960   -13.0310     2.4160 
  113.3750    85.1880     9.2250     8.5760    14.3140    23.5200   -12.7200     2.4620 
  113.5000    88.4840     8.7870     8.3030     9.7160    23.5400   -12.4540     2.4940 
  113.6250    91.6930     8.1390     7.7630     7.3610    23.5490   -12.2620     2.5020 
  113.7500    90.8780     7.5220     7.1680     6.7700    23.5980   -12.1550     2.4900 
  113.8750    88.0540     7.0720     6.6630     7.0060    23.7590   -12.1350     2.4620 
  114.0000    90.3760     6.8560     6.3410     7.1930    24.0440   -12.2040     2.4260 
  114.1250    97.2180     6.9380     6.2880     6.4730    24.3160   -12.4140     2.3940 
  114.2500    98.1010     7.2770     6.4810     7.0670    24.4710   -12.7380     2.3770 
  114.3750    91.2130     7.8750     6.9230     8.3130    24.4620   -13.1620     2.3740 
  114.5000    82.7910     8.7160     7.6130     9.4890    24.3330   -13.7050     2.3730 
  114.6250    80.8410     9.7470     8.5520     9.2440    24.0610   -14.4060     2.3590 
  114.7500    83.6130    10.7810     9.5900     8.9780    23.8150   -15.2100     2.3360 
  114.8750    85.0880    11.6460    10.5680    10.6590    23.7030   -16.0320     2.3140 
  115.0000    82.1510    12.2150    11.3250    13.2650    23.6950   -16.8180     2.3060 
  115.1250    77.4530    12.4210    11.7150    14.2900    23.6860   -17.5080     2.3150 
  115.2500    76.9150    12.4200    11.8330    15.2560    23.5860   -18.0690     2.3250 
  115.3750    79.3990    12.3340    11.7870    13.9600    23.4200   -18.4840     2.3280 
  115.5000    80.0160    12.2320    11.6720    12.2640    23.2160   -18.7590     2.3240 
  115.6250    77.5970    12.0790    11.5030    12.4780    23.0410   -18.8920     2.3220 
  115.7500    75.6200    11.8060    11.2440    12.7310    22.8850   -18.9090     2.3260 
  115.8750    74.8990    11.3840    10.8610    12.5260    22.8130   -18.8200     2.3340 
  116.0000    74.8870    10.8600    10.3790    12.0650    22.8680   -18.6490     2.3370 
  116.1250    76.2740    10.3720     9.8970    10.9450    22.9510   -18.4860     2.3310 
  116.2500    78.1410    10.0490     9.5400    10.0690    22.9830   -18.4020     2.3190 
  116.3750    78.8290     9.9360     9.3700    10.3380    22.9780   -18.3960     2.3010 
  116.5000    77.6140     9.9880     9.3760    11.0280    22.9830   -18.4170     2.2770 
  116.6250    76.6120    10.0890     9.4760    11.1310    23.0300   -18.4030     2.2520 
  116.7500    78.1040    10.1160     9.5410    11.0540    23.1310   -18.3040     2.2320 
  116.8750    80.0530    10.0360     9.5100    11.1520    23.2740   -18.1460     2.2240 
  117.0000    80.6790     9.9010     9.3940    11.1040    23.3670   -17.9840     2.2300 
  117.1250    79.8170     9.8630     9.2990    11.2430    23.3990   -17.7990     2.2420 
  117.2500    81.0460    10.0490     9.3560    11.5180    23.4280   -17.5410     2.2490 
  117.3750    82.6700    10.5120     9.6480    13.0430    23.4890   -17.1510     2.2440 
  117.5000    80.7270    11.2120    10.1820    13.5700    23.5320   -16.6110     2.2360 
  117.6250    76.4960    12.0320    10.8930    14.3170    23.5530   -15.9120     2.2500 
  117.7500    74.3410    12.8190    11.6200    15.4150    23.5170   -15.1580     2.2980 
  117.8750    74.8720    13.5410    12.2930    16.7830    23.3680   -14.3770     2.3760 
  118.0000    74.7690    14.2790    12.9310    16.9410    23.2430   -13.5530     2.4670 
  118.1250    69.7840    15.2350    13.6840    14.7380    23.3060   -12.6880     2.5440 
  118.2500    62.2150    16.5010    14.6830    13.2780    23.4780   -11.8130     2.5950 
  118.3750    55.3940    18.0070    15.9680    16.1200    23.5940   -10.9710     2.6220 
  118.5000    50.5800    19.5480    17.4350    20.9750    23.6820   -10.2020     2.6340 
  118.6250    49.1140    20.9520    18.7670    21.2790    23.8050    -9.5810     2.6390 
  118.7500    50.0700    21.9740    19.6260    20.2280    23.9340    -9.1340     2.6430 
  118.8750    51.5430    22.2690    19.8340    19.2640    24.0390    -8.8700     2.6420 
  119.0000    51.4580    21.7280    19.4400    20.3780    24.1550    -8.7000     2.6300 
  119.1250    51.7170    20.6950    18.6690    19.8770    24.1910    -8.5220     2.5940 
