~V
VERS. 2.00: Ver 2.00
~W
STRT.M 52.0000:
STOP.M 239.0000:
STEP.M 0.1250:
NULL. -999.2500:
UWI. F11118:
~C
DEPT.M :
DEN.GM/CC :
GR.API :
RML.OHMM :
RI. :
RXO.OHMM :
CALI.CM :
SP.MV :
~A
# ...
  198.2500     2.3080    88.1240    13.1440     9.3080    11.7860    24.8210   -14.8100 
  198.3750     2.3090    84.8420    14.5100    10.5580    14.4470    24.8640   -14.9870 
  198.5000     2.3020    79.9970    15.6600    11.7500    17.6930    24.8940   -15.1520 
  198.6250     2.2880    76.6150    16.2890    12.6500    17.5730    24.8310   -15.3180 
  198.7500     2.2730    76.7670    16.5570    13.2540    16.6340    24.7750   -15.4680 
  198.8750     2.2640    79.2450    16.7120    13.6470    16.2330    24.8440   -15.5960 
  199.0000     2.2640    82.9490    16.9570    13.9520    17.0700    24.8840   -15.6810 
  199.1250     2.2740    86.3250    17.3160    14.2330    17.6650    24.9400   -15.7430 
  199.2500     2.2820    87.2120    17.5800    14.4410    18.3280    24.8770   -15.7780 
  199.3750     2.2770    85.5160    17.5460    14.4610    18.3380    24.6670   -15.7990 
  199.5000     2.2540    80.9320    17.1540    14.2240    16.6130    24.4710   -15.8260 
  199.6250     2.2180    75.1960    16.5680    13.7620    14.8140    24.8080   -15.8890 
  199.7500     2.1840    74.3750    16.1110    13.2830    14.1240    25.7670   -15.9720 
  199.8750     2.1640    79.1490    15.9300    12.9450    14.8550    26.3350   -16.0380 
  200.0000     2.1620    81.5080    16.0140    12.8480    15.1360    26.4110   -16.0330 
  200.1250     2.1760    77.8300    16.3440    13.0680    14.7130    26.3210   -15.9550 
  200.2500     2.1950    75.5780    16.9430    13.5440    14.3440    26.2720   -15.8860 
  200.3750     2.2150    76.0230    17.9080    14.2460    14.6460    26.2680   -15.8170 
  200.5000     2.2330    75.0170    19.2090    15.1430    16.3690    26.2680   -15.7380 
  200.6250     2.2500    71.4820    20.5040    16.1230    19.3730    26.2390   -15.6080 
  200.7500     2.2660    69.8240    21.2410    16.8760    21.4350    26.1400   -15.4330 
  200.8750     2.2790    69.5480    21.0550    17.0630    21.5550    26.0050   -15.2430 
  201.0000     2.2850    69.3120    19.9900    16.5260    19.4240    25.8500   -15.1270 
  201.1250     2.2830    70.9170    18.5320    15.4470    15.5060    25.6560   -15.0670 
  201.2500     2.2760    74.6270    17.3240    14.4040    13.0840    25.6370   -15.0070 
  201.3750     2.2720    80.4030    16.6040    13.7480    13.5030    25.5990   -14.9290 
  201.5000     2.2740    84.6780    16.3790    13.6040    16.2070    25.4820   -14.8390 
  201.6250     2.2860    83.7130    16.6100    13.9270    19.5480    25.3910   -14.7530 
  201.7500     2.3000    80.3510    17.1170    14.4240    20.5960    25.5010   -14.6820 
  201.8750     2.3080    78.3510    17.8220    14.9460    18.2900    25.5570   -14.6480 
  202.0000     2.3000    77.3630    18.6850    15.4830    13.8540    25.5660   -14.6240 
  202.1250     2.2720    74.4730    19.7590    16.1830    14.7880    25.5110   -14.6400 
  202.2500     2.2330    70.5270    20.9830    17.1070    21.5370    25.2180   -14.6840 
  202.3750     2.1980    66.6070    22.1760    18.1510    28.0120    24.6820   -14.7650 
  202.5000     2.1810    64.5490    23.0580    19.0620    25.1720    24.1400   -14.8910 
  202.6250     2.1980    64.1110    23.3760    19.5520    20.9470    23.7780   -15.0480 
  202.7500     2.2400    62.4130    23.4780    19.7870    19.3480    23.8680   -15.2350 
  202.8750     2.2910    59.2220    23.8740    20.1000    19.1200    24.1870   -15.4230 
  203.0000     2.3280    57.9810    24.9370    20.8140    19.1710    24.7670   -15.6040 
  203.1250     2.3320    61.0050    26.5620    22.0550    21.8290    25.1530   -15.7500 
  203.2500     2.3090    63.2880    27.8090    23.3340    25.8060    25.4830   -15.8600 
  203.3750     2.2770    63.7810    27.8320    24.0370    28.9510    25.6340   -15.9230 
  203.5000     2.2520    64.4180    26.4300    23.7310    28.8290    25.7290   -15.9140 
  203.6250     2.2430    63.4940    24.3500    22.4850    25.0370    25.7310   -15.8460 
  203.7500     2.2430    62.8290    22.8920    21.1810    20.6510    25.6730   -15.7540 
  203.8750     2.2430    64.5340    22.6500    20.4450    19.3270    25.6290   -15.6630 
  204.0000     2.2390    67.9970    23.6560    20.5800    21.5400    25.6780   -15.5830 
  204.1250     2.2290    69.5300    25.6530    21.6820    23.2570    25.6170   -15.5510 
  204.2500     2.2180    69.0080    27.8560    23.2320    24.7670    25.6160   -15.5300 
  204.3750     2.2100    67.4800    29.5540    24.6170    26.3820    25.4150   -15.5420 
  204.5000     2.2050    66.0300    30.1090    25.2170    25.4640    24.4510   -15.5880 
  204.6250     2.2040    67.0140    29.1870    24.6800    22.3890    23.3510   -15.6470 
  204.7500     2.2050    68.1060    27.5270    23.5990    20.1310    23.0590   -15.7210 
  204.8750     2.2060    66.4930    25.7760    22.5210    19.4710    23.3770   -15.8100 
  205.0000     2.2080    63.9300    24.5130    21.8850    19.6800    23.9400   -15.9100 
  205.1250     2.2090    65.5490    24.3520    22.0870    21.5180    24.8410   -16.0120 
  205.2500     2.2120    68.9260    25.2130    23.0130    24.2130    25.3530   -16.1410 
  205.3750     2.2160    69.8740    26.8150    24.4730    26.4780    25.4280   -16.2840 
  205.5000     2.2200    68.1930    28.7170    26.1840    27.8540    25.3280   -16.4700 
  205.6250     2.2210    66.3640    30.4270    27.7610    28.9690    25.3090   -16.7000 
  205.7500     2.2200    64.5650    31.7080    28.9460    29.1210    25.3040   -16.9240 
  205.8750     2.2150    63.1060    32.4950    29.6510    28.4390    25.3040   -17.1160 
  206.0000     2.2080    62.2930    32.7530    29.8520    28.6990    25.3040   -17.2930 
  206.1250     2.2010    63.8740    32.2290    29.3510    29.6210    25.2990   -17.4570 
  206.2500     2.1970    66.0710    30.8940    28.1100    29.4360    25.2730   -17.6100 
  206.3750     2.1980    66.8700    28.8620    26.2040    26.8670    25.2840   -17.7480 
  206.5000     2.2040    67.7610    26.5740    23.9970    23.1740    25.2930   -17.8290 
  206.6250     2.2150    71.5480    24.8910    22.1920    20.8670    25.2570   -17.8390 
  206.7500     2.2320    74.1500    24.4450    21.3050    19.1200    25.1630   -17.8130 
  206.8750     2.2540    70.3950    25.6420    21.6500    18.4780    25.1290   -17.7870 
  207.0000     2.2760    62.4780    28.6250    23.3800    21.4860    25.1150   -17.7420 
  207.1250     2.2920    58.9530    33.3040    26.6730    29.6380    25.0630   -17.7190 
  207.2500     2.2950    59.2570    38.4230    30.8490    39.6480    25.0650   -17.7020 
  207.3750     2.2850    59.2850    42.4130    34.9540    43.2000    25.0560   -17.6710 
  207.5000     2.2680    58.4190    43.5020    37.5900    39.7190    24.7920   -17.6550 
  207.6250     2.2530    58.8980    40.3880    37.1200    38.8640    24.4480   -17.6950 
  207.7500     2.2470    60.3270    35.2200    34.3070    40.2670    24.2440   -17.7830 
  207.8750     2.2520    63.1180    30.1930    30.5360    37.5620    24.1600   -17.9080 
  208.0000     2.2650    66.9420    26.7760    27.1530    28.3310    24.0330   -18.0690 
  208.1250     2.2820    70.5240    25.5810    25.0790    22.1410    23.9890   -18.1660 
  208.2500     2.2980    72.6320    25.6500    24.0250    21.1220    24.0030   -18.2330 
  208.3750     2.3110    73.1390    25.9740    23.3170    25.2180    24.1390   -18.3140 
  208.5000     2.3180    72.7120    25.3780    22.0150    30.6890    24.2330   -18.3670 
  208.6250     2.3160    72.1150    22.6700    19.2930    28.1390    24.1700   -18.3620 
  208.7500     2.3090    73.1220    18.5300    15.8370    18.5040    24.0400   -18.2990 
  208.8750     2.3020    75.5260    14.7710    12.6250    10.5990    24.0250   -18.1770 
  209.0000     2.2960    77.6190    12.0700    10.3160     7.2410    24.0500   -17.9810 
  209.1250     2.2910    78.0100    10.7650     9.2010     6.6360    24.1740   -17.7870 
  209.2500     2.2880    79.5990    10.3990     8.8880     6.9760    24.2230   -17.5740 
  209.3750     2.2840    84.7510    10.6140     9.0720     7.3690    24.3710   -17.3160 
