~V
VERS. 2.00: Ver 2.00
~W
STRT.M 59.0000:
STOP.M 247.0000:
STEP.M 0.1250:
NULL. -999.2500:
UWI. F11130:
~C
DEPT.M :
DEN.GM/CC :
SP.MV :
GR.API :
RML.OHMM :
RI. :
RXO.OHMM :
CALI.CM :
~A
# ...
  239.0000     2.4410     9.6610    67.8200     6.2380     5.4260     5.3690    24.6420 
  239.1250     2.4470     9.5490    67.8200     6.1970     5.3930     5.3570    24.6660 
  239.2500     2.4500     9.3790    67.8200     6.2070     5.4060     5.4390    24.6730 
  239.3750     2.4500     9.0990    67.8200     6.2550     5.4520     5.5110    24.6340 
  239.5000     2.4480     8.7790    67.8200     6.3280     5.5240     5.6730    24.5580 
  239.6250     2.4450     8.5960    67.8200     6.4040     5.6010     5.9670    24.4880 
  239.7500     2.4430     8.5180    67.8200     6.4600     5.6580     6.0730    24.4440 
  239.8750     2.4400     8.4930    67.8200     6.4820     5.6770     5.9220    24.4440 
  240.0000     2.4370     8.4290    67.8200     6.4700     5.6600     5.6870    24.4760 
  240.1250     2.4340     8.2960    67.8200     6.4430     5.6280     5.5390    24.4850 
  240.2500     2.4320     8.2700    67.8200     6.4230     5.6080     5.3980    24.4840 
  240.3750     2.4300     8.4160    67.8200     6.4190     5.6060     5.3270    24.4890 
  240.5000     2.4290     8.6380    67.8200     6.4260     5.6160     5.3260    24.5370 
  240.6250     2.4260     8.7220    67.8200     6.4360     5.6270     5.1900    24.6230 
  240.7500     2.4230     8.7270    67.8200     6.4410     5.6300     5.1170    24.7210 
  240.8750     2.4190     8.6790    67.8200     6.4410     5.6300     5.1240    24.7510 
  241.0000     2.4150     8.6250    67.8200     6.4410     5.6290     5.2630    24.7290 
  241.1250     2.4120     8.6680    67.8200     6.4410     5.6290     5.3620    24.6590 
  241.2500     2.4080     8.6090    67.8200     6.4420     5.6310     5.2470    24.6060 
  241.3750     2.4040     8.4030    67.8200     6.4450     5.6330     4.8980    24.5870 
  241.5000     2.4010     8.1810    67.8200     6.4460     5.6350     4.6010    24.5660 
  241.6250     2.4030     7.9300    67.8200     6.4460     5.6340     4.6010    24.5360 
  241.7500     2.4090     7.6410    67.8200     6.4440     5.6320     4.7090    24.5060 
  241.8750     2.4170     7.5000    67.8200     6.4410     5.6290     4.7340    24.4600 
  242.0000     2.4240     7.4760    67.8200     6.4380     5.6260     4.7220    24.4300 
  242.1250     2.4300     7.3600    67.8200     6.4360     5.6240     4.8240    24.4260 
  242.2500     2.4320     7.2440    67.8200     6.4350     5.6240     5.0770    24.3890 
  242.3750     2.4290     7.2560    67.8200     6.4350     5.6240     5.2800    24.3270 
  242.5000     2.4190     7.3550    67.8200     6.4350     5.6240     5.2610    24.3040 
  242.6250     2.4050     7.4720    67.8200     6.4350     5.6240     5.2930    24.3970 
  242.7500     2.3930     7.6180    67.8200     6.4350     5.6240     5.4730    24.4980 
  242.8750     2.3870     7.6830    67.8200     6.4350     5.6240     5.5850    24.5000 
  243.0000     2.3880     7.6530    67.8200     6.4350     5.6240     5.4850    24.4070 
  243.1250     2.3930     7.6190    67.8200     6.4350     5.6240     5.6060    24.3370 
  243.2500     2.3990     7.5990    67.8200     6.4350     5.6240     5.9620    24.3000 
  243.3750     2.4040     7.5300    67.8200     6.4350     5.6240     6.4160    24.2850 
  243.5000     2.4070     7.3290    67.8200     6.4350     5.6240     6.9110    24.2570 
  243.6250     2.4060     7.1950    67.8200     6.4350     5.6240     6.9080    24.1380 
  243.7500     2.4030     7.1410    67.8200     6.4350     5.6240     6.5550    23.9010 
  243.8750     2.4000     7.0870    67.8200     6.4350     5.6240     5.9550    23.6170 
  244.0000     2.3990     7.0170    67.8200     6.4350     5.6240     5.8510    23.5320 
  244.1250     2.4040     6.9680    67.8200     6.4350     5.6240     6.4100    23.6650 
  244.2500     2.4170     6.9630    67.8200     6.4350     5.6240     7.4360    24.0670 
  244.3750     2.4350     6.9440    67.8200     6.4350     5.6240     8.3500    24.3800 
  244.5000     2.4370     7.0230    67.8200     6.4350     5.6240     8.3710    24.4810 
  244.6250     2.3750     7.1020    67.8200     6.4350     5.6240     7.7160    24.4040 
  244.7500     2.2350     7.0990    67.8200     6.4350     5.6240     7.0940    23.9000 
  244.8750     2.0300     7.0960    67.8200     6.4350     5.6240     6.9550    22.5160 
  245.0000     1.8050  -999.2500    67.8200     6.4350     5.6240     7.0470    20.9030 
  245.1250     1.6250  -999.2500    67.8200     6.4350     5.6240     7.1220    20.2230 
  245.2500     1.5140  -999.2500    67.8200     6.4350     5.6240     7.1240    20.0820 
  245.3750     1.4630  -999.2500    67.8200     6.4350     5.6240     7.1230    20.0820 
  245.5000     1.4470  -999.2500    67.8200     6.4350     5.6240     7.1220    20.0820 
  245.6250     1.4480  -999.2500    67.8200     6.4350     5.6240     7.1210    20.0820 
  245.7500     1.4410  -999.2500    67.8200     6.4350     5.6240     7.1210    20.0810 
  245.8750     1.4410  -999.2500    67.8200     6.4350     5.6240     7.1210    20.0770 
  246.0000     1.4410  -999.2500    67.8200     6.4350     5.6240     7.1230    20.0750 
  246.1250  -999.2500  -999.2500    67.8200     6.4350     5.6240     7.1210    20.0740 
  246.2500  -999.2500  -999.2500    67.8200     6.4350     5.6240     7.1230    20.0740 
  246.3750  -999.2500  -999.2500    67.8200     6.4350     5.6240     7.1240    20.0750 
  246.5000  -999.2500  -999.2500    67.8200     6.4350     5.6240     7.1250    20.0760 
  246.6250  -999.2500  -999.2500    67.8200     6.4350     5.6240     7.1260    20.0770 
  246.7500  -999.2500  -999.2500    67.8200     6.4350     5.6240     7.1310    20.0750 
  246.8750  -999.2500  -999.2500    67.8200     6.4350     5.6240     7.1330    20.0730 
  247.0000  -999.2500  -999.2500    67.8200     6.4350     5.6240     7.1330    20.0680 
