~V
VERS. 2.00: Ver 2.00
~W
STRT.M 51.0000:
STOP.M 277.0000:
STEP.M 0.1250:
NULL. -999.2500:
UWI. F11147:
~C
DEPT.M :
DEN.GM/CC :
GR.API :
RML.OHMM :
RI. :
RXO.OHMM :
CALI.CM :
SP.MV :
~A
# ...
  152.2500     2.3250    92.0960     4.4110     3.5850     3.9030    24.3770   -11.8770 
  152.3750     2.3110    92.3330     4.1440     3.3940     3.6090    24.2910   -11.9800 
  152.5000     2.2980    90.5120     3.9410     3.2300     3.3060    24.2230   -12.1030 
  152.6250     2.2880    88.3430     3.8420     3.1230     3.1140    24.1370   -12.2540 
  152.7500     2.2820    88.5000     3.8510     3.0820     3.1030    23.9980   -12.4150 
  152.8750     2.2790    87.5180     3.9400     3.1060     3.2930    23.8830   -12.5730 
  153.0000     2.2750    85.4450     4.0490     3.1650     3.5230    23.9880   -12.7200 
  153.1250     2.2760    84.7270     4.1580     3.2400     3.5990    24.1560   -12.8660 
  153.2500     2.2880    87.7740     4.2570     3.3170     3.5990    24.2360   -13.0250 
  153.3750     2.3070    92.7770     4.3550     3.3850     3.6740    24.2670   -13.1680 
  153.5000     2.3220    95.6740     4.4590     3.4480     3.8570    24.3280   -13.3030 
  153.6250     2.3250    96.5100     4.5670     3.5080     4.0260    24.3790   -13.4280 
  153.7500     2.3190    96.4030     4.6670     3.5670     4.1290    24.3830   -13.5440 
  153.8750     2.3090    96.3840     4.7610     3.6330     4.3180    24.3570   -13.6500 
  154.0000     2.3000    96.3930     4.9110     3.7440     4.5510    24.2700   -13.7570 
  154.1250     2.2940    93.5230     5.2250     3.9680     4.7720    24.0990   -13.8500 
  154.2500     2.2970    87.4580     5.8410     4.4000     5.0840    23.8940   -13.9100 
  154.3750     2.3140    80.0620     6.9380     5.1840     5.6500    23.7570   -13.9560 
  154.5000     2.3390    73.7090     8.4010     6.2830     6.5420    23.6270   -13.9950 
  154.6250     2.3600    68.9530     9.9530     7.5460     7.9800    23.5310   -14.0030 
  154.7500     2.3640    66.3490    11.0630     8.6220    10.1410    23.4890   -13.9830 
  154.8750     2.3420    67.0590    10.9670     8.9130    11.6490    23.5470   -13.9590 
  155.0000     2.3060    69.3460     9.8760     8.3910    11.0400    23.7720   -13.9280 
  155.1250     2.2630    72.3590     8.4190     7.3990     8.5320    24.1840   -13.8980 
  155.2500     2.2240    76.1300     7.2010     6.3940     6.1310    24.5350   -13.8670 
  155.3750     2.2040    79.7260     6.5450     5.7120     5.3690    24.6700   -13.8550 
  155.5000     2.2090    80.6630     6.2940     5.3540     5.3690    24.7040   -13.8670 
  155.6250     2.2300    78.4390     6.2700     5.2320     5.8330    24.6100   -13.9250 
  155.7500     2.2510    77.0700     6.2750     5.2070     6.3560    24.2890   -14.0200 
  155.8750     2.2630    82.0930     6.1530     5.1430     6.0620    23.9070   -14.1460 
  156.0000     2.2750    88.1510     5.9720     5.0410     5.4190    23.7790   -14.2970 
  156.1250     2.2880    89.1730     5.8760     4.9870     4.9560    23.8210   -14.4580 
  156.2500     2.2980    85.0600     5.9620     5.0520     4.7080    23.9080   -14.6180 
  156.3750     2.2950    81.2890     6.2430     5.2650     4.7210    24.0170   -14.7670 
  156.5000     2.2820    79.3160     6.5930     5.5520     5.4480    24.2040   -14.8930 
  156.6250     2.2660    78.9660     6.9320     5.8620     6.8280    24.4730   -14.9760 
  156.7500     2.2580    80.4240     7.2690     6.1880     8.0440    24.7620   -15.0210 
  156.8750     2.2650    83.5140     7.7920     6.6350     7.0360    24.9300   -15.0150 
  157.0000     2.2740    85.1170     8.6670     7.3320     6.8010    25.0390   -14.9750 
  157.1250     2.2740    83.1320     9.9650     8.3740     8.8800    25.1480   -14.9220 
  157.2500     2.2630    78.3140    11.6130     9.7760    12.6930    25.2280   -14.8560 
  157.3750     2.2460    73.9280    13.2810    11.3840    15.9010    25.2110   -14.7740 
  157.5000     2.2310    70.8170    14.4040    12.7110    16.8100    25.1310   -14.6970 
  157.6250     2.2240    70.6790    14.5670    13.2890    16.6440    25.0050   -14.6210 
  157.7500     2.2270    73.1280    13.8090    12.9790    15.9000    24.8600   -14.5630 
  157.8750     2.2380    76.4360    12.5820    12.0430    14.4780    24.7520   -14.5430 
  158.0000     2.2480    78.8290    11.4290    11.0240    12.9370    24.6150   -14.5420 
  158.1250     2.2560    80.3340    10.5450    10.1650    10.2190    24.3400   -14.5630 
  158.2500     2.2650    79.7070     9.9810     9.5690     8.3870    23.9610   -14.6120 
  158.3750     2.2750    78.6410     9.7280     9.2700     8.0220    23.7250   -14.6550 
  158.5000     2.2800    81.1520     9.6190     9.1460     8.5080    23.6820   -14.6850 
  158.6250     2.2790    83.7380     9.5380     9.0980     8.8970    23.8180   -14.7160 
  158.7500     2.2710    81.7080     9.4310     9.0520     9.0590    24.1090   -14.7400 
  158.8750     2.2590    79.2120     9.4450     9.0610     9.0220    24.4280   -14.7750 
  159.0000     2.2500    80.4880     9.8810     9.3440     8.8100    24.5620   -14.8350 
  159.1250     2.2460    80.8290    11.0590    10.1910     8.7940    24.5920   -14.9030 
  159.2500     2.2450    75.2520    13.1840    11.8610     9.7350    24.6280   -14.9780 
  159.3750     2.2390    67.3640    16.2140    14.5020    13.5810    24.7520   -15.0790 
  159.5000     2.2290    62.6300    18.9400    17.2220    21.2690    24.9140   -15.1920 
  159.6250     2.2200    62.6140    19.5190    18.4260    27.0610    24.9730   -15.3320 
  159.7500     2.2240    66.1130    17.0030    16.8970    24.3700    24.8980   -15.5150 
  159.8750     2.2450    72.3490    13.0500    13.5240    15.9730    24.7220   -15.7120 
  160.0000     2.2750    80.1830    10.1680    10.6350     9.7580    24.5350   -15.9150 
  160.1250     2.2990    86.9160     9.0750     9.0820     7.1630    24.3960   -16.1540 
  160.2500     2.3080    89.2040     9.9350     9.1970     7.8600    24.3320   -16.4250 
  160.3750     2.2930    83.8610    13.5240    12.0100    12.3990    24.4380   -16.7240 
  160.5000     2.2630    72.8590    22.1220    18.5660    25.1160    24.6980   -17.0260 
  160.6250     2.2250    60.7870    37.0460    30.7840    54.1290    24.9600   -17.3050 
  160.7500     2.1940    52.6220    58.3840    49.8220    94.6590    25.0730   -17.5350 
  160.8750     2.1830    51.5690    80.5180    70.4240   101.9530    25.0460   -17.6830 
  161.0000     2.1880    55.2100    86.3100    79.3350    90.9580    24.9850   -17.7490 
  161.1250     2.1990    60.1980    74.5580    72.8210    72.5090    24.9100   -17.7000 
  161.2500     2.2140    64.0580    57.6700    58.5880    55.0760    24.8370   -17.5540 
  161.3750     2.2300    66.8160    43.7870    44.8150    43.1210    24.7760   -17.3340 
  161.5000     2.2460    70.7430    33.4310    34.0010    34.4330    24.7170   -17.0960 
  161.6250     2.2620    76.4250    25.9760    26.0230    25.2780    24.6790   -16.8900 
  161.7500     2.2780    79.9030    20.7620    20.3500    17.4810    24.6630   -16.7360 
  161.8750     2.2930    79.7820    17.5020    16.7130    14.8980    24.6630   -16.6670 
  162.0000     2.3020    80.1300    15.5640    14.4410    12.7860    24.6630   -16.6930 
  162.1250     2.3010    81.4370    14.7780    13.3370    11.4120    24.6630   -16.8290 
  162.2500     2.2940    81.6860    15.0240    13.2580    11.2060    24.6810   -17.0590 
  162.3750     2.2860    82.6320    16.3240    14.2140    12.5500    24.7320   -17.3750 
  162.5000     2.2750    84.0730    18.3260    15.8990    15.6360    24.8080   -17.7370 
  162.6250     2.2610    83.5360    20.7240    18.1060    19.3890    24.8630   -18.0980 
  162.7500     2.2480    79.9220    23.1160    20.5240    22.2760    24.8870   -18.4330 
  162.8750     2.2410    77.5050    25.0500    22.7390    22.7150    24.8930   -18.7150 
  163.0000     2.2380    77.1630    26.4960    24.5520    24.3740    24.8930   -18.9450 
  163.1250     2.2360    75.9370    27.6310    26.0020    26.7970    24.8940   -19.1020 
  163.2500     2.2330    75.1580    28.7180    27.2800    28.2810    24.9010   -19.1830 
  163.3750     2.2300    76.8800    29.9580    28.6310    30.3340    24.9230   -19.1800 
