~V
VERS. 2.00: Ver 2.00
~W
STRT.M 45.0000:
STOP.M 250.0000:
STEP.M 0.1250:
NULL. -999.2500:
UWI. F11133:
~C
DEPT.M :
SP.MV :
DEN.GM/CC :
GR.API :
RML.OHMM :
RI. :
RXO.OHMM :
CALI.CM :
~A
# ...
  168.7500   -36.1260     2.2320    54.4300   134.4280   130.4630   126.6620    24.7040 
  168.8750   -36.4670     2.2300    54.1000   135.1150   132.1560   133.5110    24.8670 
  169.0000   -36.7570     2.2260    56.5930   133.4690   131.4530   141.6770    24.9590 
  169.1250   -37.0160     2.2220    58.6010   130.1310   128.6630   134.9830    24.9760 
  169.2500   -37.2590     2.2230    57.4540   127.1110   125.6230   118.4960    24.9550 
  169.3750   -37.4930     2.2270    55.6820   126.6160   124.7130   109.5970    24.9300 
  169.5000   -37.7210     2.2260    56.2060   129.8150   127.5130   111.7640    24.9200 
  169.6250   -37.9510     2.2190    57.2810   136.9650   134.6120   128.4090    24.9100 
  169.7500   -38.1900     2.2140    56.4470   146.9470   145.1450   157.9310    24.8720 
  169.8750   -38.4520     2.2170    54.7930   156.5340   155.9370   184.2270    24.8020 
  170.0000   -38.7550     2.2230    54.7800   161.6520   162.6360   198.9150    24.7600 
  170.1250   -39.0860     2.2270    55.5430   160.5400   162.8880   204.9290    24.7910 
  170.2500   -39.4290     2.2280    55.5400   155.2840   157.9500   187.2170    24.8530 
  170.3750   -39.7560     2.2310    55.2330   150.6490   152.4410   148.8210    24.8970 
  170.5000   -40.0560     2.2350    55.5580   150.3840   150.9570   125.5650    24.9140 
  170.6250   -40.3160     2.2340    55.5020   155.3300   155.1260   128.5680    24.9180 
  170.7500   -40.5040     2.2230    54.0880   163.9220   163.8840   153.4900    24.9170 
  170.8750   -40.6140     2.2060    52.4410   172.3550   173.5100   190.9790    24.9080 
  171.0000   -40.6500     2.1910    52.9630   176.5370   179.4290   215.8820    24.8790 
  171.1250   -40.6190     2.1860    56.4290   175.1360   179.4670   206.6790    24.8330 
  171.2500   -40.5220     2.1890    59.9530   170.3080   174.8300   175.7040    24.7970 
  171.3750   -40.3660     2.1950    59.7990   166.3760   169.6700   149.4930    24.8000 
  171.5000   -40.1560     2.2000    56.9720   166.8870   168.3000   136.7550    24.8300 
  171.6250   -39.8950     2.2040    55.9790   173.3010   172.7970   150.0730    24.8680 
  171.7500   -39.6140     2.2080    57.4340   185.9530   183.7290   181.5770    24.8870 
  171.8750   -39.3420     2.2120    56.8510   203.9510   200.1280   196.7510    24.8750 
  172.0000   -39.1050     2.2180    53.5560   225.4510   220.0790   199.0210    24.8640 
  172.1250   -38.8950     2.2190    50.5650   249.8080   243.1150   211.4070    24.8790 
  172.2500   -38.7020     2.2100    49.2480   278.2200   270.9350   233.8090    24.9100 
  172.3750   -38.5370     2.1880    49.0990   313.6430   307.2480   244.6400    24.9350 
  172.5000   -38.4350     2.1610    48.9110   358.6410   355.4490   262.3320    24.9410 
  172.6250   -38.4200     2.1360    47.4300   412.6540   416.0440   326.7630    24.9120 
  172.7500   -38.4780     2.1220    44.7180   462.1220   477.1390   443.6830    24.8650 
  172.8750   -38.5730     2.1220    43.5360   477.9150   509.7280   518.3260    24.8270 
  173.0000   -38.6680     2.1330    45.0900   439.9860   487.3430   477.8600    24.7870 
  173.1250   -38.7670     2.1470    46.9130   360.8280   412.8710   360.3920    24.7420 
  173.2500   -38.8930     2.1600    47.4710   275.7250   319.4540   250.4980    24.6980 
  173.3750   -39.0390     2.1700    48.7920   209.2650   239.6720   177.4890    24.6630 
  173.5000   -39.1910     2.1790    53.4090   163.3660   183.0360   136.8580    24.6450 
  173.6250   -39.3340     2.1910    60.3780   133.2980   146.0380   113.8940    24.6530 
  173.7500   -39.4720     2.2040    65.1190   114.6890   123.3690    98.0360    24.6690 
  173.8750   -39.6280     2.2150    64.4260   104.2260   110.5120    86.4790    24.6810 
  174.0000   -39.8360     2.2220    61.3930    99.0230   103.6990    80.2780    24.6930 
  174.1250   -40.1190     2.2260    59.5820    97.9480   101.4610    81.7360    24.6930 
  174.2500   -40.4760     2.2270    59.6770   100.6170   103.1650    89.0500    24.6730 
  174.3750   -40.9000     2.2240    60.2490   107.1410   108.7380    97.7040    24.6280 
  174.5000   -41.3650     2.2160    59.7080   117.7350   118.2920   107.7150    24.5930 
  174.6250   -41.8580     2.2070    57.5370   133.2940   132.6780   117.5960    24.6400 
  174.7500   -42.3750     2.1960    55.6160   155.5070   153.4720   131.3490    24.7860 
  174.8750   -42.9050     2.1880    55.6700   185.8620   181.9110   162.9250    24.9240 
  175.0000   -43.4110     2.1820    55.7960   224.0410   217.2960   225.5910    24.9750 
  175.1250   -43.8310     2.1760    53.9580   268.5640   257.7000   293.3240    24.9760 
  175.2500   -44.1270     2.1720    51.2580   314.6800   298.2390   325.7650    24.9550 
  175.3750   -44.2710     2.1760    49.5150   354.5760   331.7860   337.6760    24.9300 
  175.5000   -44.2560     2.1850    49.0870   381.4070   352.7060   357.4620    24.9200 
  175.6250   -44.0850     2.1940    49.7480   392.8040   359.1530   365.7390    24.9170 
  175.7500   -43.7490     2.1960    51.2060   391.0350   353.2660   351.0580    24.9160 
  175.8750   -43.2540     2.1950    52.5080   381.4550   340.1830   328.1130    24.9170 
  176.0000   -42.6530     2.1950    52.4580   369.7430   325.5540   309.8700    24.9180 
  176.1250   -41.9830     2.1980    51.0100   358.6350   312.1870   295.7060    24.9170 
  176.2500   -41.2650     2.2020    50.5460   349.7160   301.6950   291.5590    24.9090 
  176.3750   -40.5420     2.2050    52.9560   343.7190   294.7660   287.6050    24.8890 
  176.5000   -39.8510     2.2040    55.7580   340.5940   291.2320   280.0400    24.8620 
  176.6250   -39.1790     2.1990    56.1720   340.1780   290.8810   280.5400    24.8350 
  176.7500   -38.5130     2.1930    55.5210   341.9010   293.1750   286.1690    24.7900 
  176.8750   -37.8600     2.1910    56.1440   344.8630   297.1860   288.8960    24.7020 
  177.0000   -37.2280     2.1930    57.2670   349.1550   302.7650   275.0620    24.5680 
  177.1250   -36.6410     2.1970    57.6350   357.5290   312.9070   238.9430    24.4120 
  177.2500   -36.1140     2.2000    56.7370   372.2770   332.4890   209.0010    24.2990 
  177.3750   -35.6440     2.1960    53.8990   382.6380   356.3570   209.4070    24.2430 
  177.5000   -35.2240     2.1890    50.0440   360.1350   358.9340   219.4210    24.1840 
  177.6250   -34.8550     2.1830    48.1200   289.3020   314.1580   214.2570    24.1090 
  177.7500   -34.5170     2.1860    50.4360   197.7490   230.3950   181.5320    24.0520 
  177.8750   -34.1930     2.2040    55.0830   125.7480   148.1920   123.7830    24.0300 
  178.0000   -33.8820     2.2420    59.1720    82.0230    92.9860    68.4260    24.0260 
  178.1250   -33.5800     2.2880    63.6370    58.3270    62.6300    37.5890    24.0200 
  178.2500   -33.2980     2.3250    68.5590    46.4280    48.3770    29.1570    24.0000 
  178.3750   -33.0370     2.3400    71.1730    40.6370    42.2660    29.8650    23.9830 
  178.5000   -32.7780     2.3410    70.3080    37.2230    38.9710    29.5700    23.9980 
  178.6250   -32.5260     2.3380    67.6650    34.7730    36.7520    28.0800    24.0740 
  178.7500   -32.3250     2.3370    65.5410    32.4800    34.6980    26.7210    24.2220 
  178.8750   -32.2080     2.3400    65.4400    30.0900    32.4490    24.5810    24.3990 
  179.0000   -32.1570     2.3470    68.1770    27.8670    30.2230    22.8340    24.5500 
  179.1250   -32.1430     2.3530    73.3790    26.1980    28.4140    21.7440    24.6360 
  179.2500   -32.1780     2.3550    77.9890    25.3980    27.3640    21.0960    24.6430 
  179.3750   -32.2810     2.3490    79.3630    25.5640    27.2040    21.7320    24.5980 
  179.5000   -32.4470     2.3340    77.3260    26.5780    27.8350    24.7510    24.5620 
  179.6250   -32.6770     2.3130    73.5170    28.4310    29.2240    28.3580    24.5740 
  179.7500   -32.9580     2.2910    71.0980    31.2330    31.4170    31.0410    24.5820 
  179.8750   -33.2630     2.2740    70.5600    35.0990    34.4760    33.7560    24.4910 
