~V
VERS. 2.00: Ver 2.00
~W
STRT.M 63.0000:
STOP.M 244.0000:
STEP.M 0.1250:
NULL. -999.2500:
UWI. F11131:
~C
DEPT.M :
SP.MV :
DEN.GM/CC :
GR.API :
RML.OHMM :
RI. :
RXO.OHMM :
CALI.CM :
~A
# ...
  186.7500   -30.8260     2.2300    66.7800    66.4130    59.6490    84.1850    24.7410 
  186.8750   -30.8580     2.2330    66.6330    64.3420    57.2770    72.4950    24.6720 
  187.0000   -30.8170     2.2260    67.1410    64.5730    56.3600    56.7360    24.5440 
  187.1250   -30.7270     2.2080    69.2320    69.7160    58.8970    55.8020    24.3910 
  187.2500   -30.6030     2.1830    69.2310    81.0120    65.8640    59.6690    24.1820 
  187.3750   -30.4750     2.1580    64.5800   100.5250    78.6480    68.5380    23.8890 
  187.5000   -30.3590     2.1430    56.6540   130.6760    98.4630    60.2610    23.6560 
  187.6250   -30.2050     2.1340    51.0800   175.7780   126.4170    54.0420    23.8180 
  187.7500   -30.0020     2.1300    49.7410   232.2610   158.3890    63.7840    24.2920 
  187.8750   -29.7760     2.1250    50.5120   291.4430   188.8850    95.7120    24.6500 
  188.0000   -29.5650     2.1200    51.9080   336.3910   211.2050   108.5270    24.5530 
  188.1250   -29.4310     2.1190    53.4810   342.0960   217.3530   121.9230    24.1550 
  188.2500   -29.3430     2.1270    55.8930   310.5530   208.2000   149.8820    24.0620 
  188.3750   -29.2360     2.1450    56.6850   255.0830   186.2060   159.2090    24.4290 
  188.5000   -29.0830     2.1710    54.4760   194.2060   156.3360   201.2200    24.9140 
  188.6250   -28.9260     2.1950    53.8440   144.6690   125.7700   264.5280    24.8870 
  188.7500   -28.8360     2.2120    57.4230   109.8510   100.5910   251.7390    24.2570 
  188.8750   -28.8150     2.2180    62.4060    88.3410    83.0340   171.1530    23.4480 
  189.0000   -28.8510     2.2140    65.1010    77.3690    73.0890    92.2120    23.0060 
  189.1250   -28.8680     2.2020    65.8020    75.5030    70.6070    56.2590    23.1090 
  189.2500   -28.8600     2.1830    66.6180    79.4570    73.0710    50.9000    23.2540 
  189.3750   -28.8670     2.1570    66.6390    87.8310    79.2240    43.4950    23.1510 
  189.5000   -28.8940     2.1320    66.4800    99.0980    87.6690    36.0490    23.0090 
  189.6250   -28.9570     2.1180    65.2620   111.4050    96.7340    39.3850    23.4410 
  189.7500   -29.0130     2.1120    62.3530   123.0380   105.0380    71.4460    24.4430 
  189.8750   -29.0190     2.1070    58.4190   133.5750   112.2580   184.6670    25.4870 
  190.0000   -28.9550     2.0940    55.3630   143.1680   118.5520   279.2860    26.0630 
  190.1250   -28.8730     2.0790    54.7250   151.5370   123.8560   155.2740    26.1500 
  190.2500   -28.8090     2.0720    55.3090   157.9320   127.9400   124.6630    26.1070 
  190.3750   -28.7810     2.0830    55.5300   161.0410   130.1630   100.5170    25.8570 
  190.5000   -28.7600     2.1140    54.9650   159.5890   129.7880    89.5950    25.2400 
  190.6250   -28.6770     2.1470    54.7430   152.2580   125.7640    92.3920    24.4490 
  190.7500   -28.5310     2.1710    55.7180   140.8510   118.7630    98.8520    23.9350 
  190.8750   -28.3890     2.1860    56.6860   127.2790   109.6630   111.5470    23.7780 
  191.0000   -28.2710     2.1930    57.6310   113.4980    99.7660   143.5160    23.7700 
  191.1250   -28.1200     2.1940    60.8080   101.2820    90.5740   144.7670    23.7560 
  191.2500   -27.9240     2.1930    65.0610    91.3790    82.9470   111.4030    23.7680 
  191.3750   -27.6530     2.1930    67.4000    84.3410    77.3310    91.0500    23.8410 
  191.5000   -27.3440     2.1970    67.0580    80.4630    73.9110    81.3250    23.9210 
  191.6250   -27.0830     2.2050    65.8480    80.1100    72.9380    72.0690    23.9630 
  191.7500   -26.8860     2.2140    64.3670    82.2570    73.7300    65.9450    23.9720 
  191.8750   -26.6750     2.2230    62.3010    86.4690    76.0240    70.4420    23.9730 
  192.0000   -26.4220     2.2210    61.3890    92.5340    79.7240    80.2030    23.9850 
  192.1250   -26.1750     2.1930    63.1980   100.6450    84.9870    90.8650    24.0500 
  192.2500   -25.9640     2.1400    66.1140   110.2860    91.3400    96.0200    24.1570 
  192.3750   -25.8130     2.0780    66.8590   120.9960    98.3530    98.4710    24.2890 
  192.5000   -25.6960     2.0540    63.2960   132.0960   105.4980    98.5600    24.6000 
  192.6250   -25.5260     2.1040    57.2880   142.8730   112.2870   132.6840    25.4500 
  192.7500   -25.2720     2.2400    52.3850   153.3210   118.8010   117.3720    26.5710 
  192.8750   -24.9890     2.4180    49.9330   163.9470   125.4630    85.5700    27.1960 
  193.0000   -24.7010     2.5370    50.4130   175.2140   132.6190    97.3310    26.7430 
  193.1250   -24.4160     2.5650    52.8320   186.5530   139.7470   119.5790    25.5180 
  193.2500   -24.1000     2.5470    56.5480   195.3350   144.9410   157.4810    24.5510 
  193.3750   -23.7240     2.5350    60.6810   197.2550   145.5710   213.4900    24.1520 
  193.5000   -23.2850     2.5690    63.5410   185.8320   138.3200   229.0160    24.1050 
  193.6250   -22.7690     2.6310    61.6630   149.5370   116.1570   180.9340    24.1200 
  193.7500   -22.2380     2.6700    56.7490    98.9380    82.5700   145.3990    24.1230 
  193.8750   -21.7250     2.6450    53.6660    54.1300    49.2400   115.5860    24.1340 
  194.0000   -21.2650     2.5550    53.2850    25.6650    25.6670    71.0760    24.1620 
  194.1250   -20.8500     2.4460    53.1600    12.5030    13.5330    30.5790    24.2370 
  194.2500   -20.4620     2.3430    53.1760     6.4060     7.3170    11.4140    24.5580 
  194.3750   -20.1160     2.2570    54.2920     3.9640     4.4050     4.8960    25.2420 
  194.5000   -19.8550     2.1740    54.3730     3.3090     3.2620     3.5410    26.0270 
  194.6250   -19.7420     2.0730    50.1900     3.6170     3.1730     3.8390    26.4900 
  194.7500   -19.7660     1.9600    44.4410     4.3440     3.5860     4.0020    26.8720 
  194.8750   -19.8780     1.8620    40.9860     5.1970     4.2450     4.0270    27.4680 
  195.0000   -20.0190     1.8290    41.0340     5.8180     4.8760     4.0560    28.3480 
  195.1250   -20.2070     1.8820    43.4930     5.9160     5.2260     4.2080    29.6900 
  195.2500   -20.4800     2.0180    45.9710     5.7280     5.3400     4.3540    31.1260 
  195.3750   -20.8540     2.1770    47.9650     5.5070     5.3400     4.5240    31.4450 
  195.5000   -21.2830     2.2560    49.2640     5.3860     5.3260     4.7370    29.8070 
  195.6250   -21.7060     2.2470    49.0760     5.3870     5.3410     4.8800    27.2000 
  195.7500   -22.0400     2.1940    47.1880     5.4490     5.3640     4.9690    25.5340 
  195.8750   -22.2870     2.1320    44.9600     5.5340     5.3630     4.9940    25.1420 
  196.0000   -22.5160     2.0760    43.3730     5.6210     5.3110     4.9970    25.4920 
  196.1250   -22.7220     2.0260    42.4400     5.6940     5.1980     4.9970    26.0080 
  196.2500   -22.8700     1.9720    41.9910     5.7430     5.0560     4.9970    26.6790 
  196.3750   -22.9170     1.9100    41.9150     5.7580     4.9140     4.9970    27.7070 
  196.5000   -22.8520     1.8520    41.8240     5.7410     4.7920     4.9970    28.8290 
  196.6250   -22.7170     1.8160    42.0450     5.7140     4.7090     5.0160    29.7220 
  196.7500   -22.6200     1.8040    42.3120     5.7070     4.6610     5.0640    30.7150 
  196.8750   -22.5720     1.8060    41.0830     5.7260     4.6470     5.1270    31.8170 
  197.0000   -22.5160     1.8040    38.8560     5.7790     4.6640     5.2040    32.4780 
  197.1250   -22.4090     1.7850    39.6280     5.8770     4.7200     5.2890    32.4530 
  197.2500   -22.2720     1.7560    43.3650     6.0150     4.8080     5.3610    32.1540 
  197.3750   -22.1660     1.7420    45.6060     6.1750     4.9170     5.3880    31.5600 
  197.5000   -22.1500     1.7850    44.7680     6.3290     5.0280     5.3920    30.7010 
  197.6250   -22.1760     1.8870    43.7370     6.4450     5.1200     5.3930    30.0430 
  197.7500   -22.1920     2.0130    45.1030     6.5220     5.1840     5.4090    29.6830 
  197.8750   -22.2640     2.1090    47.5390     6.5740     5.2270     5.4560    29.3590 
