~V
VERS. 2.00: Ver 2.00
~W
STRT.M 50.0000:
STOP.M 240.0000:
STEP.M 0.1250:
NULL. -999.2500:
UWI. F11117:
~C
DEPT.M :
DEN.GM/CC :
GR.API :
RML.OHMM :
RI. :
RXO.OHMM :
CALI.CM :
SP.MV :
~A
# ...
  185.0000     2.3830    52.7970     9.8440     9.3750     8.3480    23.9560   -11.7870 
  185.1250     2.3820    50.6000     9.6580     9.2130     8.4210    24.1910   -11.3670 
  185.2500     2.3710    47.6730     9.4560     9.0140     8.5400    24.4630   -11.2150 
  185.3750     2.3600    45.8500     9.4020     8.8240     8.4600    24.7670   -11.2510 
  185.5000     2.3470    45.4750     9.3900     8.6660     8.2620    24.7250   -11.4550 
  185.6250     2.3340    46.2040     9.4250     8.5540     8.1590    24.5820   -11.8220 
  185.7500     2.3210    45.7640     9.4910     8.4780     8.0460    24.3200   -12.2680 
  185.8750     2.3130    45.2970     9.5780     8.4370     8.1090    24.0520   -12.8290 
  186.0000     2.3150    47.1260     9.6720     8.4240     8.1940    23.9860   -13.5210 
  186.1250     2.3280    48.5400     9.7580     8.4260     8.2000    23.9880   -14.2510 
  186.2500     2.3430    46.4160     9.8260     8.4240     8.1560    24.0060   -14.9870 
  186.3750     2.3490    43.1100     9.8810     8.4050     8.1580    23.7250   -15.6680 
  186.5000     2.3420    42.6390     9.9390     8.3760     8.1250    23.4810   -16.1790 
  186.6250     2.3260    43.5400    10.0330     8.3580     8.1340    23.5790   -16.5600 
  186.7500     2.3130    43.2420    10.1830     8.3770     8.0330    23.7740   -16.8790 
  186.8750     2.3100    43.1240    10.3810     8.4390     8.0790    23.9910   -17.0210 
  187.0000     2.3190    44.3330    10.5870     8.5290     8.3720    24.0660   -16.9140 
  187.1250     2.3360    47.0720    10.7070     8.5920     8.8700    23.9930   -16.5750 
  187.2500     2.3480    50.2080    10.6830     8.5760     9.2030    23.8780   -16.0770 
  187.3750     2.3450    52.3540    10.5280     8.4680     9.0780    23.8060   -15.5690 
  187.5000     2.3210    52.6800    10.3610     8.3330     8.6050    23.6370   -15.1840 
  187.6250     2.2840    51.9810    10.4270     8.3300     8.0930    23.2770   -14.8830 
  187.7500     2.2590    51.5140    10.8470     8.5690     8.2940    23.4610   -14.6980 
  187.8750     2.2610    50.9370    11.6190     9.0850    10.0690    23.6500   -14.6490 
  188.0000     2.2950    50.0740    12.5880     9.8190    13.9540    23.6560   -14.6990 
  188.1250     2.3490    49.9540    13.3950    10.5680    17.1610    23.5410   -14.9000 
  188.2500     2.3980    50.4530    13.7080    11.0440    15.1580    23.4140   -15.2040 
  188.3750     2.4230    51.7100    13.3910    11.0600    11.4380    23.4090   -15.5270 
  188.5000     2.4190    52.4460    12.5530    10.6080     9.8150    23.7120   -15.8310 
  188.6250     2.3850    50.9420    11.4380     9.8130     9.6140    23.7770   -16.0380 
  188.7500     2.3340    46.8000    10.3090     8.9210     9.4260    23.8990   -16.0440 
  188.8750     2.2810    44.0510     9.2550     8.0500     8.9430    24.3120   -15.8840 
  189.0000     2.2330    44.4540     7.8350     7.2570     7.7650    24.6040   -15.6390 
  189.1250     2.1970    45.6100     7.0990     6.6010     6.9210    24.1250   -15.3790 
  189.2500     2.1690    47.0750     6.5620     6.1010     5.9030    23.7530   -15.2100 
  189.3750     2.1470    50.7810     6.2750     5.7890     5.0320    23.4570   -15.1840 
  189.5000     2.1370    56.0260     6.2390     5.6740     4.5500    23.5790   -15.3430 
  189.6250     2.1500    60.8480     6.4260     5.7540     4.6290    24.7830   -15.8640 
  189.7500     2.1820    66.5500     6.6980     5.9370     5.1680    24.5420   -16.6690 
  189.8750     2.2200    73.3830     6.9610     6.1530     5.8350    23.4000   -17.7260 
  190.0000     2.2510    80.2010     7.1490     6.3360     6.0020    22.9560   -19.0630 
  190.1250     2.2660    87.4930     7.2420     6.4370     5.8070    22.7050   -20.6470 
  190.2500     2.2740    94.6770     7.3130     6.4860     5.6670    22.2640   -22.3490 
  190.3750     2.2830    97.1380     7.4160     6.5260     5.7940    23.0320   -24.1190 
  190.5000     2.2970    93.0220     7.5690     6.5890     6.1390    23.8660   -25.8230 
  190.6250     2.3120    90.1250     7.7270     6.6720     6.5930    24.9750   -27.2490 
  190.7500     2.3200    92.4960     7.8160     6.7320     6.8940    25.5090   -28.5220 
  190.8750     2.3180    93.2200     7.8100     6.7370     6.9140    25.5700   -29.6130 
  191.0000     2.3070    86.8480     7.7600     6.7000     6.8150    25.5840   -30.4340 
  191.1250     2.2910    80.3790     7.8300     6.7130     6.7130    25.6070   -30.9570 
  191.2500     2.2810    80.8500     8.1490     6.8840     6.5030    25.4340   -31.2290 
  191.3750     2.2880    83.1830     8.7660     7.2800     6.5320    25.0370   -31.2130 
  191.5000     2.3170    81.3940     9.6240     7.8950     8.0540    24.7380   -31.0050 
  191.6250     2.3660    77.0930    10.5210     8.6330    10.8130    24.0980   -30.6670 
  191.7500     2.4130    74.3020    11.1650     9.2630    12.8570    23.5070   -30.1680 
  191.8750     2.4440    73.8640    11.3580     9.5890    12.2810    23.0800   -29.5670 
  192.0000     2.4510    73.7160    11.0740     9.5200    10.1040    23.1360   -28.8780 
  192.1250     2.4380    72.6840    10.4490     9.0830     8.9920    23.4620   -28.0520 
  192.2500     2.4180    73.2450     9.7490     8.5020     8.4880    24.0910   -27.1010 
  192.3750     2.3940    76.2400     9.0720     7.8910     8.0370    24.2890   -26.0440 
  192.5000     2.3620    79.8560     8.4290     7.3020     7.6070    24.5480   -24.9320 
  192.6250     2.3050    83.8170     7.8360     6.7720     6.9370    25.1340   -23.8240 
  192.7500     2.2160    87.2240     7.3780     6.3470     6.4000    25.2050   -22.7400 
  192.8750     2.1080    86.9940     7.2020     6.1200     5.8320    25.8750   -21.7470 
  193.0000     2.0110    82.4460     7.4680     6.1960     5.3280    28.4010   -20.9010 
  193.1250     1.9700    78.6090     8.3940     6.7560     5.9450    29.1740   -20.1690 
  193.2500     2.0000    77.4640     9.8990     7.7920     7.7660    26.7470   -19.5390 
  193.3750     2.0980    78.1560    11.8350     9.2710    10.6810    25.2190   -19.0360 
  193.5000     2.2370    79.9910    13.8630    11.0060    13.6260    24.3220   -18.5600 
  193.6250     2.3590    81.0470    15.3050    12.5120    15.8240    23.7880   -18.0610 
  193.7500     2.4290    80.3860    15.6870    13.2690    16.5530    23.6180   -17.4630 
  193.8750     2.4460    79.5690    14.8970    13.0290    15.2970    23.6690   -16.6460 
  194.0000     2.4290    80.3850    13.2740    11.9570    13.0970    23.7410   -15.6580 
  194.1250     2.3990    82.0500    11.3960    10.4760    11.1940    23.8020   -14.5680 
  194.2500     2.3730    83.1610     9.7470     9.0640     9.1390    23.8230   -13.4320 
  194.3750     2.3540    80.3650     8.4800     7.9030     7.2260    23.8920   -12.3050 
  194.5000     2.3410    70.5120     7.5900     7.0460     6.2010    23.7170   -11.1880 
  194.6250     2.3300    56.3930     7.0120     6.4880     6.4920    23.7080   -10.1200 
  194.7500     2.3220    47.7090     6.5760     6.0990     6.7760    23.8890    -9.2570 
  194.8750     2.3180    47.2900     6.2060     5.8040     6.4480    24.0490    -8.6420 
  195.0000     2.3130    52.1020     5.8590     5.5490     5.7570    24.0960    -8.1940 
  195.1250     2.2940    59.9130     5.5310     5.3040     4.9550    23.8850    -7.9400 
  195.2500     2.2610    69.5580     5.2490     5.0770     4.2430    24.2030    -7.8020 
  195.3750     2.2260    77.0040     5.0460     4.8920     3.9090    24.7330    -7.7370 
  195.5000     2.2080    80.3380     4.9370     4.7700     3.8730    25.1310    -7.8190 
  195.6250     2.2240    81.6940     4.9340     4.7310     3.9390    24.1270    -7.9930 
  195.7500     2.2610    82.8150     5.0020     4.7580     4.0810    23.3330    -8.1440 
  195.8750     2.2980    82.1800     5.1230     4.8350     4.3340    23.2800    -8.2890 
  196.0000     2.3200    81.6670     5.2800     4.9430     4.6430    23.3870    -8.3950 
  196.1250     2.3210    84.7720     5.4760     5.0750     5.0540    23.4510    -8.3870 
