~V
VERS. 2.00: Ver 2.00
~W
STRT.M 55.0000:
STOP.M 201.0000:
STEP.M 0.1250:
NULL. -999.2500:
UWI. F11111:
~C
DEPT.M :
GR.API :
RML.OHMM :
RI. :
RXO.OHMM :
CALI.CM :
SP.MV :
DEN.GM/CC :
~A
# ...
  133.7500    73.2310    29.7110    24.5540    23.2590    24.4010   -21.7140     2.4240 
  133.8750    71.5920    31.4090    26.3330    25.1560    24.3310   -21.6220     2.4070 
  134.0000    71.4090    31.6770    27.0480    25.5570    24.5330   -21.5510     2.3620 
  134.1250    74.3820    30.1770    26.1960    26.8100    24.4770   -21.5280     2.3020 
  134.2500    75.3540    27.7520    24.3700    26.0260    24.3490   -21.5200     2.2520 
  134.3750    73.4570    25.0970    22.1530    22.1090    24.1780   -21.5130     2.2310 
  134.5000    73.3610    22.7270    20.0380    18.8780    24.1160   -21.4890     2.2430 
  134.6250    76.1560    20.9930    18.3970    17.3980    24.1260   -21.4660     2.2880 
  134.7500    76.2690    19.8170    17.2410    16.5810    23.9950   -21.4710     2.3430 
  134.8750    74.0340    19.1160    16.5430    16.1200    23.9380   -21.5120     2.3880 
  135.0000    72.3840    18.8030    16.2500    15.8950    23.9200   -21.5430     2.4130 
  135.1250    71.4810    18.8640    16.3400    15.7700    24.2250   -21.5280     2.4160 
  135.2500    71.0240    19.2160    16.6900    15.7180    24.0300   -21.4910     2.4110 
  135.3750    71.4720    19.8080    17.2440    15.9300    23.8360   -21.4540     2.4080 
  135.5000    71.0950    20.4530    17.8720    18.4510    23.6720   -21.4140     2.4070 
  135.6250    69.2330    20.6240    18.1870    21.6320    23.4350   -21.3700     2.3990 
  135.7500    68.0160    19.8860    17.7770    24.3010    23.1830   -21.3530     2.3730 
  135.8750    69.3110    18.0930    16.4350    23.7210    23.1140   -21.3580     2.3290 
  136.0000    71.4240    15.5370    14.3370    19.9840    23.3160   -21.3950     2.2790 
  136.1250    72.3220    12.5970    11.9800    14.9430    23.6670   -21.4790     2.2390 
  136.2500    71.5220     9.6720     9.8980    10.1380    23.9170   -21.5770     2.2170 
  136.3750    70.9730     8.2810     8.3170     7.7120    23.7880   -21.6900     2.2080 
  136.5000    74.9750     7.5240     7.2950     7.1160    23.5690   -21.8330     2.2040 
  136.6250    81.3890     7.4250     6.8990     7.1250    23.4840   -22.0220     2.2000 
  136.7500    83.3440     7.8040     6.9900     7.2430    23.3720   -22.2080     2.1970 
  136.8750    80.5650     8.5700     7.5120     8.0340    23.3090   -22.3670     2.2000 
  137.0000    76.4960     9.6100     8.3840     9.9230    23.2710   -22.4980     2.2110 
  137.1250    75.2020    10.7790     9.5050    11.6820    23.2100   -22.6010     2.2250 
  137.2500    75.8340    11.8760    10.6460    12.6930    23.2670   -22.7110     2.2380 
  137.3750    76.8990    12.7420    11.6190    13.2550    23.3800   -22.8340     2.2450 
  137.5000    75.2860    13.2790    12.2830    13.6410    23.5480   -22.9540     2.2490 
  137.6250    70.5260    13.4500    12.5570    13.9750    23.5930   -23.0360     2.2520 
  137.7500    67.6370    13.3980    12.5790    14.0890    23.5220   -23.0880     2.2550 
  137.8750    67.2440    13.2010    12.4260    14.0100    23.3540   -23.1120     2.2570 
  138.0000    68.0190    12.9110    12.1390    13.6800    23.2650   -23.0940     2.2560 
  138.1250    66.3520    12.5550    11.7320    13.1430    23.2640   -23.0580     2.2500 
  138.2500    63.5500    12.1640    11.2570    12.3810    23.0890   -23.0050     2.2430 
  138.3750    63.3690    11.7520    10.7570    11.6700    22.6960   -22.9240     2.2370 
  138.5000    66.6740    11.3410    10.2760    11.1490    22.5990   -22.8360     2.2300 
  138.6250    70.9610    10.9610     9.8610    10.6970    23.1130   -22.7480     2.2230 
  138.7500    75.8060    10.6250     9.5200    10.1290    23.2240   -22.6470     2.2150 
  138.8750    79.4530    10.3440     9.2560     9.5890    23.1600   -22.5460     2.2100 
  139.0000    78.7160    10.1240     9.0700     9.6280    23.0730   -22.4690     2.2080 
  139.1250    73.7140    10.0000     9.0010    10.2240    23.1170   -22.3730     2.2110 
  139.2500    71.1330    10.0030     9.0680    10.6420    23.1320   -22.2790     2.2140 
  139.3750    72.0500    10.1950     9.3060    10.4360    23.0250   -22.2040     2.2160 
  139.5000    71.7030    10.6120     9.7400    10.3580    22.9330   -22.1320     2.2190 
  139.6250    67.6000    11.2320    10.3760    10.9640    22.9430   -22.0620     2.2240 
  139.7500    64.7250    11.8320    11.0560    12.2310    22.9970   -22.0010     2.2330 
  139.8750    65.6300    12.1490    11.5540    13.0980    23.0760   -21.9580     2.2430 
  140.0000    69.8730    11.9460    11.6110    12.9400    23.1540   -21.9480     2.2510 
  140.1250    72.8820    11.0800    11.0000    12.5010    23.1090   -21.9890     2.2550 
  140.2500    72.7330     9.8580     9.9580    11.3610    23.0280   -22.0550     2.2570 
  140.3750    72.5240     8.5690     8.7500     9.1440    22.9680   -22.1250     2.2600 
  140.5000    75.1920     7.4360     7.6120     7.2000    22.9790   -22.2160     2.2660 
  140.6250    79.2460     6.6060     6.7080     6.2590    23.0470   -22.3360     2.2740 
  140.7500    79.8830     6.0180     6.0150     5.6490    23.0190   -22.4660     2.2740 
  140.8750    77.8670     5.6290     5.5020     5.1980    22.8780   -22.6000     2.2580 
  141.0000    78.7170     5.4180     5.1600     4.9160    22.9130   -22.7340     2.2240 
  141.1250    82.9250     5.4460     5.0490     4.8230    23.1210   -22.8680     2.1830 
  141.2500    86.4920     5.7380     5.1840     4.8630    23.3050   -23.0110     2.1520 
  141.3750    88.0510     6.3320     5.6000     5.2460    23.4040   -23.1720     2.1440 
  141.5000    85.1440     7.2190     6.2960     6.6290    23.4540   -23.3190     2.1570 
  141.6250    78.3350     8.3040     7.2270     9.5050    23.3560   -23.4330     2.1850 
  141.7500    73.6570     9.3350     8.1860    11.5030    23.2300   -23.5160     2.2090 
  141.8750    74.6170    10.1300     8.9970    11.2640    23.1410   -23.5630     2.2220 
  142.0000    77.9810    10.6470     9.5570    10.2000    23.0900   -23.5800     2.2200 
  142.1250    76.5710    11.0520     9.9130     9.8380    23.0270   -23.6190     2.2040 
  142.2500    74.1610    11.6650    10.3150    10.3430    22.9750   -23.6650     2.1800 
  142.3750    74.5730    12.6930    10.9670    11.4250    22.9720   -23.6830     2.1620 
  142.5000    75.1990    14.1470    11.9620    12.7580    22.9270   -23.6950     2.1650 
  142.6250    71.8420    15.7450    13.1810    14.2150    22.7950   -23.6810     2.2010 
  142.7500    68.1960    16.9660    14.2170    17.2750    22.5300   -23.6610     2.2550 
  142.8750    67.7830    17.4590    14.7400    22.0000    22.3370   -23.6590     2.3070 
  143.0000    67.8230    17.2270    14.6580    23.8040    22.4030   -23.6630     2.3330 
  143.1250    65.9360    16.7360    14.2210    18.3020    22.1360   -23.6310     2.3230 
  143.2500    64.1920    16.6830    13.9650    13.8640    22.0520   -23.5770     2.2940 
  143.3750    63.9850    17.3950    14.2020    15.4280    22.1730   -23.5280     2.2620 
  143.5000    65.6270    18.8320    15.0220    20.8950    22.3680   -23.4980     2.2350 
  143.6250    68.2160    20.6130    16.3190    24.1350    22.5640   -23.5480     2.2120 
  143.7500    69.0110    22.0610    17.6350    25.0340    22.9680   -23.6250     2.1920 
  143.8750    66.1630    22.7960    18.6030    24.0960    23.1930   -23.6940     2.1760 
  144.0000    63.5270    22.8960    19.1150    22.2310    23.3830   -23.7590     2.1640 
  144.1250    65.3530    22.8230    19.4020    22.0270    23.6450   -23.8030     2.1590 
  144.2500    67.7300    22.8640    19.7460    23.5440    23.7410   -23.8140     2.1620 
  144.3750    67.9830    22.7920    20.0450    25.2790    23.7500   -23.7920     2.1730 
  144.5000    65.7730    22.1870    19.9700    25.9570    23.7180   -23.6970     2.1870 
  144.6250    66.2140    20.6410    19.0900    25.8770    23.6300   -23.4880     2.2000 
  144.7500    72.3280    18.4480    17.5230    23.8160    23.5350   -23.2600     2.2090 
  144.8750    78.9410    16.0210    15.5630    18.9780    23.4250   -23.0650     2.2140 
