~V
VERS. 2.00: Ver 2.00
~W
STRT.M 50.0000:
STOP.M 242.0000:
STEP.M 0.1250:
NULL. -999.2500:
UWI. F11136:
~C
DEPT.M :
GR.API :
RML.OHMM :
RI. :
RXO.OHMM :
CALI.CM :
SP.MV :
DEN.GM/CC :
~A
# ...
  128.7500    41.5480    21.1620    19.9970    20.5650    23.9140   -12.8860     2.5560 
  128.8750    42.2160    20.7380    19.5200    19.6730    23.9320   -12.8220     2.5490 
  129.0000    43.0930    20.8090    19.3520    20.1310    23.9660   -12.7740     2.5460 
  129.1250    43.9430    21.3030    19.5190    21.6400    23.9750   -12.7420     2.5510 
  129.2500    45.9540    21.8140    19.8140    22.9010    24.0250   -12.6920     2.5570 
  129.3750    47.9720    22.0450    20.0500    22.5960    23.9910   -12.6370     2.5580 
  129.5000    48.2190    21.9290    20.1140    20.8150    23.9290   -12.5980     2.5530 
  129.6250    45.5900    21.7190    20.0670    20.6030    23.9900   -12.5560     2.5430 
  129.7500    42.8300    21.7820    20.1190    20.9900    23.9580   -12.5350     2.5340 
  129.8750    42.3860    22.2190    20.3860    20.6980    23.9420   -12.5460     2.5280 
  130.0000    44.6270    22.8740    20.8460    20.0550    23.9180   -12.5570     2.5270 
  130.1250    48.6440    23.3660    21.2860    21.2810    23.9660   -12.5510     2.5280 
  130.2500    51.5590    23.4010    21.4300    23.1860    23.9460   -12.5480     2.5280 
  130.3750    51.3610    22.8980    21.1480    23.5040    23.9810   -12.5540     2.5250 
  130.5000    48.2220    21.9660    20.4790    21.4490    24.0100   -12.5700     2.5180 
  130.6250    45.6630    20.8410    19.5760    19.7470    24.0160   -12.5930     2.5120 
  130.7500    44.7780    19.8470    18.6680    18.5490    24.0180   -12.6070     2.5090 
  130.8750    43.9940    19.1200    17.8700    17.5210    24.0020   -12.6260     2.5090 
  131.0000    43.2140    18.6450    17.2340    16.4990    24.0740   -12.6510     2.5090 
  131.1250    45.2100    18.3540    16.7870    16.3220    24.1350   -12.6800     2.5050 
  131.2500    48.2060    18.1680    16.4810    16.6420    24.2070   -12.7340     2.4940 
  131.3750    48.4260    18.0850    16.3040    17.0530    24.2760   -12.8010     2.4810 
  131.5000    46.4780    18.1310    16.2600    17.0860    24.2840   -12.8650     2.4700 
  131.6250    46.8460    18.3530    16.3670    17.1740    24.2590   -12.9020     2.4650 
  131.7500    49.2850    18.6650    16.5550    17.7790    24.2480   -12.9210     2.4620 
  131.8750    50.0150    18.9450    16.7650    17.8060    24.1720   -12.9260     2.4580 
  132.0000    47.9040    19.0960    16.9540    18.5380    24.1240   -12.9280     2.4500 
  132.1250    45.4560    19.0370    17.1090    18.2480    24.1570   -12.8960     2.4450 
  132.2500    43.3890    18.8130    17.2440    18.2370    24.1920   -12.8120     2.4460 
  132.3750    41.1140    18.5420    17.3570    18.5150    24.1540   -12.7330     2.4550 
  132.5000    39.4030    18.3650    17.4320    19.2890    24.1190   -12.7030     2.4690 
  132.6250    40.2700    18.3140    17.4200    20.1310    24.0600   -12.6820     2.4780 
  132.7500    41.6120    18.1870    17.2970    20.4640    24.0560   -12.6700     2.4790 
  132.8750    41.0960    17.8230    17.0520    19.4880    24.0540   -12.6810     2.4730 
  133.0000    38.7480    17.2140    16.7000    17.9760    24.0590   -12.7170     2.4640 
  133.1250    37.5070    16.5200    16.2880    16.8360    24.0040   -12.7920     2.4580 
  133.2500    37.1990    15.9790    15.8870    15.8340    23.8760   -12.8820     2.4560 
  133.3750    38.0200    15.6730    15.5270    15.1130    23.7350   -12.9630     2.4560 
  133.5000    40.4240    15.5130    15.1750    15.0050    23.6380   -13.0410     2.4570 
  133.6250    43.9190    15.2770    14.7120    15.1460    23.7680   -13.1270     2.4570 
  133.7500    47.0410    14.8340    14.0730    14.5240    23.9880   -13.2160     2.4550 
  133.8750    48.9970    14.2300    13.2760    13.3280    24.2150   -13.3180     2.4520 
  134.0000    49.6550    13.5520    12.4200    11.4270    24.2890   -13.4090     2.4460 
  134.1250    49.0600    12.8770    11.6890    10.3400    24.3300   -13.4730     2.4390 
  134.2500    49.5610    12.3190    11.2210    10.1720    24.3380   -13.5500     2.4350 
  134.3750    50.0470    12.0450    11.1030    10.9760    24.3420   -13.6220     2.4350 
  134.5000    48.7560    12.2380    11.3710    11.9980    24.3130   -13.6420     2.4410 
  134.6250    45.9030    12.9670    12.0330    12.8280    24.3280   -13.6640     2.4520 
  134.7500    44.1930    13.8560    12.8950    14.0280    24.3490   -13.6850     2.4670 
  134.8750    44.7190    14.5780    13.7620    15.7420    24.3430   -13.6480     2.4820 
  135.0000    46.7970    14.9620    14.4310    17.1120    24.2570   -13.5940     2.4960 
  135.1250    50.8440    15.1580    14.7090    18.3090    24.2110   -13.5860     2.5050 
  135.2500    55.5230    15.4910    14.6780    17.8910    24.1960   -13.5490     2.5090 
  135.3750    59.9760    15.9800    14.4670    16.1590    24.2570   -13.5080     2.5050 
  135.5000    64.0700    16.4020    14.2240    15.6000    24.3170   -13.5040     2.4960 
  135.6250    67.1480    16.4640    14.0890    15.1820    24.3720   -13.5200     2.4830 
  135.7500    67.9480    16.2450    14.0910    14.3340    24.2500   -13.5690     2.4690 
  135.8750    66.0900    15.9370    14.2030    14.0300    24.0320   -13.6550     2.4590 
  136.0000    63.7480    15.7240    14.3660    15.1560    24.0770   -13.7920     2.4520 
  136.1250    65.4290    15.7660    14.5140    16.7550    24.2570   -13.9080     2.4480 
  136.2500    69.8860    16.0460    14.6300    17.7330    24.3160   -14.0490     2.4440 
  136.3750    74.2680    16.5820    14.7830    17.2830    24.3500   -14.2220     2.4360 
  136.5000    75.8120    17.5140    15.1330    17.1610    24.3550   -14.3850     2.4240 
  136.6250    73.7440    19.2340    16.0160    17.9770    24.3540   -14.5630     2.4150 
  136.7500    71.3580    21.8820    17.6140    20.4300    24.3710   -14.7000     2.4150 
  136.8750    70.1340    25.4190    20.0330    24.6190    24.3490   -14.8200     2.4270 
  137.0000    68.9870    29.3990    23.1250    29.7700    24.3040   -14.9300     2.4460 
  137.1250    66.0350    32.7300    26.2370    32.7220    24.1230   -15.0320     2.4640 
  137.2500    63.5810    34.4580    28.3990    34.2290    24.1280   -15.1010     2.4730 
  137.3750    63.7460    34.2540    29.0330    35.0340    24.2320   -15.1480     2.4730 
  137.5000    65.1120    32.5750    28.2130    32.0700    24.1920   -15.1570     2.4670 
  137.6250    68.1550    30.2720    26.5180    28.7500    24.0880   -15.1310     2.4590 
  137.7500    72.9840    28.0800    24.7520    29.0770    24.0570   -15.0750     2.4520 
  137.8750    78.3120    26.2000    23.1800    30.5940    23.9370   -15.0010     2.4450 
  138.0000    80.0560    24.6920    21.8640    28.3220    23.9780   -14.9080     2.4400 
  138.1250    76.3590    23.6280    20.8700    25.6610    24.0940   -14.8120     2.4410 
  138.2500    71.4530    22.9400    20.2180    24.8370    24.1170   -14.7010     2.4470 
  138.3750    69.3670    22.6920    20.0170    24.9990    24.1100   -14.5580     2.4580 
  138.5000    70.8370    22.9990    20.3590    25.2190    23.9910   -14.4510     2.4710 
  138.6250    73.3680    23.8490    21.2100    25.4500    24.0120   -14.3300     2.4850 
  138.7500    75.0670    24.5650    21.9740    26.1540    23.9980   -14.2600     2.4970 
  138.8750    76.2820    24.1910    21.8170    27.8840    23.9040   -14.2170     2.5080 
  139.0000    75.3040    21.9570    20.0590    28.5110    23.9130   -14.1600     2.5140 
  139.1250    71.5420    17.9680    16.7690    26.0150    23.8840   -14.1620     2.5110 
  139.2500    71.5840    13.8210    13.2920    20.2240    23.9210   -14.1970     2.4930 
  139.3750    77.3510    10.5100    10.4380    13.5670    23.9890   -14.2460     2.4600 
  139.5000    82.7630     8.4140     8.5160     9.3030    24.0720   -14.3260     2.4140 
  139.6250    80.6350     7.5780     7.6020     9.4300    24.1530   -14.4050     2.3630 
  139.7500    75.6800     7.4800     7.3350    10.1630    24.1990   -14.4640     2.3170 
  139.8750    72.8710     7.8050     7.4980    10.1280    24.2080   -14.5270     2.2840 
