~V
VERS. 2.00: Ver 2.00
~W
STRT.M 40.0000:
STOP.M 206.0000:
STEP.M 0.1250:
NULL. -999.2500:
UWI. F11104:
~C
DEPT.M :
GR.API :
RML.OHMM :
RI. :
RXO.OHMM :
CALI.CM :
SP.MV :
DEN.GM/CC :
~A
# ...
   96.2500    63.2730     7.9410     6.4620     9.2110    25.7940   -19.7420     2.1920 
   96.3750    63.6190     8.0260     6.5490     9.1150    25.8340   -19.9710     2.1970 
   96.5000    63.2410     8.2170     6.6950     9.5920    25.9310   -20.2290     2.2020 
   96.6250    61.5270     8.4640     6.8680    10.2670    25.9930   -20.5610     2.2060 
   96.7500    60.0200     8.6700     7.0100    11.7560    26.0100   -20.9590     2.2060 
   96.8750    60.5550     8.7730     7.0830    14.2300    26.0450   -21.4030     2.2010 
   97.0000    62.0880     8.7510     7.0720    16.9680    26.0930   -21.8570     2.1940 
   97.1250    61.6680     8.6150     6.9790    13.3700    26.1280   -22.2740     2.1850 
   97.2500    60.0020     8.4400     6.8490    11.2560    26.1480   -22.6370     2.1760 
   97.3750    58.8790     8.2790     6.7170    10.2760    26.1560   -22.9430     2.1700 
   97.5000    57.6040     8.1620     6.6110    10.0950    26.1610   -23.2090     2.1680 
   97.6250    56.8660     8.1070     6.5540    10.0660    26.1650   -23.4500     2.1690 
   97.7500    57.2750     8.0920     6.5330    10.2250    26.1690   -23.6820     2.1720 
   97.8750    59.0610     8.0970     6.5340    10.4500    26.1740   -23.9060     2.1750 
   98.0000    60.6410     8.1040     6.5420    10.4700    26.1890   -24.1070     2.1760 
   98.1250    60.9220     8.1040     6.5540    10.6820    26.2610   -24.2720     2.1760 
   98.2500    60.8910     8.1060     6.5760    11.1430    26.3990   -24.3880     2.1740 
   98.3750    61.3060     8.1220     6.6120    11.7140    26.5550   -24.4460     2.1710 
   98.5000    63.0060     8.1630     6.6560    12.0910    26.6540   -24.4460     2.1690 
   98.6250    64.4840     8.2240     6.6970    12.0810    26.6680   -24.3900     2.1680 
   98.7500    64.2980     8.2680     6.7170    11.9930    26.6580   -24.2870     2.1680 
   98.8750    62.5200     8.2480     6.6960    11.9490    26.6530   -24.1320     2.1710 
   99.0000    60.4940     8.1310     6.6190    11.9320    26.6640   -23.9230     2.1760 
   99.1250    61.7420     7.9220     6.4860    11.8160    26.6980   -23.6630     2.1830 
   99.2500    66.1000     7.6960     6.3370    11.3240    26.6750   -23.3830     2.1900 
   99.3750    68.8420     7.5180     6.2100    10.5140    26.5190   -23.1090     2.1940 
   99.5000    66.2900     7.4340     6.1420     9.7320    26.2350   -22.8490     2.1910 
   99.6250    62.6750     7.4810     6.1580     9.5470    25.9440   -22.6050     2.1800 
   99.7500    62.4880     7.6150     6.2310     9.9140    25.7660   -22.3880     2.1660 
   99.8750    63.4060     7.7810     6.3300     9.9230    25.7000   -22.2200     2.1530 
  100.0000    63.5040     7.9100     6.4130     9.5730    25.7010   -22.1080     2.1450 
  100.1250    63.4590     7.9150     6.4190     9.5280    25.7010   -22.0430     2.1460 
  100.2500    63.2800     7.9050     6.4310     9.5290    25.6990   -21.9880     2.1540 
  100.3750    63.0700     7.7970     6.3870     9.8710    25.7030   -21.9190     2.1630 
  100.5000    63.7240     7.6610     6.3180    10.0480    25.7230   -21.8150     2.1670 
  100.6250    64.7390     7.5840     6.2660     9.5550    25.7500   -21.6530     2.1650 
  100.7500    62.8820     7.5630     6.2320     8.8810    25.7660   -21.4330     2.1630 
  100.8750    59.4550     7.5340     6.1870     8.7330    25.7670   -21.1500     2.1680 
  101.0000    59.3720     7.4220     6.0940     9.3360    25.7750   -20.8110     2.1820 
  101.1250    63.6630     7.1870     5.9330     9.6840    25.8020   -20.4360     2.1940 
  101.2500    66.8250     6.9220     5.7530     9.4210    25.8290   -20.0750     2.1960 
  101.3750    66.9880     6.7450     5.6170     8.3440    25.8420   -19.7600     2.1870 
  101.5000    64.6040     6.7480     5.5810     7.1200    25.8390   -19.4880     2.1700 
  101.6250    60.0870     6.9750     5.6860     7.6710    25.8340   -19.2670     2.1570 
  101.7500    58.8080     7.2890     5.8600     8.5230    25.8630   -19.0960     2.1510 
  101.8750    61.1830     7.5330     6.0120     8.8980    25.9700   -18.9790     2.1530 
  102.0000    63.8860     7.5730     6.0510     8.9010    26.1590   -18.9150     2.1570 
  102.1250    64.3330     7.3480     5.9240     8.8520    26.3560   -18.8710     2.1620 
  102.2500    65.0860     7.0150     5.7140     9.0410    26.4750   -18.7860     2.1690 
  102.3750    67.7790     6.7260     5.5170     9.2700    26.5130   -18.6200     2.1760 
  102.5000    70.4970     6.5930     5.4140     9.2710    26.5100   -18.3680     2.1830 
  102.6250    71.5630     6.6940     5.4650     9.2770    26.5080   -18.0290     2.1850 
  102.7500    71.3690     6.9750     5.6490     9.9980    26.5100   -17.6350     2.1830 
  102.8750    70.8350     7.3840     5.9400    12.4490    26.5100   -17.2160     2.1750 
  103.0000    70.5460     7.8420     6.2920    16.7270    26.5080   -16.7890     2.1640 
  103.1250    70.4650     8.2080     6.6200    16.0470    26.5070   -16.3470     2.1570 
  103.2500    70.0110     8.3570     6.8320    12.0220    26.5080   -15.8800     2.1570 
  103.3750    69.4770     8.2110     6.8560    10.1390    26.5090   -15.3670     2.1670 
  103.5000    70.6980     7.7680     6.6600     9.8760    26.5150   -14.7790     2.1860 
  103.6250    74.5730     7.0920     6.2520     9.8560    26.5920   -14.0510     2.2070 
  103.7500    81.0450     6.3750     5.7580     8.9540    26.7870   -13.1720     2.2260 
  103.8750    89.0710     5.7530     5.2780     6.9900    27.0550   -12.1620     2.2430 
  104.0000    96.1800     5.3170     4.8920     5.5490    27.2820   -11.0910     2.2580 
  104.1250    97.8550     5.1430     4.6720     5.0130    27.3780   -10.0720     2.2680 
  104.2500    95.3090     5.1630     4.5990     4.8560    27.4000    -9.1820     2.2690 
  104.3750    93.9110     5.3040     4.6390     4.8110    27.4050    -8.4600     2.2650 
  104.5000    96.6100     5.4610     4.7280     4.9620    27.4080    -7.9220     2.2610 
  104.6250    99.6360     5.5060     4.7820     5.2220    27.4080    -7.6150     2.2690 
  104.7500    99.7040     5.4060     4.7510     5.4430    27.4040    -7.5030     2.2850 
  104.8750    98.4060     5.1900     4.6350     5.2030    27.4010    -7.5540     2.3010 
  105.0000    98.9980     4.9390     4.4700     4.7460    27.3990    -7.7190     2.3060 
  105.1250   102.5730     4.7760     4.3340     4.3910    27.4020    -7.9830     2.2970 
  105.2500   105.5630     4.7840     4.2960     4.3690    27.4030    -8.3480     2.2840 
  105.3750   103.5890     5.0120     4.4020     4.6180    27.4020    -8.8510     2.2760 
  105.5000    95.7890     5.4830     4.6800     5.0450    27.4010    -9.5310     2.2720 
  105.6250    87.2750     6.2190     5.1580     5.7100    27.3970   -10.4090     2.2680 
  105.7500    85.1090     7.1180     5.7720     6.4730    27.3610   -11.4170     2.2590 
  105.8750    86.2750     8.0850     6.4640     7.0860    27.2650   -12.4990     2.2480 
  106.0000    85.1030     8.9980     7.1550     7.5020    27.1100   -13.6150     2.2400 
  106.1250    80.6730     9.6680     7.7140     8.6570    26.9240   -14.7260     2.2350 
  106.2500    77.7150    10.0090     8.0580     9.1520    26.7690   -15.7880     2.2280 
  106.3750    76.7200     9.9900     8.1470     9.4940    26.6800   -16.7780     2.2170 
  106.5000    75.3700     9.6580     7.9970    10.1040    26.6550   -17.6780     2.2030 
  106.6250    75.3270     9.1180     7.6630    10.0620    26.6490   -18.4740     2.1900 
  106.7500    77.5340     8.5740     7.2870     9.5930    26.6020   -19.2130     2.1780 
  106.8750    79.2410     8.1520     6.9700     9.1530    26.5020   -19.9190     2.1660 
  107.0000    77.2650     7.9230     6.7770     8.9640    26.3670   -20.5970     2.1540 
  107.1250    74.1670     7.9300     6.7510     8.7030    26.2110   -21.2180     2.1460 
  107.2500    74.4940     8.0950     6.8380     8.6130    26.0640   -21.7870     2.1440 
  107.3750    75.6600     8.3240     6.9690     8.9620    25.9560   -22.3000     2.1470 
