~V
VERS. 2.00: Ver 2.00
~W
STRT.M 53.0000:
STOP.M 252.0000:
STEP.M 0.1250:
NULL. -999.2500:
UWI. F11141:
~C
DEPT.M :
SP.MV :
DEN.GM/CC :
GR.API :
RML.OHMM :
RI. :
RXO.OHMM :
CALI.CM :
~A
# ...
  244.2500   -19.4730     2.3440    51.6910     9.0290     7.6840    10.7640    24.1840 
  244.3750   -19.7800     2.3180    51.6910     8.8560     7.5610    10.0010    24.1850 
  244.5000   -20.0260     2.2950    51.6910     8.7350     7.4620     9.2310    24.1230 
  244.6250   -20.2040     2.2680    51.6910     8.6850     7.3990     9.1170    24.0550 
  244.7500   -20.3490     2.2430    51.6910     8.7110     7.3920     9.5970    24.1240 
  244.8750   -20.4160     2.2390    51.6910     8.8400     7.4700    10.4140    24.3550 
  245.0000   -20.4830     2.2700    51.6910     9.0860     7.6500    11.1000    24.6660 
  245.1250   -20.5890     2.3380    51.6910     9.4240     7.9130    12.0220    24.7380 
  245.2500   -20.7640     2.4090    51.6910     9.7500     8.1830    12.2010    24.4610 
  245.3750   -20.8480     2.4580    51.6910     9.9900     8.4010    11.9390    24.2680 
  245.5000   -20.8560     2.4740    51.6910    10.1160     8.5330    12.2410    24.2440 
  245.6250   -20.9320     2.4630    51.6910    10.1450     8.5810    12.7880    24.2900 
  245.7500   -21.0850     2.4460    51.6910    10.1430     8.5930    12.8890    24.3040 
  245.8750   -21.1780     2.4360    51.6910    10.1420     8.5920    12.5340    24.2770 
  246.0000   -21.1430     2.4340    51.6910    10.1490     8.5890    11.8580    24.2330 
  246.1250   -20.9720     2.4310    51.6910    10.1530     8.5840    11.0620    24.1790 
  246.2500   -20.6540     2.4190    51.6910    10.1500     8.5790    10.2790    24.1680 
  246.3750   -20.3410     2.4000    51.6910    10.1400     8.5770     9.9120    24.1850 
  246.5000   -20.0320     2.3840    51.6910    10.1290     8.5770    10.0430    24.2260 
  246.6250   -19.5110     2.3850    51.6910    10.1250     8.5800     9.9070    24.2840 
  246.7500   -18.7800     2.4010    51.6910    10.0730     8.5640     9.6760    24.3510 
  246.8750   -18.1370     2.4170    51.6910     9.7810     8.4000     9.3770    24.3700 
  247.0000   -17.6510     2.4110    51.6910     9.1020     7.9610     9.2510    24.3330 
  247.1250   -17.2880     2.3690    51.6910     8.0780     7.2520     9.4780    24.3600 
  247.2500   -17.0650     2.3120    51.6910     7.0830     6.5280     9.8070    24.3750 
  247.3750   -16.9250     2.2650    51.6910     7.0830     6.5280     9.1150    24.4710 
  247.5000   -16.8580     2.2500    51.6910     7.0830     6.5280     7.9040    24.6050 
  247.6250   -16.9810     2.2770    51.6910     7.0830     6.5280     7.4450    24.6210 
  247.7500   -17.3100     2.3270    51.6910     7.0830     6.5280     7.2630    24.4180 
  247.8750   -17.6600     2.3830    51.6910     7.0830     6.5280     7.3130    24.1960 
  248.0000   -17.9560     2.4330    51.6910     7.0830     6.5280     8.2840    24.0710 
  248.1250   -18.3390     2.4710    51.6910     7.0830     6.5280    10.4030    24.0090 
  248.2500   -18.8110     2.5000    51.6910     7.0830     6.5280    12.0480    23.9480 
  248.3750   -19.1770     2.5200    51.6910     7.0830     6.5280    12.4810    23.9150 
  248.5000   -19.1710     2.5260    51.6910     7.0830     6.5280    12.3790    23.8880 
  248.6250   -18.9130     2.5100    51.6910     7.0830     6.5280    12.9270    23.8730 
  248.7500   -18.5120     2.4720    51.6910     7.0830     6.5280    13.7070    23.9630 
  248.8750   -18.0970     2.4210    51.6910     7.0830     6.5280    14.3860    24.0630 
  249.0000   -17.7250     2.4100    51.6910     7.0830     6.5280    17.0370    24.0830 
  249.1250   -17.3370     2.3480    51.6910     7.0830     6.5280    23.6570    23.9800 
  249.2500   -16.8790     2.3510    51.6910     7.0830     6.5280    30.5120    23.9030 
  249.3750   -16.6690     2.3760    51.6910     7.0830     6.5280    24.8750    23.8310 
  249.5000   -16.6690     2.3970    51.6910     7.0830     6.5280    16.9730    23.7440 
  249.6250   -16.6690     2.3880    51.6910     7.0830     6.5280    13.8300    23.6500 
  249.7500  -999.2500     2.3320    51.6910     7.0830     6.5280    12.1480    23.3590 
  249.8750  -999.2500     2.2460    51.6910     7.0830     6.5280    10.7760    22.7050 
  250.0000  -999.2500     2.1540    51.6910     7.0830     6.5280     9.1980    21.5230 
  250.1250  -999.2500     2.0790    51.6910     7.0830     6.5280     7.6540    19.8690 
  250.2500  -999.2500     2.0350    51.6910     7.0830     6.5280     7.3150    18.4440 
  250.3750  -999.2500     2.0150    51.6910     7.0830     6.5280     7.2660    17.8930 
  250.5000  -999.2500     2.0090    51.6910     7.0830     6.5280     7.3060    17.7890 
  250.6250  -999.2500     2.0090    51.6910     7.0830     6.5280     7.3090    17.7890 
  250.7500  -999.2500     2.0090    51.6910     7.0830     6.5280     7.3090    17.7890 
  250.8750  -999.2500     2.0070    51.6910     7.0830     6.5280     7.3070    17.7890 
  251.0000  -999.2500     2.0030    51.6910     7.0830     6.5280     7.3030    17.7890 
  251.1250  -999.2500     1.9970    51.6910     7.0830     6.5280     7.3010    17.7890 
  251.2500  -999.2500     1.9920    51.6910     7.0830     6.5280     7.3010    17.7890 
  251.3750  -999.2500     1.9890    51.6910     7.0830     6.5280     7.3030    17.7890 
  251.5000  -999.2500     1.9900    51.6910     7.0830     6.5280     7.3060    17.7890 
  251.6250  -999.2500     1.9950    51.6910     7.0830     6.5280     7.3080    17.7890 
  251.7500  -999.2500     2.0040    51.6910     7.0830     6.5280     7.3050    17.7890 
  251.8750  -999.2500     2.0140    51.6910     7.0830     6.5280     7.3020    17.7890 
  252.0000  -999.2500     2.0130    51.6910     7.0830     6.5280     7.2990    17.7890 
