~V
VERS. 2.00: Ver 2.00
~W
STRT.M 50.0000:
STOP.M 242.0000:
STEP.M 0.1250:
NULL. -999.2500:
UWI. F11136:
~C
DEPT.M :
GR.API :
RML.OHMM :
RI. :
RXO.OHMM :
CALI.CM :
SP.MV :
DEN.GM/CC :
~A
# ...
  151.2500    76.8410     6.1690     5.2650     5.2340    24.0740   -13.7320     2.2680 
  151.3750    80.4420     6.1180     4.9980     5.6100    24.1050   -13.8840     2.2650 
  151.5000    83.3890     6.4030     4.9880     6.6380    24.0990   -14.0810     2.2640 
  151.6250    82.7800     7.0160     5.3050     6.5470    24.0240   -14.3190     2.2670 
  151.7500    78.2150     7.8690     5.9140     6.7920    23.9800   -14.5240     2.2710 
  151.8750    73.7780     8.9530     6.8180     7.6710    24.0170   -14.7650     2.2740 
  152.0000    70.5510    10.2800     8.0270     9.2950    24.0470   -15.0470     2.2730 
  152.1250    70.0490    11.8460     9.5560    12.8850    24.1040   -15.2510     2.2670 
  152.2500    69.8920    13.5050    11.2300    16.7730    24.1090   -15.4160     2.2580 
  152.3750    68.5450    15.0890    12.8330    18.0390    24.1130   -15.5910     2.2480 
  152.5000    65.5770    16.3760    14.1180    18.3420    24.1220   -15.7190     2.2390 
  152.6250    62.5850    17.0510    14.7770    19.6710    24.1180   -15.7740     2.2310 
  152.7500    60.8750    17.0980    14.8410    20.1620    24.1280   -15.8140     2.2240 
  152.8750    60.6120    16.5630    14.4030    19.5760    24.1450   -15.7810     2.2210 
  153.0000    61.8640    15.5950    13.6420    18.4190    24.1290   -15.7020     2.2210 
  153.1250    65.1650    14.4090    12.7620    16.8740    24.1200   -15.6440     2.2270 
  153.2500    68.4650    13.3430    11.9920    15.3230    24.1150   -15.5440     2.2370 
  153.3750    70.2020    12.6410    11.4980    14.1900    24.0900   -15.4250     2.2490 
  153.5000    69.5680    12.4020    11.3810    13.7810    24.1290   -15.3250     2.2580 
  153.6250    65.2890    12.5970    11.7060    13.9810    24.1910   -15.2050     2.2630 
  153.7500    60.2330    12.9140    12.2460    14.8500    24.2430   -15.1060     2.2630 
  153.8750    57.8510    13.0440    12.6970    16.6460    24.2810   -15.0620     2.2590 
  154.0000    60.5200    12.7160    12.7030    18.3620    24.2790   -15.0270     2.2530 
  154.1250    64.9110    11.7960    11.9980    16.6680    24.2250   -14.9950     2.2470 
  154.2500    66.1380    10.6940    10.9280    13.0770    24.1610   -15.0310     2.2420 
  154.3750    65.4860     9.8350     9.8770    10.1780    24.0840   -15.0570     2.2390 
  154.5000    65.8790     9.5290     9.1330     9.3210    23.9690   -15.0470     2.2370 
  154.6250    66.7050    10.0360     8.9300     9.9590    23.9310   -15.0840     2.2360 
  154.7500    64.6810    11.1860     9.2380    11.8050    23.9640   -15.0870     2.2350 
  154.8750    62.4770    12.7550    10.0110    14.0680    24.0070   -15.0490     2.2370 
  155.0000    64.2640    14.4530    11.1340    15.3340    24.0350   -15.0050     2.2410 
  155.1250    65.5050    15.9530    12.4420    16.8240    23.9980   -14.9260     2.2490 
  155.2500    62.9210    16.9950    13.6450    19.8260    23.9190   -14.7950     2.2560 
  155.3750    60.8120    17.2510    14.4120    21.0920    23.8680   -14.6830     2.2610 
  155.5000    63.1320    16.4460    14.3830    19.0300    23.9060   -14.5730     2.2630 
  155.6250    65.5540    14.5510    13.2980    18.1340    23.9510   -14.4350     2.2640 
  155.7500    64.5710    12.3340    11.6870    18.2120    24.0280   -14.3270     2.2680 
  155.8750    63.7450    10.4830    10.1020    15.5890    24.0080   -14.2320     2.2770 
  156.0000    65.2780     9.5030     8.9980    10.5030    23.9050   -14.1230     2.2850 
  156.1250    65.9970     9.6910     8.7400     9.3730    23.9260   -14.0440     2.2850 
  156.2500    65.5730    10.5810     9.2050    11.5940    24.0050   -14.0100     2.2740 
  156.3750    66.0990    11.7600    10.2260    15.8070    24.0920   -13.9680     2.2560 
  156.5000    66.5420    12.7840    11.3950    18.7080    24.1300   -13.9290     2.2380 
  156.6250    66.2900    12.9940    11.8660    18.5400    24.1600   -13.9300     2.2310 
  156.7500    67.2340    12.2830    11.2390    15.7720    24.0850   -13.9230     2.2370 
  156.8750    69.2210    10.9860     9.7910    11.8570    24.0040   -13.9110     2.2530 
  157.0000    70.7340     8.6550     8.1650     8.8990    23.9290   -13.9480     2.2730 
  157.1250    72.0140     7.3270     6.9130     7.6150    23.9440   -14.0020     2.2860 
  157.2500    74.5820     6.4880     6.1210     7.0750    23.9370   -14.0130     2.2910 
  157.3750    75.7810     6.0990     5.7540     6.8520    23.9510   -14.0380     2.2900 
  157.5000    74.4910     6.0600     5.7170     6.9190    23.9140   -14.0840     2.2890 
  157.6250    71.4110     6.2730     5.9180     7.0640    23.9410   -14.1020     2.2920 
  157.7500    68.2630     6.5620     6.1900     7.3570    23.9630   -14.1420     2.2980 
  157.8750    67.1640     6.8270     6.4400     7.5970    23.9710   -14.1960     2.3010 
  158.0000    68.0870     6.9940     6.5980     7.6880    23.9800   -14.1950     2.2970 
  158.1250    68.8120     6.9930     6.5970     7.6830    23.9740   -14.1710     2.2850 
  158.2500    66.6270     6.8580     6.4700     7.5840    23.9530   -14.1530     2.2680 
  158.3750    64.4390     6.6390     6.2630     7.1940    23.9650   -14.0890     2.2510 
  158.5000    65.4900     6.4060     6.0430     6.5880    23.9910   -14.0130     2.2330 
  158.6250    68.4180     6.2430     5.8900     6.2920    24.0040   -13.9540     2.2200 
  158.7500    69.6580     6.1890     5.8380     6.8460    23.9790   -13.8430     2.2130 
  158.8750    69.0530     6.2610     5.9070     7.5650    23.9820   -13.7220     2.2150 
  159.0000    69.5430     6.4650     6.0990     7.6890    24.0240   -13.6360     2.2210 
  159.1250    71.7170     6.8320     6.4450     7.5360    24.0060   -13.5090     2.2250 
  159.2500    71.9140     7.3330     6.9180     7.9820    23.9660   -13.4040     2.2230 
  159.3750    70.7590     7.9310     7.4820     8.9620    23.9640   -13.3130     2.2210 
  159.5000    69.3460     8.5200     8.0380     9.9880    24.0030   -13.1850     2.2260 
  159.6250    69.0920     8.8130     8.3140    10.7030    23.9930   -13.0570     2.2410 
  159.7500    68.3380     8.5950     8.1080    10.4200    23.9870   -12.9630     2.2570 
  159.8750    67.4550     7.8100     7.3680     9.4500    23.9430   -12.8510     2.2650 
  160.0000    67.4050     6.6580     6.2820     8.0470    23.8760   -12.7470     2.2580 
  160.1250    69.7010     5.4960     5.1850     5.8980    23.8210   -12.7150     2.2300 
  160.2500    75.2030     4.5810     4.3210     4.2390    23.8200   -12.6650     2.1880 
  160.3750    79.0590     3.9900     3.7650     3.5760    23.8670   -12.6470     2.1390 
  160.5000    76.5580     3.7050     3.4960     3.5770    23.8900   -12.7300     2.0920 
  160.6250    72.8010     3.7150     3.5040     3.8980    23.8830   -12.8540     2.0630 
  160.7500    73.1580     3.9460     3.7220     4.3750    23.8890   -13.0080     2.0590 
  160.8750    74.1300     4.4090     4.1590     5.1720    23.8850   -13.2450     2.0840 
  161.0000    71.9480     5.1420     4.8510     6.3420    23.8830   -13.4880     2.1290 
  161.1250    70.9260     6.2750     5.9200     7.7470    23.9160   -13.7280     2.1770 
  161.2500    73.0610     7.8410     7.3980     9.3610    23.9600   -14.0140     2.2100 
  161.3750    74.3290     9.8950     9.3350    13.0370    23.9710   -14.2860     2.2250 
  161.5000    72.3680    12.3990    11.6970    18.6170    23.9720   -14.4960     2.2250 
  161.6250    68.6630    15.1140    14.2590    22.1600    23.9620   -14.6950     2.2200 
  161.7500    65.1270    17.5440    16.5510    23.5210    23.9230   -14.8600     2.2130 
  161.8750    63.3190    19.3320    18.2380    24.1270    23.8490   -14.9610     2.2070 
  162.0000    63.4620    20.3790    19.2250    24.6960    24.0350   -15.0650     2.2020 
  162.1250    64.4390    20.7810    19.6050    24.4480    24.0880   -15.1620     2.2000 
  162.2500    64.7740    20.8690    19.6880    24.1040    24.0100   -15.1940     2.2020 
  162.3750    63.7730    20.7310    19.5570    23.6930    23.6490   -15.2400     2.2040 
