~V
VERS. 2.00: Ver 2.00
~W
STRT.M 62.0000:
STOP.M 277.0000:
STEP.M 0.1250:
NULL. -999.2500:
UWI. F11155:
~C
DEPT.M :
SP.MV :
DEN.GM/CC :
GR.API :
RML.OHMM :
RI. :
RXO.OHMM :
CALI.CM :
~A
# ...
  242.0000   -12.2040     2.2570    70.6630    18.3620    16.7270    15.0340    24.4680 
  242.1250   -12.2920     2.2880    69.0160    19.5250    17.5990    16.3170    24.3650 
  242.2500   -12.3670     2.3340    69.6840    20.9190    18.7950    19.3900    24.3020 
  242.3750   -12.4390     2.3700    68.9830    22.1440    19.9590    22.0280    24.3040 
  242.5000   -12.5150     2.3730    65.2630    22.9440    20.8130    20.8240    24.3280 
  242.6250   -12.5790     2.3440    62.5510    23.2580    21.2200    18.8470    24.3380 
  242.7500   -12.6140     2.3080    62.7530    23.1790    21.1960    18.8130    24.3370 
  242.8750   -12.6310     2.2810    63.0490    22.9590    20.9730    20.1260    24.3360 
  243.0000   -12.6340     2.2640    62.6630    22.6760    20.6610    21.1550    24.3370 
  243.1250   -12.6280     2.2530    62.7540    22.3310    20.2990    21.4150    24.3460 
  243.2500   -12.6210     2.2490    64.6090    21.9070    19.8800    21.0920    24.3750 
  243.3750   -12.6130     2.2500    67.2400    21.4590    19.4400    20.8310    24.4090 
  243.5000   -12.6140     2.2540    67.6140    21.0820    19.0450    20.7260    24.4150 
  243.6250   -12.6340     2.2610    64.7020    20.8560    18.7640    20.3360    24.4050 
  243.7500   -12.6590     2.2700    62.5800    20.8560    18.6800    19.8910    24.3930 
  243.8750   -12.6950     2.2770    62.8600    21.0750    18.7980    19.9870    24.3970 
  244.0000   -12.7460     2.2850    63.9830    21.4920    19.1130    20.6390    24.4350 
  244.1250   -12.8170     2.2930    64.9930    22.0520    19.5850    21.0510    24.4730 
  244.2500   -12.8880     2.2980    64.0660    22.6400    20.1290    21.3180    24.4880 
  244.3750   -12.9240     2.2980    60.1850    23.0790    20.5940    21.8620    24.4890 
  244.5000   -12.9380     2.2940    56.3590    23.2580    20.8600    22.0210    24.4900 
  244.6250   -12.9270     2.2860    56.4510    23.1470    20.8720    21.4160    24.4960 
  244.7500   -12.8940     2.2770    60.4910    22.8010    20.6450    20.7440    24.5150 
  244.8750   -12.8480     2.2690    62.6190    22.3970    20.3240    20.4220    24.5410 
  245.0000   -12.8020     2.2630    62.4300    22.0400    20.0080    20.4510    24.5580 
  245.1250   -12.7380     2.2610    62.6150    21.8090    19.7780    20.5990    24.5650 
  245.2500   -12.6770     2.2630    63.5680    21.7880    19.7180    20.6440    24.5660 
  245.3750   -12.6710     2.2620    64.3860    22.0060    19.8620    20.8850    24.5660 
  245.5000   -12.7240     2.2550    63.1760    22.5570    20.2760    21.3770    24.5720 
  245.6250   -12.8170     2.2430    60.4710    23.5460    21.0480    22.1360    24.5820 
  245.7500   -12.9300     2.2290    56.6050    25.0970    22.3130    22.7080    24.6020 
  245.8750   -13.0370     2.2160    53.2970    26.9110    23.9040    24.3010    24.6170 
  246.0000   -13.1530     2.2120    53.9440    28.4270    25.4290    27.2260    24.6350 
  246.1250   -13.2870     2.2260    58.9190    28.8310    26.1690    29.6790    24.6360 
  246.2500   -13.4220     2.2650    62.5600    27.1990    25.1520    30.4520    24.5790 
  246.3750   -13.5250     2.3140    61.6020    24.2370    22.8060    29.2020    24.4780 
  246.5000   -13.5920     2.3510    59.4860    21.1020    20.0780    24.1370    24.4010 
  246.6250   -13.6600     2.3550    62.1530    18.8760    17.9090    17.3130    24.3850 
  246.7500   -13.7390     2.3190    67.8480    18.3620    17.0330    13.5640    24.3930 
  246.8750   -13.8340     2.2770    68.2550    19.2800    17.3900    14.3720    24.3520 
  247.0000   -13.9420     2.2460    63.2840    21.3050    18.8780    19.7820    24.2920 
  247.1250   -14.0560     2.2260    59.1940    23.9400    21.2230    26.9070    24.1730 
  247.2500   -14.1330     2.2220    59.7060    26.3660    23.8210    28.4540    24.0630 
  247.3750   -14.1660     2.2350    60.9050    27.8000    25.7250    26.0950    24.0800 
  247.5000   -14.1590     2.2630    61.3670    27.8260    26.2910    24.5920    24.2700 
  247.6250   -14.1230     2.3000    61.6970    26.4660    25.3700    26.2010    24.3780 
  247.7500   -14.0640     2.3380    61.4880    23.9430    23.1270    29.0640    24.3340 
  247.8750   -13.9650     2.3650    62.6540    20.9310    20.2990    26.4000    24.2440 
  248.0000   -13.8290     2.3660    67.7240    18.0090    17.4590    19.4580    24.2660 
  248.1250   -13.7210     2.3370    75.0350    15.7780    15.1570    15.0690    24.4130 
  248.2500   -13.6900     2.2990    77.1120    14.8700    13.9290    13.0850    24.4340 
  248.3750   -13.6960     2.2730    74.5270    15.2720    13.7750    12.5880    24.2930 
  248.5000   -13.7390     2.2650    71.6740    16.9570    14.7420    13.7920    24.0060 
  248.6250   -13.8310     2.2670    70.9420    19.7390    16.7980    17.5790    23.8510 
  248.7500   -13.9050     2.2710    72.5350    23.2200    19.7960    23.3910    23.9690 
  248.8750   -13.9920     2.2650    73.7150    26.5720    23.0080    25.0450    23.9850 
  249.0000   -14.1160     2.2500    73.0110    29.2520    25.8290    23.3920    23.7750 
  249.1250   -14.1910     2.2370    70.5330    31.0420    27.8740    23.2700    23.2330 
  249.2500   -14.2010     2.2310    69.1550    32.0270    29.0410    22.5410    22.6900 
  249.3750   -14.2300     2.2220    68.4890    32.6700    29.7400    21.4300    22.2700 
  249.5000   -14.2180     2.2070    66.0720    33.1210    30.1570    21.8140    22.2160 
  249.6250   -14.1360     2.1960    62.8130    33.4000    30.3100    24.4430    22.6510 
  249.7500   -14.0780     2.1950    61.5370    33.6680    30.2500    27.6690    23.2600 
  249.8750   -13.9800     2.2040    61.5730    34.3560    30.3630    29.9190    23.8110 
  250.0000   -13.8370     2.2240    62.0780    35.7730    31.0340    30.4890    24.1620 
  250.1250   -13.7080     2.2630    64.0150    37.7140    32.3350    28.9320    24.3060 
  250.2500   -13.6140     2.3410    64.2330    38.9040    33.5170    28.6000    24.3500 
  250.3750   -13.4490     2.4500    59.7190    37.6960    33.0830    36.1210    24.3950 
  250.5000   -13.2520     2.5580    54.2080    33.4060    30.0910    55.7390    24.4290 
  250.6250   -13.0680     2.6160    54.4130    26.2570    25.2470    53.7640    24.4690 
  250.7500   -12.8830     2.5950    61.3610    21.4540    20.6290    30.4010    24.5220 
  250.8750   -12.7260     2.5450    68.4860    18.1850    17.4860    16.2670    24.6000 
  251.0000   -12.5590     2.5020    71.5460    16.5020    15.8670    13.5910    24.6650 
  251.1250   -12.3530     2.4790    69.3870    15.8990    15.2870    17.6660    24.6870 
  251.2500   -12.0940     2.4810    63.5880    15.5060    14.9090    24.6940    24.6590 
  251.3750   -11.8500     2.4920    57.1830    14.4710    13.9140    24.6720    24.6250 
  251.5000   -11.6420     2.4850    53.3080    12.7200    12.2310    15.6850    24.6360 
  251.6250   -11.4260     2.4430    54.2270    10.8000    10.3850     8.0870    24.6750 
  251.7500   -11.2010     2.3860    56.3890     9.3960     9.0340     6.0740    24.6950 
  251.8750   -11.0110     2.3550    53.5420     8.6110     8.2800     6.2970    24.6850 
  252.0000   -10.8700     2.3630    48.5500     8.3000     7.9810     7.7980    24.6280 
  252.1250   -10.7670     2.3950    48.1240     8.1900     7.8750    10.0350    24.5140 
  252.2500   -10.6950     2.4090    52.5900     7.9860     7.6790     8.3320    24.4550 
  252.3750   -10.6990     2.3850    56.1570     7.6120     7.3190     6.8540    24.4400 
  252.5000   -10.7450     2.3390    58.7470     7.1710     6.8950     5.8740    24.4180 
  252.6250   -10.8030     2.3000    61.7760     6.8070     6.5450     5.5880    24.3690 
  252.7500   -10.9020     2.2810    63.1150     6.6290     6.3740     5.6180    24.3990 
  252.8750   -10.9890     2.2780    61.4960     6.5930     6.3400     5.6430    24.4910 
  253.0000   -11.0310     2.2870    58.9470     6.6300     6.3750     5.6410    24.5610 
  253.1250   -11.0530     2.2970    58.7290     6.6750     6.4190     5.6240    24.5800 
