~V
VERS. 2.00: Ver 2.00
~W
STRT.M 52.0000:
STOP.M 216.0000:
STEP.M 0.1250:
NULL. -999.2500:
UWI. F11106:
~C
DEPT.M :
DEN.GM/CC :
GR.API :
RML.OHMM :
RI. :
RXO.OHMM :
CALI.CM :
SP.MV :
~A
# ...
  119.5000     2.5510    43.1510    26.5410    22.9420    20.9730    24.5620   -10.2730 
  119.6250     2.5560    42.9420    26.3990    22.8980    20.1010    24.6630   -10.3030 
  119.7500     2.5620    42.6130    26.5590    23.0940    19.8430    24.6350   -10.3570 
  119.8750     2.5660    43.7080    26.9150    23.4330    20.4110    24.5420   -10.4260 
  120.0000     2.5670    46.2950    27.2790    23.7530    22.2080    24.4160   -10.4790 
  120.1250     2.5660    46.7080    27.4520    23.8790    21.9740    24.4140   -10.5210 
  120.2500     2.5620    43.0550    27.4410    23.8380    21.2860    24.4500   -10.5670 
  120.3750     2.5590    38.2490    27.3330    23.7450    22.0730    24.4610   -10.6260 
  120.5000     2.5570    36.3320    27.2120    23.6900    23.7490    24.4630   -10.7100 
  120.6250     2.5570    36.3990    27.0400    23.6450    24.2530    24.4640   -10.7900 
  120.7500     2.5560    36.8330    26.7080    23.4650    23.5760    24.4740   -10.8280 
  120.8750     2.5510    40.3450    26.1570    23.0420    22.0900    24.5350   -10.8570 
  121.0000     2.5420    46.0780    25.4230    22.4030    20.0300    24.6980   -10.8980 
  121.1250     2.5280    48.8850    24.6680    21.7380    19.0590    24.8370   -10.9260 
  121.2500     2.5130    48.1220    24.0840    21.2520    18.8390    24.9130   -10.9150 
  121.3750     2.5010    46.5910    23.7620    21.0250    18.8320    24.9290   -10.8820 
  121.5000     2.4940    46.0960    23.6790    21.0240    18.5010    24.9460   -10.8660 
  121.6250     2.4920    45.2610    23.7330    21.1440    18.2200    24.9940   -10.8920 
  121.7500     2.4940    43.5980    23.7810    21.2440    17.7360    25.0020   -10.9080 
  121.8750     2.4970    42.3480    23.7910    21.2840    17.5520    25.0030   -10.9250 
  122.0000     2.5030    42.6390    23.8020    21.3040    18.4460    25.0030   -10.9630 
  122.1250     2.5130    46.1070    23.8550    21.3760    19.5500    25.0030   -11.0390 
  122.2500     2.5270    48.7000    23.9200    21.5060    19.5050    25.0030   -11.1330 
  122.3750     2.5380    46.9240    23.9520    21.6580    19.0110    25.0040   -11.2270 
  122.5000     2.5400    42.8670    23.9310    21.7870    19.5460    25.0090   -11.2910 
  122.6250     2.5270    41.1060    23.8650    21.8440    20.4720    25.0360   -11.3730 
  122.7500     2.5020    41.5300    23.7800    21.8310    20.6780    25.0720   -11.4860 
  122.8750     2.4730    42.8980    23.7030    21.7680    20.2040    25.0930   -11.5660 
  123.0000     2.4470    43.6280    23.6720    21.6980    20.2300    25.1560   -11.6070 
  123.1250     2.4300    43.0390    23.7320    21.6940    20.4570    25.1810   -11.6240 
  123.2500     2.4210    41.8480    23.8580    21.7870    21.6270    25.2440   -11.6710 
  123.3750     2.4180    40.7370    23.9800    21.9420    21.8050    25.3900   -11.7360 
  123.5000     2.4200    39.3930    24.0050    22.0760    20.9380    25.4160   -11.7950 
  123.6250     2.4260    38.7120    23.8590    22.0860    21.5040    25.3650   -11.8270 
  123.7500     2.4320    40.5340    23.5800    21.9540    22.4430    25.3950   -11.8500 
  123.8750     2.4360    42.1960    23.2000    21.7040    21.2960    25.3980   -11.8680 
  124.0000     2.4350    41.4270    22.7590    21.3820    19.7730    25.3910   -11.8860 
  124.1250     2.4310    41.9230    22.3310    21.0560    18.8980    25.3480   -11.9250 
  124.2500     2.4270    44.9820    22.0140    20.8080    18.5310    25.3150   -11.9430 
  124.3750     2.4280    47.1460    21.8800    20.6890    18.3260    25.2960   -11.9380 
  124.5000     2.4350    46.0870    21.9520    20.7200    18.2550    25.2060   -11.9210 
  124.6250     2.4470    43.3840    22.2290    20.9010    18.1460    25.1650   -11.9220 
  124.7500     2.4600    42.5800    22.6300    21.1780    17.8630    25.1220   -11.9600 
  124.8750     2.4720    43.7700    23.1450    21.5600    17.8950    25.0990   -12.0620 
  125.0000     2.4790    44.2520    23.7700    22.0610    18.4190    25.1040   -12.1950 
  125.1250     2.4810    42.4320    24.4420    22.6570    19.8790    25.1530   -12.2950 
  125.2500     2.4780    41.8560    24.9720    23.1930    21.4960    25.1270   -12.3830 
  125.3750     2.4720    44.6740    25.1650    23.4860    22.7370    25.0960   -12.4940 
  125.5000     2.4670    47.7460    24.8920    23.3820    23.3280    25.0680   -12.6640 
  125.6250     2.4650    47.3740    24.1370    22.8110    23.5330    25.1190   -12.7960 
  125.7500     2.4650    45.5350    23.2460    22.0400    21.2150    25.0870   -12.8920 
  125.8750     2.4670    45.2370    22.5370    21.3350    19.7850    25.0280   -12.9830 
  126.0000     2.4690    46.8000    22.2640    20.9290    19.0490    24.9080   -13.0710 
  126.1250     2.4700    47.3690    22.6470    21.0250    19.5280    25.0510   -13.1320 
  126.2500     2.4720    45.6020    23.5020    21.5170    20.3190    25.0460   -13.1780 
  126.3750     2.4750    44.3340    24.5860    22.2640    21.1180    25.0210   -13.2280 
  126.5000     2.4800    44.8680    25.5780    23.0420    22.4000    25.0020   -13.2590 
  126.6250     2.4860    45.1560    26.1310    23.5800    23.1660    24.9770   -13.2900 
  126.7500     2.4910    44.5640    26.2620    23.8310    22.4930    24.9230   -13.2800 
  126.8750     2.4960    44.1850    26.1540    23.8950    22.1830    24.8830   -13.2300 
  127.0000     2.5000    42.8210    26.0640    23.9500    24.1190    24.8440   -13.1790 
  127.1250     2.5040    40.3580    26.1960    24.1420    24.9500    24.8350   -13.1800 
  127.2500     2.5070    39.9710    26.4790    24.4230    24.1850    24.8410   -13.1870 
  127.3750     2.5100    40.8560    26.7290    24.6430    23.6430    24.9040   -13.1440 
  127.5000     2.5110    41.6080    26.7010    24.5950    24.4400    24.9700   -13.0680 
  127.6250     2.5100    43.4180    26.0880    24.0370    25.2370    24.8450   -13.0540 
  127.7500     2.5070    45.9060    24.9730    23.0560    24.2570    24.6580   -13.0920 
  127.8750     2.5000    47.7790    23.5950    21.8430    21.6760    24.5750   -13.1300 
  128.0000     2.4910    48.4900    22.3170    20.6750    19.7370    24.5280   -13.1700 
  128.1250     2.4820    48.7900    21.5990    19.9040    18.8760    24.5150   -13.2400 
  128.2500     2.4750    48.8130    21.5220    19.6280    19.5530    24.6600   -13.3350 
  128.3750     2.4730    48.5970    21.9570    19.8070    21.3480    24.8210   -13.4610 
  128.5000     2.4730    48.7830    22.5980    20.2550    22.7850    24.9300   -13.6030 
  128.6250     2.4740    46.9280    23.0470    20.6690    22.6980    24.9890   -13.6710 
  128.7500     2.4740    42.3930    23.1450    20.8350    21.0290    24.9800   -13.7390 
  128.8750     2.4740    38.5740    22.9470    20.7220    19.8810    24.8900   -13.8440 
  129.0000     2.4750    38.3140    22.6120    20.4020    19.3750    24.8460   -13.9310 
  129.1250     2.4780    39.9000    22.2540    19.9580    19.3750    24.8380   -13.9340 
  129.2500     2.4840    38.9740    21.8480    19.4500    19.8680    24.8380   -13.9090 
  129.3750     2.4900    37.0070    21.3490    18.8950    19.4660    24.8380   -13.9170 
  129.5000     2.4930    38.5490    20.8290    18.3560    18.0470    24.8410   -13.9420 
  129.6250     2.4910    45.0290    20.5270    18.0070    16.9840    24.8630   -13.9560 
  129.7500     2.4860    51.2900    20.5740    17.9410    17.3660    24.9170   -13.9360 
  129.8750     2.4780    52.5160    20.9230    18.1390    18.4140    24.9080   -13.8970 
  130.0000     2.4720    47.4590    21.3470    18.4440    19.2550    24.8140   -13.8370 
  130.1250     2.4700    42.0490    21.4470    18.5470    19.6980    24.7900   -13.7770 
  130.2500     2.4720    42.8670    21.0610    18.2650    20.0280    24.7980   -13.7270 
  130.3750     2.4800    48.3300    20.2530    17.6010    19.3840    24.9330   -13.6350 
  130.5000     2.4900    53.0130    19.2650    16.7370    17.1930    25.0390   -13.5000 
  130.6250     2.4990    53.4000    18.4620    15.9620    14.9870    25.1100   -13.3540 
