~V
VERS. 2.00: Ver 2.00
~W
STRT.M 60.0000:
STOP.M 281.0000:
STEP.M 0.1250:
NULL. -999.2500:
UWI. F11154:
~C
DEPT.M :
DEN.GM/CC :
GR.API :
RML.OHMM :
RI. :
RXO.OHMM :
CALI.CM :
SP.MV :
~A
# ...
  161.2500     2.2100    62.4900    29.8750    27.0420    29.7150    24.3560    -4.3650 
  161.3750     2.2050    60.6480    33.5200    29.9360    31.9390    24.5920    -4.6730 
  161.5000     2.1980    59.2660    37.6420    33.0230    33.1000    24.6870    -5.0580 
  161.6250     2.1950    61.1890    40.2510    35.7570    34.7770    24.6950    -5.4520 
  161.7500     2.1990    63.4320    42.0810    37.8470    36.6490    24.6740    -5.8270 
  161.8750     2.2050    63.4500    43.1610    39.2210    38.6170    24.6310    -6.1700 
  162.0000     2.2100    61.7440    43.6970    39.9990    40.3540    24.5690    -6.4560 
  162.1250     2.2040    60.4220    43.9540    40.3890    41.3580    24.5230    -6.6800 
  162.2500     2.1930    59.6190    44.3090    40.7630    40.4150    24.5020    -6.8950 
  162.3750     2.1800    59.1700    45.1630    41.4810    38.8320    24.4900    -7.1510 
  162.5000     2.1680    58.9070    46.9890    42.9700    39.2290    24.4840    -7.4500 
  162.6250     2.1670    57.9230    50.4020    45.8110    43.2420    24.5130    -7.7880 
  162.7500     2.1750    55.9520    55.1830    49.8980    48.5850    24.5670    -8.1250 
  162.8750     2.1880    53.5310    60.9090    54.9540    54.9710    24.6200    -8.4570 
  163.0000     2.2000    51.4190    66.8100    60.3770    62.1770    24.6480    -8.7750 
  163.1250     2.2030    51.3230    71.6930    65.1700    65.5140    24.6670    -9.0080 
  163.2500     2.1970    52.8350    74.9430    68.6670    63.8680    24.6860    -9.1720 
  163.3750     2.1870    53.8580    76.4260    70.6040    60.5090    24.6980    -9.2430 
  163.5000     2.1800    53.2360    76.3930    71.0710    59.1070    24.6930    -9.2510 
  163.6250     2.1790    53.1920    75.0800    70.1930    59.8940    24.6690    -9.2340 
  163.7500     2.1840    55.1320    72.9660    68.4800    60.2680    24.6340    -9.2200 
  163.8750     2.1920    56.9260    70.1970    66.1340    59.1200    24.5990    -9.2300 
  164.0000     2.2010    57.2480    66.9620    63.3540    56.4870    24.5790    -9.2510 
  164.1250     2.2100    57.5150    63.6400    60.4550    53.4190    24.5690    -9.2710 
  164.2500     2.2190    58.2840    60.6710    57.8220    51.6940    24.5570    -9.2690 
  164.3750     2.2280    58.7040    58.2560    55.6530    50.4210    24.5340    -9.2490 
  164.5000     2.2340    58.4050    56.3590    53.9440    48.9170    24.4950    -9.2200 
  164.6250     2.2310    57.5620    54.7190    52.4860    47.8910    24.4590    -9.1790 
  164.7500     2.2220    56.2310    52.8670    50.8460    46.5310    24.4440    -9.1200 
  164.8750     2.2130    55.6370    50.4630    48.6860    44.6570    24.4400    -9.0600 
  165.0000     2.2060    58.1430    47.3230    45.8070    42.1630    24.4380    -9.0310 
  165.1250     2.2040    62.0450    43.4150    42.1400    38.8960    24.4310    -9.0740 
  165.2500     2.2100    63.4180    39.2390    38.1450    35.1700    24.4120    -9.1900 
  165.3750     2.2230    63.5460    35.3470    34.3300    31.3210    24.3750    -9.3560 
  165.5000     2.2350    65.6360    32.3070    31.2310    28.0230    24.3070    -9.5200 
  165.6250     2.2410    69.7010    30.8020    29.4800    25.4950    24.2260    -9.6370 
  165.7500     2.2400    72.3660    30.7740    29.0640    25.0280    24.1740    -9.7270 
  165.8750     2.2370    72.5670    32.0620    29.8940    27.4340    24.2110    -9.7800 
  166.0000     2.2350    70.3680    34.2370    31.6530    31.8410    24.2810    -9.7760 
  166.1250     2.2330    67.1230    36.6150    33.8010    36.2840    24.3510    -9.6830 
  166.2500     2.2320    64.7320    38.4210    35.5860    38.6430    24.3990    -9.5380 
  166.3750     2.2300    63.0640    39.1930    36.5070    37.9240    24.4270    -9.3520 
  166.5000     2.2270    61.2320    38.7880    36.3340    35.0260    24.4300    -9.1230 
  166.6250     2.2230    60.3650    37.2890    35.0500    32.7020    24.4010    -8.8800 
  166.7500     2.2210    61.7450    35.2620    33.1730    31.6690    24.3340    -8.6410 
  166.8750     2.2200    64.1510    32.9950    30.9940    30.9280    24.2010    -8.3780 
  167.0000     2.2230    65.2620    30.6750    28.7220    29.0430    23.9880    -8.0850 
  167.1250     2.2270    64.7290    28.4730    26.5420    26.2570    23.8260    -7.7500 
  167.2500     2.2290    65.4120    26.5060    24.5840    24.2200    23.8280    -7.3860 
  167.3750     2.2280    67.6250    24.8720    22.9390    22.9160    23.9610    -7.0460 
  167.5000     2.2270    68.4700    23.6160    21.6520    21.9910    24.1630    -6.7610 
  167.6250     2.2290    67.1500    22.7580    20.7530    21.6770    24.2750    -6.5200 
  167.7500     2.2320    66.4210    22.1370    20.1060    21.3520    24.3310    -6.3090 
  167.8750     2.2320    67.0060    21.6580    19.6310    21.1040    24.3640    -6.1720 
  168.0000     2.2300    66.6220    21.2630    19.2670    20.7460    24.3880    -6.1260 
  168.1250     2.2290    64.8030    20.9500    18.9920    20.2210    24.3980    -6.1930 
  168.2500     2.2310    63.6780    20.7070    18.7730    19.7140    24.3970    -6.3270 
  168.3750     2.2360    64.4210    20.5170    18.5850    19.4020    24.3940    -6.4850 
  168.5000     2.2430    66.5280    20.3280    18.3890    19.3500    24.4060    -6.6260 
  168.6250     2.2530    68.6680    20.0480    18.1150    19.3760    24.4340    -6.7360 
  168.7500     2.2620    69.6710    19.6290    17.7280    19.2150    24.4540    -6.8220 
  168.8750     2.2670    69.9470    19.0580    17.2120    18.7450    24.4750    -6.8980 
  169.0000     2.2660    70.2230    18.2520    16.5920    18.0730    24.5060    -6.9930 
  169.1250     2.2650    71.6010    17.3680    15.9340    17.2680    24.5220    -7.1240 
  169.2500     2.2640    73.2320    16.4520    15.3320    16.5060    24.5090    -7.2460 
  169.3750     2.2610    73.9850    15.5110    14.8520    15.8110    24.4720    -7.3310 
  169.5000     2.2580    74.2440    15.1340    14.5260    15.2420    24.4450    -7.4260 
  169.6250     2.2580    75.1870    15.0700    14.3810    15.1670    24.4370    -7.5300 
  169.7500     2.2590    75.1880    15.1200    14.3580    15.3410    24.4310    -7.6000 
  169.8750     2.2570    73.0570    15.2460    14.4170    15.5290    24.4200    -7.5920 
  170.0000     2.2500    70.7140    15.4190    14.5180    15.6120    24.4010    -7.5110 
  170.1250     2.2450    70.1140    15.6200    14.6240    15.5500    24.3750    -7.3740 
  170.2500     2.2420    70.4270    15.8120    14.7030    15.4960    24.3620    -7.2030 
  170.3750     2.2390    70.8630    15.9650    14.7360    15.5330    24.3510    -7.0370 
  170.5000     2.2340    71.2680    16.0650    14.7250    15.7090    24.3380    -6.9070 
  170.6250     2.2300    70.4190    16.1400    14.7050    15.7770    24.3250    -6.8340 
  170.7500     2.2290    69.2290    16.2820    14.7500    15.6360    24.2990    -6.7880 
  170.8750     2.2300    69.3010    16.5800    14.9280    15.4820    24.2290    -6.8110 
  171.0000     2.2310    69.3300    17.0820    15.2820    15.7140    24.1080    -6.9010 
  171.1250     2.2300    68.0290    17.7670    15.8140    16.7610    23.9730    -7.0170 
  171.2500     2.2320    66.6900    18.4690    16.4040    18.1190    23.9220    -7.1510 
  171.3750     2.2350    67.2940    19.0370    16.9290    19.2060    23.9800    -7.3090 
  171.5000     2.2360    69.6700    19.3630    17.2820    19.5930    24.0790    -7.4260 
  171.6250     2.2370    72.4360    19.3930    17.3790    19.4090    24.1240    -7.4920 
  171.7500     2.2370    73.4890    19.2630    17.3060    19.1160    24.2060    -7.5910 
  171.8750     2.2360    71.8500    19.0860    17.1580    18.7870    24.2810    -7.7220 
  172.0000     2.2350    69.1850    18.9310    17.0120    18.5220    24.3040    -7.8530 
  172.1250     2.2390    68.0970    18.8140    16.8990    18.5370    24.3070    -7.9310 
  172.2500     2.2460    68.1460    18.6920    16.7910    18.7760    24.3160    -7.9720 
  172.3750     2.2520    69.0610    18.5250    16.6510    18.9540    24.3330    -7.9680 
