~V
VERS. 2.00: Ver 2.00
~W
STRT.M 50.0000:
STOP.M 253.0000:
STEP.M 0.1250:
NULL. -999.2500:
UWI. F11132:
~C
DEPT.M :
DEN.GM/CC :
GR.API :
RML.OHMM :
RI. :
RXO.OHMM :
CALI.CM :
SP.MV :
~A
# ...
  185.0000     2.2320    55.1360   107.7760    99.5030    84.2400    25.1380   -36.4660 
  185.1250     2.2310    52.3170   100.8070    93.5040    82.5650    25.1380   -36.6680 
  185.2500     2.2280    50.6030    96.5080    90.3390    83.2530    25.1380   -36.9120 
  185.3750     2.2300    50.6820    93.4910    88.6170    79.3500    25.1380   -37.1520 
  185.5000     2.2400    51.1710    90.9090    87.3920    72.8510    25.1450   -37.3830 
  185.6250     2.2550    51.9370    88.2070    85.9350    67.3610    25.1660   -37.6470 
  185.7500     2.2690    53.1510    85.0440    83.8090    69.1090    25.1900   -37.9540 
  185.8750     2.2780    54.1000    81.2330    80.7810    70.1250    25.1860   -38.2330 
  186.0000     2.2800    53.5830    76.9210    76.9550    67.5240    25.1330   -38.5250 
  186.1250     2.2820    52.2270    72.9380    73.0460    57.7710    25.0550   -38.8790 
  186.2500     2.2890    52.7420    70.3620    70.1750    50.4900    25.0120   -39.1870 
  186.3750     2.3010    54.5830    69.9480    69.1510    48.3620    25.0990   -39.4780 
  186.5000     2.3060    55.6930    71.9310    70.3070    51.1600    25.2500   -39.8260 
  186.6250     2.3020    53.8620    76.3890    73.8260    61.2720    25.3450   -40.2150 
  186.7500     2.2970    51.6790    82.5080    78.9860    71.5130    25.3520   -40.5370 
  186.8750     2.2990    52.4680    90.1320    85.5890    80.2890    25.3360   -40.8040 
  187.0000     2.3010    54.8920    99.7430    93.9540    77.6880    25.3400   -41.0660 
  187.1250     2.2960    53.4930   113.4680   106.0140    78.8540    25.3320   -41.2690 
  187.2500     2.2860    49.7890   132.6830   123.2160    93.0210    25.3160   -41.4080 
  187.3750     2.2700    47.2070   158.3220   146.3920   121.9530    25.3140   -41.4960 
  187.5000     2.2510    45.1240   189.2250   174.1280   147.2310    25.3440   -41.5240 
  187.6250     2.2300    41.1590   219.5240   200.8060   162.7570    25.3690   -41.4980 
  187.7500     2.2160    38.7520   240.1510   218.9260   171.9150    25.3770   -41.4480 
  187.8750     2.2140    40.7280   245.8040   224.2580   167.5510    25.3670   -41.3930 
  188.0000     2.2180    44.5720   238.1090   217.9120   151.5420    25.3560   -41.3360 
  188.1250     2.2210    47.0000   222.9630   204.5050   139.4260    25.3510   -41.2410 
  188.2500     2.2190    47.6840   207.3410   190.3050   131.1780    25.3380   -41.1870 
  188.3750     2.2120    47.3080   194.2030   178.1220   124.8320    25.3130   -41.2010 
  188.5000     2.2050    46.6860   185.3610   169.7860   114.7410    25.3040   -41.2140 
  188.6250     2.2000    47.2880   182.6240   167.3040   105.3420    25.3350   -41.1630 
  188.7500     2.2000    47.7620   185.1540   170.1890   108.1680    25.3890   -41.1450 
  188.8750     2.2030    46.5850   192.4080   178.1380   118.0460    25.4140   -41.1820 
  189.0000     2.2020    45.1360   203.0840   190.1060   118.3510    25.4020   -41.1600 
  189.1250     2.2000    44.9830   213.2470   202.8920   130.4430    25.3720   -41.1220 
  189.2500     2.1980    45.0760   215.1580   209.5170   143.7050    25.3580   -41.0940 
  189.3750     2.2000    44.9310   201.0640   202.3130   147.1490    25.3530   -40.9960 
  189.5000     2.2000    45.7980   170.4480   178.2700   142.5190    25.3510   -40.8440 
  189.6250     2.2010    48.2840   133.8310   143.7150   133.7250    25.3450   -40.7040 
  189.7500     2.2050    50.2090   103.8790   112.2510   109.8770    25.3270   -40.5730 
  189.8750     2.2140    51.9400    84.4060    90.0040    73.4850    25.2970   -40.4370 
  190.0000     2.2300    54.0750    75.2390    78.2790    48.5760    25.2570   -40.3260 
  190.1250     2.2480    55.7750    76.2620    77.4510    53.0290    25.1990   -40.2650 
  190.2500     2.2630    55.8090    84.5300    84.4270    70.8020    25.1640   -40.2380 
  190.3750     2.2670    53.0240    98.6310    97.8230    91.2340    25.1840   -40.2380 
  190.5000     2.2620    48.3850   116.2520   115.3850   104.9000    25.2680   -40.2600 
  190.6250     2.2550    44.8810   133.1500   132.8470   110.3190    25.4110   -40.3040 
  190.7500     2.2520    44.5710   145.9710   146.4200   104.3870    25.5710   -40.3640 
  190.8750     2.2530    46.6150   154.6990   155.6980   107.2800    25.6840   -40.4010 
  191.0000     2.2480    49.5020   161.2190   162.3280   118.1630    25.6880   -40.4130 
  191.1250     2.2330    51.7100   166.5120   167.3460   117.7160    25.6580   -40.4280 
  191.2500     2.2130    51.9790   169.8570   170.3730   113.8950    25.6450   -40.4260 
  191.3750     2.2010    49.7090   169.8490   170.1890   113.5640    25.6560   -40.3910 
  191.5000     2.1980    46.3760   165.8120   166.1290   110.4730    25.6950   -40.3650 
  191.6250     2.2030    44.9760   157.9800   158.3210   106.1660    25.7290   -40.3900 
  191.7500     2.2160    45.4520   148.5510   148.9390   100.9780    25.7240   -40.4020 
  191.8750     2.2360    47.3480   138.8320   139.3540   103.4680    25.6400   -40.4100 
  192.0000     2.2560    49.8270   129.7760   130.5220   101.6090    25.5380   -40.5000 
  192.1250     2.2670    50.7310   122.2920   123.3170    91.1170    25.4960   -40.6300 
  192.2500     2.2610    50.4190   116.2530   117.6030    82.0910    25.4840   -40.7380 
  192.3750     2.2470    49.6350   111.2620   113.0030    80.1420    25.4620   -40.9250 
  192.5000     2.2400    48.6370   106.8520   109.0350    82.4050    25.4130   -41.1840 
  192.6250     2.2460    47.3040   102.9360   105.5350    83.0300    25.3430   -41.4390 
  192.7500     2.2600    45.6200    99.8200   102.7200    82.9370    25.2620   -41.6760 
  192.8750     2.2730    44.9920    98.2020   101.2490    77.2390    25.1570   -41.9500 
  193.0000     2.2810    46.1350    98.8500   101.9600    71.2510    25.0540   -42.2410 
  193.1250     2.2840    48.1250   102.7240   105.9750    72.6740    24.9540   -42.5040 
  193.2500     2.2850    47.6110   109.1430   112.6570    81.5170    24.8830   -42.7760 
  193.3750     2.2810    43.9600   117.2010   120.9760    95.6220    24.8380   -43.0470 
  193.5000     2.2690    40.9200   125.4550   129.2910   106.4290    24.8050   -43.3040 
  193.6250     2.2530    42.0830   131.9960   135.4910   109.5590    24.7460   -43.5300 
  193.7500     2.2390    44.6480   136.5030   139.3010   103.6690    24.6410   -43.7350 
  193.8750     2.2320    46.6900   139.8990   141.7120    96.7470    24.4800   -43.9260 
  194.0000     2.2280    47.2330   143.7900   144.4070    95.0970    24.2880   -44.0370 
  194.1250     2.2270    46.3660   150.2200   149.4150    98.1930    24.3130   -44.0130 
  194.2500     2.2300    44.5120   160.0970   157.5980   104.2060    24.5020   -43.9130 
  194.3750     2.2420    41.8530   174.2590   169.7290   113.5530    24.8510   -43.6610 
  194.5000     2.2560    40.3360   193.3680   186.3770   124.7830    25.2470   -43.1840 
  194.6250     2.2610    41.3320   218.9950   208.7260   127.3560    25.4310   -42.4790 
  194.7500     2.2550    41.8410   250.2960   235.6510   134.8560    25.4810   -41.6400 
  194.8750     2.2410    40.1570   285.4040   265.2390   151.8330    25.4830   -40.5900 
  195.0000     2.2220    39.4200   319.0850   293.2150   162.5180    25.4830   -39.3640 
  195.1250     2.1980    42.6800   340.8490   311.7660   160.6010    25.4860   -38.1130 
  195.2500     2.1780    44.8670   347.1070   318.2520   154.3900    25.5090   -36.7940 
  195.3750     2.1680    43.8760   340.5820   314.0520   152.7770    25.5720   -35.4350 
  195.5000     2.1650    42.2240   329.2970   304.6340   149.5380    25.6500   -34.1460 
  195.6250     2.1690    41.5620   323.7480   298.5790   144.3320    25.6510   -33.0190 
  195.7500     2.1860    40.6130   329.3440   301.8590   148.1360    25.5800   -31.9670 
  195.8750     2.2220    39.3920   349.1000   318.0480   164.2410    25.4370   -30.9850 
  196.0000     2.2710    39.2900   385.6260   349.8610   183.1480    25.1680   -30.1000 
  196.1250     2.3440    38.9980   445.0530   401.6660   232.8610    24.8730   -29.2930 
