~V
VERS. 2.00: Ver 2.00
~W
STRT.M 60.0000:
STOP.M 281.0000:
STEP.M 0.1250:
NULL. -999.2500:
UWI. F11154:
~C
DEPT.M :
DEN.GM/CC :
GR.API :
RML.OHMM :
RI. :
RXO.OHMM :
CALI.CM :
SP.MV :
~A
# ...
  262.5000     2.5270    52.2260    14.0200    11.9250    11.6310    24.0480   -10.1050 
  262.6250     2.5240    53.2360    13.9800    11.8760    11.7560    24.0060   -10.1340 
  262.7500     2.5200    52.8800    13.9340    11.8290    12.6170    23.8690   -10.2120 
  262.8750     2.5150    51.3270    13.9190    11.8060    14.2230    23.6370   -10.3450 
  263.0000     2.5090    49.5020    13.9600    11.8250    16.3860    23.4070   -10.5200 
  263.1250     2.5010    48.6870    14.0510    11.8860    18.4500    23.3350   -10.7110 
  263.2500     2.4880    48.3080    14.1240    11.9420    19.6470    23.3430   -10.8560 
  263.3750     2.4720    48.5290    14.1100    11.9410    19.8620    23.4050   -10.9510 
  263.5000     2.4660    49.8420    13.9580    11.8340    19.2100    23.5700   -10.9900 
  263.6250     2.4760    51.1200    13.6450    11.5820    17.2630    23.7790   -11.0000 
  263.7500     2.4870    50.8590    13.2440    11.2340    14.6610    23.9090   -11.0450 
  263.8750     2.4890    50.4800    12.8100    10.8470    12.4980    23.9030   -11.1600 
  264.0000     2.4930    50.8260    12.3890    10.4780    10.6470    23.7430   -11.2350 
  264.1250     2.5020    50.0640    11.9850    10.1660     8.5810    23.3020   -11.1350 
  264.2500     2.5090    47.6980    11.5520     9.8960     7.5570    22.5140   -10.8780 
  264.3750     2.5110    45.1180    11.0680     9.6440     6.9270    21.3870   -10.5650 
  264.5000     2.5130    43.4870    10.5880     9.3890     6.5420    20.4280   -10.3190 
  264.6250     2.5100    43.7880    10.1080     9.1310     6.4720    20.5070   -10.1700 
  264.7500     2.4960    45.4960     9.7220     8.8980     6.6400    21.2760    -9.9650 
  264.8750     2.4770    47.7660     9.4830     8.7230     6.9350    22.2760    -9.7060 
  265.0000     2.4620    48.9620     9.3910     8.6270     7.3520    23.2150    -9.5260 
  265.1250     2.4550    48.8340     9.3990     8.6250     7.7750    23.8680    -9.5270 
  265.2500     2.4530    49.1590     9.4670     8.6820     8.0520    24.2040    -9.6350 
  265.3750     2.4540    49.5860     9.5620     8.7660     8.1130    24.3510    -9.6890 
  265.5000     2.4590    49.5310     9.6490     8.8430     7.8410    24.4520    -9.6050 
  265.6250     2.4720    49.1160     9.7020     8.8800     7.4430    24.7160    -9.5320 
  265.7500     2.4870    48.8890     9.7160     8.8710     7.2140    25.0480    -9.5530 
  265.8750     2.5040    48.2230     9.6910     8.8160     7.2150    25.1870    -9.5840 
  266.0000     2.5200    46.8770     9.6290     8.7240     7.3900    24.9730    -9.5380 
  266.1250     2.5320    46.3350     9.5320     8.6070     7.5280    24.4780    -9.4480 
  266.2500     2.5330    46.4980     9.4140     8.4890     7.5590    24.1280    -9.4250 
  266.3750     2.5240    46.7270     9.2950     8.3850     7.4900    24.0910    -9.5120 
  266.5000     2.5090    47.6900     9.2000     8.3050     7.3950    24.3970    -9.6780 
  266.6250     2.4940    49.2790     9.1520     8.2510     7.3250    24.8340    -9.8140 
  266.7500     2.4830    49.2180     9.1390     8.2110     7.2430    25.0560    -9.9470 
  266.8750     2.4770    47.3160     9.1310     8.1740     7.2120    24.8990   -10.0750 
  267.0000     2.4760    46.2550     9.1120     8.1320     7.2040    24.4820   -10.1850 
  267.1250     2.4780    48.1600     9.0780     8.0890     7.1460    24.2220   -10.3010 
  267.2500     2.4790    51.2660     9.0430     8.0620     7.0580    24.2430   -10.4350 
  267.3750     2.4750    53.4850     9.0360     8.0680     7.0780    24.3900   -10.6010 
  267.5000     2.4680    54.1470     9.0760     8.1120     7.5630    24.4820   -10.7400 
  267.6250     2.4610    52.9140     9.1440     8.1820     9.3130    24.5120   -10.7970 
  267.7500     2.4630    50.7270     9.2340     8.2450    11.8870    24.4840   -10.8070 
  267.8750     2.4810    49.9250     9.3270     8.2800    14.5340    24.4590   -10.8640 
  268.0000     2.5110    51.7230     9.4180     8.2850    15.9450    24.3960   -10.9420 
  268.1250     2.5250    54.1210     9.5390     8.2790    13.7100    24.3930   -10.9290 
  268.2500     2.5080    54.4030     9.6660     8.2970     9.1980    24.3890   -10.8590 
  268.3750     2.4770    53.3520     9.8220     8.3540     7.3380    24.4080   -10.7840 
  268.5000     2.4570    52.4660     9.9450     8.4430     6.9120    24.4340   -10.7280 
  268.6250     2.4550    51.7450    10.0350     8.5280     6.7610    24.5720   -10.6880 
  268.7500     2.4550    51.2200    10.0510     8.5680     6.5460    24.9770   -10.7280 
  268.8750     2.4530    50.7060     9.9670     8.5390     6.3450    25.5440   -10.7950 
  269.0000     2.4470    50.0240     9.7940     8.4430     6.2640    26.0590   -10.8870 
  269.1250     2.4400    49.7120     9.5800     8.3040     6.3490    26.4280   -10.9920 
  269.2500     2.4360    50.7230     9.3830     8.1640     6.4810    26.5820   -11.0700 
  269.3750     2.4320    53.0250     9.2360     8.0430     6.5820    26.6820   -11.0840 
  269.5000     2.4250    54.6240     9.1500     7.9490     6.6540    26.9530   -11.1740 
  269.6250     2.4210    54.6240     9.1250     7.8820     6.6890    27.1290   -11.3320 
  269.7500     2.4220    54.6240     9.1290     7.8320     6.7540    26.8790   -11.3960 
  269.8750     2.4230    54.6240     9.1330     7.7960     6.8410    26.2600   -11.4190 
  270.0000     2.4150    54.6240     9.1220     7.7740     6.9240    25.6510   -11.4480 
  270.1250     2.4020    54.6240     9.0890     7.7640     7.0300    25.5350   -11.5600 
  270.2500     2.4070    54.6240     9.0550     7.7570     7.1810    25.6950   -11.6890 
  270.3750     2.4390    54.6240     9.0340     7.7510     7.3420    25.6170   -11.8330 
  270.5000     2.4840    54.6240     9.0340     7.7440     7.3610    25.2860   -11.9000 
  270.6250     2.5090    54.6240     9.0570     7.7420     7.2640    25.0170   -11.8250 
  270.7500     2.5060    54.6240     9.1000     7.7570     7.4150    24.8460   -11.6590 
  270.8750     2.4930    54.6240     9.1730     7.7990     7.8880    24.6740   -11.4190 
  271.0000     2.4860    54.6240     9.2900     7.8760     8.8470    24.4090   -11.1860 
  271.1250     2.4940    54.6240     9.4680     8.0000    10.7460    24.1330   -10.9320 
  271.2500     2.5120    54.6240     9.6870     8.1570    13.4210    24.2600   -10.6820 
  271.3750     2.5340    54.6240     9.9130     8.3340    16.5240    24.7350   -10.4270 
  271.5000     2.5470    54.6240    10.1140     8.5160    18.9330    25.0650   -10.1480 
  271.6250     2.5450    54.6240    10.2660     8.6800    19.3740    24.9630    -9.8930 
  271.7500     2.5300    54.6240    10.3890     8.8180    17.8510    24.5640    -9.6510 
  271.8750     2.5080    54.6240    10.5050     8.9260    15.1130    24.2290    -9.4720 
  272.0000     2.4810    54.6240    10.6130     9.0030    12.1550    24.1240    -9.3550 
  272.1250     2.4590    54.6240    10.6780     9.0360    10.5590    24.1150    -9.4430 
  272.2500     2.4450    54.6240    10.6590     9.0180     9.9460    24.0670    -9.5130 
  272.3750     2.4420    54.6240    10.5360     8.9400     9.4550    24.0090    -9.5330 
  272.5000     2.4460    54.6240    10.3300     8.8050     8.5590    23.9910    -9.6050 
  272.6250     2.4550    54.6240    10.1000     8.6260     7.5850    23.9850    -9.8450 
  272.7500     2.4660    54.6240     9.9120     8.4370     6.9970    23.9840   -10.1700 
  272.8750     2.4740    54.6240     9.7870     8.2610     6.8710    24.1540   -10.4350 
  273.0000     2.4770    54.6240     9.7120     8.1120     6.8630    24.5780   -10.6430 
  273.1250     2.4790    54.6240     9.6450     8.0020     6.6090    24.9100   -10.6780 
  273.2500     2.4810    54.6240     9.5530     7.9240     6.3010    25.0970   -10.7010 
  273.3750     2.4820    54.6240     9.4340     7.8750     5.9890    25.0060   -10.8240 
  273.5000     2.4770    54.6240     9.3210     7.8560     5.8000    24.6110   -10.9900 
  273.6250     2.4650    54.6240     9.2610     7.8680     5.7950    24.0100   -11.0500 
