~V
VERS. 2.00: Ver 2.00
~W
STRT.M 63.0000:
STOP.M 246.0000:
STEP.M 0.1250:
NULL. -999.2500:
UWI. F11137:
~C
DEPT.M :
DEN.GM/CC :
GR.API :
RML.OHMM :
RI. :
RXO.OHMM :
CALI.CM :
SP.MV :
~A
# ...
  209.2500     2.3350    91.8210    21.9180    21.7020    22.7420    24.6310    -5.8290 
  209.3750     2.3310    90.6960    21.3330    21.2530    20.9870    24.6510    -5.8980 
  209.5000     2.3270    84.6730    20.7220    20.7660    20.3950    24.6600    -5.9820 
  209.6250     2.3290    79.6090    20.1040    20.2540    20.3540    24.6720    -6.1430 
  209.7500     2.3350    78.0290    19.4720    19.7130    20.4660    24.6870    -6.3170 
  209.8750     2.3390    78.5550    18.8280    19.1010    20.3150    24.6660    -6.4500 
  210.0000     2.3390    79.4620    18.2530    18.4510    19.5030    24.5500    -6.4790 
  210.1250     2.3370    79.7580    17.9000    17.9030    18.0890    24.4750    -6.4670 
  210.2500     2.3320    78.8110    17.9600    17.6740    17.3230    24.4340    -6.4700 
  210.3750     2.3290    76.5800    18.6820    18.0660    17.4190    24.4850    -6.4930 
  210.5000     2.3230    72.8840    19.9760    19.0840    18.9130    24.5170    -6.5860 
  210.6250     2.3140    68.1440    21.6810    20.6580    22.5250    24.5420    -6.7570 
  210.7500     2.3030    64.7480    23.5180    22.5520    27.6720    24.5710    -6.9830 
  210.8750     2.2900    65.0430    25.1310    24.3370    30.7020    24.5780    -7.2420 
  211.0000     2.2780    67.3650    26.4240    25.7310    30.2750    24.5590    -7.5690 
  211.1250     2.2650    70.8840    27.5620    26.8080    28.6960    24.5280    -7.8910 
  211.2500     2.2570    74.7800    28.8860    27.9110    28.0550    24.4890    -8.1970 
  211.3750     2.2650    75.4800    30.8640    29.5850    28.5680    24.4370    -8.4520 
  211.5000     2.2960    71.4250    33.5250    32.0150    32.6110    24.3900    -8.7220 
  211.6250     2.3440    64.9060    36.6360    35.0960    41.5370    24.2940    -9.0290 
  211.7500     2.3880    60.7810    39.6800    38.3540    52.0740    24.1270    -9.3630 
  211.8750     2.4010    60.4310    41.7980    40.8510    51.5220    24.1280    -9.6000 
  212.0000     2.3790    61.2560    42.6300    42.0090    47.8980    24.2870    -9.7320 
  212.1250     2.3370    63.2740    42.2090    41.7310    44.4720    24.3800    -9.8930 
  212.2500     2.2990    66.9470    40.9780    40.4470    41.4720    24.4050   -10.1380 
  212.3750     2.2870    71.3760    39.6540    38.9410    38.9500    24.4160   -10.4450 
  212.5000     2.2960    74.2940    38.8800    37.9420    36.8820    24.4060   -10.6080 
  212.6250     2.3120    74.5480    39.0080    37.8270    36.7880    24.3700   -10.6160 
  212.7500     2.3220    73.1930    40.2580    38.8390    40.7430    24.3330   -10.5410 
  212.8750     2.3190    72.4690    43.0750    41.4370    47.0680    24.2690   -10.4880 
  213.0000     2.3040    75.0160    47.4790    45.7580    48.7830    24.2790   -10.4370 
  213.1250     2.2810    78.2870    53.4540    52.2890    54.2170    24.3430   -10.3180 
  213.2500     2.2540    77.5350    60.0040    60.9740    68.1830    24.4770   -10.0410 
  213.3750     2.2340    73.1220    63.3790    68.8870    77.5410    24.4840    -9.6030 
  213.5000     2.2400    68.6280    60.1800    69.9090    87.7600    24.4170    -9.1490 
  213.6250     2.2830    64.2730    49.8830    60.0610   107.2890    24.4070    -8.6690 
  213.7500     2.3590    60.1390    35.7780    42.9270   109.6410    24.4270    -8.2160 
  213.8750     2.4420    57.4850    23.3160    27.3960    51.0970    24.4230    -7.8340 
  214.0000     2.4990    56.6420    14.8900    17.1110    20.0490    24.3100    -7.5010 
  214.1250     2.5180    56.1980    10.0970    11.2790     9.3960    24.2550    -7.1730 
  214.2500     2.5030    56.4980     7.7270     8.2720     7.0270    24.3420    -6.9580 
  214.3750     2.4720    59.1880     6.9030     7.0290     7.6940    24.5350    -6.9310 
  214.5000     2.4450    63.6480     6.7390     6.6240     8.0190    24.7470    -6.9860 
  214.6250     2.4250    69.5640     6.8800     6.7110     8.1680    24.8320    -7.0770 
  214.7500     2.4120    76.8820     7.0820     7.0010     8.2420    24.8230    -7.1290 
  214.8750     2.4060    87.0230     7.1900     7.2580     8.8980    24.7870    -7.1170 
  215.0000     2.4050    96.1690     7.1990     7.4010     9.0290    24.7590    -7.0770 
  215.1250     2.4080    98.5890     7.1700     7.4590     8.3030    24.7750    -7.1290 
  215.2500     2.4090    91.6980     7.1760     7.5000     7.9520    24.7760    -7.2020 
  215.3750     2.4030    79.0360     7.2790     7.5910     8.6410    24.7970    -7.3440 
  215.5000     2.3920    66.9430     7.4580     7.7390     9.3120    24.8150    -7.6050 
  215.6250     2.3820    58.3330     7.6600     7.9120     9.7720    24.8290    -7.9490 
  215.7500     2.3810    53.6050     7.8110     8.0450    10.3040    24.8230    -8.3740 
  215.8750     2.3910    51.7010     7.8160     8.0310    10.2010    24.8070    -8.8460 
  216.0000     2.4060    50.9890     7.6730     7.8500     9.5810    24.8000    -9.2840 
  216.1250     2.4200    50.4330     7.4130     7.5270     8.8570    24.8190    -9.5930 
  216.2500     2.4280    49.2380     7.1030     7.1300     8.1660    24.8310    -9.7660 
  216.3750     2.4290    49.3880     6.8370     6.7590     7.6400    24.8400    -9.7290 
  216.5000     2.4280    52.6740     6.6750     6.4890     7.5890    24.8620    -9.5280 
  216.6250     2.4290    56.1680     6.6410     6.3590     7.7170    24.8200    -9.2440 
  216.7500     2.4320    55.2510     6.7170     6.3660     7.7150    24.7640    -8.9170 
  216.8750     2.4370    50.1950     6.8490     6.4680     8.1870    24.7630    -8.5340 
  217.0000     2.4410    47.5870     6.9520     6.5650     8.4170    24.8030    -8.1760 
  217.1250     2.4390    48.0500     6.9870     6.5960     8.4210    24.8250    -7.9550 
  217.2500     2.4300    49.8840     6.9580     6.5490     8.3230    24.8230    -7.8740 
  217.3750     2.4200    51.7150     6.9250     6.4750     7.7810    24.7900    -7.8890 
  217.5000     2.4160    52.6390     6.9550     6.4580     7.3830    24.7550    -7.9810 
  217.6250     2.4230    52.1310     7.0740     6.5370     7.3330    24.6990    -8.1590 
  217.7500     2.4400    51.2060     7.2560     6.7030     7.7610    24.6620    -8.3800 
  217.8750     2.4570    51.7550     7.4230     6.8860     8.5540    24.6680    -8.6460 
  218.0000     2.4640    51.4890     7.4950     6.9900     9.2250    24.6730    -8.8320 
  218.1250     2.4600    50.3580     7.4440     6.9640     9.0060    24.7170    -8.8720 
  218.2500     2.4490    52.7000     7.3000     6.8210     8.2810    24.8290    -8.8260 
  218.3750     2.4380    58.9090     7.1410     6.6400     8.1910    24.9280    -8.7660 
  218.5000     2.4330    62.5480     7.0460     6.5080     8.2910    25.0010    -8.7010 
  218.6250     2.4350    61.1570     7.0470     6.4550     8.1320    25.0480    -8.6170 
  218.7500     2.4410    57.4100     7.1470     6.4900     7.9310    25.0750    -8.5820 
  218.8750     2.4480    54.7130     7.3380     6.6300     8.4000    25.0060    -8.5620 
  219.0000     2.4500    53.2710     7.5790     6.8460     8.7360    24.9310    -8.5790 
  219.1250     2.4450    54.3740     7.8320     7.1040     8.0270    24.9090    -8.6730 
  219.2500     2.4320    57.9210     8.0500     7.3560     7.8600    24.9430    -8.7770 
  219.3750     2.4150    61.5220     8.1600     7.5240     8.8020    24.9440    -8.8640 
  219.5000     2.4000    64.3140     8.1470     7.5660     9.4390    24.9060    -8.8750 
  219.6250     2.3920    68.9260     8.0370     7.4820     8.7590    24.8050    -8.7940 
  219.7500     2.3960    76.5910     7.8920     7.3210     8.1070    24.7180    -8.5270 
  219.8750     2.4100    85.7460     7.7930     7.1540     8.6610    24.6940    -8.1530 
  220.0000     2.4270    93.3340     7.7700     7.0370     9.2740    24.7140    -7.7910 
  220.1250     2.4400    97.2200     7.8100     6.9960     9.3810    24.7260    -7.4480 
  220.2500     2.4460    98.3190     7.8810     7.0260     9.3140    24.7310    -7.1230 
  220.3750     2.4480    99.1820     7.9550     7.0980     9.3840    24.7030    -6.8760 
