~V
VERS. 2.00: Ver 2.00
~W
STRT.M 40.0000:
STOP.M 232.0000:
STEP.M 0.1250:
NULL. -999.2500:
UWI. F11121:
~C
DEPT.M :
SP.MV :
DEN.GM/CC :
GR.API :
RML.OHMM :
RI. :
RXO.OHMM :
CALI.CM :
~A
# ...
  152.5000     5.2140     1.8640    86.4080     4.2850     4.1680     3.6830    26.9170 
  152.6250     5.1750     1.8380    87.7670     4.4880     4.3220     3.6100    26.8690 
  152.7500     5.0450     1.8410    89.4400     4.9850     4.7470     3.5840    26.5500 
  152.8750     4.8050     1.8890    90.3430     5.8680     5.5140     3.6220    25.9430 
  153.0000     4.4680     1.9840    90.1240     7.1810     6.6600     3.7970    25.1700 
  153.1250     4.0410     2.0960    91.5760     8.8690     8.1670     4.7250    24.7160 
  153.2500     3.5450     2.1740    91.8660    10.5580     9.7280     7.0200    24.6390 
  153.3750     2.9990     2.2010    87.8480    11.8560    10.9870     8.2610    24.6740 
  153.5000     2.4400     2.1960    80.5050    12.4740    11.6420    10.0360    24.6500 
  153.6250     1.9110     2.1860    77.0620    12.3360    11.5540    10.4750    24.6010 
  153.7500     1.4410     2.1850    77.7440    11.8450    11.0720    10.4690    24.5740 
  153.8750     1.0530     2.1920    77.5090    11.2490    10.4360     9.9120    24.5790 
  154.0000     0.7420     2.2020    75.2150    10.6640     9.7720     9.4580    24.6000 
  154.1250     0.5150     2.2070    75.3150    10.1090     9.1250     8.9510    24.6260 
  154.2500     0.3590     2.2090    79.2860     9.5690     8.5070     8.1190    24.6390 
  154.3750     0.2720     2.2070    83.0100     9.0590     7.9420     7.5300    24.6420 
  154.5000     0.2640     2.2060    82.7000     8.6130     7.4660     6.7910    24.6440 
  154.6250     0.3400     2.2070    81.2560     8.3120     7.1470     6.3330    24.6500 
  154.7500     0.4650     2.2120    80.8700     8.2030     7.0090     6.2250    24.6520 
  154.8750     0.6170     2.2180    81.6080     8.3600     7.0940     6.5060    24.6480 
  155.0000     0.7690     2.2220    83.1820     8.8620     7.4430     7.0780    24.6450 
  155.1250     0.9020     2.2220    84.3750     9.8160     8.1240     7.7810    24.6500 
  155.2500     1.0160     2.2180    83.3420    11.0950     9.0560     9.0290    24.6560 
  155.3750     1.1070     2.2120    79.8530    12.5240    10.1350    11.4040    24.6550 
  155.5000     1.1590     2.2050    76.7420    13.8420    11.1960    14.1170    24.6390 
  155.6250     1.1490     2.2010    74.9650    14.7120    11.9830    13.9470    24.6130 
  155.7500     1.0970     2.1980    72.7880    15.1030    12.4060    13.2350    24.5890 
  155.8750     1.0220     2.1970    71.6690    15.1260    12.4970    12.9340    24.5760 
  156.0000     0.9620     2.1970    73.0020    14.9750    12.3830    12.8630    24.5750 
  156.1250     0.9220     2.2010    77.3900    14.8770    12.2430    13.0470    24.5850 
  156.2500     0.8730     2.2080    80.7750    14.9740    12.2260    13.1880    24.5500 
  156.3750     0.7960     2.2150    80.5110    15.3440    12.4090    13.1480    24.4510 
  156.5000     0.7040     2.2190    77.0290    16.0370    12.8340    13.0050    24.3730 
  156.6250     0.6030     2.2150    73.3690    17.1330    13.5650    13.3950    24.4100 
  156.7500     0.5020     2.2030    73.8330    18.5190    14.5370    15.1390    24.4820 
  156.8750     0.4010     2.1870    76.0980    20.0610    15.6770    17.8270    24.5080 
  157.0000     0.3060     2.1730    76.3390    21.5600    16.8580    19.6110    24.4960 
  157.1250     0.2600     2.1690    74.0700    22.7230    17.8720    20.0130    24.5140 
  157.2500     0.2660     2.1750    73.3920    23.4270    18.5850    20.4630    24.5570 
  157.3750     0.3170     2.1870    74.9630    23.6550    18.9400    20.7670    24.6080 
  157.5000     0.3960     2.1990    75.4640    23.5130    18.9810    20.9000    24.6410 
  157.6250     0.4750     2.2030    73.9110    23.2120    18.8250    20.4060    24.6460 
  157.7500     0.5420     2.2000    73.3980    23.0140    18.6700    19.6360    24.6450 
  157.8750     0.6230     2.1980    74.4330    23.0610    18.6420    19.2780    24.6450 
  158.0000     0.7180     2.2000    75.1820    23.4130    18.8250    19.3050    24.6430 
  158.1250     0.7680     2.2090    73.0560    24.1050    19.2940    19.6480    24.6450 
  158.2500     0.7790     2.2170    69.2740    25.0040    19.9740    19.8920    24.6410 
  158.3750     0.7710     2.2190    66.4220    25.9950    20.7840    19.8170    24.6230 
  158.5000     0.7480     2.2140    66.6560    26.9630    21.6240    19.5970    24.5930 
  158.6250     0.7520     2.2060    69.4540    27.8100    22.4000    20.1050    24.5720 
  158.7500     0.7830     2.2010    70.4000    28.5700    23.1060    20.7920    24.5690 
  158.8750     0.7970     2.2030    69.1340    29.3500    23.7950    21.0660    24.5720 
  159.0000     0.7640     2.2110    68.3830    30.3060    24.5570    20.6200    24.5720 
  159.1250     0.6980     2.2220    70.3540    31.6520    25.5420    20.3520    24.5690 
  159.2500     0.6140     2.2320    71.1790    33.3830    26.7870    21.2490    24.5630 
  159.3750     0.5160     2.2380    69.6810    35.4490    28.2860    22.7760    24.5510 
  159.5000     0.4150     2.2400    68.9370    37.7840    29.9900    24.7830    24.5350 
  159.6250     0.3110     2.2350    69.7550    40.4480    31.9050    26.1720    24.5240 
  159.7500     0.1920     2.2280    69.1140    43.5520    34.0740    27.1780    24.5200 
  159.8750     0.0720     2.2180    65.9270    47.2780    36.6210    27.6470    24.5200 
  160.0000    -0.0500     2.2060    63.3170    51.7190    39.6500    29.1680    24.5160 
  160.1250    -0.1590     2.1940    63.6410    56.8100    43.1990    35.0720    24.5110 
  160.2500    -0.2770     2.1850    64.2770    61.9830    46.9450    38.4120    24.5020 
  160.3750    -0.4040     2.1820    64.9370    66.7140    50.5570    34.2110    24.4880 
  160.5000    -0.5340     2.1860    65.4470    70.7630    53.8200    33.6890    24.4690 
  160.6250    -0.6820     2.1910    65.4340    74.6390    56.9490    34.7940    24.4500 
  160.7500    -0.8460     2.1920    63.9260    79.5340    60.6680    35.6710    24.4270 
  160.8750    -1.0280     2.1860    62.0070    86.2960    65.5780    37.0410    24.4000 
  161.0000    -1.1940     2.1790    62.2330    94.9120    71.7790    39.9580    24.3760 
  161.1250    -1.3360     2.1800    64.2310   103.8560    78.4650    50.6140    24.3290 
  161.2500    -1.4480     2.1930    65.2430   110.4280    83.9530    55.0660    24.2500 
  161.3750    -1.5370     2.2140    64.4880   112.8570    87.0200    59.1290    24.1550 
  161.5000    -1.6110     2.2340    65.0120   111.1620    87.3940    65.9470    24.0730 
  161.6250    -1.6720     2.2420    69.1030   106.8710    85.6760    63.3030    24.0240 
  161.7500    -1.7150     2.2410    70.8630   102.4400    83.4320    35.8090    24.0000 
  161.8750    -1.7260     2.2360    69.1170    98.8600    81.4430    36.0740    23.9980 
  162.0000    -1.7220     2.2310    67.6330    96.3040    79.9950    38.6930    24.0000 
  162.1250    -1.7150     2.2260    71.0190    94.5150    78.9980    39.5820    24.0010 
  162.2500    -1.6980     2.2230    75.9000    93.1660    78.2290    39.1090    24.0320 
  162.3750    -1.6680     2.2210    79.1430    92.6130    77.8960    37.6820    24.1420 
  162.5000    -1.6320     2.2180    80.8350    93.6420    78.5290    40.2120    24.3600 
  162.6250    -1.6020     2.2150    81.1460    97.7860    81.1940    43.2550    24.6450 
  162.7500    -1.5650     2.2110    78.4320   105.5380    86.2410    47.1740    24.8650 
  162.8750    -1.5290     2.2070    72.0870   117.2590    93.8360    51.7840    24.9640 
  163.0000    -1.4990     2.2030    66.0080   132.6620   103.6370    56.0970    24.9810 
  163.1250    -1.4960     2.1940    62.9010   150.7500   114.7900    52.8960    24.9820 
  163.2500    -1.5060     2.1800    60.5920   168.7980   125.6380    54.1840    24.9790 
  163.3750    -1.5290     2.1630    59.5390   184.6750   135.0390    72.6370    24.9570 
  163.5000    -1.5670     2.1510    61.4620   197.2250   142.4810   102.4980    24.9290 
  163.6250    -1.5920     2.1450    63.9960   205.9320   147.7980   124.3000    24.9220 
