~V
VERS. 2.00: Ver 2.00
~W
STRT.M 55.0000:
STOP.M 207.0000:
STEP.M 0.1250:
NULL. -999.2500:
UWI. F11112:
~C
DEPT.M :
SP.MV :
RML.OHMM :
RI. :
RXO.OHMM :
CALI.CM :
DEN.GM/CC :
GR.API :
~A
# ...
  178.7500   -12.8390     5.9390     5.4130     4.7390    24.9050     2.2480    69.9970 
  178.8750   -12.9290     6.1400     5.5450     5.0410    24.7680     2.2640    71.4530 
  179.0000   -12.9820     6.3870     5.7180     5.4530    24.6210     2.2790    74.4160 
  179.1250   -13.0080     6.6580     5.9080     5.8370    24.5370     2.2920    75.1780 
  179.2500   -12.9840     6.8920     6.0850     6.1290    24.4940     2.3030    74.5360 
  179.3750   -12.8850     7.0520     6.2250     6.3870    24.4860     2.3120    76.4750 
  179.5000   -12.6530     7.1070     6.3130     6.5920    24.4900     2.3150    80.7420 
  179.6250   -12.3170     7.0230     6.3390     6.7760    24.4970     2.3140    85.5780 
  179.7500   -11.9200     6.9130     6.2990     6.7640    24.4710     2.3200    88.8380 
  179.8750   -11.5130     6.8270     6.2280     6.7360    24.4120     2.3330    90.5300 
  180.0000   -11.1030     6.7800     6.1610     6.6740    24.3730     2.3470    92.5160 
  180.1250   -10.7770     6.7670     6.1350     6.4650    24.3470     2.3560    94.5420 
  180.2500   -10.6430     6.8400     6.1870     6.4910    24.3310     2.3590    94.6400 
  180.3750   -10.5820     6.9870     6.3120     6.6400    24.2990     2.3600    92.4100 
  180.5000   -10.6160     7.2200     6.5000     6.9600    24.2900     2.3590    89.6620 
  180.6250   -10.7640     7.4810     6.7220     7.2390    24.3270     2.3560    87.2110 
  180.7500   -11.0220     7.6880     6.9290     7.2630    24.4140     2.3510    86.5640 
  180.8750   -11.3070     7.7890     7.0670     7.2710    24.4450     2.3400    90.6510 
  181.0000   -11.6150     7.7500     7.0920     7.3910    24.3800     2.3180    96.6770 
  181.1250   -11.8190     7.5610     6.9850     7.5470    24.2070     2.2870    98.9130 
  181.2500   -11.8370     7.2450     6.7400     7.4790    23.9390     2.2580    94.9140 
  181.3750   -11.8150     6.8900     6.4300     7.0750    23.7540     2.2450    90.0470 
  181.5000   -11.7610     6.5650     6.1140     6.3470    23.6360     2.2510    86.6470 
  181.6250   -11.6590     6.3230     5.8450     5.7390    23.6170     2.2690    82.7500 
  181.7500   -11.5410     6.2050     5.6760     5.4050    23.6690     2.2910    78.2500 
  181.8750   -11.4140     6.1810     5.6000     5.3220    23.7020     2.3090    75.4010 
  182.0000   -11.2190     6.2150     5.5950     5.4170    23.6970     2.3210    74.9210 
  182.1250   -11.0110     6.2640     5.6250     5.4890    23.7380     2.3280    75.2600 
  182.2500   -10.7970     6.2880     5.6490     5.4470    23.8580     2.3330    75.6970 
  182.3750   -10.5680     6.2810     5.6440     5.3970    23.9680     2.3330    75.9700 
  182.5000   -10.3250     6.2630     5.6140     5.2570    23.9300     2.3280    75.9090 
  182.6250   -10.1060     6.2640     5.5840     5.1110    23.7940     2.3240    74.7330 
  182.7500    -9.9030     6.3200     5.5900     5.1270    23.6940     2.3220    72.4170 
  182.8750    -9.7270     6.4270     5.6450     5.3500    23.7920     2.3120    70.3280 
  183.0000    -9.5790     6.5620     5.7440     5.7130    24.0110     2.2920    70.5490 
  183.1250    -9.4090     6.6980     5.8620     5.9330    24.2120     2.2790    73.6560 
  183.2500    -9.2180     6.8030     5.9610     5.8770    24.2450     2.2940    76.0010 
  183.3750    -9.0670     6.8750     6.0180     5.5920    24.2150     2.3210    76.6820 
  183.5000    -9.0070     6.9250     6.0290     5.6940    24.2280     2.3320    77.6150 
  183.6250    -8.9930     6.9730     6.0140     6.0230    24.2940     2.3220    78.8520 
  183.7500    -8.9610     7.0410     6.0090     6.1750    24.3400     2.3190    78.1170 
  183.8750    -8.9220     7.1370     6.0400     6.3000    24.3620     2.3380    76.7540 
  184.0000    -8.9340     7.2620     6.1150     6.5090    24.3780     2.3680    77.2040 
  184.1250    -9.0220     7.4060     6.2250     6.6700    24.3780     2.3980    79.3330 
  184.2500    -9.1760     7.5410     6.3450     6.7550    24.3460     2.4200    79.9030 
  184.3750    -9.3390     7.6370     6.4400     6.8450    24.3240     2.4320    78.8950 
  184.5000    -9.4700     7.6790     6.4910     6.6530    24.3160     2.4250    78.3990 
  184.6250    -9.5770     7.6670     6.4960     6.3910    24.3360     2.3980    79.5540 
  184.7500    -9.7030     7.6230     6.4690     6.2370    24.3530     2.3540    80.7290 
  184.8750    -9.8810     7.5790     6.4410     6.2620    24.3480     2.3100    80.5160 
  185.0000   -10.0730     7.5460     6.4250     6.3120    24.2750     2.2790    79.8430 
  185.1250   -10.2590     7.5120     6.4130     6.2850    24.1790     2.2600    80.4990 
  185.2500   -10.4200     7.4460     6.3790     6.1630    24.1320     2.2440    82.3500 
  185.3750   -10.5330     7.3340     6.3040     6.2620    24.2210     2.2360    83.9780 
  185.5000   -10.5590     7.1810     6.1840     6.4430    24.3160     2.2440    83.2040 
  185.6250   -10.4780     7.0130     6.0330     6.5430    24.3300     2.2620    79.8840 
  185.7500   -10.3220     6.8760     5.8830     6.4000    24.2580     2.2920    76.1630 
  185.8750   -10.1020     6.7980     5.7680     6.0090    24.1550     2.3290    73.1360 
  186.0000    -9.8860     6.7960     5.7120     5.6360    24.0680     2.3630    70.1340 
  186.1250    -9.6460     6.8800     5.7310     5.5020    24.0090     2.3850    67.6090 
  186.2500    -9.4320     7.0690     5.8520     5.6120    23.9320     2.3900    68.0040 
  186.3750    -9.3070     7.3480     6.0680     5.8850    23.8930     2.3790    70.2100 
  186.5000    -9.3140     7.7000     6.3720     6.3800    23.9790     2.3530    73.1930 
  186.6250    -9.3950     8.0830     6.7390     7.1570    24.2100     2.3210    76.4810 
  186.7500    -9.4020     8.4170     7.1130     8.1600    24.3610     2.3040    78.3880 
  186.8750    -9.3910     8.6340     7.4200     8.9730    24.4000     2.3080    78.4920 
  187.0000    -9.3940     8.6980     7.6030     9.3020    24.3660     2.3210    78.5100 
  187.1250    -9.4420     8.6020     7.6310     9.0040    24.3060     2.3240    80.0090 
  187.2500    -9.5220     8.3640     7.4920     8.4250    24.2060     2.3170    81.1630 
  187.3750    -9.5460     8.0560     7.2530     8.3130    24.0020     2.3170    81.1160 
  187.5000    -9.4780     7.7180     6.9600     8.3550    23.7080     2.3190    80.2620 
  187.6250    -9.4110     7.3750     6.6450     8.3150    23.5140     2.3020    78.8210 
  187.7500    -9.4070     7.0400     6.3260     7.5750    23.7150     2.2600    76.7210 
  187.8750    -9.3860     6.7120     6.0060     6.5610    24.0530     2.2210    74.2720 
  188.0000    -9.3180     6.3890     5.6850     5.9190    24.2570     2.2040    72.1790 
  188.1250    -9.2020     6.0740     5.3710     5.5350    24.2950     2.2080    71.3280 
  188.2500    -9.0050     5.7930     5.0830     5.2540    24.2210     2.2240    71.7090 
  188.3750    -8.7620     5.5740     4.8470     5.0960    24.1380     2.2420    70.4170 
  188.5000    -8.4960     5.4580     4.6930     4.9410    24.0910     2.2610    67.2400 
  188.6250    -8.2000     5.4830     4.6550     4.9060    24.0910     2.2820    64.0560 
  188.7500    -7.9220     5.7130     4.7970     4.9000    24.1240     2.3070    64.2850 
  188.8750    -7.6930     6.1200     5.1150     5.0210    24.1300     2.3340    68.0800 
  189.0000    -7.4540     6.6530     5.5860     5.5120    24.0550     2.3590    72.2820 
  189.1250    -7.2100     7.2110     6.1350     6.5470    23.9230     2.3810    73.4000 
  189.2500    -6.9690     7.6140     6.6100     7.6760    23.9130     2.3940    71.2920 
  189.3750    -6.7700     7.7510     6.8700     8.2290    24.0330     2.3870    69.4570 
  189.5000    -6.5900     7.5920     6.8430     8.1020    24.2110     2.3560    68.1370 
  189.6250    -6.4340     7.2140     6.5620     7.3530    24.3190     2.3150    66.5570 
  189.7500    -6.3460     6.7860     6.1520     6.5380    24.3580     2.2920    65.9420 
  189.8750    -6.3080     6.4780     5.7970     5.8740    24.3800     2.2890    66.1420 
