~V
VERS. 2.00: Ver 2.00
~W
STRT.M 62.0000:
STOP.M 219.0000:
STEP.M 0.1250:
NULL. -999.2500:
UWI. F11127:
~C
DEPT.M :
SP.MV :
DEN.GM/CC :
GR.API :
RML.OHMM :
RI. :
RXO.OHMM :
CALI.CM :
~A
# ...
  107.0000   -20.5430     2.1880    67.7440     8.7520     7.5360    12.5570    24.1940 
  107.1250   -20.4530     2.2100    65.9900     8.4940     7.3560    13.3580    24.0760 
  107.2500   -20.4040     2.2110    65.0720     8.1710     7.1030    13.1570    23.9830 
  107.3750   -20.4220     2.1960    65.9070     7.8710     6.8290    11.6740    23.8610 
  107.5000   -20.4770     2.1820    67.9320     7.6510     6.5770    10.4820    23.6300 
  107.6250   -20.4800     2.1770    68.8200     7.5230     6.3800     9.8620    23.2930 
  107.7500   -20.4380     2.1770    67.4850     7.4700     6.2610     9.6440    23.2050 
  107.8750   -20.4590     2.1760    66.2390     7.4390     6.2000     9.5070    23.3170 
  108.0000   -20.5610     2.1770    65.7900     7.4060     6.1790     9.4410    23.4000 
  108.1250   -20.6080     2.1810    66.3180     7.3660     6.1810     9.4610    23.3060 
  108.2500   -20.5500     2.1850    67.2720     7.3300     6.1940     9.5200    23.1800 
  108.3750   -20.4470     2.1810    68.1000     7.3070     6.2100     9.6910    23.0740 
  108.5000   -20.3160     2.1660    67.7530     7.2940     6.2240     9.9320    23.0770 
  108.6250   -20.1450     2.1450    67.2040     7.2850     6.2290    10.0460    23.1770 
  108.7500   -19.9550     2.1300    68.9230     7.2690     6.2170     9.8860    23.2680 
  108.8750   -19.7270     2.1280    70.6170     7.2400     6.1900     9.6680    23.2820 
  109.0000   -19.4430     2.1390    70.7130     7.1960     6.1530     9.6050    23.2280 
  109.1250   -19.1040     2.1570    70.9880     7.1350     6.1130     9.6680    23.2180 
  109.2500   -18.7150     2.1750    73.2920     7.0650     6.0720     9.7970    23.2920 
  109.3750   -18.3110     2.1850    74.9360     6.9980     6.0300     9.8850    23.3800 
  109.5000   -17.9290     2.1880    75.3240     6.9430     5.9810     9.8520    23.4950 
  109.6250   -17.5230     2.1860    76.7100     6.9000     5.9180     9.6650    23.6320 
  109.7500   -17.0530     2.1820    78.2190     6.8600     5.8370     9.3680    23.7880 
  109.8750   -16.5830     2.1750    77.1390     6.8180     5.7470     9.1020    23.8800 
  110.0000   -16.2690     2.1680    75.2210     6.7770     5.6610     8.8940    23.8690 
  110.1250   -16.1650     2.1690    74.8770     6.7460     5.5930     8.5720    23.8150 
  110.2500   -16.2120     2.1830    76.8700     6.7410     5.5580     8.2780    23.7810 
  110.3750   -16.2900     2.1970    79.2560     6.7560     5.5470     8.2670    23.7500 
  110.5000   -16.3380     2.1990    79.5060     6.7800     5.5490     8.5690    23.7260 
  110.6250   -16.4730     2.1920    77.7640     6.8000     5.5530     8.9710    23.7040 
  110.7500   -16.7560     2.1830    75.6920     6.8130     5.5590     9.1230    23.6640 
  110.8750   -17.0900     2.1800    75.2010     6.8350     5.5750     9.0660    23.6050 
  111.0000   -17.3200     2.1840    75.4100     6.8770     5.6120     8.8720    23.5670 
  111.1250   -17.4470     2.1870    74.9480     6.9460     5.6760     8.8090    23.5570 
  111.2500   -17.5550     2.1740    74.0590     7.0340     5.7630     9.1790    23.6220 
  111.3750   -17.6880     2.1500    72.5920     7.1130     5.8500     9.4740    23.7360 
  111.5000   -17.8700     2.1290    72.1280     7.1610     5.9170     9.5810    23.8680 
  111.6250   -18.0970     2.1220    72.7890     7.1690     5.9520     9.4850    24.0280 
  111.7500   -18.3930     2.1300    74.4400     7.1500     5.9480     9.3570    24.2200 
  111.8750   -18.7190     2.1450    76.4790     7.1320     5.9240     9.3070    24.1530 
  112.0000   -19.0340     2.1580    77.5180     7.1250     5.8880     9.2400    23.9850 
  112.1250   -19.3790     2.1620    76.3610     7.1250     5.8520     9.1660    23.9350 
  112.2500   -19.7970     2.1510    72.9660     7.1130     5.8240     9.2470    24.2210 
  112.3750   -20.2270     2.1370    70.6070     7.0830     5.8070     9.3710    24.4870 
  112.5000   -20.5640     2.1310    71.5030     7.0440     5.8030     9.3110    24.6000 
  112.6250   -20.8220     2.1370    72.7380     7.0130     5.8110     9.3420    24.5870 
  112.7500   -21.0110     2.1410    70.4320     7.0070     5.8290     9.5430    24.7670 
  112.8750   -21.1670     2.1290    67.3460     7.0130     5.8510     9.6860    25.2370 
  113.0000   -21.2600     2.1120    67.2190     7.0150     5.8730     9.6820    25.5870 
  113.1250   -21.2070     2.1040    68.5460     6.9980     5.8930     9.6620    25.3020 
  113.2500   -20.9790     2.1130    67.3080     6.9650     5.9110     9.7690    24.9420 
  113.3750   -20.6480     2.1290    65.1030     6.9510     5.9340     9.8670    24.8580 
  113.5000   -20.2480     2.1430    64.0990     6.9880     5.9730     9.9920    25.0140 
  113.6250   -19.6870     2.1490    64.8410     7.1480     6.0400    10.1770    25.2630 
  113.7500   -18.8230     2.1490    66.6370     7.3810     6.1330    10.2250    25.5020 
  113.8750   -17.7000     2.1510    68.2090     7.6370     6.2150    10.1440    25.7740 
  114.0000   -16.4370     2.1580    69.3790     7.8710     6.2350    10.0450    25.9110 
  114.1250   -15.1120     2.1650    70.7770     7.7670     6.1430     9.8610    25.6830 
  114.2500   -13.7880     2.1750    74.2470     7.4270     5.9000     9.4430    25.1640 
  114.3750   -12.5370     2.1950    80.9860     7.0180     5.5720     8.5200    24.7260 
  114.5000   -11.4580     2.2260    90.2260     6.6390     5.2420     7.2630    24.4320 
  114.6250   -10.5410     2.2500    97.3060     6.3730     4.9920     6.2480    24.3720 
  114.7500    -9.7750     2.2480    98.1490     6.2810     4.8960     6.1750    24.4070 
  114.8750    -9.1490     2.2320    96.1640     6.3170     4.9260     6.5390    24.3740 
  115.0000    -8.7300     2.2210    94.7380     6.4240     5.0410     6.8940    24.2630 
  115.1250    -8.4560     2.2220    95.6660     6.5360     5.1800     6.9250    24.2090 
  115.2500    -8.2020     2.2360    98.2600     6.5840     5.2750     6.7270    24.2930 
  115.3750    -7.9160     2.2540    99.2710     6.5480     5.2970     6.5500    24.3840 
  115.5000    -7.6100     2.2780    99.2410     6.4350     5.2480     6.5010    24.3650 
  115.6250    -7.3030     2.3030   101.2110     6.2690     5.1480     6.4840    24.2150 
  115.7500    -7.0190     2.3070   105.8050     6.0880     5.0250     6.3480    24.0370 
  115.8750    -6.7630     2.2930   108.5670     5.9310     4.9130     6.1640    23.9270 
  116.0000    -6.5050     2.2780   109.0840     5.8210     4.8310     6.0400    23.8740 
  116.1250    -6.2770     2.2780   109.8870     5.7760     4.7970     5.9180    23.8620 
  116.2500    -6.1050     2.2910   110.5080     5.8150     4.8300     5.8780    23.8840 
  116.3750    -5.9200     2.3040   110.5930     5.9210     4.9180     5.9110    23.9110 
  116.5000    -5.7400     2.3130   110.5200     6.0740     5.0460     5.9600    23.9450 
  116.6250    -5.6430     2.3150   109.1520     6.2480     5.1940     6.0850    23.9810 
  116.7500    -5.6500     2.3130   106.2290     6.4040     5.3270     6.1960    23.9450 
  116.8750    -5.7070     2.3030   104.4120     6.5130     5.4200     6.2330    23.8630 
  117.0000    -5.8090     2.2870   104.3890     6.5630     5.4590     6.1850    23.7880 
  117.1250    -5.9780     2.2700   104.0740     6.5580     5.4450     6.0500    23.8540 
  117.2500    -6.2300     2.2570   103.1850     6.5250     5.3940     6.0330    23.9570 
  117.3750    -6.5800     2.2480   103.4850     6.5240     5.3520     6.1620    24.0070 
  117.5000    -6.9000     2.2380   104.2130     6.6410     5.3760     6.4310    23.9890 
  117.6250    -7.1470     2.2280   103.1180     7.0000     5.5540     6.8020    23.9260 
  117.7500    -7.4130     2.2260    99.1610     7.8410     6.0800     7.4800    23.7640 
  117.8750    -7.8000     2.2430    93.5050     9.2020     7.0440     9.3680    23.4820 
  118.0000    -8.2950     2.2880    87.4930    10.9890     8.4570    13.7800    23.2500 
  118.1250    -8.8260     2.3590    83.1080    12.8590    10.1290    20.5810    23.2550 
