~V
VERS. 2.00: Ver 2.00
~W
STRT.M 58.0000:
STOP.M 208.0000:
STEP.M 0.1250:
NULL. -999.2500:
UWI. F11103:
~C
DEPT.M :
DEN.GM/CC :
SP.MV :
GR.API :
RML.OHMM :
RI. :
RXO.OHMM :
CALI.CM :
~A
# ...
  114.2500     2.2450   -26.2520    61.3430     8.1040     7.4080    15.4830    24.8320 
  114.3750     2.2300   -27.0400    57.4080     7.9670     7.4560    11.8350    25.1070 
  114.5000     2.2160   -27.7240    56.2230     7.7410     7.3520    10.6270    25.3610 
  114.6250     2.2050   -28.3070    56.8950     7.5590     7.2480    10.5620    25.4190 
  114.7500     2.1990   -28.7670    56.0660     7.4610     7.2070    10.3970    25.4300 
  114.8750     2.1970   -29.0870    55.3070     7.4410     7.2360    10.2630    25.4160 
  115.0000     2.1980   -29.2260    60.0900     7.4770     7.2990    10.0140    25.3760 
  115.1250     2.1980   -29.2620    68.2390     7.5400     7.3570     9.9790    25.4950 
  115.2500     2.1930   -29.1920    72.2640     7.6070     7.4040    10.1870    25.8120 
  115.3750     2.1830   -29.0520    69.8970     7.6460     7.4360    10.4020    26.3440 
  115.5000     2.1670   -28.8480    66.3640     7.6300     7.4420    10.4270    26.8380 
  115.6250     2.1470   -28.5500    65.1250     7.5920     7.4280    10.3260    27.4170 
  115.7500     2.1270   -28.1640    65.0060     7.5690     7.4080    10.1070    28.0630 
  115.8750     2.1110   -27.6630    64.9960     7.5790     7.4020     9.9820    28.6060 
  116.0000     2.1040   -27.0350    64.0120     7.5660     7.4000     9.9610    29.1300 
  116.1250     2.1070   -26.2330    61.7950     7.4310     7.3340    10.1050    29.5220 
  116.2500     2.1220   -25.2890    59.3380     7.1330     7.1520    10.2430    29.5180 
  116.3750     2.1500   -24.2040    58.4270     6.7720     6.8850     9.9810    28.9430 
  116.5000     2.1930   -23.0640    60.3920     6.6680     6.7290     9.0210    27.7730 
  116.6250     2.2480   -21.9320    63.5320     7.1030     6.9260     7.7400    26.3470 
  116.7500     2.3080   -20.8870    65.1720     8.2610     7.6870     7.5020    25.9900 
  116.8750     2.3670   -19.9520    62.8300    10.1240     9.1330    10.2030    25.7890 
  117.0000     2.4150   -19.2110    56.1630    13.7480    11.1800    18.8860    25.5700 
  117.1250     2.4460   -18.6630    50.0710    15.3300    12.9870    26.4960    25.4000 
  117.2500     2.4560   -18.3340    47.5240    15.0780    13.5210    24.0980    25.3620 
  117.3750     2.4460   -18.1970    51.3540    12.9670    12.3430    14.3160    25.3800 
  117.5000     2.4170   -18.2110    60.4680    10.2700    10.2070     8.7350    25.5170 
  117.6250     2.3780   -18.3020    68.4630     8.2820     8.3500     6.6230    25.5930 
  117.7500     2.3360   -18.4060    74.0970     7.2410     7.1430     6.3820    25.5460 
  117.8750     2.3020   -18.5040    76.2460     6.9970     6.5980     6.7950    25.5410 
  118.0000     2.2850   -18.5610    71.7920     7.4860     6.7400     7.3820    25.5440 
  118.1250     2.2870   -18.5600    64.2860     8.5780     7.4450     7.9110    25.4690 
  118.2500     2.3060   -18.4910    59.2780    10.3520     8.7460     8.8790    25.4070 
  118.3750     2.3410   -18.3720    58.6320    12.9280    10.7370    11.4380    25.2600 
  118.5000     2.3860   -18.2310    56.4810    16.5120    13.6700    16.9510    25.0670 
  118.6250     2.4350   -18.0840    51.3880    20.7620    17.3780    23.8070    24.9710 
  118.7500     2.4800   -17.9450    45.6150    25.1380    21.4990    28.7410    24.9570 
  118.8750     2.5180   -17.8310    40.1570    28.8430    25.3080    29.7550    24.9590 
  119.0000     2.5420   -17.7680    38.0700    30.8810    27.7130    30.9370    24.9800 
  119.1250     2.5530   -17.7440    40.2560    31.3680    28.5640    34.5460    24.9620 
  119.2500     2.5540   -17.7520    45.4260    30.7400    28.1770    37.2010    24.9550 
  119.3750     2.5490   -17.7730    48.6240    29.5770    27.1050    34.2680    24.9550 
  119.5000     2.5390   -17.7760    47.6390    28.4100    25.8820    29.0160    24.9680 
  119.6250     2.5290   -17.7710    46.9260    27.6050    24.9260    26.2680    25.0050 
  119.7500     2.5200   -17.7650    47.6270    27.3290    24.4300    25.7260    25.0270 
  119.8750     2.5130   -17.7630    48.1410    27.5970    24.4490    25.8730    25.0300 
  120.0000     2.5090   -17.7600    47.9420    28.2960    24.9470    27.2070    25.0260 
  120.1250     2.5060   -17.7610    47.9740    29.0790    25.6400    28.0650    25.0130 
  120.2500     2.5020   -17.7840    47.7450    29.7630    26.3510    29.4570    25.0450 
  120.3750     2.4980   -17.8440    46.0140    30.2950    26.9840    30.3570    25.0150 
  120.5000     2.4950   -17.9290    45.0190    30.6700    27.4820    31.5150    24.9700 
  120.6250     2.4930   -18.0280    45.5040    30.9140    27.8380    30.9070    24.9900 
  120.7500     2.4930   -18.1370    45.1630    31.0270    28.0500    29.4780    25.0220 
  120.8750     2.4970   -18.2490    43.7030    31.0270    28.1530    28.9460    25.0300 
  121.0000     2.5040   -18.3290    43.0250    30.9330    28.1710    29.4550    25.0310 
  121.1250     2.5120   -18.4000    44.6180    30.7890    28.1400    27.6470    25.0310 
  121.2500     2.5210   -18.4520    47.7110    30.5990    28.0600    27.5800    25.0300 
  121.3750     2.5290   -18.4830    48.7480    30.3030    27.8940    28.3270    25.0300 
  121.5000     2.5340   -18.5050    46.6090    29.7500    27.5230    29.1450    25.0250 
  121.6250     2.5360   -18.5240    45.5160    28.9210    26.9090    28.2860    25.0300 
  121.7500     2.5340   -18.5160    47.2620    27.8910    26.0860    26.0670    25.0340 
  121.8750     2.5310   -18.5040    49.7290    26.8280    25.1750    25.0050    25.0480 
  122.0000     2.5270   -18.4680    49.2280    26.0150    24.3940    24.2740    25.0870 
  122.1250     2.5240   -18.4110    47.6560    25.6270    23.9200    22.2820    25.1050 
  122.2500     2.5220   -18.3300    48.5640    25.7390    23.8430    22.0870    25.1090 
  122.3750     2.5230   -18.2440    51.7180    26.3120    24.1720    23.5560    25.1150 
  122.5000     2.5260   -18.1250    53.9040    27.2690    24.9020    25.8420    25.1510 
  122.6250     2.5300   -18.0010    53.0420    28.3870    25.8770    27.6630    25.1800 
  122.7500     2.5340   -17.8760    50.4840    29.4910    26.9560    28.6010    25.1850 
  122.8750     2.5370   -17.7520    48.9060    30.3820    27.9440    28.8360    25.1910 
  123.0000     2.5380   -17.6380    48.6580    30.8250    28.5760    30.6670    25.2320 
  123.1250     2.5380   -17.5820    48.4950    30.8420    28.8110    32.9300    25.3430 
  123.2500     2.5370   -17.5310    48.8630    30.5260    28.6970    32.8480    25.4200 
  123.3750     2.5350   -17.4980    49.8190    30.0620    28.3800    31.5800    25.4610 
  123.5000     2.5310   -17.5030    50.5550    29.7160    28.0760    28.6860    25.4880 
  123.6250     2.5270   -17.5170    50.5490    29.6090    27.9420    28.0900    25.4910 
  123.7500     2.5240   -17.5450    51.1140    29.6890    27.9740    30.1170    25.4820 
  123.8750     2.5200   -17.5970    51.8770    29.7870    28.0500    31.7750    25.4700 
  124.0000     2.5180   -17.6510    49.8940    29.6720    27.9690    30.4890    25.5440 
  124.1250     2.5150   -17.6930    46.7230    29.2950    27.6510    30.1420    25.7090 
  124.2500     2.5110   -17.7580    45.3890    28.7640    27.1590    30.7160    25.7240 
  124.3750     2.5070   -17.8130    45.9140    28.3050    26.6840    30.8600    25.7250 
  124.5000     2.5040   -17.8510    46.5360    28.1990    26.5030    29.5860    25.7210 
  124.6250     2.5020   -17.9000    46.4120    28.4540    26.6400    29.7500    25.6970 
  124.7500     2.5030   -17.9490    46.8410    28.9800    27.0190    29.3650    25.6660 
  124.8750     2.5060   -17.9860    47.9560    29.6190    27.5150    29.3580    25.6470 
  125.0000     2.5120   -18.0500    48.3420    30.1460    27.9590    30.8380    25.5770 
  125.1250     2.5180   -18.0970    48.0400    30.4310    28.2290    29.9300    25.4590 
  125.2500     2.5230   -18.1320    47.7280    30.4980    28.3120    27.6780    25.4060 
  125.3750     2.5260   -18.1660    47.5360    30.5060    28.3030    28.3770    25.3540 
