~V
VERS. 2.00: Ver 2.00
~W
STRT.M 40.0000:
STOP.M 206.0000:
STEP.M 0.1250:
NULL. -999.2500:
UWI. F11104:
~C
DEPT.M :
GR.API :
RML.OHMM :
RI. :
RXO.OHMM :
CALI.CM :
SP.MV :
DEN.GM/CC :
~A
# ...
   51.2500    46.3880     8.7800     0.7030     1.4160    25.6120    54.2350     1.9000 
   51.3750    46.3330     7.8380     0.7040     1.3850    25.6170    54.1000     1.9170 
   51.5000    49.1440     6.8030     0.7070     1.7630    25.6210    53.9450     1.9380 
   51.6250    53.9310     6.2260     0.7080     1.9340    25.6210    53.7650     1.9560 
   51.7500    56.9910     6.2060     0.7080     1.0700    25.6170    53.5660     1.9530 
   51.8750    55.9290     6.6480     0.7050     0.3690    25.6180    53.3550     1.9090 
   52.0000    51.9130     7.2540     0.7010     0.3690    25.6250    53.1310     1.8220 
   52.1250    48.7210     7.5810     0.6940     0.4020    25.6310    52.8900     1.7390 
   52.2500    47.5730     7.5160     0.6850     0.4370    25.6320    52.6430     1.7600 
   52.3750    47.0780     7.1760     0.6740     0.4680    25.6270    52.4030     1.9280 
   52.5000    45.6890     6.7310     0.6630     0.7350    25.6180    52.1690     2.1370 
   52.6250    43.5620     6.3390     0.6540     1.2640    25.6110    51.9190     2.2100 
   52.7500    42.2630     6.0530     0.6480     1.9180    25.6090    51.6390     2.1600 
   52.8750    42.2570     5.8530     0.6460     2.6430    25.6140    51.3250     2.0590 
   53.0000    42.5410     5.7020     0.6480     2.6170    25.6240    50.9930     1.9670 
   53.1250    42.1090     5.5660     0.6520     1.5790    25.6270    50.6940     1.9190 
   53.2500    42.5750     5.3860     0.6570     1.2410    25.6230    50.4380     1.9010 
   53.3750    44.3790     5.1470     0.6610     1.1430    25.6210    50.2220     1.9000 
   53.5000    45.2630     4.9290     0.6640     1.0620    25.6240    50.0300     1.9080 
   53.6250    44.3960     4.8290     0.6640     0.9520    25.6200    49.8690     1.9270 
   53.7500    43.1040     4.7960     0.6610     0.9110    25.6110    49.7270     1.9520 
   53.8750    42.3800     4.7440     0.6550     0.9580    25.6040    49.5920     1.9750 
   54.0000    43.0460     4.6060     0.6490     0.9320    25.6040    49.4590     1.9880 
   54.1250    43.8980     4.3670     0.6420     0.8160    25.6180    49.3210     1.9820 
   54.2500    43.6920     4.0940     0.6370     0.7320    25.6170    49.1820     1.9630 
   54.3750    42.6300     3.8350     0.6360     0.9020    25.5850    49.0490     1.9420 
   54.5000    40.9190     3.6440     0.6380     1.1110    25.5550    48.9210     1.9260 
   54.6250    38.8370     3.5710     0.6430     1.1320    25.5790    48.7870     1.9230 
   54.7500    39.0530     3.6340     0.6480     0.8850    25.6230    48.6410     1.9310 
   54.8750    41.7780     3.8760     0.6500     0.7640    25.6220    48.4850     1.9460 
   55.0000    43.9340     4.2930     0.6490     0.8230    25.5750    48.3250     1.9610 
   55.1250    43.8260     4.8110     0.6460     0.5370    25.5540    48.2050     1.9730 
   55.2500    43.0800     5.2340     0.6440     0.2690    25.5820    48.1480     1.9850 
   55.3750    42.2230     5.4030     0.6430     0.2720    25.6230    48.1570     2.0020 
   55.5000    41.6870     5.3040     0.6430     0.4080    25.6340    48.2070     2.0220 
   55.6250    45.2760     5.0220     0.6390     0.4330    25.6180    48.3030     2.0350 
   55.7500    51.1180     4.7150     0.6320     0.3760    25.6070    48.4430     2.0320 
   55.8750    54.8050     4.5050     0.6250     0.4840    25.6060    48.6220     2.0070 
   56.0000    55.4840     4.4900     0.6200     0.6460    25.6160    48.8210     1.9700 
   56.1250    55.0440     4.7700     0.6160     0.6050    25.6230    48.9960     1.9350 
   56.2500    55.9410     5.2150     0.6120     0.3660    25.6190    49.1160     1.9180 
   56.3750    57.8300     5.5910     0.6090     0.4480    25.6090    49.1810     1.9290 
   56.5000    59.0660     5.6790     0.6040     0.7780    25.6050    49.1990     1.9720 
   56.6250    58.4950     5.4680     0.5970     0.6230    25.6160    49.1840     2.0830 
   56.7500    58.1160     5.3350     0.5860     0.2770    25.6230    49.1420     2.1160 
   56.8750    59.5610     5.5260     0.5740     0.1660    25.6180    49.0820     2.1220 
   57.0000    60.7090     6.0800     0.5640     0.2980    25.6110    49.0060     2.1140 
   57.1250    59.1500     6.8280     0.5620     0.4510    25.6210    48.9420     2.1130 
   57.2500    55.2630     7.3360     0.5650     0.3610    25.6380    48.9100     2.1180 
   57.3750    51.2800     7.3510     0.5700     0.2670    25.6390    48.8870     2.1170 
   57.5000    49.1040     6.9830     0.5740     0.3270    25.6270    48.8390     2.1050 
   57.6250    51.0850     6.4350     0.5750     0.4790    25.6170    48.7250     2.0910 
   57.7500    53.1600     5.8250     0.5740     0.3800    25.6100    48.5720     2.0840 
   57.8750    51.9820     5.2260     0.5740     0.2480    25.6020    48.4020     2.0880 
   58.0000    50.4990     4.7470     0.5750     0.3070    25.5980    48.2290     2.0970 
   58.1250    52.5180     4.5090     0.5800     0.5240    25.6070    48.0320     2.1060 
   58.2500    54.0120     4.5090     0.5900     0.5650    25.6210    47.8250     2.1100 
   58.3750    51.1790     4.7460     0.6030     0.4280    25.6260    47.6490     2.1010 
   58.5000    46.9960     5.1580     0.6170     0.4160    25.6190    47.5360     2.0780 
   58.6250    47.1260     5.5930     0.6300     0.5700    25.6080    47.4810     2.0450 
   58.7500    48.9640     5.8300     0.6420     0.5190    25.6110    47.4370     2.0150 
   58.8750    49.2390     5.7050     0.6540     0.3300    25.6230    47.3650     1.9930 
   59.0000    47.4870     5.2510     0.6650     0.2620    25.6300    47.2470     1.9800 
   59.1250    44.4190     4.7340     0.6750     0.5000    25.6260    47.0790     1.9770 
   59.2500    41.6670     4.3270     0.6860     0.6660    25.6250    46.8660     1.9810 
   59.3750    40.0820     4.0060     0.6960     0.4670    25.6320    46.5950     1.9860 
   59.5000    40.8190     3.7310     0.7050     0.2180    25.6330    46.2590     1.9900 
   59.6250    43.9450     3.5470     0.7130     0.3000    25.6200    45.8660     1.9880 
   59.7500    46.2860     3.4520     0.7180     0.4520    25.6130    45.4560     1.9830 
   59.8750    46.6490     3.3940     0.7230     0.3520    25.6230    45.0410     1.9770 
   60.0000    46.8980     3.3370     0.7290     0.1510    25.6320    44.5970     1.9710 
   60.1250    46.7000     3.3280     0.7370     0.1040    25.6220    44.0500     1.9620 
   60.2500    43.8550     3.4070     0.7460     0.2520    25.6090    43.4030     1.9520 
   60.3750    38.7580     3.5440     0.7530     0.4330    25.6180    42.6740     1.9530 
   60.5000    36.3970     3.6410     0.7590     0.3470    25.6510    41.8970     1.9550 
   60.6250    39.3600     3.5920     0.7640     0.2820    25.6800    41.0750     1.9550 
   60.7500    43.2570     3.4920     0.7660     0.5190    25.6950    40.1930     1.9560 
   60.8750    44.6630     3.4870     0.7650     0.8190    25.7000    39.2220     1.9600 
   61.0000    42.9980     3.6670     0.7620     0.7580    25.6990    38.1580     1.9640 
   61.1250    40.1690     4.0630     0.7620     0.6400    25.6940    37.0030     1.9640 
   61.2500    38.5610     4.5260     0.7670     0.5740    25.6880    35.7640     1.9610 
   61.3750    37.9720     4.9000     0.7770     0.7820    25.6850    34.4150     1.9590 
   61.5000    37.8980     5.0890     0.7890     1.0850    25.6840    32.9500     1.9610 
   61.6250    40.4190     5.1540     0.8000     1.0150    25.6850    31.3980     1.9700 
   61.7500    44.2070     5.2900     0.8080     0.7270    25.6910    29.8210     1.9840 
   61.8750    47.0940     5.6680     0.8120     0.6730    25.6970    28.2300     1.9940 
   62.0000    48.5980     6.4920     0.8100     0.9560    25.6970    26.6050     1.9850 
   62.1250    50.3890     8.0220     0.7930     1.1080    25.6960    24.8800     1.9340 
   62.2500    51.3300     9.3450     0.7470     0.9200    25.7010    23.0420     1.8400 
   62.3750    49.2450     7.9520     0.6510     1.6000    25.7080    21.0930     1.7990 
