~V
VERS. 2.00: Ver 2.00
~W
STRT.M 47.0000:
STOP.M 248.0000:
STEP.M 0.1250:
NULL. -999.2500:
UWI. F11134:
~C
DEPT.M :
GR.API :
RML.OHMM :
RI. :
RXO.OHMM :
CALI.CM :
SP.MV :
DEN.GM/CC :
~A
# ...
   80.7500    67.3190     8.5720     6.5890     7.2480    24.0700   -17.5240     2.1910 
   80.8750    61.7670     9.3020     7.3470     8.0480    24.0170   -18.8460     2.1950 
   81.0000    59.6090    10.0000     8.1010     8.2510    23.9950   -20.0440     2.2220 
   81.1250    56.9670    10.6710     8.8030     8.6100    24.0250   -21.1370     2.2530 
   81.2500    53.7120    11.2950     9.4040    10.0260    24.1430   -22.0930     2.2730 
   81.3750    51.8960    11.7640     9.8040    12.1890    24.2910   -22.8450     2.2830 
   81.5000    52.2630    11.9540     9.9220    13.2070    24.3510   -23.4280     2.2740 
   81.6250    53.9040    11.8160     9.7470    12.0380    24.3290   -23.8950     2.2370 
   81.7500    55.5920    11.4270     9.3510    10.3920    24.3000   -24.2300     2.1870 
   81.8750    55.9650    11.0180     8.9080     9.5520    24.2900   -24.4020     2.1570 
   82.0000    55.4270    10.8370     8.6020     9.2680    24.2770   -24.4100     2.1530 
   82.1250    55.1350    11.0130     8.5350     9.2010    24.2380   -24.2340     2.1620 
   82.2500    54.4010    11.5110     8.7020     9.2000    24.1770   -23.8490     2.1770 
   82.3750    52.0310    12.0790     8.9570     9.3420    24.1190   -23.2280     2.2050 
   82.5000    48.8600    12.3150     9.0510     9.5230    24.1070   -22.3650     2.2450 
   82.6250    47.4220    11.8800     8.7560     9.4600    24.1840   -21.3090     2.2910 
   82.7500    50.1180    10.7220     8.0120     8.7650    24.3770   -20.1600     2.3450 
   82.8750    57.4400     9.2100     7.0130     7.3100    24.6390   -19.0580     2.3970 
   83.0000    65.9560     7.9680     6.1280     5.7410    24.8680   -18.1030     2.4280 
   83.1250    72.0500     7.4670     5.6600     4.9930    24.9820   -17.3820     2.4270 
   83.2500    74.2220     7.9440     5.7850     5.6110    24.9650   -16.9860     2.4130 
   83.3750    71.1240     9.5560     6.6720     8.8780    24.8150   -16.9820     2.4170 
   83.5000    63.8670    12.0290     8.2490    15.0960    24.6120   -17.3680     2.4410 
   83.6250    56.3170    14.5880    10.1110    19.4050    24.4570   -18.0970     2.4540 
   83.7500    51.8680    16.1420    11.5450    17.2470    24.3640   -19.0740     2.4240 
   83.8750    50.6280    15.7400    11.7550    12.8180    24.2740   -20.1360     2.3570 
   84.0000    50.6070    13.8610    10.8520     9.8340    24.1580   -21.1380     2.2970 
   84.1250    50.8220    11.7050     9.5480     8.4240    24.0620   -21.9910     2.2780 
   84.2500    51.5780    10.0520     8.3960     8.0240    24.0140   -22.6360     2.2920 
   84.3750    53.0070     9.2000     7.6760     7.9970    23.9970   -23.0600     2.3000 
   84.5000    54.3870     8.9880     7.3660     8.0470    23.9720   -23.3020     2.2670 
   84.6250    54.7970     9.1390     7.3300     8.1010    23.9300   -23.3960     2.2030 
   84.7500    54.2870     9.4360     7.4350     8.2320    23.8880   -23.3600     2.1400 
   84.8750    52.6540     9.6720     7.5350     8.4330    23.8640   -23.2450     2.1130 
   85.0000    51.3760     9.7370     7.5390     8.6010    23.8590   -23.1140     2.1350 
   85.1250    53.8810     9.6420     7.4390     8.5090    23.8640   -23.0080     2.1960 
   85.2500    60.4330     9.4710     7.2900     8.0560    23.8710   -22.9460     2.2620 
   85.3750    65.4780     9.3510     7.1760     7.6370    23.8430   -22.9280     2.2830 
   85.5000    65.7290     9.3550     7.1460     7.8730    23.7860   -22.9120     2.2510 
   85.6250    64.2090     9.4730     7.1980     8.5360    23.7370   -22.8620     2.1970 
   85.7500    63.9320     9.6460     7.2980     8.9860    23.7190   -22.8000     2.1520 
   85.8750    63.3960     9.8020     7.4010     8.9840    23.7340   -22.7730     2.1270 
   86.0000    61.2660     9.9020     7.4760     8.7630    23.7700   -22.7780     2.1200 
   86.1250    58.4890     9.9550     7.5190     8.5620    23.8030   -22.7630     2.1290 
   86.2500    56.9120     9.9840     7.5420     8.6990    23.7980   -22.6920     2.1590 
   86.3750    57.7230     9.9940     7.5510     8.9340    23.7660   -22.5790     2.2090 
   86.5000    59.7230     9.9850     7.5520     9.0100    23.7570   -22.4530     2.2570 
   86.6250    61.4150     9.9690     7.5500     8.9460    23.7790   -22.3230     2.2740 
   86.7500    62.3640     9.9650     7.5570     8.7680    23.8140   -22.1960     2.2530 
   86.8750    62.5020     9.9840     7.5780     8.6050    23.8280   -22.0670     2.2160 
   87.0000    61.2430    10.0050     7.6090     8.5830    23.8050   -21.9130     2.1940 
   87.1250    58.2570     9.9820     7.6310     8.6210    23.7520   -21.7620     2.1970 
   87.2500    56.0040     9.8740     7.6210     8.5750    23.6870   -21.6650     2.2080 
   87.3750    57.9110     9.6730     7.5650     8.4400    23.6380   -21.6120     2.2100 
   87.5000    62.3090     9.4200     7.4700     8.3280    23.6040   -21.6000     2.2000 
   87.6250    64.5140     9.1560     7.3480     8.3310    23.5840   -21.6700     2.1830 
   87.7500    62.8290     8.9030     7.2060     8.2960    23.5920   -21.8290     2.1680 
   87.8750    61.2060     8.6930     7.0700     7.8730    23.6420   -22.0780     2.1570 
   88.0000    62.1000     8.5640     6.9740     7.1960    23.7080   -22.4460     2.1520 
   88.1250    63.2010     8.5510     6.9550     6.8650    23.7530   -22.9500     2.1510 
   88.2500    61.9050     8.6820     7.0350     7.1750    23.7610   -23.5580     2.1490 
   88.3750    58.9130     8.9580     7.2270     7.8460    23.7390   -24.2510     2.1460 
   88.5000    56.8140     9.3040     7.4930     8.6570    23.7160   -24.9730     2.1540 
   88.6250    56.4590     9.6400     7.7810     9.2210    23.7090   -25.6680     2.1770 
   88.7500    56.9200     9.9590     8.0790     9.4710    23.7190   -26.3310     2.2040 
   88.8750    56.0870    10.3510     8.4380     9.7690    23.7670   -26.9390     2.2190 
   89.0000    52.8220    10.9060     8.9170    10.2920    23.8520   -27.4470     2.2300 
   89.1250    48.0070    11.6280     9.5220    11.0060    23.9460   -27.8050     2.2560 
   89.2500    43.6630    12.4030    10.1830    12.6720    24.0230   -28.0010     2.2990 
   89.3750    42.8750    12.9450    10.6930    14.8700    24.0670   -28.0560     2.3400 
   89.5000    44.9920    13.0070    10.8480    15.3080    24.0300   -27.9860     2.3640 
   89.6250    46.4480    12.5480    10.5810    13.0430    23.9480   -27.7970     2.3750 
   89.7500    46.4230    11.7310     9.9870    10.7890    23.9140   -27.4880     2.3890 
   89.8750    48.4330    10.8170     9.2500    10.1690    23.9360   -27.0860     2.3990 
   90.0000    53.5450    10.0150     8.5420    10.2290    23.9590   -26.6450     2.3770 
   90.1250    58.2410     9.4170     7.9610     9.8860    23.9510   -26.2220     2.3190 
   90.2500    61.1900     9.0280     7.5320     9.1730    23.9190   -25.8490     2.2560 
   90.3750    63.7660     8.8350     7.2650     8.6860    23.8630   -25.5520     2.2200 
   90.5000    65.2480     8.8080     7.1410     8.2620    23.8000   -25.3760     2.2020 
   90.6250    64.5030     8.9130     7.1470     8.1900    23.7650   -25.3560     2.1810 
   90.7500    61.9080     9.1050     7.2610     9.0340    23.7750   -25.4830     2.1500 
   90.8750    58.5310     9.3020     7.4390    10.0400    23.8190   -25.7190     2.1170 
   91.0000    55.0850     9.4290     7.6120    10.4050    23.8680   -26.0420     2.0870 
   91.1250    52.6600     9.4450     7.7230    10.3000    23.9080   -26.4430     2.0580 
   91.2500    53.0470     9.3550     7.7420    10.1310    23.9400   -26.8950     2.0290 
   91.3750    55.4930     9.1960     7.6700    10.0110    23.9730   -27.3720     2.0150 
   91.5000    56.7870     9.0290     7.5470     9.8310    23.9980   -27.8430     2.0310 
   91.6250    55.1060     8.9000     7.4200     9.5550    24.0120   -28.2730     2.0720 
   91.7500    52.1250     8.8310     7.3240     9.3220    24.0150   -28.6630     2.1170 
   91.8750    51.1710     8.8310     7.2820     9.1740    24.0110   -29.0400     2.1470 
