~V
VERS. 2.00: Ver 2.00
~W
STRT.M 50.0000:
STOP.M 242.0000:
STEP.M 0.1250:
NULL. -999.2500:
UWI. F11136:
~C
DEPT.M :
GR.API :
RML.OHMM :
RI. :
RXO.OHMM :
CALI.CM :
SP.MV :
DEN.GM/CC :
~A
# ...
   83.7500    49.4890    10.2500     8.6280    11.3710    20.7750   -30.5390     2.1710 
   83.8750    44.3450    10.6030     8.9250    14.9110    21.0630   -30.7250     2.1970 
   84.0000    43.5710    10.5440     8.8750    15.6730    20.7730   -30.8570     2.2080 
   84.1250    46.5120    10.0060     8.4230    11.5270    20.3690   -30.9480     2.1990 
   84.2500    48.6130     9.3640     7.8820     9.5460    20.4300   -30.9880     2.1860 
   84.3750    50.9380     8.8840     7.4780     9.2010    20.5720   -31.0100     2.1850 
   84.5000    54.8730     8.7150     7.3360     9.5200    20.8670   -31.0710     2.2050 
   84.6250    57.2720     8.9210     7.5090     9.8480    21.0440   -31.2010     2.2390 
   84.7500    55.2590     9.3240     7.8490    10.2690    21.0330   -31.3070     2.2710 
   84.8750    51.3160     9.7410     8.1990    11.5920    21.0130   -31.3810     2.2890 
   85.0000    50.1750     9.9920     8.4110    13.2780    20.9350   -31.4760     2.2890 
   85.1250    51.7550     9.9310     8.3590    11.5440    20.7950   -31.6070     2.2660 
   85.2500    53.0330     9.6420     8.1160     9.3590    20.5550   -31.7260     2.2310 
   85.3750    53.6470     9.2520     7.7880     8.5260    20.4290   -31.8140     2.1930 
   85.5000    52.9720     8.8840     7.4780     8.5340    20.3180   -31.8800     2.1610 
   85.6250    50.8610     8.6340     7.2670     8.6350    20.3290   -31.9100     2.1420 
   85.7500    49.6610     8.4950     7.1500     8.5520    20.4310   -31.9260     2.1340 
   85.8750    49.8630     8.4370     7.1010     8.4690    20.3490   -31.8910     2.1350 
   86.0000    49.2160     8.4190     7.0870     8.5410    20.2160   -31.8010     2.1390 
   86.1250    47.1970     8.4070     7.0770     8.7010    20.5610   -31.7070     2.1450 
   86.2500    47.6570     8.3700     7.0450     8.7690    20.8570   -31.6220     2.1520 
   86.3750    50.7300     8.2950     6.9830     8.8330    21.0250   -31.5000     2.1590 
   86.5000    53.6360     8.1980     6.9000     8.8530    21.2950   -31.3330     2.1670 
   86.6250    56.2810     8.1460     6.8560     8.6920    21.1640   -31.1680     2.1740 
   86.7500    58.5860     8.1880     6.8920     8.6730    20.9470   -31.0100     2.1780 
   86.8750    59.3860     8.3150     7.0000     8.9510    20.6450   -30.8560     2.1750 
   87.0000    57.7190     8.4750     7.1330     9.4280    20.2430   -30.7110     2.1630 
   87.1250    56.5380     8.5790     7.2220     9.7820    20.1110   -30.5610     2.1420 
   87.2500    56.5850     8.5740     7.2180     9.8880    20.2780   -30.4160     2.1250 
   87.3750    54.0810     8.4610     7.1220     9.7340    20.2930   -30.3080     2.1200 
   87.5000    49.4020     8.2920     6.9790     9.4400    20.2540   -30.2370     2.1330 
   87.6250    48.7630     8.1600     6.8680     9.2860    20.1490   -30.1730     2.1650 
   87.7500    51.1500     8.1190     6.8350     9.2870    20.0320   -30.1270     2.2040 
   87.8750    51.0860     8.1730     6.8790     9.2710    20.0290   -30.0770     2.2400 
   88.0000    47.5130     8.2840     6.9730     9.1570    20.1040   -29.9750     2.2650 
   88.1250    47.0670     8.3800     7.0540     8.9320    20.1160   -29.8120     2.2660 
   88.2500    50.0840     8.4220     7.0900     8.6730    20.2220   -29.6220     2.2480 
   88.3750    53.0600     8.4380     7.1030     8.5600    20.3120   -29.3810     2.2180 
   88.5000    54.2060     8.4720     7.1320     8.6430    20.3210   -29.0550     2.1920 
   88.6250    54.2850     8.5290     7.1800     8.6360    20.2970   -28.6370     2.1790 
   88.7500    54.2060     8.5300     7.1800     8.6000    20.2500   -28.1830     2.1810 
   88.8750    53.3560     8.3670     7.0430     8.4790    20.2430   -27.7100     2.1940 
   89.0000    52.6980     7.9630     6.7030     8.2440    20.2720   -27.2130     2.2140 
   89.1250    55.6180     7.3150     6.1570     7.8120    20.4740   -26.6780     2.2400 
   89.2500    63.0970     6.6050     5.5600     6.9900    21.0030   -26.1520     2.2650 
   89.3750    73.7160     5.9820     5.0360     6.0460    21.7280   -25.7350     2.2770 
   89.5000    82.0130     5.5480     4.6700     5.5680    22.0620   -25.4810     2.2690 
   89.6250    80.7410     5.4030     4.5480     5.7260    21.7180   -25.3760     2.2390 
   89.7500    74.7430     5.5130     4.6410     6.1350    21.1160   -25.3620     2.2050 
   89.8750    70.5830     5.8380     4.9140     6.5610    20.6060   -25.4770     2.1800 
   90.0000    68.3900     6.3020     5.3050     6.7610    20.4000   -25.7690     2.1690 
   90.1250    64.7470     6.8230     5.7430     7.0240    20.5040   -26.2040     2.1690 
   90.2500    61.0660     7.3240     6.1650     7.5510    20.6620   -26.7030     2.1710 
   90.3750    59.5280     7.7730     6.5430     8.0190    20.6510   -27.2070     2.1730 
   90.5000    57.7680     8.1410     6.8530     8.2540    20.7890   -27.6990     2.1750 
   90.6250    55.3310     8.3770     7.0510     8.3110    20.9720   -28.1740     2.1820 
   90.7500    55.3380     8.4610     7.1220     8.3350    21.1210   -28.6000     2.1890 
   90.8750    56.6170     8.4070     7.0770     8.3490    21.1120   -28.9620     2.1900 
   91.0000    58.0690     8.2790     6.9690     8.3580    20.9530   -29.2500     2.1810 
   91.1250    59.7130     8.1750     6.8820     8.3700    20.6820   -29.5090     2.1640 
   91.2500    62.2580     8.1410     6.8530     8.4040    20.5930   -29.7330     2.1480 
   91.3750    63.4680     8.1650     6.8730     8.4130    20.5090   -29.8800     2.1390 
   91.5000    60.6160     8.1990     6.9020     8.4430    20.4270   -29.9470     2.1380 
   91.6250    56.6660     8.1900     6.8940     8.4830    20.4140   -29.9710     2.1420 
   91.7500    55.3580     8.1500     6.8610     8.4990    20.4080   -29.9850     2.1460 
   91.8750    56.4960     8.1300     6.8430     8.4950    20.3940   -29.9710     2.1470 
   92.0000    57.8910     8.1760     6.8830     8.4710    20.3410   -29.9000     2.1450 
   92.1250    58.3210     8.3000     6.9870     8.4410    20.3010   -29.7580     2.1440 
   92.2500    58.5160     8.4390     7.1030     8.5620    20.2220   -29.5950     2.1430 
   92.3750    57.6370     8.5220     7.1730     8.8470    20.1310   -29.4370     2.1430 
   92.5000    56.2180     8.4730     7.1320     9.0940    20.1100   -29.2420     2.1450 
   92.6250    56.6430     8.2310     6.9280     9.0400    20.1740   -28.9550     2.1520 
   92.7500    60.6800     7.8660     6.6210     8.7060    20.3040   -28.6540     2.1690 
   92.8750    66.9230     7.4630     6.2820     8.1900    20.4430   -28.3840     2.1950 
   93.0000    70.3920     7.1180     5.9920     7.8350    20.5850   -28.1200     2.2240 
   93.1250    68.1970     6.9340     5.8360     7.7460    20.6270   -27.8630     2.2420 
   93.2500    65.8840     6.9110     5.8180     7.8060    20.6110   -27.6540     2.2450 
   93.3750    66.1170     7.0180     5.9080     7.9410    20.5330   -27.5000     2.2340 
   93.5000    65.8850     7.1870     6.0500     7.9580    20.4860   -27.3950     2.2170 
   93.6250    62.1380     7.3170     6.1590     7.8530    20.4480   -27.3360     2.2050 
   93.7500    58.9850     7.3280     6.1680     7.8240    20.4780   -27.2640     2.2030 
   93.8750    59.7110     7.2050     6.0640     7.9740    20.5720   -27.1840     2.2100 
   94.0000    64.3280     7.0120     5.9020     7.9470    20.7110   -27.1580     2.2240 
   94.1250    71.3340     6.8760     5.7880     7.7190    20.9680   -27.1720     2.2400 
   94.2500    76.5860     6.8860     5.7960     7.6140    21.2100   -27.1680     2.2520 
   94.3750    73.6410     7.0710     5.9520     8.0290    21.4660   -27.1590     2.2560 
   94.5000    62.4620     7.3920     6.2220     8.5630    21.4780   -27.1780     2.2490 
   94.6250    53.6200     7.7470     6.5210     8.7470    21.3870   -27.2410     2.2320 
   94.7500    54.5300     8.0170     6.7480     8.8360    21.1890   -27.2970     2.2130 
   94.8750    60.8080     8.1670     6.8740     8.9900    21.0490   -27.3220     2.1980 
