~V
VERS. 2.00: Ver 2.00
~W
STRT.M 14.0000:
STOP.M 209.0000:
STEP.M 0.1250:
NULL. -999.2500:
UWI. F11100:
~C
DEPT.M :
GR.API :
RML.OHMM :
RI. :
RXO.OHMM :
CALI.CM :
SP.MV :
DEN.GM/CC :
~A
# ...
  126.5000    54.0380    21.9580    17.3810    19.7490    27.1970     2.2390     2.4520 
  126.6250    49.3560    21.1890    17.0500    19.7390    27.1980     2.1760     2.5000 
  126.7500    46.4820    18.7900    15.5940    19.8540    27.2020     2.0470     2.5110 
  126.8750    50.3840    15.2360    13.2430    17.8820    27.1930     1.8810     2.4730 
  127.0000    61.6270    11.5330    10.6210    13.5260    27.1660     1.7130     2.3950 
  127.1250    75.0860     8.6830     8.4150     8.6630    27.1430     1.5540     2.3010 
  127.2500    84.8870     6.7910     6.8130     5.5600    27.1440     1.3990     2.2240 
  127.3750    89.5550     5.6920     5.7780     4.5530    27.1520     1.2360     2.1790 
  127.5000    90.7150     5.1420     5.1950     4.5560    27.1570     1.0620     2.1720 
  127.6250    87.6830     5.0110     5.0040     4.7810    27.1830     0.8860     2.1940 
  127.7500    82.9090     5.1880     5.1040     4.6210    27.2470     0.7250     2.2140 
  127.8750    79.8790     5.7210     5.5140     4.7770    27.3460     0.5940     2.2240 
  128.0000    77.3330     6.6640     6.2630     5.4080    27.4470     0.5220     2.2360 
  128.1250    72.2390     8.0380     7.3790     6.8400    27.5050     0.5250     2.2710 
  128.2500    66.6380     9.5030     8.6230    10.0830    27.5200     0.6060     2.3190 
  128.3750    64.0730    10.5570     9.6220    15.3620    27.5180     0.7400     2.3520 
  128.5000    63.8780    10.6700     9.9350    16.7680    27.5210     0.8950     2.3430 
  128.6250    65.0070     9.5950     9.2700    11.0380    27.5250     1.0390     2.2920 
  128.7500    70.1040     8.0640     8.1180     7.3350    27.5240     1.1750     2.2390 
  128.8750    78.9870     6.6580     6.9220     5.5960    27.5230     1.2930     2.2110 
  129.0000    86.7480     5.6850     5.9600     4.7790    27.5430     1.3900     2.2180 
  129.1250    87.8330     5.2310     5.3620     4.5300    27.6000     1.4590     2.2410 
  129.2500    85.2410     5.1020     5.0400     4.5850    27.6700     1.5300     2.2490 
  129.3750    83.0830     5.2270     4.9590     4.7990    27.7370     1.6040     2.2320 
  129.5000    81.7540     5.6320     5.1350     5.0260    27.7870     1.6600     2.1990 
  129.6250    77.6830     6.5300     5.6970     5.3580    27.8060     1.7140     2.1750 
  129.7500    72.1760     8.0460     6.6990     6.4360    27.8190     1.7720     2.1840 
  129.8750    67.9430    10.3080     8.2200     9.3260    27.8700     1.8550     2.2330 
  130.0000    63.3780    13.2590    10.2550    15.2360    27.9520     1.9660     2.3160 
  130.1250    56.4850    16.4120    12.5740    20.0830    28.0130     2.1020     2.4110 
  130.2500    52.2240    18.7920    14.5330    21.2540    28.0470     2.2200     2.4840 
  130.3750    53.0680    19.6660    15.5670    20.6320    28.0820     2.3340     2.5260 
  130.5000    55.2430    19.0210    15.5280    19.5360    28.1360     2.4530     2.5370 
  130.6250    54.3140    17.6390    14.7900    17.2970    28.1940     2.5490     2.5230 
  130.7500    52.4920    16.5800    14.0780    14.7830    28.2360     2.6010     2.5020 
  130.8750    51.4100    16.2290    13.7010    12.9900    28.2550     2.6110     2.4880 
  131.0000    51.3440    16.6020    13.7420    13.3970    28.2540     2.5920     2.4890 
  131.1250    51.0580    17.5530    14.1820    16.9120    28.2660     2.5730     2.5080 
  131.2500    51.1800    18.6460    14.7980    20.6260    28.2940     2.5620     2.5310 
  131.3750    52.9620    19.5660    15.4100    21.5950    28.3190     2.5310     2.5460 
  131.5000    56.2240    20.1040    15.8680    19.3990    28.3290     2.5030     2.5480 
  131.6250    57.8610    20.2030    16.0850    19.0030    28.3290     2.5090     2.5390 
  131.7500    55.7950    20.1080    16.1610    19.3670    28.3310     2.5570     2.5250 
  131.8750    52.8140    20.0030    16.1920    20.0130    28.3290     2.6330     2.5120 
  132.0000    52.7630    20.0130    16.2580    19.9020    28.3210     2.7030     2.5040 
  132.1250    53.8920    20.2290    16.4230    20.1500    28.3190     2.7400     2.5020 
  132.2500    54.2100    20.6400    16.6980    20.0980    28.3230     2.7780     2.5020 
  132.3750    53.9890    21.2180    17.0730    19.7810    28.3280     2.8350     2.5020 
  132.5000    54.1550    21.8350    17.4810    19.2310    28.3290     2.9000     2.5040 
  132.6250    53.3290    22.1660    17.7310    19.7950    28.3290     2.9560     2.5100 
  132.7500    51.3630    21.9560    17.6590    21.2640    28.3290     2.9990     2.5180 
  132.8750    50.6040    21.1380    17.2070    21.4970    28.3270     3.0330     2.5210 
  133.0000    52.5400    19.9060    16.4680    18.6490    28.3240     3.0710     2.5110 
  133.1250    54.4040    18.6720    15.6710    15.3930    28.3290     3.0950     2.4860 
  133.2500    52.7950    17.8170    15.0650    14.3100    28.3450     3.0800     2.4560 
  133.3750    47.8270    17.5160    14.7840    14.3330    28.3390     3.0230     2.4270 
  133.5000    44.3860    17.7690    14.8610    14.6800    28.2680     2.9590     2.4040 
  133.6250    45.7810    18.4580    15.2600    15.5610    28.1340     2.9100     2.3950 
  133.7500    48.0030    19.2420    15.7680    16.6810    27.9880     2.8790     2.4050 
  133.8750    49.3700    19.8900    16.2310    17.8820    27.8610     2.8370     2.4350 
  134.0000    50.1280    20.2600    16.5420    18.6920    27.7670     2.7680     2.4730 
  134.1250    50.7800    20.3030    16.6470    18.6290    27.7320     2.6980     2.4970 
  134.2500    52.4700    20.2270    16.6560    17.8640    27.7290     2.6460     2.5000 
  134.3750    55.1100    20.2500    16.6880    17.5600    27.7120     2.6070     2.4890 
  134.5000    57.4600    20.5610    16.8640    17.8770    27.6600     2.5510     2.4770 
  134.6250    57.3100    21.2950    17.2850    18.2360    27.5780     2.4840     2.4740 
  134.7500    55.1350    22.2440    17.8570    18.3120    27.5080     2.4490     2.4830 
  134.8750    51.0690    23.1040    18.4120    19.2040    27.4410     2.4480     2.5010 
  135.0000    47.3700    23.5270    18.7380    20.7980    27.3420     2.4810     2.5200 
  135.1250    47.7130    23.1550    18.5890    20.7480    27.2270     2.5020     2.5270 
  135.2500    49.8080    22.1730    18.0340    19.1350    27.1330     2.5180     2.5180 
  135.3750    51.3740    20.8860    17.2330    17.3170    27.0300     2.5280     2.4940 
  135.5000    51.8650    19.6540    16.4020    15.6940    26.8770     2.5380     2.4660 
  135.6250    52.4610    18.8230    15.7700    15.4420    26.7110     2.5540     2.4470 
  135.7500    51.9920    18.4360    15.4110    15.3710    26.5840     2.5540     2.4390 
  135.8750    50.5720    18.4560    15.3300    15.4190    26.4710     2.5310     2.4380 
  136.0000    50.2370    18.7840    15.4850    15.8400    26.3570     2.5040     2.4400 
  136.1250    50.0480    19.2970    15.8120    16.0550    26.2520     2.4800     2.4430 
  136.2500    48.1080    19.8130    16.1800    16.1130    26.1580     2.4750     2.4460 
  136.3750    45.7590    20.1940    16.4860    16.7110    26.0690     2.4570     2.4470 
  136.5000    45.4600    20.3230    16.6380    17.6840    25.9620     2.3990     2.4460 
  136.6250    47.6000    20.1190    16.5690    17.5850    25.8050     2.2800     2.4440 
  136.7500    49.0010    19.7450    16.3730    16.5580    25.6050     2.1560     2.4470 
  136.8750    49.5300    19.3770    16.1610    15.8710    25.4120     2.0650     2.4580 
  137.0000    49.1170    19.1710    16.0310    15.8420    25.2760     1.9940     2.4770 
  137.1250    47.4640    19.2320    16.0520    16.5380    25.1980     1.9120     2.4980 
  137.2500    47.0190    19.4430    16.1630    17.2590    25.1620     1.8320     2.5130 
  137.3750    46.5940    19.6530    16.2810    18.2130    25.1620     1.7830     2.5190 
  137.5000    45.0050    19.7140    16.3240    18.8380    25.1860     1.7890     2.5170 
  137.6250    43.0060    19.5000    16.2190    17.9270    25.2030     1.7960     2.5120 
