~V
VERS. 2.00: Ver 2.00
~W
STRT.M 56.0000:
STOP.M 252.0000:
STEP.M 0.1250:
NULL. -999.2500:
UWI. F11142:
~C
DEPT.M :
SP.MV :
DEN.GM/CC :
GR.API :
RML.OHMM :
RI. :
RXO.OHMM :
CALI.CM :
~A
# ...
  134.7500    -5.8910     2.4970    87.1390    26.1090    23.6050    28.9660    24.1850 
  134.8750    -6.0120     2.4860    86.1480    25.0330    22.7530    27.0260    23.6580 
  135.0000    -6.0910     2.4640    84.6730    23.6150    21.5180    23.5670    23.4980 
  135.1250    -6.1250     2.4360    84.1180    22.3680    20.3420    20.5680    23.8370 
  135.2500    -6.0710     2.4100    84.7730    21.5950    19.5210    19.0970    24.3650 
  135.3750    -5.9510     2.3900    84.4960    21.3900    19.2000    18.8920    24.7440 
  135.5000    -5.7720     2.3810    81.6050    21.6390    19.3760    19.9260    24.9340 
  135.6250    -5.5820     2.3810    81.2440    21.8880    19.7010    21.8040    25.0410 
  135.7500    -5.4140     2.3890    85.5350    21.7460    19.8250    23.4500    25.1210 
  135.8750    -5.2490     2.3940    90.0400    20.8990    19.4040    23.7410    24.9160 
  136.0000    -5.0770     2.3790    89.3430    19.0900    18.0710    22.2590    24.6420 
  136.1250    -4.9100     2.3440    87.6110    16.6480    16.0170    19.2260    24.4670 
  136.2500    -4.7940     2.3000    88.5800    13.9590    13.5690    15.4500    24.4770 
  136.3750    -4.7490     2.2610    90.6410    11.4430    11.1510    12.2860    24.5100 
  136.5000    -4.8660     2.2400    92.3520     9.5010     9.1770     9.5200    24.3220 
  136.6250    -5.1060     2.2300    94.6710     8.1460     7.7060     7.7600    24.1080 
  136.7500    -5.3360     2.2270    96.8490     7.3070     6.6980     6.9250    23.9100 
  136.8750    -5.5420     2.2330    97.1170     6.8400     6.0540     6.7150    23.7200 
  137.0000    -5.7400     2.2440    98.3040     6.5960     5.6840     6.5480    23.5290 
  137.1250    -5.9660     2.2460   100.9570     6.4030     5.4340     6.0930    23.4710 
  137.2500    -6.1970     2.2340   100.2470     6.1990     5.2350     5.6410    23.4940 
  137.3750    -6.4030     2.2140    95.4670     5.9800     5.0480     5.4010    23.5220 
  137.5000    -6.4740     2.2050    93.3130     5.7850     4.8720     5.2300    23.4890 
  137.6250    -6.4760     2.2130    95.5410     5.6510     4.7320     5.0260    23.4410 
  137.7500    -6.4820     2.2290    99.1780     5.6020     4.6550     4.8520    23.4240 
  137.8750    -6.5370     2.2410   102.3920     5.6410     4.6570     4.7820    23.4270 
  138.0000    -6.6220     2.2460   104.2470     5.7710     4.7440     4.8610    23.4300 
  138.1250    -6.6500     2.2540   103.5940     5.9420     4.8760     5.0990    23.4290 
  138.2500    -6.5670     2.2730   101.3530     6.0970     5.0050     5.4360    23.4280 
  138.3750    -6.3420     2.2990    99.9590     6.1760     5.0780     5.6930    23.4530 
  138.5000    -6.0070     2.3180   101.8980     6.0300     5.0290     5.7300    23.5230 
  138.6250    -5.5850     2.3170   103.3290     5.7390     4.8660     5.6030    23.5870 
  138.7500    -5.1250     2.3030   102.6090     5.3300     4.6180     5.1850    23.5820 
  138.8750    -4.6020     2.2900   101.3050     4.7710     4.3370     4.5410    23.5710 
  139.0000    -4.0210     2.2870   102.4960     4.5730     4.0900     4.2340    23.5930 
  139.1250    -3.4580     2.2840   103.4820     4.4310     3.9120     4.1730    23.6930 
  139.2500    -2.9860     2.2760   101.2650     4.3460     3.8090     4.1920    23.8900 
  139.3750    -2.6250     2.2710    97.7550     4.3150     3.7740     4.2120    24.1080 
  139.5000    -2.3800     2.2710    96.8730     4.3370     3.7920     4.2340    24.2580 
  139.6250    -2.2030     2.2730    97.9850     4.3910     3.8300     4.2930    24.3410 
  139.7500    -2.0490     2.2790    99.5000     4.4620     3.8730     4.3830    24.3960 
  139.8750    -1.9040     2.2900    99.8660     4.5380     3.9130     4.4550    24.4490 
  140.0000    -1.8140     2.3060    98.7210     4.6070     3.9440     4.5300    24.5040 
  140.1250    -1.7670     2.3210    97.6360     4.6650     3.9710     4.5830    24.5230 
  140.2500    -1.7290     2.3310    98.3620     4.7080     3.9970     4.6380    24.5120 
  140.3750    -1.7090     2.3390   100.5120     4.7350     4.0200     4.6870    24.4970 
  140.5000    -1.6850     2.3430   101.0600     4.7460     4.0360     4.7200    24.4930 
  140.6250    -1.6570     2.3440    99.4340     4.7450     4.0400     4.7390    24.4980 
  140.7500    -1.6620     2.3420    97.4590     4.7440     4.0330     4.7680    24.4840 
  140.8750    -1.7330     2.3370    96.7850     4.7530     4.0150     4.7730    24.4450 
  141.0000    -1.8770     2.3280    98.7360     4.7760     3.9960     4.7380    24.4010 
  141.1250    -2.0570     2.3200   101.9720     4.7980     3.9850     4.6980    24.3520 
  141.2500    -2.2510     2.3170   104.4130     4.8030     3.9870     4.6930    24.2940 
  141.3750    -2.4660     2.3180   103.9390     4.7900     4.0040     4.7270    24.2650 
  141.5000    -2.6900     2.3220   101.5810     4.7780     4.0320     4.7890    24.2690 
  141.6250    -2.9110     2.3270   100.8190     4.7910     4.0590     4.8490    24.2930 
  141.7500    -3.1460     2.3310   103.5840     4.8350     4.0780     4.8760    24.3120 
  141.8750    -3.4060     2.3300   108.0510     4.9000     4.0850     4.8580    24.3130 
  142.0000    -3.6670     2.3210   109.2710     4.9610     4.0810     4.7700    24.2410 
  142.1250    -3.8970     2.3100   107.4760     5.0090     4.0750     4.6450    24.0520 
  142.2500    -4.0950     2.3080   105.7610     5.0490     4.0740     4.5260    23.7950 
  142.3750    -4.2420     2.3130   104.9910     5.0940     4.0810     4.4620    23.6240 
  142.5000    -4.3410     2.3170   104.0910     5.1450     4.0940     4.4680    23.5880 
  142.6250    -4.4430     2.3160   103.0110     5.1850     4.1050     4.4830    23.6070 
  142.7500    -4.5640     2.3120   103.9320     5.1980     4.1060     4.4770    23.6300 
  142.8750    -4.6870     2.3050   106.6590     5.1710     4.0910     4.4440    23.6420 
  143.0000    -4.7550     2.2940   108.4040     5.1130     4.0590     4.3970    23.6440 
  143.1250    -4.8190     2.2810   107.8260     5.0600     4.0180     4.3590    23.6440 
  143.2500    -4.9060     2.2740   105.0540     5.0340     3.9800     4.3240    23.6440 
  143.3750    -4.9870     2.2840   103.1080     5.0390     3.9520     4.3070    23.6500 
  143.5000    -5.0250     2.3150   104.1610     5.0550     3.9410     4.3180    23.6710 
  143.6250    -5.0200     2.3480   104.9160     5.0550     3.9410     4.3580    23.7150 
  143.7500    -4.9100     2.3640   103.6030     5.0310     3.9430     4.4150    23.7790 
  143.8750    -4.7180     2.3590   101.3630     4.9930     3.9400     4.4860    23.8560 
  144.0000    -4.4770     2.3420   101.1380     4.9610     3.9230     4.5240    23.9110 
  144.1250    -4.1960     2.3300   102.4380     4.9430     3.8950     4.5120    23.9690 
  144.2500    -3.8930     2.3260   103.4430     4.9310     3.8620     4.5000    24.0560 
  144.3750    -3.5710     2.3270   103.9850     4.9060     3.8290     4.5020    24.1650 
  144.5000    -3.2590     2.3300   104.5690     4.8640     3.8010     4.5090    24.2250 
  144.6250    -2.9240     2.3360   105.1380     4.8080     3.7780     4.4970    24.2350 
  144.7500    -2.5920     2.3470   104.2350     4.7470     3.7570     4.4600    24.2110 
  144.8750    -2.2580     2.3620   102.2120     4.6860     3.7390     4.4100    24.1810 
  145.0000    -1.9590     2.3710   101.6310     4.6390     3.7210     4.3810    24.1530 
  145.1250    -1.6970     2.3720   102.8280     4.5890     3.7040     4.3750    24.1290 
  145.2500    -1.4530     2.3670   103.8970     4.5530     3.6820     4.3910    24.1120 
  145.3750    -1.2570     2.3630   105.2900     4.5220     3.6540     4.4080    24.0470 
  145.5000    -1.0960     2.3610   106.8450     4.4740     3.6170     4.4030    23.8820 
  145.6250    -0.9740     2.3560   106.6090     4.4330     3.5760     4.3580    23.6720 
  145.7500    -0.9060     2.3530   103.1530     4.3930     3.5390     4.2680    23.5570 
  145.8750    -0.8670     2.3560    98.0990     4.3450     3.5130     4.1780    23.6180 
