~V
VERS. 2.00: Ver 2.00
~W
STRT.M 50.0000:
STOP.M 240.0000:
STEP.M 0.1250:
NULL. -999.2500:
UWI. F11117:
~C
DEPT.M :
DEN.GM/CC :
GR.API :
RML.OHMM :
RI. :
RXO.OHMM :
CALI.CM :
SP.MV :
~A
# ...
   83.7500     2.1300    55.3450     8.2980     7.5840     7.7210    25.7180   -25.1810 
   83.8750     2.1250    57.8550     8.3250     7.5850     7.6480    25.5490   -25.0220 
   84.0000     2.1210    59.9740     8.3250     7.5750     7.5810    25.3130   -24.8070 
   84.1250     2.1190    60.1420     8.2530     7.5250     7.4880    25.3030   -24.5230 
   84.2500     2.1160    60.7900     8.1190     7.4350     7.3400    25.2740   -24.1960 
   84.3750     2.1110    62.9490     7.9540     7.3160     7.1440    25.1990   -23.7950 
   84.5000     2.1070    64.2200     7.8040     7.1940     6.9520    25.1700   -23.3030 
   84.6250     2.1070    63.5530     7.6970     7.0910     6.8700    25.1620   -22.7250 
   84.7500     2.1120    63.1710     7.5910     6.9920     6.9830    25.1440   -22.0440 
   84.8750     2.1240    63.7060     7.4280     6.8610     7.0670    25.1310   -21.2710 
   85.0000     2.1390    64.8130     7.1720     6.6670     7.0530    25.2410   -20.4250 
   85.1250     2.1520    65.8990     6.8450     6.4100     6.6960    25.5860   -19.5240 
   85.2500     2.1590    68.4330     6.5400     6.1460     5.9980    26.1900   -18.6510 
   85.3750     2.1600    70.9590     6.3420     5.9380     5.3430    26.8140   -17.8500 
   85.5000     2.1550    71.3400     6.3030     5.8390     5.3310    27.1550   -17.2120 
   85.6250     2.1510    69.8840     6.4430     5.8940     5.9520    26.5760   -16.7460 
   85.7500     2.1500    69.0030     6.6790     6.0560     6.2820    26.0100   -16.3990 
   85.8750     2.1550    70.0840     6.9350     6.2710     6.1190    26.0050   -16.1980 
   86.0000     2.1650    72.5360     7.1320     6.4700     6.3200    26.0600   -16.1530 
   86.1250     2.1780    74.3320     7.1850     6.5690     6.7860    25.8070   -16.2770 
   86.2500     2.1880    73.3240     7.1180     6.5580     7.0970    25.7490   -16.5120 
   86.3750     2.1880    69.5540     6.9890     6.4680     7.6930    25.8090   -16.8280 
   86.5000     2.1780    67.0470     6.8740     6.3550     8.5310    25.7680   -17.2550 
   86.6250     2.1590    67.6780     6.8560     6.2890     7.8560    25.9590   -17.7740 
   86.7500     2.1390    66.8480     6.9480     6.3020     6.9820    25.9570   -18.4340 
   86.8750     2.1230    64.6950     7.1250     6.3980     6.7150    25.5960   -19.2270 
   87.0000     2.1120    65.4790     7.3280     6.5450     6.7540    24.9960   -20.0410 
   87.1250     2.1060    69.6200     7.4860     6.6920     6.7680    24.8490   -20.8950 
   87.2500     2.1030    72.3260     7.5740     6.8010     6.7830    24.8920   -21.7910 
   87.3750     2.1020    73.8560     7.6040     6.8660     6.7680    25.0580   -22.6470 
   87.5000     2.1030    75.7300     7.6070     6.8970     6.8260    25.0960   -23.3890 
   87.6250     2.1060    73.8430     7.6120     6.9130     7.0380    24.8580   -24.0060 
   87.7500     2.1070    69.5080     7.6220     6.9280     7.3810    24.8210   -24.4980 
   87.8750     2.1050    68.4480     7.6270     6.9400     7.6700    24.8130   -24.8760 
   88.0000     2.1020    71.3820     7.6130     6.9460     7.7900    24.8130   -25.1680 
   88.1250     2.0990    71.4480     7.5800     6.9420     7.8700    24.8160   -25.3730 
   88.2500     2.1000    66.0870     7.5460     6.9340     7.9380    24.8220   -25.5090 
   88.3750     2.1050    60.3960     7.5210     6.9300     8.0080    24.8260   -25.5790 
   88.5000     2.1130    57.9890     7.5080     6.9320     8.1080    24.8440   -25.5800 
   88.6250     2.1220    58.5670     7.5020     6.9410     8.1400    24.9660   -25.5310 
   88.7500     2.1310    61.1290     7.4950     6.9530     8.1300    25.1970   -25.4290 
   88.8750     2.1360    63.9350     7.4870     6.9660     8.1380    25.3970   -25.2820 
   89.0000     2.1380    64.3250     7.4810     6.9830     8.1530    25.4290   -25.1320 
   89.1250     2.1350    60.7570     7.4870     7.0100     8.1300    25.4420   -24.9650 
   89.2500     2.1300    58.5320     7.5060     7.0470     8.0960    25.4970   -24.7210 
   89.3750     2.1240    59.8120     7.5340     7.0870     8.1170    25.6100   -24.3910 
   89.5000     2.1190    62.0230     7.5480     7.1190     8.1070    25.5710   -24.0120 
   89.6250     2.1210    63.1160     7.4970     7.1050     7.9930    25.5590   -23.5180 
   89.7500     2.1290    63.3930     7.3390     7.0100     7.8080    25.6400   -22.9420 
   89.8750     2.1430    63.0060     7.0650     6.8140     7.5360    25.8640   -22.3070 
   90.0000     2.1620    63.7450     6.7110     6.5310     7.0160    26.3250   -21.6160 
   90.1250     2.1770    66.4190     6.3700     6.2230     6.4450    26.5280   -20.9290 
   90.2500     2.1820    68.5270     6.1320     5.9740     5.9850    26.5880   -20.3300 
   90.3750     2.1760    67.2580     6.0390     5.8320     5.8160    26.3750   -19.8910 
   90.5000     2.1610    64.5280     6.0870     5.8140     6.1950    25.9020   -19.6110 
   90.6250     2.1450    64.6380     6.2390     5.9110     6.9280    25.4380   -19.4700 
   90.7500     2.1350    65.7130     6.4010     6.0520     7.2660    25.3820   -19.4570 
   90.8750     2.1300    64.1820     6.5160     6.1840     7.3370    25.4380   -19.5130 
   91.0000     2.1300    61.5010     6.5590     6.2690     7.3670    25.3570   -19.5660 
   91.1250     2.1300    61.0990     6.5500     6.2990     7.6040    25.3890   -19.5990 
   91.2500     2.1300    63.1930     6.5500     6.3180     7.7280    25.5710   -19.5670 
   91.3750     2.1320    65.7220     6.6010     6.3640     7.4320    25.9710   -19.4760 
   91.5000     2.1390    68.1650     6.7140     6.4610     6.8930    26.6430   -19.3550 
   91.6250     2.1490    69.0120     6.8730     6.6100     7.2390    27.0450   -19.2280 
   91.7500     2.1590    68.5690     7.0250     6.7690     7.6870    27.0860   -19.1430 
   91.8750     2.1670    69.2800     7.1240     6.8970     7.8350    26.9550   -19.1180 
   92.0000     2.1730    73.0730     7.1540     6.9670     7.7040    26.5580   -19.2060 
   92.1250     2.1790    75.2700     7.1260     6.9700     7.4980    26.3510   -19.4510 
   92.2500     2.1840    73.0870     7.1000     6.9470     7.4030    26.1500   -19.7750 
   92.3750     2.1870    68.6810     7.1170     6.9360     7.4920    26.0240   -20.1820 
   92.5000     2.1880    66.4100     7.1870     6.9630     7.6670    25.9550   -20.6190 
   92.6250     2.1910    66.5130     7.2850     7.0260     7.7960    25.9510   -21.0830 
   92.7500     2.1950    65.2700     7.3460     7.0830     7.8310    26.1110   -21.4870 
   92.8750     2.1990    62.8750     7.3180     7.0860     7.6830    26.2840   -21.8130 
   93.0000     2.1960    59.8680     7.1770     6.9960     7.4760    26.3740   -22.1290 
   93.1250     2.1830    57.9000     6.9870     6.8340     7.4390    26.3770   -22.3480 
   93.2500     2.1720    57.3010     6.9270     6.7360     7.8500    26.3390   -22.5000 
   93.3750     2.1790    57.7070     7.1420     6.8400     8.1630    26.3160   -22.6160 
   93.5000     2.2150    58.0310     7.7000     7.2350     8.6270    26.5700   -22.7310 
   93.6250     2.2810    56.2920     8.9120     7.9570    11.5250    27.3930   -22.9280 
   93.7500     2.3420    53.4100     9.8440     8.7900    18.7510    28.2950   -23.2540 
   93.8750     2.3700    50.9840    10.5800     9.4460    25.7870    28.5680   -23.7400 
   94.0000     2.3500    51.8430    10.7950     9.6390    21.9170    28.0910   -24.3510 
   94.1250     2.2930    56.0880    10.3230     9.2170    12.9300    27.1030   -25.0460 
   94.2500     2.2320    58.2640     9.5510     8.5280     9.3830    26.8760   -25.8270 
   94.3750     2.1900    56.7270     8.8400     7.8930     8.4310    26.8360   -26.6810 
   94.5000     2.1750    54.5920     8.4480     7.5430     8.2910    26.8470   -27.5220 
   94.6250     2.1910    54.9600     8.5230     7.6100     8.3340    26.9350   -28.3190 
   94.7500     2.2220    56.8830     8.8900     7.9370     8.6070    27.0550   -29.0620 
   94.8750     2.2540    57.5210     9.3550     8.3530     9.4360    27.2810   -29.7360 
