~V
VERS. 2.00: Ver 2.00
~W
STRT.M 63.0000:
STOP.M 208.0000:
STEP.M 0.1250:
NULL. -999.2500:
UWI. F11108:
~C
DEPT.M :
GR.API :
RML.OHMM :
RI. :
RXO.OHMM :
CALI.CM :
SP.MV :
DEN.GM/CC :
~A
# ...
  119.2500    53.4790    19.7750    17.8780    18.0280    24.1960    -8.3400     2.5430 
  119.3750    55.0740    19.1250    17.2370    15.8880    24.1660    -8.2090     2.4940 
  119.5000    54.8760    18.7530    16.8180    14.3310    24.0970    -8.1760     2.4660 
  119.6250    53.1170    18.6580    16.6570    13.3620    23.9960    -8.2330     2.4680 
  119.7500    50.5790    18.7130    16.6620    14.1480    24.0020    -8.2460     2.4840 
  119.8750    49.0330    18.8250    16.7660    15.1830    24.1440    -8.1710     2.4950 
  120.0000    49.8590    18.9050    16.8860    15.2810    24.2590    -8.0900     2.4980 
  120.1250    51.9590    18.8570    16.9280    15.6840    24.1930    -8.0850     2.5050 
  120.2500    53.8760    18.6770    16.8510    16.8260    24.0390    -8.1360     2.5270 
  120.3750    55.1590    18.4000    16.6600    17.3540    24.0750    -8.2140     2.5590 
  120.5000    55.8940    18.1030    16.4060    16.2330    24.1190    -8.2670     2.5900 
  120.6250    56.2840    17.9050    16.1870    15.5400    24.0830    -8.2380     2.6030 
  120.7500    55.5930    17.8570    16.0750    14.6380    24.0380    -8.1910     2.6020 
  120.8750    55.1080    17.9470    16.0830    14.0340    23.9920    -8.1890     2.5970 
  121.0000    56.0370    18.0960    16.1680    13.2680    23.8840    -8.2610     2.5960 
  121.1250    58.0740    18.1710    16.2270    13.1730    23.8150    -8.3750     2.6020 
  121.2500    57.9270    18.1040    16.1850    14.0920    23.8690    -8.4840     2.6080 
  121.3750    53.7340    17.9210    16.0410    14.5430    24.0520    -8.5690     2.6100 
  121.5000    49.4130    17.7180    15.8620    14.4230    24.2100    -8.6450     2.6090 
  121.6250    49.8650    17.6490    15.7770    13.5440    24.3210    -8.7310     2.6060 
  121.7500    52.0500    17.7800    15.8650    13.6840    24.4320    -8.8380     2.6020 
  121.8750    52.6980    18.1130    16.1510    14.6370    24.5140    -8.9580     2.5980 
  122.0000    52.6670    18.5950    16.6110    15.7380    24.5440    -9.0360     2.5920 
  122.1250    55.0170    19.1140    17.1670    15.7930    24.5550    -9.0380     2.5840 
  122.2500    59.0200    19.5120    17.6660    15.2760    24.5390    -8.9630     2.5780 
  122.3750    61.9290    19.6570    17.9690    16.7470    24.4640    -8.8330     2.5760 
  122.5000    61.3100    19.4710    17.9750    18.3920    24.3480    -8.6820     2.5770 
  122.6250    57.0320    18.9320    17.6140    18.4880    24.3080    -8.5660     2.5760 
  122.7500    56.1190    18.2440    17.0470    18.2840    24.2550    -8.4530     2.5670 
  122.8750    60.6380    17.5930    16.4330    17.2050    24.2160    -8.2760     2.5500 
  123.0000    64.9030    17.1360    15.9280    16.5570    24.1780    -8.0470     2.5290 
  123.1250    63.2850    16.9950    15.6790    15.1210    24.1490    -7.8260     2.5140 
  123.2500    58.9230    17.1030    15.6680    14.5780    24.1560    -7.6990     2.5090 
  123.3750    55.6600    17.3850    15.8550    14.4680    24.2020    -7.6730     2.5100 
  123.5000    54.1460    17.7650    16.1750    14.0400    24.2560    -7.7300     2.5070 
  123.6250    53.9500    18.2010    16.5830    12.4570    24.3320    -7.7880     2.4950 
  123.7500    54.1720    18.6700    17.0380    12.4230    24.4190    -7.7970     2.4820 
  123.8750    53.7390    19.1590    17.5260    13.7130    24.3680    -7.8110     2.4780 
  124.0000    53.9860    19.6400    18.0240    15.5900    24.1980    -7.8580     2.4870 
  124.1250    56.6570    20.0490    18.4790    17.3590    24.0030    -7.9220     2.5030 
  124.2500    59.7510    20.3660    18.8510    19.6630    23.9130    -7.9590     2.5110 
  124.3750    59.8600    20.6090    19.1380    20.1540    23.9990    -7.9630     2.5080 
  124.5000    56.3980    20.8310    19.3740    21.1220    24.2730    -7.9070     2.4990 
  124.6250    53.9870    21.0920    19.6260    22.2570    24.4440    -7.8060     2.4950 
  124.7500    55.2230    21.3770    19.9180    20.8930    24.5670    -7.7570     2.5010 
  124.8750    57.9090    21.6050    20.2040    18.1540    24.6330    -7.7820     2.5120 
  125.0000    58.2550    21.6600    20.3830    17.2820    24.6110    -7.8580     2.5160 
  125.1250    55.6400    21.3980    20.3000    17.0610    24.4970    -7.9560     2.5080 
  125.2500    55.8230    20.8600    19.9430    17.7150    24.3590    -8.0350     2.4940 
  125.3750    59.9700    20.1310    19.3590    18.3170    24.2690    -8.0780     2.4830 
  125.5000    64.1840    19.3430    18.6520    17.7570    24.2380    -8.1330     2.4850 
  125.6250    64.8660    18.6510    17.9600    17.6240    24.1800    -8.2750     2.5000 
  125.7500    63.4190    18.1240    17.3790    16.4380    24.1210    -8.4620     2.5160 
  125.8750    61.8810    17.7670    16.9430    14.8490    24.1460    -8.6040     2.5250 
  126.0000    61.2280    17.5440    16.6410    13.5020    24.2520    -8.6700     2.5210 
  126.1250    61.6170    17.3930    16.4370    12.7790    24.3410    -8.7030     2.5070 
  126.2500    61.2590    17.2480    16.2610    13.5140    24.3810    -8.7710     2.4930 
  126.3750    58.2550    17.0980    16.0890    14.0180    24.2450    -8.8970     2.4860 
  126.5000    56.1890    16.9650    15.9280    13.5890    23.9870    -9.0360     2.4840 
  126.6250    58.0290    16.8980    15.8150    13.0490    23.8550    -9.1120     2.4820 
  126.7500    59.9560    16.9030    15.7670    13.1980    23.6800    -9.1060     2.4800 
  126.8750    59.1480    16.9550    15.7710    13.7510    23.3300    -9.0770     2.4810 
  127.0000    57.0130    16.9870    15.7790    14.1970    23.0970    -9.0850     2.4920 
  127.1250    58.6430    16.8990    15.6960    15.4120    23.0540    -9.1290     2.5090 
  127.2500    62.5320    16.6610    15.4690    15.8710    23.0170    -9.2040     2.5180 
  127.3750    65.1020    16.2960    15.1010    15.5840    22.8980    -9.2740     2.5140 
  127.5000    64.8380    15.8830    14.6480    15.0080    22.7870    -9.3170     2.4980 
  127.6250    63.5320    15.5470    14.2200    13.6030    22.7850    -9.3150     2.4870 
  127.7500    63.4340    15.3720    13.9160    13.0000    22.8930    -9.3260     2.4920 
  127.8750    64.3800    15.3940    13.7860    13.0710    22.9930    -9.3730     2.5120 
  128.0000    64.2110    15.5980    13.8340    13.4310    23.0350    -9.4270     2.5370 
  128.1250    60.6460    15.9380    14.0390    13.5580    23.0390    -9.4860     2.5510 
  128.2500    56.0190    16.2990    14.3040    14.3060    23.0360    -9.4730     2.5520 
  128.3750    54.3930    16.5900    14.5460    15.0850    23.0240    -9.3670     2.5410 
  128.5000    56.0490    16.7400    14.6910    15.4850    22.9350    -9.2190     2.5250 
  128.6250    54.4100    16.6970    14.6680    14.3820    22.7810    -9.1340     2.5060 
  128.7500    47.8810    16.5330    14.5190    13.6620    22.8200    -9.0970     2.4880 
  128.8750    42.5920    16.3270    14.3030    13.6970    23.2020    -9.0280     2.4770 
  129.0000    43.6030    16.1460    14.0810    13.4560    23.7730    -8.9020     2.4780 
  129.1250    47.9380    16.0100    13.8870    12.7320    24.1070    -8.7160     2.4950 
  129.2500    49.8570    15.8570    13.6860    12.6780    24.1760    -8.5810     2.5150 
  129.3750    50.2880    15.6130    13.4190    13.1570    24.2250    -8.5660     2.5250 
  129.5000    52.8100    15.2340    13.0400    13.7220    24.2030    -8.6700     2.5170 
  129.6250    58.5470    14.7430    12.5520    12.2700    24.1380    -8.8000     2.4950 
  129.7500    63.8620    14.2780    12.0600    11.0560    24.1540    -8.8990     2.4780 
  129.8750    67.5580    13.9710    11.6750    10.3160    24.2600    -9.0300     2.4780 
  130.0000    70.6750    13.9170    11.4930    10.3620    24.3740    -9.2310     2.4950 
  130.1250    72.2400    14.1830    11.6020    12.3930    24.3910    -9.5110     2.5210 
  130.2500    70.3460    14.6490    11.9290    15.8990    24.3650    -9.7900     2.5410 
  130.3750    65.6340    15.2050    12.3890    16.6070    24.3800    -9.9910     2.5470 
