~V
VERS. 2.00: Ver 2.00
~W
STRT.M 50.0000:
STOP.M 253.0000:
STEP.M 0.1250:
NULL. -999.2500:
UWI. F11132:
~C
DEPT.M :
DEN.GM/CC :
GR.API :
RML.OHMM :
RI. :
RXO.OHMM :
CALI.CM :
SP.MV :
~A
   50.0000  -999.2500  -999.2500  -999.2500  -999.2500  -999.2500  -999.2500    87.3100 
   50.1250     2.0210  -999.2500  -999.2500  -999.2500  -999.2500  -999.2500    87.1030 
   50.2500     2.0210  -999.2500  -999.2500  -999.2500  -999.2500  -999.2500    86.9460 
   50.3750     2.0180  -999.2500  -999.2500  -999.2500  -999.2500  -999.2500    86.8300 
   50.5000     2.0090  -999.2500  -999.2500  -999.2500  -999.2500  -999.2500    86.7590 
   50.6250     2.0010  -999.2500  -999.2500  -999.2500  -999.2500  -999.2500    86.6970 
   50.7500     2.0040  -999.2500  -999.2500  -999.2500  -999.2500  -999.2500    86.5880 
   50.8750     2.0130  -999.2500  -999.2500  -999.2500  -999.2500  -999.2500    86.4430 
   51.0000     2.0170  -999.2500  -999.2500  -999.2500  -999.2500  -999.2500    86.2820 
   51.1250     2.0100  -999.2500  -999.2500  -999.2500  -999.2500  -999.2500    86.1110 
   51.2500     1.9980  -999.2500  -999.2500  -999.2500  -999.2500  -999.2500    85.9190 
   51.3750     1.9960  -999.2500  -999.2500  -999.2500  -999.2500  -999.2500    85.6580 
   51.5000     2.0070  -999.2500  -999.2500  -999.2500  -999.2500  -999.2500    85.3170 
   51.6250     2.0240  -999.2500  -999.2500  -999.2500  -999.2500  -999.2500    84.9280 
   51.7500     2.0400  -999.2500  -999.2500  -999.2500  -999.2500  -999.2500    84.4440 
   51.8750     2.0540  -999.2500  -999.2500  -999.2500  -999.2500  -999.2500    83.8730 
   52.0000     2.0640  -999.2500  -999.2500  -999.2500  -999.2500  -999.2500    83.2350 
   52.1250     2.0700  -999.2500  -999.2500  -999.2500  -999.2500  -999.2500    82.4800 
   52.2500     2.0730  -999.2500  -999.2500  -999.2500  -999.2500  -999.2500    81.6690 
   52.3750     2.0770  -999.2500  -999.2500  -999.2500  -999.2500  -999.2500    80.8720 
   52.5000     2.0780  -999.2500  -999.2500  -999.2500  -999.2500  -999.2500    80.0730 
   52.6250     2.0710  -999.2500  -999.2500  -999.2500  -999.2500  -999.2500    79.2580 
   52.7500     2.0540  -999.2500  -999.2500  -999.2500  -999.2500  -999.2500    78.5100 
   52.8750     2.0300  -999.2500  -999.2500  -999.2500  -999.2500  -999.2500    77.8170 
   53.0000     2.0130     0.0000     0.0000     0.0000     0.0000     0.0000    77.1850 
   53.1250     2.0130     0.0000     0.0000     0.0000     0.0000     0.0000    76.6260 
   53.2500     2.0270     0.0000     0.0000     0.0000     0.0000     0.0000    76.1040 
   53.3750     2.0360     0.0000     0.0000     0.0000     0.0000     0.0000    75.6000 
   53.5000     2.0360    38.8100     7.6660     1.8430    -0.3000    25.9020    75.1210 
   53.6250     2.0400    38.4660     7.3130     1.8380    -0.3000    25.9020    74.6920 
   53.7500     2.0530    36.6730     6.9040     1.8220    -0.3000    25.9020    74.3030 
   53.8750     2.0600    35.1200     6.5980     1.8010    -0.3000    25.9020    73.9460 
   54.0000     2.0490    35.0740     6.5110     1.7880    -0.3000    25.9010    73.5940 
   54.1250     2.0180    35.9020     6.6460     1.7960    -0.3000    25.9010    73.2200 
   54.2500     1.9790    36.0180     6.7650     1.8200    -0.3000    25.9000    72.8590 
   54.3750     1.9580    34.9950     6.6820     1.8500    -0.3000    25.9010    72.5200 
   54.5000     1.9570    34.0050     6.3650     1.8740    -0.3000    25.9020    72.2140 
   54.6250     1.9670    34.4340     5.9670     1.8790    -0.3000    25.9020    71.9270 
   54.7500     1.9790    34.3610     5.6640     1.8690    -0.3000    25.9020    71.6770 
   54.8750     1.9810    33.7430     5.4910     1.8520    -0.3000    25.9020    71.4630 
   55.0000     1.9790    33.8070     5.3920     1.8400    -0.3000    25.9010    71.2730 
   55.1250     1.9830    33.7810     5.2930     1.8430    -0.3000    25.9000    71.1010 
   55.2500     1.9990    32.0950     5.1970     1.8590    -0.3000    25.8990    70.9010 
   55.3750     2.0190    30.4610     5.1900     1.8800    -0.3000    25.8990    70.6460 
   55.5000     2.0270    31.2510     5.3720     1.8960    -0.3000    25.9000    70.3570 
   55.6250     2.0250    32.7600     5.8340     1.9000    -0.3000    25.8990    70.0980 
   55.7500     2.0220    32.1900     6.4430     1.8970    -0.3000    25.8980    69.7950 
   55.8750     2.0190    30.7210     6.9860     1.8950    -0.3000    25.8970    69.4700 
   56.0000     2.0100    30.8730     7.2080     1.8980    -0.3000    25.8960    69.1290 
   56.1250     1.9950    32.5920     6.9870     1.9060    -0.3000    25.8960    68.7570 
   56.2500     1.9830    33.3060     6.6160     1.9170    -0.3000    25.8960    68.3630 
   56.3750     1.9800    33.0740     6.3230     1.9250    -0.3000    25.8970    67.9650 
   56.5000     1.9820    33.7960     6.2130     1.9280    -0.3000    25.8980    67.5230 
   56.6250     1.9880    35.8790     6.3140     1.9240    -0.3000    25.9010    66.9690 
   56.7500     1.9960    36.2650     6.4830     1.9180    -0.3000    25.9020    66.3570 
   56.8750     2.0010    34.9400     6.5520     1.9130    -0.3000    25.9020    65.6950 
   57.0000     1.9980    33.1900     6.3840     1.9130    -0.3000    25.9020    64.9770 
   57.1250     1.9910    31.9180     5.9910     1.9170    -0.3000    25.9020    64.2330 
   57.2500     1.9850    32.2910     5.5970     1.9220    -0.2990    25.9020    63.5120 
   57.3750     1.9840    34.1160     5.3610     1.9240    -0.2990    25.9010    62.8060 
   57.5000     1.9830    35.2460     5.3410     1.9180    -0.3000    25.9000    62.1140 
   57.6250     1.9860    32.9960     5.5410     1.9010    -0.2970    25.9010    61.4070 
   57.7500     1.9940    30.8710     5.8490     1.8760    -0.2880    25.9010    60.6730 
   57.8750     1.9960    32.3360     6.1360     1.8510    -0.2700    25.8990    59.8700 
   58.0000     1.9870    36.0050     6.1910     1.8300    -0.2280    25.8970    59.0070 
   58.1250     1.9720    37.3480     5.8170     1.8150    -0.1420    25.8960    58.0680 
   58.2500     1.9560    35.3790     5.2380     1.7980    -0.0580    25.8960    56.9890 
   58.3750     1.9420    33.6520     4.6980     1.7720    -0.0290    25.8960    55.7180 
   58.5000     1.9350    34.0730     4.3060     1.7220    -0.0200    25.8960    54.1600 
   58.6250     1.9420    34.8530     3.9010     1.5990     0.0240    25.8960    52.2230 
   58.7500     1.9610    34.8110     3.2010     1.3770     0.0920    25.8960    49.8710 
   58.8750     1.9970    35.4700     2.3040     1.0870     0.1920    25.8910    47.0580 
   59.0000     2.0560    37.2440     1.5580     0.8070     0.3390    25.8760    43.7160 
   59.1250     2.1330    37.9750     1.1490     0.6140     0.5060    25.8450    39.6060 
   59.2500     2.2110    37.9820     0.9650     0.5060     0.8570    25.8320    34.7030 
   59.3750     2.2770    38.1890     0.9480     0.4770     1.5760    25.8650    28.8940 
   59.5000     2.3350    38.2370     1.0720     0.5390     2.6230    26.2190    22.2980 
   59.6250     2.3800    37.2790     1.3750     0.7690     3.4600    27.4010    15.2010 
   59.7500     2.4070    37.4280     1.8840     1.2450     5.0400    28.9120     8.1550 
   59.8750     2.4190    40.6570     2.6940     2.0850     6.4110    29.2060     1.4310 
   60.0000     2.4410    46.1440     3.9100     3.3730     7.9590    27.7830    -4.7840 
   60.1250     2.4840    50.9660     5.4780     5.0640    12.3760    25.9630   -10.2210 
   60.2500     2.5330    54.0750     6.9060     6.7260    18.6960    25.1850   -14.8530 
   60.3750     2.5330    55.9410     7.8560     7.9650    18.4570    24.9310   -18.5590 
   60.5000     2.4640    56.3160     8.2890     8.5760    12.1670    24.7730   -21.3500 
   60.6250     2.3460    52.9430     8.2900     8.5390     8.8940    24.6570   -23.3480 
   60.7500     2.2250    48.6470     8.1040     8.1990     8.1140    24.5970   -25.0130 
   60.8750     2.1550    48.1200     7.9130     7.8110     8.3600    24.5760   -26.5040 
   61.0000     2.1580    51.7140     7.8550     7.5500     9.0480    24.5530   -27.9430 
   61.1250     2.2290    54.0060     7.9730     7.4690     9.8640    24.4990   -29.3180 
