~V
VERS. 2.00: Ver 2.00
~W
STRT.M 50.0000:
STOP.M 206.0000:
STEP.M 0.1250:
NULL. -999.2500:
UWI. F11107:
~C
DEPT.M :
DEN.GM/CC :
GR.API :
RML.OHMM :
RI. :
RXO.OHMM :
CALI.CM :
SP.MV :
~A
# ...
  117.5000     2.4940    65.0380    12.4070    11.4080    12.0110    25.0030    -7.0880 
  117.6250     2.5030    61.9380    12.7810    11.7100    13.0530    24.9840    -7.0690 
  117.7500     2.5170    61.1210    13.3570    12.1470    12.9150    24.9900    -7.1040 
  117.8750     2.5360    60.3390    14.2120    12.7970    11.8970    24.9770    -7.1750 
  118.0000     2.5580    58.8530    15.3550    13.6990    13.0410    24.9530    -7.2650 
  118.1250     2.5770    57.8920    16.7180    14.8620    18.9900    24.9150    -7.3400 
  118.2500     2.5890    56.7510    18.0820    16.1340    21.2730    24.8590    -7.3940 
  118.3750     2.5970    54.8240    19.2560    17.3520    20.4950    24.8150    -7.4190 
  118.5000     2.6030    54.5320    20.0850    18.3390    19.1620    24.7730    -7.4610 
  118.6250     2.6080    55.6000    20.4280    18.8910    18.3190    24.6540    -7.4940 
  118.7500     2.6100    54.2270    20.3990    19.0520    18.7160    24.4950    -7.5000 
  118.8750     2.6060    51.1260    20.1140    18.9130    18.5660    24.5180    -7.4790 
  119.0000     2.5960    51.2700    19.7030    18.6040    17.8310    24.6560    -7.4420 
  119.1250     2.5860    56.0690    19.2810    18.2410    17.5280    24.7740    -7.4440 
  119.2500     2.5810    60.3360    18.9190    17.9120    18.3680    24.8000    -7.4970 
  119.3750     2.5800    62.6020    18.6260    17.6400    18.6750    24.8030    -7.5830 
  119.5000     2.5810    62.3760    18.3730    17.4150    19.4340    24.8120    -7.6800 
  119.6250     2.5800    60.8090    18.1100    17.1990    17.7700    24.8150    -7.7780 
  119.7500     2.5780    60.5660    17.8280    16.9710    17.1580    24.7830    -7.8760 
  119.8750     2.5770    62.5270    17.5790    16.7620    18.0250    24.7490    -7.9960 
  120.0000     2.5770    64.0250    17.4600    16.6440    20.3410    24.7350    -8.1320 
  120.1250     2.5800    61.9620    17.5610    16.7450    16.3890    24.8110    -8.2790 
  120.2500     2.5840    59.1370    18.0470    17.0920    14.7500    24.9240    -8.4250 
  120.3750     2.5890    56.8120    19.1490    17.6870    15.1720    25.0620    -8.5390 
  120.5000     2.5950    54.5640    20.7450    18.4990    17.3670    25.0810    -8.6200 
  120.6250     2.6000    54.3220    22.2860    19.4920    20.6480    24.8810    -8.7180 
  120.7500     2.6010    55.4960    23.4260    20.5280    21.2270    24.7300    -8.8460 
  120.8750     2.5970    55.1140    24.1900    21.4470    20.4320    24.8120    -8.9700 
  121.0000     2.5920    52.4150    24.5710    22.0530    20.9840    25.0620    -9.0540 
  121.1250     2.5920    50.4830    24.2850    22.0690    23.4840    25.3000    -9.1450 
  121.2500     2.5990    51.5240    23.4230    21.5210    24.1330    25.3840    -9.2730 
  121.3750     2.6070    54.8190    22.1600    20.5250    21.9140    25.4140    -9.4020 
  121.5000     2.6090    58.1250    20.7830    19.3180    18.3190    25.4330    -9.4870 
  121.6250     2.5960    57.4010    19.6700    18.2280    17.6220    25.4200    -9.5330 
  121.7500     2.5740    52.8370    19.0030    17.4720    16.9730    25.3780    -9.5720 
  121.8750     2.5510    48.7020    18.8220    17.1350    16.2250    25.3420    -9.6030 
  122.0000     2.5370    50.2790    19.0520    17.2000    16.0740    25.3140    -9.6520 
  122.1250     2.5350    57.0280    19.5840    17.6190    17.5980    25.2500    -9.6440 
  122.2500     2.5390    60.2690    20.2270    18.2140    18.4780    25.2010    -9.5790 
  122.3750     2.5430    57.5750    20.8920    18.8890    17.6690    25.1880    -9.5400 
  122.5000     2.5430    54.4560    21.5190    19.5710    16.8220    25.2270    -9.5180 
  122.6250     2.5350    55.4910    22.0220    20.1740    18.3610    25.3140    -9.4810 
  122.7500     2.5230    57.1230    22.3280    20.6240    21.1090    25.4200    -9.4570 
  122.8750     2.5110    56.9110    22.3540    20.8330    22.7290    25.4310    -9.4180 
  123.0000     2.5020    55.2660    22.0540    20.7320    21.9490    25.2980    -9.3340 
  123.1250     2.5020    53.0830    21.4320    20.2690    20.9800    25.1470    -9.2960 
  123.2500     2.5080    52.0440    20.6900    19.6140    19.6590    25.1510    -9.3280 
  123.3750     2.5140    53.6020    20.0120    18.9390    17.5930    25.2980    -9.3740 
  123.5000     2.5140    55.1600    19.5490    18.4120    16.0590    25.4950    -9.4380 
  123.6250     2.4960    54.3340    19.4270    18.1820    15.8250    25.6570    -9.5600 
  123.7500     2.4640    53.9360    19.5590    18.2100    16.2580    25.8240    -9.7100 
  123.8750     2.4310    55.4870    19.8320    18.4200    17.1600    26.1080    -9.8500 
  124.0000     2.4110    58.0810    20.1100    18.6950    17.7810    26.3600    -9.9880 
  124.1250     2.4180    58.1950    20.2540    18.9040    17.8010    26.3030   -10.1290 
  124.2500     2.4450    56.1800    20.2450    18.9920    17.7360    26.0200   -10.2440 
  124.3750     2.4800    54.7490    20.1210    18.9660    17.7710    25.7110   -10.2940 
  124.5000     2.5100    55.7880    19.9440    18.8670    17.5100    25.5010   -10.3050 
  124.6250     2.5230    57.3920    19.7730    18.7430    17.5790    25.4480   -10.3460 
  124.7500     2.5210    57.8250    19.6400    18.6260    18.3790    25.5410   -10.3480 
  124.8750     2.5060    58.4940    19.5480    18.5290    18.7540    25.7190   -10.2850 
  125.0000     2.4830    60.5750    19.4900    18.4520    17.4320    25.8110   -10.1770 
  125.1250     2.4620    61.2830    19.4370    18.3880    16.5520    25.7740   -10.0010 
  125.2500     2.4520    58.4540    19.3470    18.3090    17.5380    25.6990    -9.7980 
  125.3750     2.4590    55.0040    19.1780    18.1810    17.8270    25.6570    -9.6270 
  125.5000     2.4820    54.6470    18.9000    17.9700    16.7940    25.6040    -9.5180 
  125.6250     2.5100    58.4200    18.4910    17.6370    16.3170    25.5750    -9.4580 
  125.7500     2.5260    61.4290    18.0130    17.2190    16.1670    25.6070    -9.4500 
  125.8750     2.5100    61.5150    17.5410    16.7670    16.0350    25.7970    -9.4980 
  126.0000     2.4580    58.3750    17.1630    16.3560    15.7440    26.1960    -9.6340 
  126.1250     2.3820    52.4270    16.9770    16.0840    15.7160    26.9150    -9.8780 
  126.2500     2.3220    48.6410    16.9750    15.9710    15.5480    27.4620   -10.0850 
  126.3750     2.3050    49.3700    17.1380    16.0180    15.6040    27.4140   -10.1970 
  126.5000     2.3360    52.1550    17.4230    16.2020    15.8300    26.6630   -10.2740 
  126.6250     2.4020    55.1600    17.7710    16.4870    17.5590    25.9670   -10.3170 
  126.7500     2.4640    57.9710    18.0820    16.7810    17.5050    25.6380   -10.2560 
  126.8750     2.5060    60.0250    18.2630    16.9990    16.2960    25.6320   -10.1540 
  127.0000     2.5210    60.9520    18.2310    17.0520    16.0050    25.7710   -10.0730 
  127.1250     2.5180    60.7820    17.9100    16.8420    16.8900    25.8250    -9.9680 
  127.2500     2.5070    59.6610    17.3850    16.4150    17.0090    25.7080    -9.8470 
  127.3750     2.4950    58.1690    16.7470    15.8400    14.8960    25.5220    -9.7770 
  127.5000     2.4840    58.5310    16.1010    15.2150    12.7480    25.3900    -9.7490 
  127.6250     2.4750    60.7770    15.5650    14.6540    11.9810    25.2630    -9.7050 
  127.7500     2.4720    60.5330    15.1780    14.2160    11.8830    25.0330    -9.6760 
  127.8750     2.4750    56.8280    14.9400    13.9150    12.0210    24.7340    -9.6470 
  128.0000     2.4810    52.4960    14.8180    13.7240    12.2620    24.4610    -9.5910 
  128.1250     2.4830    51.2680    14.7660    13.6000    12.3120    24.5750    -9.5590 
  128.2500     2.4760    52.9650    14.7270    13.4820    12.2360    24.9120    -9.5480 
  128.3750     2.4640    55.1860    14.6940    13.3530    12.2090    25.3300    -9.5100 
  128.5000     2.4570    55.2260    14.6800    13.2300    11.9510    25.5230    -9.4440 
  128.6250     2.4650    52.4080    14.7110    13.1520    11.4910    25.2080    -9.3770 
