~V
VERS. 2.00: Ver 2.00
~W
STRT.M 56.0000:
STOP.M 269.0000:
STEP.M 0.1250:
NULL. -999.2500:
UWI. F11148:
~C
DEPT.M :
GR.API :
RML.OHMM :
RI. :
RXO.OHMM :
SP.MV :
DEN.GM/CC :
CALI.CM :
~A
# ...
  202.2500    95.6640     8.6520     7.8470     9.0320   -21.6960     2.4640    23.9110 
  202.3750    96.1010     8.6550     7.7490     8.5670   -22.4150     2.4630    23.7830 
  202.5000    92.7560     8.7260     7.6930     8.6340   -23.1470     2.4690    23.7140 
  202.6250    86.0370     8.8340     7.6740     9.0500   -23.8850     2.4740    23.7340 
  202.7500    84.1810     8.8870     7.6380     9.3370   -24.6390     2.4680    23.7460 
  202.8750    87.7670     8.8520     7.5540     9.1710   -25.3920     2.4540    23.6830 
  203.0000    91.0570     8.7700     7.4420     8.8530   -26.1550     2.4360    23.5720 
  203.1250    90.0140     8.7360     7.3600     8.4080   -26.9540     2.4210    23.4280 
  203.2500    86.6870     8.8830     7.3900     8.2540   -27.8310     2.4110    23.2380 
  203.3750    84.9550     9.2190     7.5440     9.0050   -28.7570     2.4050    23.1070 
  203.5000    84.6430     9.6710     7.7910    10.9080   -29.7200     2.3990    23.0500 
  203.6250    83.4860    10.0940     8.0540    12.7780   -30.7010     2.3870    23.0150 
  203.7500    81.6340    10.2770     8.2020    13.3050   -31.6520     2.3630    23.0400 
  203.8750    80.8490    10.1860     8.1900    13.3470   -32.5490     2.3270    23.1400 
  204.0000    79.1200     9.9210     8.0660    13.6580   -33.3320     2.2940    23.2640 
  204.1250    74.2640     9.7240     7.9700    14.0340   -33.9100     2.2800    23.2430 
  204.2500    70.4170    10.0140     8.1590    14.7130   -34.1510     2.2960    23.1490 
  204.3750    71.5610    11.0210     8.7920    15.6940   -34.0440     2.3280    23.0810 
  204.5000    74.6720    12.8680    10.0040    17.8760   -33.5520     2.3730    23.0670 
  204.6250    75.2430    15.4020    11.8170    21.9250   -32.6940     2.4260    23.0890 
  204.7500    71.9670    17.8440    13.8690    28.1750   -31.4470     2.4730    23.1540 
  204.8750    69.9490    18.9260    15.1070    30.6210   -29.9250     2.4970    23.2960 
  205.0000    70.5900    17.8340    14.6560    28.4330   -28.1750     2.4990    23.5480 
  205.1250    70.6400    14.9060    12.6280    22.9540   -26.2720     2.4890    23.7450 
  205.2500    66.1120    11.5110    10.0770    15.4660   -24.2930     2.4720    23.6420 
  205.3750    60.5290     8.8730     7.9790     9.3420   -22.3220     2.4490    23.5670 
  205.5000    57.6570     7.2690     6.5630     6.4770   -20.4160     2.4260    23.5850 
  205.6250    57.8840     6.5650     5.7870     5.5620   -18.6290     2.4140    23.5550 
  205.7500    58.0590     6.5730     5.5940     5.4160   -17.0700     2.4190    23.5570 
  205.8750    59.3900     6.8980     5.7420     5.3670   -15.7420     2.4300    23.6390 
  206.0000    66.1340     7.3090     6.0760     5.4760   -14.6890     2.4390    23.7210 
  206.1250    77.0320     7.6260     6.4400     5.8680   -13.8670     2.4460    23.7880 
  206.2500    84.5270     7.7280     6.6890     6.3560   -13.2770     2.4470    23.8060 
  206.3750    86.2220     7.6690     6.7960     6.5230   -12.8930     2.4440    23.7260 
  206.5000    86.6700     7.5220     6.7830     6.3470   -12.6750     2.4390    23.6550 
  206.6250    89.6660     7.3660     6.6990     6.1300   -12.5720     2.4390    23.7130 
  206.7500    92.4480     7.2570     6.5930     6.1490   -12.5090     2.4410    23.8800 
  206.8750    91.6150     7.1780     6.4830     6.2270   -12.4500     2.4390    24.1060 
  207.0000    87.4500     7.0830     6.3470     6.2460   -12.3670     2.4330    24.3770 
  207.1250    83.1820     6.9350     6.1600     6.2830   -12.2660     2.4240    24.6040 
  207.2500    82.3560     6.7420     5.9260     6.1970   -12.1890     2.4150    24.6630 
  207.3750    83.2850     6.5560     5.6900     5.9440   -12.1250     2.4050    24.6170 
  207.5000    84.0410     6.4070     5.4850     5.5900   -12.0880     2.3960    24.5310 
  207.6250    83.8960     6.3160     5.3340     5.4560   -12.0940     2.3850    24.4800 
  207.7500    81.7010     6.3280     5.2790     5.7760   -12.1760     2.3740    24.4720 
  207.8750    78.2940     6.4850     5.3500     6.2290   -12.2950     2.3620    24.4990 
  208.0000    75.7740     6.8520     5.5920     6.1660   -12.4550     2.3480    24.5620 
  208.1250    75.6410     7.4790     6.0400     6.1030   -12.6730     2.3360    24.6170 
  208.2500    78.9390     8.4120     6.7450     6.8140   -12.9240     2.3320    24.6570 
  208.3750    80.7160     9.5130     7.6260     8.5290   -13.1850     2.3300    24.6850 
  208.5000    78.1810    10.6220     8.5820    10.3790   -13.4550     2.3250    24.7020 
  208.6250    74.6200    11.5570     9.4720    11.3600   -13.7090     2.3180    24.7090 
  208.7500    75.8130    12.1270    10.1120    11.4500   -13.9150     2.3130    24.7180 
  208.8750    79.4550    12.3920    10.4880    11.7320   -14.0720     2.3140    24.7340 
  209.0000    80.5020    12.4820    10.6760    12.2480   -14.1550     2.3160    24.7470 
  209.1250    78.4600    12.5650    10.7960    12.5470   -14.1840     2.3180    24.7430 
  209.2500    75.7980    12.7980    10.9800    12.6630   -14.1700     2.3150    24.7160 
  209.3750    73.3350    13.2000    11.2820    12.8740   -14.1250     2.3090    24.7040 
  209.5000    72.9240    13.7200    11.6980    13.1200   -14.0530     2.3020    24.7060 
  209.6250    73.9800    14.2500    12.1690    13.5710   -13.9810     2.2990    24.7120 
  209.7500    73.9400    14.6530    12.5890    14.3560   -13.9120     2.3030    24.7190 
  209.8750    72.3760    14.9170    12.9110    14.5960   -13.8590     2.3120    24.7290 
  210.0000    72.9290    15.1100    13.1640    14.1290   -13.8280     2.3240    24.7120 
  210.1250    76.2060    15.3370    13.4220    13.4650   -13.8090     2.3370    24.6670 
  210.2500    76.3930    15.6950    13.7720    13.6420   -13.7970     2.3510    24.5790 
  210.3750    72.2420    16.1230    14.1930    15.2030   -13.7750     2.3650    24.5190 
  210.5000    67.1120    16.4950    14.6010    16.2370   -13.7630     2.3690    24.4830 
  210.6250    64.9090    16.6920    14.8890    15.5760   -13.7470     2.3560    24.4690 
  210.7500    66.3740    16.6640    14.9870    14.5720   -13.7390     2.3320    24.4680 
  210.8750    70.0020    16.5780    14.9950    14.1770   -13.7370     2.3130    24.4680 
  211.0000    75.7450    16.6270    15.0590    13.9520   -13.7360     2.3060    24.4680 
  211.1250    80.7900    16.9640    15.3190    13.7860   -13.7400     2.3080    24.4680 
  211.2500    79.1840    17.6500    15.8760    14.2290   -13.7470     2.3120    24.4680 
  211.3750    73.2450    18.4960    16.6120    15.2830   -13.7610     2.3090    24.4680 
  211.5000    69.3340    19.3350    17.3950    16.8260   -13.7700     2.3010    24.4760 
  211.6250    70.2370    20.0430    18.1060    18.4910   -13.7750     2.2900    24.5200 
  211.7500    72.0510    20.5830    18.6830    19.2490   -13.7930     2.2830    24.6460 
  211.8750    71.7670    21.0920    19.2160    19.4960   -13.8390     2.2790    24.7960 
  212.0000    71.3690    21.7220    19.8230    19.8130   -13.9160     2.2760    24.8890 
  212.1250    71.1140    22.6100    20.6210    21.6790   -14.0250     2.2720    24.9250 
  212.2500    69.4760    23.9180    21.7610    24.2430   -14.1480     2.2600    24.9370 
  212.3750    67.8780    25.6000    23.2310    25.4600   -14.2860     2.2460    24.9580 
  212.5000    66.8000    27.5800    24.9840    26.0450   -14.4250     2.2360    24.9770 
  212.6250    66.1620    29.7000    26.9000    27.7090   -14.5540     2.2320    24.9760 
  212.7500    63.7750    31.6140    28.7100    30.8110   -14.6610     2.2280    24.9310 
  212.8750    61.1740    32.9290    30.0750    33.3550   -14.7370     2.2220    24.8020 
  213.0000    60.4660    33.3830    30.7350    33.2380   -14.7900     2.2160    24.5810 
  213.1250    61.9970    33.0190    30.6660    31.4690   -14.8280     2.2140    24.4570 
  213.2500    64.1610    32.2440    30.1310    29.3760   -14.8750     2.2150    24.4380 
  213.3750    65.6310    31.7500    29.7090    28.3790   -14.9460     2.2140    24.4340 
