~V
VERS. 2.00: Ver 2.00
~W
STRT.M 50.0000:
STOP.M 201.0000:
STEP.M 0.1250:
NULL. -999.2500:
UWI. F11102:
~C
DEPT.M :
GR.API :
RML.OHMM :
RI. :
RXO.OHMM :
CALI.CM :
SP.MV :
DEN.GM/CC :
~A
# ...
  128.7500    79.5660     6.6140     6.5930     6.1160    28.9490    -3.7990     2.4180 
  128.8750    74.8880     7.0410     6.6400     6.7690    28.9400    -3.6900     2.4280 
  129.0000    67.2520     8.1370     7.3340     9.7450    28.8780    -3.5980     2.4510 
  129.1250    58.6400     9.7330     8.5950    14.5240    28.8020    -3.5560     2.4820 
  129.2500    53.1340    11.3790    10.0460    16.1250    28.7680    -3.5540     2.5130 
  129.3750    51.2320    12.7540    11.3720    15.4000    28.7810    -3.5650     2.5370 
  129.5000    49.8650    13.7550    12.3970    14.6720    28.8120    -3.6060     2.5550 
  129.6250    48.1430    14.5050    13.1460    15.6910    28.9220    -3.6570     2.5660 
  129.7500    48.2790    15.1960    13.8050    17.6730    28.9620    -3.7170     2.5720 
  129.8750    50.6320    15.8120    14.3960    19.5110    28.9710    -3.7630     2.5720 
  130.0000    51.7290    16.2420    14.8350    21.1970    28.9760    -3.8160     2.5680 
  130.1250    50.4250    16.4070    15.0130    20.7440    28.8860    -3.8710     2.5590 
  130.2500    49.9750    16.4810    15.0490    18.7590    28.8170    -3.9260     2.5510 
  130.3750    51.0690    16.6250    15.0920    17.6340    28.9370    -3.9820     2.5480 
  130.5000    52.4820    16.8720    15.2150    18.4960    28.9510    -4.0430     2.5510 
  130.6250    51.9480    17.0190    15.3200    20.1330    28.9630    -4.1120     2.5570 
  130.7500    50.5830    16.7780    15.1810    21.4790    28.9450    -4.1850     2.5620 
  130.8750    49.8060    15.9830    14.6210    21.6120    28.9000    -4.2840     2.5620 
  131.0000    51.2610    14.7140    13.6380    19.1100    28.8560    -4.3870     2.5550 
  131.1250    53.6230    13.3330    12.4670    15.1180    28.9400    -4.5170     2.5430 
  131.2500    53.6740    12.2630    11.4720    12.5670    29.0210    -4.6410     2.5290 
  131.3750    52.6850    11.6950    10.8430    11.5920    29.0470    -4.7700     2.5180 
  131.5000    52.3040    11.6510    10.6400    11.6450    29.0490    -4.8890     2.5100 
  131.6250    52.0460    12.0790    10.8730    12.5450    29.1390    -5.0040     2.5080 
  131.7500    50.0090    12.7040    11.3410    14.3680    29.1890    -5.1070     2.5070 
  131.8750    45.6890    13.3130    11.8730    16.2970    29.2130    -5.1960     2.5070 
  132.0000    41.0840    13.7330    12.3050    16.6910    29.3220    -5.2820     2.5060 
  132.1250    39.8410    13.8760    12.5130    15.4980    29.3030    -5.3550     2.5040 
  132.2500    42.9180    13.8820    12.5700    15.1400    29.2490    -5.4470     2.5030 
  132.3750    46.9400    13.9140    12.5910    15.9890    29.2650    -5.5440     2.5040 
  132.5000    48.5400    14.1230    12.7080    15.8200    29.2620    -5.6310     2.5070 
  132.6250    47.3020    14.6170    13.0420    15.9330    29.3120    -5.7230     2.5150 
  132.7500    45.9200    15.2970    13.5470    17.1960    29.2540    -5.8060     2.5250 
  132.8750    45.6050    16.0210    14.1260    18.7740    29.1740    -5.8940     2.5340 
  133.0000    45.5050    16.6070    14.6390    19.9880    29.0940    -5.9870     2.5390 
  133.1250    45.9860    16.8220    14.8890    21.4550    29.1560    -6.0530     2.5380 
  133.2500    47.9300    16.6690    14.8350    21.5120    29.1480    -6.0950     2.5330 
  133.3750    50.2320    16.2550    14.5350    19.9570    29.1380    -6.1090     2.5280 
  133.5000    50.8360    15.7460    14.1140    18.9690    29.1160    -6.0990     2.5250 
  133.6250    49.1310    15.3040    13.7170    18.0190    29.1010    -6.0790     2.5260 
  133.7500    47.9480    14.9950    13.4220    16.8140    29.0290    -6.0660     2.5270 
  133.8750    48.6650    14.8210    13.2490    16.7390    28.9600    -6.0390     2.5250 
  134.0000    51.0670    14.7600    13.1910    16.8310    28.9470    -5.9850     2.5190 
  134.1250    52.3800    14.8080    13.2470    17.1230    28.9420    -5.8930     2.5140 
  134.2500    49.6260    14.9330    13.3810    17.2850    28.9140    -5.7960     2.5120 
  134.3750    44.5110    15.1020    13.5630    17.8470    28.8650    -5.7040     2.5160 
  134.5000    40.7230    15.2680    13.7470    19.0690    28.8010    -5.6140     2.5230 
  134.6250    41.8360    15.3570    13.8640    20.0260    28.7690    -5.5240     2.5330 
  134.7500    44.9600    15.3010    13.8610    20.2510    28.7160    -5.4350     2.5400 
  134.8750    48.1650    15.0210    13.6730    18.7410    28.6660    -5.3500     2.5430 
  135.0000    50.2200    14.4630    13.2410    17.2080    28.6230    -5.2860     2.5400 
  135.1250    52.8330    13.6300    12.5400    16.3710    28.5790    -5.2500     2.5260 
  135.2500    55.3800    12.7130    11.7240    15.7730    28.6340    -5.2110     2.5050 
  135.3750    56.2330    11.8990    10.9520    14.8600    28.8070    -5.1720     2.4810 
  135.5000    55.8350    11.3620    10.3790    12.7350    29.0660    -5.1290     2.4620 
  135.6250    54.7750    11.2830    10.1760    11.1530    28.8460    -5.0780     2.4550 
  135.7500    54.3300    11.5990    10.3160    11.4900    28.4390    -5.0260     2.4610 
  135.8750    53.6950    12.2060    10.7350    12.8330    28.2650    -4.9700     2.4740 
  136.0000    52.0160    12.9240    11.3050    14.3010    28.2230    -4.9110     2.4870 
  136.1250    49.4530    13.4950    11.8230    15.2930    28.1780    -4.9010     2.4940 
  136.2500    47.0260    13.7760    12.1350    15.3710    28.1520    -4.9460     2.4950 
  136.3750    45.9550    13.7710    12.2130    15.0080    28.1150    -5.0090     2.4940 
  136.5000    46.5750    13.5890    12.1260    14.9570    28.1280    -5.0960     2.4920 
  136.6250    47.6580    13.3690    11.9740    15.7140    28.0520    -5.1880     2.4890 
  136.7500    47.3280    13.2060    11.8420    16.2190    28.0140    -5.2710     2.4850 
  136.8750    46.1410    13.1290    11.7650    15.7370    27.9130    -5.3540     2.4810 
  137.0000    46.9430    13.1400    11.7560    14.9880    27.8660    -5.4340     2.4760 
  137.1250    50.2540    13.2310    11.8210    14.3580    27.7750    -5.4710     2.4740 
  137.2500    53.4180    13.3390    11.9170    14.5480    27.6410    -5.4530     2.4740 
  137.3750    57.0110    13.3980    11.9910    15.2050    27.5410    -5.4080     2.4760 
  137.5000    60.4210    13.3420    11.9850    15.6160    27.4840    -5.3440     2.4790 
  137.6250    61.0700    13.1080    11.8280    15.5060    27.4410    -5.2860     2.4810 
  137.7500    58.7610    12.7490    11.5480    14.5470    27.3230    -5.2380     2.4840 
  137.8750    53.9440    12.3370    11.1980    13.2640    27.1980    -5.1940     2.4880 
  138.0000    49.1830    11.9540    10.8530    12.4870    27.1480    -5.1750     2.4940 
  138.1250    48.0450    11.6720    10.5830    12.4290    27.1970    -5.2090     2.4990 
  138.2500    49.9250    11.4860    10.3980    12.2010    27.3090    -5.2920     2.5020 
  138.3750    51.1260    11.3740    10.2790    12.0230    27.2700    -5.4200     2.5010 
  138.5000    49.9970    11.3070    10.1910    12.2510    27.2530    -5.5980     2.4970 
  138.6250    48.0870    11.2600    10.1090    12.3640    27.1930    -5.8100     2.4900 
  138.7500    47.3780    11.2180    10.0310    12.2180    26.9980    -6.0440     2.4810 
  138.8750    49.9100    11.1810     9.9680    11.6900    26.7040    -6.2830     2.4750 
  139.0000    55.4470    11.1620     9.9310    11.4770    26.6930    -6.5150     2.4700 
  139.1250    58.5720    11.1870     9.9380    11.8140    26.5330    -6.7090     2.4690 
  139.2500    57.3000    11.2660     9.9860    12.4050    26.4570    -6.8670     2.4710 
  139.3750    56.1280    11.4140    10.0810    12.4840    26.3590    -7.0060     2.4750 
  139.5000    58.5630    11.6350    10.2330    12.5940    26.2770    -7.1270     2.4790 
  139.6250    60.7850    11.9230    10.4520    13.0610    26.2440    -7.2120     2.4830 
  139.7500    59.6490    12.2310    10.7060    13.7260    26.1900    -7.2900     2.4870 
  139.8750    56.8740    12.5120    10.9530    14.4510    26.1250    -7.3770     2.4890 
