~V
VERS. 2.00: Ver 2.00
~W
STRT.M 55.0000:
STOP.M 211.0000:
STEP.M 0.1250:
NULL. -999.2500:
UWI. F11125:
~C
DEPT.M :
DEN.GM/CC :
GR.API :
RML.OHMM :
RI. :
RXO.OHMM :
CALI.CM :
SP.MV :
~A
# ...
  122.5000     2.4530    45.6090    36.1320    33.1030    27.8010    23.7420    -6.2010 
  122.6250     2.4180    42.6040    34.2790    31.2250    25.6600    23.9790    -6.1400 
  122.7500     2.4040    41.0560    33.4760    30.2740    26.3660    23.8330    -6.0670 
  122.8750     2.4220    41.8010    33.3390    29.9770    28.9660    23.4560    -5.9660 
  123.0000     2.4640    43.0990    33.4930    30.0530    30.7100    23.2630    -5.8590 
  123.1250     2.5040    43.0870    33.5780    30.2060    30.5660    23.3300    -5.7340 
  123.2500     2.5310    42.2510    33.4290    30.2050    29.5700    23.4620    -5.6030 
  123.3750     2.5520    41.1940    33.0490    29.9870    30.4830    23.5550    -5.4580 
  123.5000     2.5660    39.5100    32.4910    29.5790    31.7920    23.5660    -5.3340 
  123.6250     2.5610    38.3270    31.8120    29.0340    30.4360    23.6110    -5.2310 
  123.7500     2.5380    39.8340    31.0930    28.4430    27.5860    23.7250    -5.1730 
  123.8750     2.5100    42.8530    30.3580    27.8370    25.9280    23.7730    -5.1420 
  124.0000     2.4830    43.7480    29.6290    27.2300    26.1300    23.6550    -5.1450 
  124.1250     2.4630    42.8630    28.9470    26.6630    24.7260    23.5750    -5.1770 
  124.2500     2.4620    45.1200    28.3090    26.1520    22.4130    23.5880    -5.2150 
  124.3750     2.4830    50.0240    27.6690    25.6640    20.5230    23.5530    -5.2540 
  124.5000     2.5120    53.8410    26.9980    25.1480    19.9240    23.4890    -5.2980 
  124.6250     2.5250    54.2690    26.3160    24.5790    20.3380    23.4180    -5.2990 
  124.7500     2.5180    53.1410    25.6690    23.9830    20.9490    23.3600    -5.2800 
  124.8750     2.5030    52.3870    25.1190    23.4180    20.6280    23.3070    -5.2510 
  125.0000     2.4950    51.3580    24.7310    22.9580    19.4150    23.2480    -5.1820 
  125.1250     2.5050    49.7280    24.5410    22.6690    18.8580    23.1650    -5.0600 
  125.2500     2.5260    48.4970    24.4500    22.4940    18.9860    23.1480    -4.9130 
  125.3750     2.5460    47.7820    24.3600    22.3620    19.3200    23.2640    -4.7710 
  125.5000     2.5620    47.1360    24.1760    22.1970    19.3300    23.4700    -4.5900 
  125.6250     2.5700    46.8250    23.8240    21.9270    19.0360    23.6130    -4.4680 
  125.7500     2.5680    47.8220    23.3810    21.5780    19.5670    23.6750    -4.3580 
  125.8750     2.5530    48.0190    22.9510    21.2170    21.2110    23.7090    -4.2850 
  126.0000     2.5320    47.2770    22.6380    20.9190    22.6790    23.7700    -4.2480 
  126.1250     2.5150    47.3240    22.5860    20.8070    20.7290    23.7660    -4.3060 
  126.2500     2.5040    48.8040    22.8470    20.9490    20.4110    23.7080    -4.4010 
  126.3750     2.5040    49.5830    23.4470    21.3900    20.7580    23.5780    -4.5180 
  126.5000     2.5180    49.1900    24.3310    22.1020    21.3320    23.4110    -4.6390 
  126.6250     2.5430    49.0050    25.3330    22.9680    22.1500    23.2990    -4.7710 
  126.7500     2.5610    49.2020    26.1380    23.7160    24.0560    23.2720    -4.8770 
  126.8750     2.5630    49.7180    26.5000    24.0990    25.3440    23.2810    -4.9550 
  127.0000     2.5530    50.5840    26.3460    23.9930    24.0490    23.2970    -5.0170 
  127.1250     2.5420    51.0860    25.8550    23.4900    22.0300    23.2970    -5.0170 
  127.2500     2.5360    50.7070    25.4680    22.9920    21.3110    23.2640    -4.9840 
  127.3750     2.5310    49.4400    25.4950    22.7860    20.9150    23.2040    -4.9320 
  127.5000     2.5110    48.0110    26.0960    23.0490    20.9640    23.1910    -4.8640 
  127.6250     2.4630    46.6680    27.2870    23.8710    22.7780    23.5450    -4.8020 
  127.7500     2.4010    44.2570    28.6750    24.9840    24.9520    24.1730    -4.7730 
  127.8750     2.3450    41.0200    29.8850    26.1000    26.0470    24.6200    -4.7850 
  128.0000     2.3140    40.1420    30.6050    26.9320    25.4280    24.5470    -4.8220 
  128.1250     2.3210    44.6190    30.6360    27.2330    25.6170    24.2330    -4.9070 
  128.2500     2.3480    49.9570    30.2400    27.1200    26.1210    24.0780    -5.0260 
  128.3750     2.3800    54.1210    29.6840    26.7750    24.4510    23.9890    -5.1730 
  128.5000     2.4040    56.8020    29.2070    26.4170    22.2420    23.8290    -5.3590 
  128.6250     2.4220    57.7130    28.9250    26.2020    21.8580    23.6430    -5.5400 
  128.7500     2.4320    56.8370    28.7110    26.0690    22.5850    23.4890    -5.7160 
  128.8750     2.4350    54.8080    28.4090    25.8800    22.1520    23.4020    -5.8730 
  129.0000     2.4380    51.8100    27.8840    25.4910    20.5960    23.3400    -6.0240 
  129.1250     2.4500    47.3670    27.0080    24.7490    19.4670    23.1610    -6.1430 
  129.2500     2.4660    45.6280    25.8740    23.7170    18.2160    22.9410    -6.2500 
  129.3750     2.4780    48.0610    24.6350    22.5240    17.2450    22.8260    -6.3290 
  129.5000     2.4840    52.1330    23.5100    21.3660    17.1110    22.8710    -6.4210 
  129.6250     2.4770    54.4900    22.8270    20.5220    17.8340    23.1530    -6.4820 
  129.7500     2.4530    55.4990    22.7290    20.1340    17.8910    23.5360    -6.5400 
  129.8750     2.4190    57.1270    23.2810    20.2880    17.6250    23.9130    -6.5750 
  130.0000     2.3950    59.1250    24.4090    20.9780    19.0300    24.1800    -6.5980 
  130.1250     2.4030    58.7720    25.8900    22.1130    21.2290    24.1860    -6.5920 
  130.2500     2.4300    56.6350    27.2630    23.3250    22.8400    24.0090    -6.5800 
  130.3750     2.4540    54.1910    28.1490    24.2780    23.3520    23.8580    -6.5260 
  130.5000     2.4620    52.4550    28.3170    24.7100    23.8480    23.8120    -6.4330 
  130.6250     2.4600    49.9260    27.7500    24.4960    23.4490    23.8280    -6.3000 
  130.7500     2.4590    48.7010    26.9220    23.9660    22.8810    23.8360    -6.1430 
  130.8750     2.4600    49.4850    26.1570    23.3980    21.9950    23.8340    -5.9630 
  131.0000     2.4550    48.7670    25.5860    22.9490    21.5410    23.9110    -5.7920 
  131.1250     2.4400    45.6720    25.0760    22.5730    21.8390    24.2820    -5.6240 
  131.2500     2.4200    43.6610    24.3290    22.0580    22.4280    24.7730    -5.4690 
  131.3750     2.4040    45.5960    23.1650    21.2400    22.6850    25.0820    -5.3500 
  131.5000     2.3960    49.0570    21.5890    20.0740    21.2650    25.1740    -5.2430 
  131.6250     2.4010    49.3220    19.7740    18.6360    19.0870    25.2820    -5.1610 
  131.7500     2.4100    48.5060    18.0100    17.1390    16.1910    25.4330    -5.0900 
  131.8750     2.4190    50.1670    16.4400    15.7010    14.7090    25.5210    -5.0520 
  132.0000     2.4290    53.9790    15.1110    14.4020    14.3940    25.5350    -5.0110 
  132.1250     2.4430    55.6110    14.0750    13.3400    13.7370    25.5220    -5.0110 
  132.2500     2.4510    55.6970    13.3250    12.5400    12.3490    25.4450    -5.0380 
  132.3750     2.4460    54.7840    12.9110    12.0500    11.0440    25.2600    -5.0980 
  132.5000     2.4400    51.3770    12.8660    11.8960    10.6410    24.9310    -5.2060 
  132.6250     2.4510    46.9390    13.2010    12.1000    11.5380    24.4820    -5.3860 
  132.7500     2.4660    45.8700    13.7270    12.5070    12.7500    24.1840    -5.5880 
  132.8750     2.4670    49.1020    14.2820    12.9790    13.5180    24.1100    -5.8030 
  133.0000     2.4510    53.5820    14.7440    13.3900    13.3310    24.1380    -6.0240 
  133.1250     2.4330    58.4710    15.0730    13.6670    13.3940    24.2120    -6.2330 
  133.2500     2.4200    64.3520    15.3750    13.8780    13.2760    24.3250    -6.4000 
  133.3750     2.4120    68.0210    15.7560    14.1080    13.1270    24.4230    -6.5610 
  133.5000     2.4140    68.3320    16.2780    14.4290    13.3540    24.4130    -6.6770 
  133.6250     2.4350    68.2310    16.9060    14.8530    13.9370    24.2810    -6.7690 
