~V
VERS. 2.00: Ver 2.00
~W
STRT.M 62.0000:
STOP.M 277.0000:
STEP.M 0.1250:
NULL. -999.2500:
UWI. F11155:
~C
DEPT.M :
SP.MV :
DEN.GM/CC :
GR.API :
RML.OHMM :
RI. :
RXO.OHMM :
CALI.CM :
~A
# ...
  140.7500   -10.1750     2.4190    76.2650    22.2530    20.6550    22.5190    24.4360 
  140.8750   -10.1230     2.4250    74.9260    22.5350    20.9690    22.2000    24.3140 
  141.0000   -10.1030     2.4280    73.0290    22.5800    21.0740    20.8030    24.4430 
  141.1250   -10.1070     2.4300    72.4070    22.3890    20.9570    21.1690    24.7750 
  141.2500   -10.1070     2.4320    75.6600    22.0350    20.6500    21.6770    25.1620 
  141.3750   -10.1140     2.4310    79.1900    21.6720    20.3020    22.0640    25.3480 
  141.5000   -10.1380     2.4290    77.0950    21.3580    19.9920    22.7560    25.3180 
  141.6250   -10.1500     2.4260    70.5210    21.0780    19.7230    22.6040    25.2400 
  141.7500   -10.1240     2.4230    66.9150    20.8370    19.4910    20.9550    25.2220 
  141.8750   -10.0800     2.4170    67.6950    20.7050    19.3300    19.8780    25.1980 
  142.0000   -10.0170     2.4060    70.4530    20.7580    19.3100    20.0480    25.0790 
  142.1250    -9.9430     2.3910    73.9650    21.0330    19.4770    21.0190    24.9890 
  142.2500    -9.8630     2.3830    79.3520    21.4780    19.8300    20.3580    25.1190 
  142.3750    -9.7660     2.3890    82.6500    21.8660    20.1930    21.5880    25.2630 
  142.5000    -9.6540     2.4030    82.4560    22.0010    20.3830    23.5100    25.3660 
  142.6250    -9.5520     2.4150    79.7450    21.7550    20.2640    24.3420    25.4610 
  142.7500    -9.4760     2.4070    76.7190    21.0860    19.7500    22.1030    25.4840 
  142.8750    -9.4020     2.3940    75.3640    20.2350    19.0110    19.1230    25.4010 
  143.0000    -9.3430     2.3890    75.4260    19.4410    18.2410    17.2120    25.2040 
  143.1250    -9.3140     2.3950    75.2970    18.9440    17.6480    16.7520    25.0800 
  143.2500    -9.3080     2.3990    74.5760    18.9740    17.4690    17.6900    25.1030 
  143.3750    -9.3170     2.3940    73.6520    19.4440    17.6990    18.3740    25.1860 
  143.5000    -9.3400     2.3940    73.2580    20.1600    18.2250    18.7440    25.1500 
  143.6250    -9.3510     2.4040    73.7580    20.7910    18.7940    18.9890    24.9470 
  143.7500    -9.3510     2.4160    75.6860    20.8690    18.9870    20.0720    24.6540 
  143.8750    -9.3510     2.4210    77.2590    20.2470    18.5930    20.7380    24.5530 
  144.0000    -9.3510     2.4180    76.6800    19.0090    17.6160    19.0450    24.7130 
  144.1250    -9.3380     2.4060    74.8990    17.4930    16.3050    15.9850    24.9460 
  144.2500    -9.3170     2.3840    74.3990    16.1530    15.0470    14.5010    24.8350 
  144.3750    -9.2990     2.3690    74.8270    15.2220    14.0900    13.9920    24.4910 
  144.5000    -9.2800     2.3730    77.3490    14.7360    13.5110    13.4170    24.1470 
  144.6250    -9.2770     2.3950    81.5270    14.6210    13.2950    13.7860    23.8500 
  144.7500    -9.2650     2.4190    81.0970    14.8020    13.4000    14.7160    23.4780 
  144.8750    -9.2220     2.4330    76.2830    15.1640    13.6980    15.1790    23.1250 
  145.0000    -9.1380     2.4350    73.4850    15.6970    14.1650    14.8600    23.0660 
  145.1250    -9.0030     2.4250    75.0530    16.3210    14.7600    15.5690    23.4280 
  145.2500    -8.8240     2.4090    73.5100    16.6610    15.2260    15.7500    24.0500 
  145.3750    -8.6270     2.3940    70.7340    16.2340    15.1090    16.1620    24.5410 
  145.5000    -8.4170     2.3840    72.9640    14.7080    14.0240    16.3620    24.7290 
  145.6250    -8.1910     2.3770    80.3180    12.2310    11.9950    15.1370    24.7520 
  145.7500    -7.9470     2.3640    85.8830     9.3310     9.5710    10.5670    24.7390 
  145.8750    -7.7060     2.3430    89.4930     6.6400     7.4540     6.6590    24.7360 
  146.0000    -7.4830     2.3210    93.5260     5.3030     5.8960     5.0030    24.7180 
  146.1250    -7.2940     2.3050    94.6320     4.5780     4.9120     4.8080    24.6830 
  146.2500    -7.1110     2.3040    91.6030     4.3590     4.4640     5.0990    24.6490 
  146.3750    -6.9430     2.3120    88.2550     4.3990     4.3350     5.1960    24.6160 
  146.5000    -6.8120     2.3240    86.2230     4.5590     4.4030     5.1820    24.5990 
  146.6250    -6.7020     2.3320    85.6230     4.7290     4.5480     5.1570    24.5950 
  146.7500    -6.5950     2.3280    87.0670     4.8360     4.6760     5.1830    24.5950 
  146.8750    -6.4970     2.3190    89.9880     4.8910     4.7570     5.2390    24.5930 
  147.0000    -6.4180     2.3130    89.3400     4.9260     4.8030     5.3240    24.5840 
  147.1250    -6.3420     2.3120    83.6970     4.9560     4.8320     5.3320    24.5600 
  147.2500    -6.2910     2.3180    77.6090     4.9900     4.8510     5.2770    24.5320 
  147.3750    -6.2440     2.3260    77.2520     5.0210     4.8590     5.2880    24.5190 
  147.5000    -6.1740     2.3320    84.5400     5.0430     4.8490     5.3890    24.5090 
  147.6250    -6.0970     2.3320    95.4360     5.0500     4.8140     5.5040    24.4930 
  147.7500    -6.0490     2.3240   102.9140     5.0300     4.7490     5.3640    24.4530 
  147.8750    -6.0180     2.3130   104.3460     4.9910     4.6680     5.1480    24.3750 
  148.0000    -5.9920     2.3060   100.8670     4.9450     4.5830     5.0220    24.1910 
  148.1250    -5.9810     2.3040    96.6170     4.9090     4.5090     5.0060    23.9650 
  148.2500    -5.9840     2.3010    96.1090     4.8980     4.4570     5.0000    23.9410 
  148.3750    -6.0060     2.2950    98.7590     4.9080     4.4260     4.9610    24.1110 
  148.5000    -6.0410     2.2900    98.8070     4.9310     4.4120     4.9550    24.2580 
  148.6250    -6.0850     2.2970    92.4890     4.9620     4.4080     4.9610    24.3090 
  148.7500    -6.1340     2.3150    83.7970     4.9880     4.4100     4.9620    24.3360 
  148.8750    -6.1950     2.3300    80.4970     5.0030     4.4080     4.9730    24.3790 
  149.0000    -6.2420     2.3390    82.0330     5.0030     4.3970     5.0200    24.4070 
  149.1250    -6.2680     2.3440    84.3380     4.9870     4.3730     5.0470    24.3890 
  149.2500    -6.2770     2.3450    84.1810     4.9580     4.3330     5.0330    24.3420 
  149.3750    -6.2500     2.3410    84.5360     4.9170     4.2840     5.0490    24.2950 
  149.5000    -6.2000     2.3330    87.2400     4.8660     4.2280     5.0150    24.2740 
  149.6250    -6.1400     2.3270    90.9210     4.8030     4.1690     4.9250    24.2730 
  149.7500    -6.0760     2.3240    92.1440     4.7310     4.1080     4.8870    24.2590 
  149.8750    -6.0030     2.3180    90.5460     4.6620     4.0460     4.8790    24.2320 
  150.0000    -5.9620     2.3050    89.9090     4.5940     3.9830     4.8250    24.1920 
  150.1250    -5.9690     2.2850    91.0400     4.5310     3.9200     4.7120    24.1350 
  150.2500    -6.0230     2.2690    89.8080     4.4790     3.8620     4.6390    24.1130 
  150.3750    -6.1160     2.2630    86.5900     4.4400     3.8160     4.6080    24.1170 
  150.5000    -6.2180     2.2680    86.2330     4.4190     3.7840     4.6060    24.1450 
  150.6250    -6.3110     2.2780    90.7540     4.4130     3.7660     4.5910    24.1590 
  150.7500    -6.4030     2.2920    95.4820     4.4180     3.7580     4.5660    24.1880 
  150.8750    -6.4940     2.3060    97.4100     4.4260     3.7490     4.5450    24.1560 
  151.0000    -6.5810     2.3120    96.6070     4.4260     3.7350     4.5320    24.0580 
  151.1250    -6.6770     2.3050    93.4380     4.4160     3.7140     4.5000    23.9610 
  151.2500    -6.7790     2.2960    88.1450     4.3960     3.6900     4.4360    23.9430 
  151.3750    -6.8660     2.2980    82.5820     4.3830     3.6740     4.4020    23.9930 
  151.5000    -6.9720     2.3080    80.8240     4.3930     3.6720     4.4170    24.0590 
  151.6250    -7.0920     2.3160    86.6170     4.4270     3.6870     4.4180    24.0340 
  151.7500    -7.2230     2.3140    93.1580     4.4710     3.7090     4.4110    23.8310 
  151.8750    -7.3610     2.3060    91.8850     4.4970     3.7260     4.4220    23.5730 
