~V
VERS. 2.00: Ver 2.00
~W
STRT.M 51.0000:
STOP.M 277.0000:
STEP.M 0.1250:
NULL. -999.2500:
UWI. F11147:
~C
DEPT.M :
DEN.GM/CC :
GR.API :
RML.OHMM :
RI. :
RXO.OHMM :
CALI.CM :
SP.MV :
~A
# ...
   62.2500     2.3690    53.7270     0.0880     0.1620     0.8970    22.0000    28.4850 
   62.3750     2.4500    51.8380     0.0840     0.1310     0.9410    22.0030    22.4210 
   62.5000     2.5020    51.1300     0.1280     0.1410     1.0730    22.2980    15.5820 
   62.6250     2.4620    54.1130     0.2220     0.2140     1.5460    23.2810     8.3270 
   62.7500     2.2970    57.1170     0.4020     0.3920     2.8610    25.9790     1.0250 
   62.8750     2.0850    57.0200     0.8100     0.7920     5.0250    31.0990    -5.9680 
   63.0000     1.9350    56.8680     1.5970     1.4980     6.2560    35.7710   -12.4880 
   63.1250     1.8690    58.0470     2.8820     2.5930     7.0320    36.2530   -18.3850 
   63.2500     1.8760    59.6400     4.4330     4.0240     8.7410    32.5200   -23.5290 
   63.3750     1.9510    61.0310     5.6440     5.5370    12.0420    28.3330   -27.6610 
   63.5000     2.0550    62.9990     6.4230     6.8230    12.6160    26.6000   -30.9540 
   63.6250     2.1480    65.1690     6.9750     7.7440    11.5410    26.3990   -33.6150 
   63.7500     2.1850    67.6170     7.4280     8.2620    10.1940    26.5730   -35.8400 
   63.8750     2.1590    68.4320     7.7450     8.3890     9.3380    27.1050   -37.6480 
   64.0000     2.1130    65.4010     7.8950     8.3410     9.2040    28.1790   -39.0840 
   64.1250     2.0680    60.8150     7.8740     8.2310     9.7440    29.3580   -40.1310 
   64.2500     2.0410    58.7340     7.7480     8.0930    10.1970    30.0500   -40.7960 
   64.3750     2.0410    61.0840     7.5800     7.9060    10.0300    29.9740   -41.0990 
   64.5000     2.0560    65.5210     7.4180     7.6790     9.3410    28.9170   -41.1860 
   64.6250     2.0830    70.6570     7.2920     7.4510     8.5580    27.2530   -41.1310 
   64.7500     2.1170    73.0440     7.2270     7.2780     8.4500    25.9670   -40.9910 
   64.8750     2.1470    70.4110     7.2380     7.2230     8.6180    25.6980   -40.8100 
   65.0000     2.1590    67.8770     7.2990     7.2790     8.6680    25.9170   -40.6460 
   65.1250     2.1590    67.3970     7.3920     7.4210     8.8380    26.1530   -40.5290 
   65.2500     2.1590    66.4480     7.4750     7.5870     9.2100    26.2640   -40.4600 
   65.3750     2.1620    64.2110     7.4580     7.6550     9.5890    26.5790   -40.4390 
   65.5000     2.1640    65.1830     7.2930     7.5490     9.4720    27.0410   -40.4270 
   65.6250     2.1700    69.9900     7.0080     7.2750     8.6950    27.3370   -40.4420 
   65.7500     2.1780    75.3710     6.7170     6.9240     7.6940    27.2220   -40.5090 
   65.8750     2.1870    78.9060     6.5690     6.6500     7.1640    26.6590   -40.7010 
   66.0000     2.1980    81.7740     6.6100     6.5430     7.1040    26.0460   -41.0280 
   66.1250     2.2140    81.5350     6.8290     6.6180     7.8470    25.7250   -41.4370 
   66.2500     2.2230    76.7090     7.1590     6.8230     9.5400    25.8100   -41.8820 
   66.3750     2.2050    72.0030     7.4880     7.0580    10.2970    26.1570   -42.3450 
   66.5000     2.1760    72.4190     7.7180     7.2260    10.1050    26.3520   -42.8280 
   66.6250     2.1540    75.6010     7.8270     7.2900     9.3510    26.2230   -43.3030 
   66.7500     2.1470    75.2120     7.8560     7.2700     8.7310    26.0280   -43.7500 
   66.8750     2.1540    70.8460     7.8650     7.2260     9.0500    26.2460   -44.1010 
   67.0000     2.1600    68.6270     7.8910     7.2140     9.2570    26.8390   -44.3270 
   67.1250     2.1590    68.3360     7.9290     7.2430     9.3830    27.5540   -44.4880 
   67.2500     2.1480    67.7500     7.9590     7.2890     9.4490    28.0810   -44.6410 
   67.3750     2.1370    65.5850     7.9590     7.3090     9.4750    27.9360   -44.7750 
   67.5000     2.1390    64.1290     7.9330     7.2830     9.4410    27.3350   -44.8970 
   67.6250     2.1550    65.5080     7.8950     7.2170     9.3970    26.7770   -45.0150 
   67.7500     2.1740    69.1190     7.8680     7.1380     9.2180    26.5650   -45.1170 
   67.8750     2.1800    72.6900     7.8850     7.0890     9.0600    26.6380   -45.2120 
   68.0000     2.1760    75.4260     7.9630     7.0920     8.9880    26.7680   -45.3250 
   68.1250     2.1690    77.7140     8.1070     7.1550     8.9290    26.8430   -45.4470 
   68.2500     2.1660    79.1640     8.3130     7.2710     9.0400    26.8590   -45.5690 
   68.3750     2.1660    74.9720     8.5620     7.4210     9.4780    26.8110   -45.7060 
   68.5000     2.1650    67.2520     8.7880     7.5620     9.9740    26.6940   -45.8310 
   68.6250     2.1670    62.8810     8.9240     7.6480    10.3660    26.5650   -45.9240 
   68.7500     2.1700    64.3900     8.9290     7.6480    10.6230    26.5390   -45.9900 
   68.8750     2.1670    66.2260     8.8050     7.5440    10.6210    26.6790   -46.0140 
   69.0000     2.1530    65.6420     8.6450     7.3910    10.2880    26.8840   -46.0020 
   69.1250     2.1380    66.7520     8.5240     7.2410     9.9320    26.8830   -45.9580 
   69.2500     2.1330    71.7210     8.4950     7.1370     9.5540    26.5180   -45.8980 
   69.3750     2.1460    73.0920     8.5810     7.1150     9.9430    26.0350   -45.8280 
   69.5000     2.1630    69.0340     8.7380     7.1580    10.3890    25.7070   -45.7580 
   69.6250     2.1750    65.5320     8.9270     7.2440    10.5360    25.5120   -45.6970 
   69.7500     2.1800    65.1780     9.1020     7.3380    10.3520    25.4010   -45.6240 
   69.8750     2.1820    65.0480     9.2120     7.3920    10.1160    25.1940   -45.5530 
   70.0000     2.1860    63.4460     9.2420     7.3810     9.8340    25.0740   -45.4800 
   70.1250     2.1940    62.8180     9.1960     7.3040     9.5790    25.0520   -45.4210 
   70.2500     2.2070    63.1850     9.0980     7.1800     9.3850    25.0100   -45.3860 
   70.3750     2.2180    63.6510     8.9900     7.0420     9.3750    24.9280   -45.4130 
   70.5000     2.2220    66.1740     8.9250     6.9300     9.3610    24.8230   -45.5110 
   70.6250     2.2200    69.3400     8.9340     6.8670     9.4390    24.7310   -45.6630 
   70.7500     2.2130    70.4690     9.0190     6.8650     9.5860    24.7330   -45.8800 
   70.8750     2.2040    70.4720     9.1540     6.9170     9.5630    24.8690   -46.1550 
   71.0000     2.1950    70.0020     9.2790     6.9850     9.6390    24.9220   -46.4660 
   71.1250     2.1900    68.5580     9.3580     7.0400     9.6820    24.9050   -46.7820 
   71.2500     2.1870    65.2920     9.3740     7.0630     9.7390    24.8800   -47.0760 
   71.3750     2.1850    62.4120     9.3310     7.0480     9.6900    24.9430   -47.3270 
   71.5000     2.1780    60.4200     9.2670     7.0110     9.5860    25.0060   -47.5130 
   71.6250     2.1640    59.0920     9.1960     6.9600     9.4800    25.0630   -47.6390 
   71.7500     2.1470    60.9040     9.1210     6.9000     9.4560    25.0960   -47.7110 
   71.8750     2.1330    64.1710     9.0290     6.8290     9.7740    25.1330   -47.6820 
   72.0000     2.1290    65.6800     8.9230     6.7470    10.2180    25.1840   -47.5710 
   72.1250     2.1380    63.5880     8.8170     6.6620    10.3760    25.2830   -47.3720 
   72.2500     2.1580    59.8250     8.7320     6.5860    10.2930    25.4980   -47.0880 
   72.3750     2.1740    56.7130     8.6810     6.5360    10.0980    25.8730   -46.7070 
   72.5000     2.1720    55.6850     8.6570     6.5150    10.0220    26.2500   -46.2370 
   72.6250     2.1550    58.0620     8.6650     6.5250    10.2600    26.5320   -45.6660 
   72.7500     2.1370    61.2670     8.7160     6.5710    10.5330    26.5940   -44.9640 
   72.8750     2.1330    61.8910     8.8230     6.6530    10.6330    26.4580   -44.1010 
   73.0000     2.1410    61.4620     8.9350     6.7390    10.6840    26.4380   -43.0850 
   73.1250     2.1520    61.7390     8.9840     6.7850    10.7430    26.6550   -41.9040 
   73.2500     2.1580    60.3930     8.9010     6.7430    10.8440    27.0720   -40.5580 
   73.3750     2.1590    58.6520     8.6320     6.5600    10.3600    27.2380   -39.0530 
