~V
VERS. 2.00: Ver 2.00
~W
STRT.M 63.0000:
STOP.M 219.0000:
STEP.M 0.1250:
NULL. -999.2500:
UWI. F11123:
~C
DEPT.M :
GR.API :
RML.OHMM :
RI. :
RXO.OHMM :
CALI.CM :
SP.MV :
DEN.GM/CC :
~A
# ...
  175.5000    72.5720    54.0160    40.5390    46.7040    24.9340    -8.5580     2.2900 
  175.6250    74.1490    61.3810    46.7150    47.3710    24.9490    -8.7020     2.2840 
  175.7500    73.7590    67.1840    51.4000    53.8350    24.9700    -8.8260     2.2830 
  175.8750    71.0520    72.5580    55.2810    64.7830    24.9930    -8.9470     2.2830 
  176.0000    66.1430    78.7860    59.3330    65.7310    25.0010    -9.0590     2.2800 
  176.1250    61.6260    86.5940    64.2020    62.7220    25.0010    -9.1840     2.2700 
  176.2500    59.8010    94.9570    69.3850    67.6480    25.0020    -9.3040     2.2550 
  176.3750    60.5240   102.5580    74.0940    76.8150    25.0070    -9.4360     2.2390 
  176.5000    61.9520   108.1420    77.5610    84.6910    25.0030    -9.5650     2.2260 
  176.6250    64.7290   110.4010    78.9540    96.4110    25.0020    -9.7210     2.2240 
  176.7500    68.6990   109.8610    78.5350    89.0470    25.0010    -9.8700     2.2320 
  176.8750    70.5470   107.1910    76.6560    75.0460    24.9920   -10.0400     2.2470 
  177.0000    67.5630   103.3430    73.8860    70.3200    24.9860   -10.2060     2.2620 
  177.1250    61.4490    99.9980    71.2870    66.9820    24.9100   -10.3900     2.2670 
  177.2500    58.7490    99.1170    70.2240    64.8050    24.8220   -10.5700     2.2610 
  177.3750    61.4650   102.4280    71.9440    60.6880    24.7840   -10.7680     2.2450 
  177.5000    66.0060   111.5550    77.7140    62.3330    24.8760   -10.9620     2.2220 
  177.6250    67.7130   129.4290    89.9310    81.5980    24.9940   -11.1790     2.1990 
  177.7500    66.2340   155.7080   108.5780   122.7960    25.0500   -11.3940     2.1810 
  177.8750    63.1170   189.2630   132.8840   160.2070    25.0590   -11.6270     2.1720 
  178.0000    60.0510   225.7410   159.7030   180.7060    25.0610   -11.8580     2.1720 
  178.1250    57.5950   254.8370   182.0200   204.8490    25.0660   -12.0870     2.1770 
  178.2500    55.2790   268.3790   194.1630   223.1930    25.0640   -12.2690     2.1840 
  178.3750    53.9160   263.8140   193.8440   221.6360    25.0650   -12.4000     2.1900 
  178.5000    54.8910   244.3920   182.3600   202.4200    25.0640   -12.4710     2.1970 
  178.6250    57.8290   216.2400   162.9320   186.5720    25.0810   -12.4960     2.2050 
  178.7500    61.0820   188.6620   142.3140   159.0880    25.1090   -12.4780     2.2150 
  178.8750    62.4120   167.4020   125.1390   116.9530    25.1530   -12.4480     2.2250 
  179.0000    59.8020   156.0560   114.6690    86.1980    25.1790   -12.4170     2.2310 
  179.1250    56.2850   158.7660   114.5230    82.8630    25.1800   -12.4250     2.2300 
  179.2500    56.5760   174.7630   124.4930   103.5040    25.1720   -12.4440     2.2250 
  179.3750    58.7000   204.3770   144.8550   157.7430    25.1360   -12.4920     2.2170 
  179.5000    57.2290   246.2220   174.4450   230.7210    25.1260   -12.5510     2.2090 
  179.6250    54.1100   295.2090   209.7010   299.6980    25.1230   -12.6150     2.2050 
  179.7500    54.4790   339.9720   242.9280   302.0480    25.1200   -12.6660     2.2050 
  179.8750    56.9130   373.8300   269.6390   274.0720    25.1200   -12.7020     2.2010 
  180.0000    56.5880   398.0990   290.4480   267.5380    25.1210   -12.7330     2.1890 
  180.1250    54.0110   418.7320   309.6700   375.2390    25.1010   -12.7770     2.1690 
  180.2500    54.1360   436.5640   328.5120   462.8190    25.0610   -12.8330     2.1520 
  180.3750    56.4810   443.2120   341.4960   466.1880    25.0180   -12.8880     2.1470 
  180.5000    57.5430   427.4850   339.7860   457.6060    24.9910   -12.9310     2.1560 
  180.6250    55.2450   379.9810   312.9620   432.1470    24.9160   -12.9640     2.1700 
  180.7500    54.2190   315.1290   268.2420   347.7500    24.8150   -12.9740     2.1780 
  180.8750    56.4750   248.5690   216.8280   234.0850    24.7200   -12.9670     2.1780 
  181.0000    60.6100   191.9430   169.6020   155.8730    24.6910   -12.9540     2.1790 
  181.1250    63.2230   152.1090   134.3820   110.7270    24.6990   -12.9430     2.1900 
  181.2500    62.4370   125.9880   110.4800    77.5710    24.6930   -12.9440     2.2030 
  181.3750    59.9460   111.6790    96.8830    62.9400    24.6400   -12.9320     2.2100 
  181.5000    58.1150   107.5220    92.3110    62.0650    24.5780   -12.9120     2.2090 
  181.6250    59.1690   113.9070    97.1340    70.6210    24.5620   -12.8200     2.2040 
  181.7500    61.6750   128.7660   109.5980    84.8810    24.5630   -12.6950     2.2030 
  181.8750    62.3430   151.4420   129.2470   107.7250    24.5470   -12.5200     2.2060 
  182.0000    59.6510   180.2260   154.6320   140.2450    24.5090   -12.3490     2.2110 
  182.1250    55.9920   211.4230   182.6060   160.6990    24.4950   -12.1710     2.2110 
  182.2500    53.6560   239.1140   208.0380   189.4710    24.4670   -12.0410     2.2040 
  182.3750    51.9900   258.3020   226.7400   217.6400    24.4420   -11.9370     2.1910 
  182.5000    51.7210   264.6300   234.9850   227.3120    24.5060   -11.8570     2.1760 
  182.6250    54.8970   252.8660   227.8710   216.7610    24.7650   -11.7690     2.1700 
  182.7500    59.1630   228.3620   208.9580   203.1650    25.0110   -11.7020     2.1790 
  182.8750    62.1500   198.0160   183.4400   197.2150    24.5980   -11.6330     2.2040 
  183.0000    62.4770   168.9610   157.5310   170.9380    24.5800   -11.5830     2.2330 
  183.1250    61.6200   147.1310   137.0870   127.6410    24.6070   -11.5660     2.2470 
  183.2500    62.7930   132.9530   123.3780   111.6500    24.6880   -11.6110     2.2420 
  183.3750    63.7060   125.7860   116.1630   134.4320    24.6870   -11.6950     2.2250 
  183.5000    61.1660   124.2570   114.2720   176.4760    24.8350   -11.8170     2.2080 
  183.6250    56.1980   127.3100   116.7130   173.7210    24.8330   -11.9370     2.2000 
  183.7500    54.5880   132.6830   121.3260   143.4700    24.7470   -12.0440     2.1990 
  183.8750    56.5330   139.2060   126.9430   112.9510    24.6540   -12.1210     2.2020 
  184.0000    59.3400   146.3570   133.0070   104.7730    24.6180   -12.1530     2.2040 
  184.1250    60.8630   154.6890   140.0150   102.6250    24.5680   -12.1300     2.2100 
  184.2500    59.4910   164.9960   148.7850    96.6300    24.5640   -12.0840     2.2180 
  184.3750    56.0710   178.5610   160.5170    88.4110    24.5720   -12.0250     2.2270 
  184.5000    52.8170   197.3020   177.0330    88.3470    24.6490   -11.9530     2.2280 
  184.6250    51.3180   224.7100   201.8790   108.5570    24.6930   -11.9020     2.2170 
  184.7500    49.9960   259.6060   234.3780   140.5120    24.7350   -11.8700     2.1990 
  184.8750    49.1900   296.9240   270.2910   174.4720    24.7400   -11.8850     2.1830 
  185.0000    50.5780   324.3830   298.5530   200.3290    24.7450   -11.9280     2.1740 
  185.1250    53.6780   319.7990   298.6110   227.6970    24.7610   -12.0130     2.1710 
  185.2500    55.7860   284.3780   269.5410   255.0950    24.7990   -12.0780     2.1710 
  185.3750    56.8310   233.5080   223.6440   265.2250    24.7720   -12.1430     2.1760 
  185.5000    58.7340   184.9040   177.3290   206.6740    24.7620   -12.1800     2.1880 
  185.6250    59.6620   150.6380   143.1180   129.7030    24.7940   -12.1960     2.2100 
  185.7500    59.3840   130.5330   122.0590    83.7780    24.7410   -12.1890     2.2340 
  185.8750    60.4550   123.6490   113.5110    65.8290    24.6460   -12.1740     2.2510 
  186.0000    63.2000   129.3010   116.8680    53.2900    24.5780   -12.1600     2.2520 
  186.1250    64.7640   150.4940   135.3870    51.7140    24.3600   -12.1980     2.2340 
  186.2500    62.6270   187.0520   169.4200    64.5820    24.2090   -12.2450     2.2090 
  186.3750    57.4330   240.0960   220.3220    86.1140    24.1500   -12.3030     2.1850 
  186.5000    51.8210   306.5650   285.1550    91.2420    24.1310   -12.3630     2.1680 
  186.6250    50.7160   370.8710   349.7690    78.4660    24.1120   -12.4510     2.1610 
