~V
VERS. 2.00: Ver 2.00
~W
STRT.M 50.0000:
STOP.M 242.0000:
STEP.M 0.1250:
NULL. -999.2500:
UWI. F11136:
~C
DEPT.M :
GR.API :
RML.OHMM :
RI. :
RXO.OHMM :
CALI.CM :
SP.MV :
DEN.GM/CC :
~A
# ...
   72.5000    77.9170     6.7150     5.6520     6.4020    22.7190   -31.7130     2.2820 
   72.6250    74.9120     6.6360     5.5860     6.4500    22.4040   -31.8520     2.2230 
   72.7500    70.3760     6.9500     5.8500     7.1770    21.8430   -32.0680     2.1650 
   72.8750    64.8360     7.5870     6.3870     8.6030    21.6970   -32.3240     2.1410 
   73.0000    57.4960     8.3700     7.0450    10.0140    21.9090   -32.6110     2.1710 
   73.1250    51.8200     8.9480     7.5320    10.7670    22.1420   -32.9290     2.2450 
   73.2500    49.9540     9.0840     7.6460    10.8000    22.3480   -33.2620     2.3080 
   73.3750    50.9770     8.7820     7.3920     9.7160    22.6110   -33.5900     2.3170 
   73.5000    53.3570     8.2970     6.9840     8.7120    22.7520   -33.8700     2.2600 
   73.6250    56.9600     8.0850     6.8050     8.3980    22.6530   -34.0640     2.1670 
   73.7500    60.0370     8.4470     7.1100     8.4000    22.2210   -34.1850     2.0960 
   73.8750    59.8330     9.5520     8.0400     8.5660    21.5390   -34.2370     2.0860 
   74.0000    55.4010    11.3970     9.5930     9.3050    21.4570   -34.2070     2.1520 
   74.1250    51.0150    13.6080    11.4540    12.8260    22.0980   -34.1490     2.2800 
   74.2500    50.7140    15.1450    12.7480    19.6910    22.6340   -34.1040     2.4070 
   74.3750    53.5860    15.1500    12.7530    20.4020    22.6600   -34.0630     2.4810 
   74.5000    56.4310    13.6580    11.4970    12.5930    22.6090   -33.9950     2.4730 
   74.6250    59.2360    11.5960     9.7610     9.4560    22.5920   -33.9230     2.3900 
   74.7500    60.2880     9.9040     8.3360     8.5390    22.5420   -33.9100     2.2830 
   74.8750    58.4430     8.8410     7.4420     8.5860    22.2620   -33.9240     2.1820 
   75.0000    56.4160     8.3830     7.0560     8.7940    21.6920   -33.9530     2.1040 
   75.1250    57.3800     8.4020     7.0720     8.7920    20.9930   -33.9980     2.0650 
   75.2500    58.4870     8.5770     7.2200     8.6470    20.6250   -34.0610     2.0610 
   75.3750    56.6080     8.7260     7.3450     8.7240    20.5580   -34.1230     2.0860 
   75.5000    53.8880     8.7550     7.3690     8.9130    20.6490   -34.2050     2.1220 
   75.6250    54.0890     8.6410     7.2730     8.9910    20.7090   -34.3180     2.1490 
   75.7500    54.9210     8.4650     7.1250     8.8500    20.7200   -34.4620     2.1570 
   75.8750    54.0340     8.3000     6.9870     8.6800    20.7170   -34.6460     2.1520 
   76.0000    52.3050     8.1940     6.8980     8.5670    20.7160   -34.8530     2.1490 
   76.1250    52.2490     8.1680     6.8760     8.4850    20.7200   -35.0560     2.1560 
   76.2500    53.1690     8.1920     6.8960     8.3330    20.7710   -35.2840     2.1710 
   76.3750    54.9510     8.2490     6.9440     8.0320    20.8650   -35.5390     2.1830 
   76.5000    57.5690     8.3290     7.0110     7.9100    21.0050   -35.7820     2.1890 
   76.6250    57.7590     8.4090     7.0780     8.0570    21.0830   -35.9450     2.1840 
   76.7500    54.1520     8.4600     7.1210     8.2610    21.2180   -36.0390     2.1750 
   76.8750    50.3910     8.4650     7.1250     8.4260    21.2410   -36.0910     2.1630 
   77.0000    48.5690     8.4200     7.0880     8.5660    21.1840   -36.0940     2.1490 
   77.1250    47.9930     8.3270     7.0090     8.5540    21.1410   -36.0240     2.1320 
   77.2500    49.4230     8.2100     6.9110     8.4640    21.0610   -35.8940     2.1150 
   77.3750    53.3980     8.0900     6.8090     8.4400    20.9830   -35.7210     2.1020 
   77.5000    58.4930     7.9900     6.7260     8.4310    20.9500   -35.5400     2.0960 
   77.6250    59.5720     7.9600     6.7000     8.4300    20.9450   -35.3650     2.1010 
   77.7500    56.8470     8.0220     6.7520     8.3690    20.9580   -35.1780     2.1130 
   77.8750    54.5650     8.1720     6.8790     8.4650    20.9420   -34.9950     2.1300 
   78.0000    53.9530     8.3770     7.0520     8.7270    20.9320   -34.8520     2.1510 
   78.1250    52.4110     8.5750     7.2180     9.0310    20.8200   -34.6860     2.1750 
   78.2500    50.9170     8.7060     7.3280     9.2310    20.7610   -34.4310     2.2020 
   78.3750    53.5820     8.7420     7.3590     9.3340    20.6760   -34.1130     2.2230 
   78.5000    59.3910     8.6960     7.3200     9.2930    20.6360   -33.7540     2.2310 
   78.6250    60.8690     8.5990     7.2380     9.0690    20.6330   -33.3300     2.2170 
   78.7500    58.6530     8.4760     7.1350     8.8060    20.6380   -32.8150     2.1920 
   78.8750    56.1070     8.3000     6.9870     8.6660    20.6410   -32.1990     2.1720 
   79.0000    56.2170     8.0200     6.7510     8.6250    20.6840   -31.5280     2.1710 
   79.1250    60.8000     7.6000     6.3970     8.2780    20.8630   -30.8350     2.1970 
   79.2500    67.9800     7.1570     6.0250     7.8990    21.0380   -30.0940     2.2310 
   79.3750    74.6300     6.8790     5.7900     7.6680    21.0200   -29.3160     2.2540 
   79.5000    77.3610     7.0180     5.9070     7.6900    20.9110   -28.5320     2.2570 
   79.6250    74.7650     8.0430     6.7700     8.2440    20.9990   -27.7330     2.2580 
   79.7500    69.9220    10.1450     8.5400     9.8710    21.3270   -26.8850     2.2890 
   79.8750    65.8280    13.3850    11.2660    14.4740    21.8720   -25.9730     2.3680 
   80.0000    62.3360    17.1780    14.4590    26.8660    22.6620   -24.9810     2.4850 
   80.1250    59.1250    19.2430    16.1980    47.5450    23.3500   -23.9520     2.5990 
   80.2500    61.3820    18.0380    15.1840    43.5670    23.8810   -22.9580     2.6620 
   80.3750    71.3140    14.5100    12.2140    22.5600    23.9840   -21.9930     2.6600 
   80.5000    83.7350    10.7570     9.0550     9.3730    23.9970   -21.0640     2.6070 
   80.6250    91.9780     8.1440     6.8550     6.0710    24.0060   -20.2850     2.5310 
   80.7500    95.7920     6.5720     5.5320     5.1410    24.0060   -19.7100     2.4610 
   80.8750    95.7970     5.8190     4.8980     5.2020    24.0100   -19.3180     2.4070 
   81.0000    91.9180     5.6920     4.7910     5.5080    24.0130   -19.1060     2.3770 
   81.1250    86.9290     6.0470     5.0900     6.5760    24.0100   -19.1230     2.3680 
   81.2500    82.3450     6.5710     5.5310     7.7450    24.0420   -19.3080     2.3670 
   81.3750    77.5040     7.0640     5.9460     7.8480    24.0870   -19.6030     2.3610 
   81.5000    73.4600     7.4060     6.2340     7.5070    24.1560   -19.9620     2.3400 
   81.6250    69.8260     7.5280     6.3370     7.6760    24.1610   -20.3920     2.3030 
   81.7500    64.6770     7.5220     6.3320     7.7880    24.1270   -20.8840     2.2600 
   81.8750    59.7290     7.5180     6.3290     7.7770    23.9620   -21.4260     2.2190 
   82.0000    58.5100     7.7020     6.4830     8.0460    23.6860   -21.9650     2.1900 
   82.1250    60.7180     8.4250     7.0920     8.8860    23.2830   -22.5070     2.1860 
   82.2500    61.1300     9.9260     8.3560    10.8620    23.1250   -23.0920     2.2150 
   82.3750    59.2140    12.4470    10.4780    15.2230    23.1730   -23.7270     2.2800 
   82.5000    56.9800    16.0070    13.4740    22.9990    23.3160   -24.3950     2.3720 
   82.6250    55.7380    19.8970    16.7480    35.8610    23.2380   -25.0640     2.4620 
   82.7500    55.5840    22.2900    18.7630    51.5830    23.1140   -25.7630     2.5160 
   82.8750    56.0400    21.8140    18.3620    52.5140    22.8560   -26.5220     2.5150 
   83.0000    55.9310    18.8420    15.8600    30.3790    21.8800   -27.3200     2.4580 
   83.1250    54.8390    15.1890    12.7850    15.3600    20.6360   -28.0560     2.3620 
   83.2500    54.0740    12.3160    10.3670    10.3280    20.2510   -28.7220     2.2630 
   83.3750    54.8700    10.5290     8.8630     8.9510    20.1830   -29.3370     2.1850 
   83.5000    56.4300     9.7440     8.2020     8.7820    20.2040   -29.8670     2.1430 
   83.6250    54.7580     9.8210     8.2670     9.3870    20.3780   -30.2610     2.1460 
