~V
VERS. 2.00: Ver 2.00
~W
STRT.M 58.0000:
STOP.M 206.0000:
STEP.M 0.1250:
NULL. -999.2500:
UWI. F11128:
~C
DEPT.M :
GR.API :
RML.OHMM :
RI. :
RXO.OHMM :
CALI.CM :
SP.MV :
DEN.GM/CC :
~A
# ...
  103.0000    64.8780     8.7010     7.2900    10.6510    25.9610   -17.3850     2.2320 
  103.1250    65.0520     8.3880     7.0390    10.6800    25.5220   -17.4500     2.2280 
  103.2500    64.2390     8.1730     6.8240    10.9580    25.2890   -17.4330     2.2070 
  103.3750    63.9770     8.0870     6.6910    11.5820    25.1830   -17.3710     2.1910 
  103.5000    65.0100     8.1130     6.6580    12.2420    25.1480   -17.2950     2.1890 
  103.6250    65.7540     8.1750     6.6780    12.7480    25.1610   -17.2180     2.1910 
  103.7500    64.5740     8.2250     6.7150    12.8890    25.2160   -17.1600     2.1860 
  103.8750    62.0530     8.2390     6.7400    12.3860    25.3400   -17.1330     2.1720 
  104.0000    61.4100     8.2110     6.7380    12.0310    25.4420   -17.0760     2.1520 
  104.1250    62.6220     8.1550     6.7120    11.8240    25.4790   -17.0170     2.1330 
  104.2500    63.3520     8.0730     6.6630    11.5950    25.4070   -16.9760     2.1180 
  104.3750    62.2910     7.9660     6.5870    11.1780    25.2870   -16.9370     2.1090 
  104.5000    60.1870     7.8340     6.4800    11.0110    25.2180   -16.8930     2.1070 
  104.6250    58.5670     7.6960     6.3570    11.0830    25.1740   -16.8090     2.1110 
  104.7500    59.1950     7.5750     6.2340    11.2330    25.1530   -16.6930     2.1220 
  104.8750    62.1190     7.4880     6.1310    11.3710    25.1340   -16.6140     2.1440 
  105.0000    64.7330     7.4570     6.0730    11.5310    25.0980   -16.6900     2.1720 
  105.1250    65.4830     7.4720     6.0580    11.6860    25.0580   -16.8790     2.1980 
  105.2500    64.6610     7.5230     6.0830    11.7400    25.0280   -17.1240     2.2200 
  105.3750    63.3450     7.5950     6.1380    11.7480    24.9850   -17.4140     2.2390 
  105.5000    61.3360     7.6710     6.2100    11.9320    24.9650   -17.7420     2.2460 
  105.6250    59.3420     7.7320     6.2820    12.1730    25.1070   -18.0610     2.2310 
  105.7500    57.7830     7.7690     6.3440    12.2810    25.5430   -18.3430     2.1940 
  105.8750    57.1040     7.7760     6.3890    12.1890    26.0260   -18.5490     2.1490 
  106.0000    59.2190     7.7570     6.4100    11.2990    26.3620   -18.6400     2.1230 
  106.1250    62.0990     7.7250     6.4110    10.7990    26.5590   -18.6460     2.1190 
  106.2500    62.8090     7.6900     6.4000    10.5900    26.6520   -18.5790     2.1250 
  106.3750    61.6040     7.6570     6.3810    10.5510    26.6180   -18.4570     2.1280 
  106.5000    61.7730     7.6250     6.3570    10.5130    26.4950   -18.2680     2.1280 
  106.6250    62.4240     7.5860     6.3280    10.4490    26.3760   -18.0510     2.1320 
  106.7500    61.3000     7.5320     6.2900    10.4230    26.3480   -17.8210     2.1360 
  106.8750    59.9510     7.4610     6.2430    10.4450    26.3480   -17.6090     2.1370 
  107.0000    61.2860     7.3740     6.1850    10.4820    26.1940   -17.4580     2.1350 
  107.1250    62.9210     7.2850     6.1230    10.4920    25.8750   -17.2850     2.1350 
  107.2500    62.6280     7.2080     6.0650    10.4320    25.5920   -17.0030     2.1360 
  107.3750    61.4310     7.1520     6.0180    10.3360    25.5200   -16.5830     2.1320 
  107.5000    61.7260     7.1330     5.9960    10.1620    25.4610   -16.0950     2.1270 
  107.6250    63.0630     7.1480     6.0020    10.0170    25.3060   -15.6070     2.1300 
  107.7500    65.1320     7.1920     6.0380     9.9830    25.1500   -15.1320     2.1430 
  107.8750    66.5640     7.2450     6.0910     9.9600    25.0620   -14.6730     2.1630 
  108.0000    65.6610     7.2620     6.1290     9.8900    25.0550   -14.1600     2.1810 
  108.1250    64.2870     7.2030     6.1120     9.8310    25.0860   -13.6080     2.1980 
  108.2500    64.7000     7.0510     6.0160     9.7260    25.1370   -13.0790     2.2140 
  108.3750    67.1900     6.8260     5.8470     9.3520    25.2030   -12.6160     2.2290 
  108.5000    71.5010     6.5980     5.6460     8.5840    25.2990   -12.2320     2.2440 
  108.6250    77.5820     6.4560     5.4900     7.6010    25.3410   -11.9330     2.2590 
  108.7500    82.7610     6.4560     5.4330     6.9250    25.2210   -11.7430     2.2660 
  108.8750    82.7250     6.6080     5.5070     7.0650    24.9800   -11.6400     2.2550 
  109.0000    77.5270     6.8880     5.7170     7.9950    24.7590   -11.6530     2.2330 
  109.1250    72.7560     7.1960     5.9890     9.0570    24.6810   -11.7980     2.2190 
  109.2500    70.1870     7.4560     6.2610     9.8030    24.7730   -12.0810     2.2190 
  109.3750    69.2660     7.6200     6.4740    10.1450    25.0260   -12.4760     2.2220 
  109.5000    70.2840     7.6710     6.5890    10.1570    25.4650   -12.9090     2.2150 
  109.6250    72.6220     7.6710     6.6370    10.0860    25.7860   -13.3210     2.2020 
  109.7500    73.6680     7.6760     6.6610    10.0190    25.8940   -13.6690     2.1860 
  109.8750    71.1270     7.7240     6.7010    10.1480    25.8720   -13.9530     2.1720 
  110.0000    66.2660     7.8420     6.7910    10.4100    25.7960   -14.2000     2.1620 
  110.1250    63.1950     8.0110     6.9300    10.6810    25.7500   -14.4200     2.1580 
  110.2500    63.8410     8.2170     7.1090    11.0380    25.7370   -14.6170     2.1600 
  110.3750    66.2400     8.4440     7.3180    11.4970    25.6690   -14.7890     2.1670 
  110.5000    66.1400     8.6760     7.5450    12.0040    25.5020   -14.9080     2.1780 
  110.6250    63.6680     8.8920     7.7710    12.4100    25.3200   -14.9690     2.1850 
  110.7500    61.3260     9.0700     7.9750    12.5890    25.2260   -14.9940     2.1840 
  110.8750    60.5430     9.1820     8.1330    12.4870    25.2050   -14.9970     2.1730 
  111.0000    60.1850     9.1960     8.2110    12.1740    25.2240   -14.9900     2.1560 
  111.1250    59.3350     9.1290     8.2130    11.8850    25.1540   -15.0030     2.1400 
  111.2500    59.3530     9.0050     8.1540    11.8010    24.9080   -15.0560     2.1330 
  111.3750    61.4920     8.8630     8.0620    11.9680    24.5950   -15.1610     2.1440 
  111.5000    64.4220     8.7490     7.9740    12.1790    24.4490   -15.3340     2.1720 
  111.6250    64.3300     8.6770     7.9100    12.3890    24.4060   -15.5150     2.1990 
  111.7500    61.4450     8.6400     7.8690    12.5400    24.4160   -15.6690     2.2180 
  111.8750    59.8490     8.6190     7.8390    12.5960    24.4310   -15.7780     2.2280 
  112.0000    62.8190     8.6030     7.8070    12.3800    24.4380   -15.7790     2.2330 
  112.1250    66.2230     8.6020     7.7800    11.8460    24.4750   -15.7170     2.2340 
  112.2500    67.0550     8.6430     7.7840    10.9790    24.6990   -15.6500     2.2250 
  112.3750    66.6650     8.7470     7.8430    10.0660    25.2930   -15.6130     2.2040 
  112.5000    66.6890     8.9340     7.9870     9.8530    26.1950   -15.6330     2.1760 
  112.6250    66.0580     9.1840     8.2040    10.2690    26.7760   -15.7230     2.1530 
  112.7500    64.6890     9.4890     8.4870    11.1000    27.0240   -15.8450     2.1410 
  112.8750    63.6680     9.8610     8.8340    11.7410    27.0300   -15.9610     2.1390 
  113.0000    62.9300    10.3680     9.2860    12.1290    26.8990   -16.0950     2.1470 
  113.1250    61.4700    11.0560     9.8740    12.7840    26.6790   -16.1960     2.1640 
  113.2500    60.4350    11.9510    10.6370    14.1160    26.4510   -16.2140     2.1820 
  113.3750    61.7830    13.0210    11.5760    16.1730    26.2880   -16.1070     2.1890 
  113.5000    63.9600    14.1410    12.6330    18.8780    26.2230   -15.8530     2.1810 
  113.6250    64.0380    15.1070    13.6400    21.6570    26.2460   -15.5060     2.1650 
  113.7500    62.7650    15.7570    14.4340    23.4010    26.3270   -15.1280     2.1460 
  113.8750    62.2700    16.0150    14.8990    22.8920    26.3920   -14.7650     2.1310 
  114.0000    63.2440    15.9040    14.9790    21.4920    26.3820   -14.4760     2.1230 
  114.1250    62.5100    15.6640    14.8600    20.5000    26.4400   -14.2790     2.1190 
