~V
VERS. 2.00: Ver 2.00
~W
STRT.M 60.0000:
STOP.M 282.0000:
STEP.M 0.1250:
NULL. -999.2500:
UWI. F11159:
~C
DEPT.M :
GR.API :
RML.OHMM :
RI. :
RXO.OHMM :
CALI.CM :
SP.MV :
DEN.GM/CC :
~A
# ...
  217.5000    59.1580    34.2420    37.5010    44.7330    24.4270   -23.4070     2.1770 
  217.6250    61.5230    24.9830    28.0000    34.2180    24.7450   -23.4650     2.1910 
  217.7500    67.7750    18.5490    20.8600    23.5200    24.7980   -23.5500     2.2010 
  217.8750    74.3080    14.6860    16.2540    15.0600    25.1860   -23.6680     2.2090 
  218.0000    76.2310    12.7210    13.6150    11.7290    24.9410   -23.8220     2.2160 
  218.1250    75.9250    12.1450    12.5000    11.7380    24.5640   -24.0130     2.2210 
  218.2500    76.7640    12.2050    12.1940    12.6710    24.3960   -24.2100     2.2230 
  218.3750    76.1640    12.5270    12.3500    13.4790    24.3080   -24.4160     2.2210 
  218.5000    73.4270    12.8580    12.6930    13.6000    24.0080   -24.6280     2.2180 
  218.6250    73.2290    13.1350    13.0920    12.6590    23.3150   -24.8280     2.2180 
  218.7500    74.6390    13.4860    13.5650    12.4670    23.1130   -25.0210     2.2220 
  218.8750    74.2580    14.0170    14.1890    13.6500    23.6080   -25.1780     2.2290 
  219.0000    72.5920    14.7430    14.9890    15.1720    24.1710   -25.2990     2.2330 
  219.1250    72.2560    15.5850    15.9120    16.7490    24.2150   -25.3830     2.2340 
  219.2500    72.3050    16.3850    16.8030    18.7640    23.9640   -25.4580     2.2350 
  219.3750    71.4590    17.0560    17.5550    20.4430    23.3400   -25.5320     2.2380 
  219.5000    70.4890    17.5850    18.1260    20.0190    22.7770   -25.6040     2.2420 
  219.6250    69.9760    18.0060    18.5180    19.1150    23.3940   -25.6910     2.2420 
  219.7500    70.3260    18.3670    18.8010    19.6510    24.4360   -25.7540     2.2370 
  219.8750    71.3860    18.6330    18.9700    21.7750    24.8170   -25.7980     2.2290 
  220.0000    73.5480    18.7270    18.9730    22.3110    24.9020   -25.8060     2.2230 
  220.1250    76.0410    18.5680    18.7310    21.1510    24.8850   -25.7830     2.2230 
  220.2500    75.1260    18.2690    18.3330    19.8940    24.7690   -25.7200     2.2280 
  220.3750    70.4180    18.0020    17.9190    19.4590    24.5730   -25.6160     2.2340 
  220.5000    65.7650    17.9610    17.6670    19.5440    24.4100   -25.5070     2.2380 
  220.6250    65.3350    18.3960    17.8100    20.0800    24.1400   -25.3950     2.2350 
  220.7500    67.0530    19.3650    18.4290    21.2080    24.1780   -25.3050     2.2250 
  220.8750    68.8720    20.9420    19.6080    22.0610    24.3820   -25.2430     2.2070 
  221.0000    70.1800    23.2130    21.4320    22.5820    24.5260   -25.2200     2.1820 
  221.1250    69.9250    26.4320    24.1530    24.6930    24.6940   -25.2390     2.1560 
  221.2500    67.5270    30.5560    27.7610    30.6660    24.6510   -25.2810     2.1380 
  221.3750    66.1780    35.6260    32.3430    38.6710    24.5890   -25.3260     2.1430 
  221.5000    67.9950    41.6840    38.0020    42.8230    24.5170   -25.3360     2.1820 
  221.6250    72.8390    49.0130    45.0940    42.8150    24.2790   -25.2850     2.2670 
  221.7500    76.6090    57.5000    53.4600    51.0350    24.0760   -25.1740     2.3790 
  221.8750    76.3200    66.8990    62.8170    70.0320    23.9280   -25.0210     2.4930 
  222.0000    71.4440    76.1090    72.1990    68.0780    23.3800   -24.8350     2.5780 
  222.1250    63.7640    80.7240    77.9930    52.5060    22.6150   -24.6000     2.5990 
  222.2500    57.8760    75.8530    75.6510    60.8220    22.1110   -24.3440     2.5540 
  222.3750    55.4040    60.4830    62.9240    66.3220    21.8510   -24.0780     2.4570 
  222.5000    55.4380    40.7020    44.1420    58.0920    21.7980   -23.8100     2.3380 
  222.6250    55.7870    25.0460    27.9000    40.8910    21.6010   -23.5850     2.2400 
  222.7500    56.0300    15.1610    17.1970    21.0750    21.5360   -23.4190     2.1860 
  222.8750    57.9940     9.7760    11.0970     9.8410    21.5700   -23.2940     2.1780 
  223.0000    61.8570     7.2580     7.9710     6.0200    21.6030   -23.2240     2.1980 
  223.1250    64.0280     6.5630     6.7490     5.6870    21.8690   -23.2160     2.2150 
  223.2500    61.9470     6.6820     6.4500     6.2420    22.0810   -23.2360     2.2110 
  223.3750    58.9150     7.1960     6.7160     6.7590    21.9890   -23.2510     2.1880 
  223.5000    56.8350     7.7470     7.2270     6.7380    21.9650   -23.2670     2.1590 
  223.6250    53.9660     7.9920     7.6340     6.3730    22.3470   -23.2530     2.1270 
  223.7500    50.5800     7.9000     7.7580     6.2050    23.0600   -23.2090     2.0880 
  223.8750    48.0750     7.5840     7.6190     6.2110    23.5910   -23.1320     2.0370 
  224.0000    45.7320     7.1910     7.3260     6.3420    23.9640   -23.0290     1.9760 
  224.1250    42.0790     6.8370     6.9910     6.5390    24.6360   -22.8960     1.9240 
  224.2500    40.7380     6.5720     6.6910     6.6590    25.2380   -22.7970     1.9050 
  224.3750    41.7180     6.4150     6.4570     6.6900    25.7240   -22.7520     1.9350 
  224.5000    43.8000     6.3650     6.3020     6.5080    25.4810   -22.7660     2.0150 
  224.6250    47.4250     6.4140     6.2310     6.5420    25.2100   -22.8380     2.1230 
  224.7500    51.0480     6.4930     6.2060     6.6660    24.7520   -22.9580     2.2150 
  224.8750    52.1490     6.5430     6.1850     6.7440    24.4570   -23.1060     2.2620 
  225.0000    51.1500     6.5090     6.1290     6.8360    24.3830   -23.2600     2.2640 
  225.1250    51.1720     6.3680     6.0130     6.7380    24.3760   -23.4100     2.2410 
  225.2500    51.2820     6.1880     5.8690     6.4670    24.3700   -23.5380     2.2150 
  225.3750    50.4070     6.0450     5.7460     6.2540    24.3410   -23.6340     2.1880 
  225.5000    49.4460     6.0030     5.6910     6.2630    24.2910   -23.7000     2.1600 
  225.6250    49.7210     6.1120     5.7520     6.6610    24.2220   -23.7580     2.1380 
  225.7500    49.5380     6.3290     5.9060     6.9370    24.0200   -23.8100     2.1350 
  225.8750    48.7990     6.5910     6.1140     6.7180    23.8840   -23.8710     2.1540 
  226.0000    47.9150     6.8070     6.3070     6.2870    23.9820   -23.9380     2.1850 
  226.1250    45.9540     6.8460     6.3730     6.2790    24.1000   -24.0140     2.2010 
  226.2500    44.8720     6.6590     6.2550     6.2960    24.1100   -24.0940     2.1900 
  226.3750    47.8830     6.2450     5.9400     5.9970    24.0560   -24.1960     2.1620 
  226.5000    54.8320     5.6860     5.4760     5.3910    24.0710   -24.3350     2.1410 
  226.6250    59.1800     5.1440     4.9740     4.8700    24.5030   -24.5250     2.1550 
  226.7500    61.5130     4.7720     4.5710     4.5260    25.2550   -24.7650     2.1980 
  226.8750    66.8850     4.6550     4.3500     4.3020    25.4890   -25.0640     2.2530 
  227.0000    75.1570     4.8210     4.3570     4.1980    24.8580   -25.3600     2.2990 
  227.1250    78.6880     5.2820     4.6350     4.5820    24.0480   -25.5750     2.3190 
  227.2500    77.3900     5.9060     5.0980     5.5360    23.9070   -25.7290     2.3190 
  227.3750    78.7530     6.5630     5.6610     6.5330    23.9920   -25.8610     2.3090 
  227.5000    83.7760     7.1050     6.2060     7.0250    24.4060   -25.9640     2.2990 
  227.6250    88.0450     7.3790     6.5920     7.1200    24.7260   -25.9840     2.2940 
  227.7500    92.7410     7.4210     6.7930     7.1570    24.2810   -25.8940     2.2940 
  227.8750   100.9210     7.3160     6.8440     7.1910    23.7500   -25.6940     2.2930 
  228.0000   108.2660     7.1650     6.8110     7.1030    23.4780   -25.4450     2.2870 
  228.1250   110.0840     7.0470     6.7570     6.8800    23.3500   -25.2350     2.2730 
  228.2500   110.7340     6.9820     6.7130     6.7590    23.2790   -25.0640     2.2570 
  228.3750   113.0780     6.9620     6.6830     6.7950    23.2930   -24.8890     2.2470 
  228.5000   117.7840     6.9710     6.6650     6.8490    23.6210   -24.6950     2.2530 
  228.6250   122.9730     6.9920     6.6450     6.7480    24.2880   -24.5090     2.2760 
