~V
VERS. 2.00: Ver 2.00
~W
STRT.M 50.0000:
STOP.M 209.0000:
STEP.M 0.1250:
NULL. -999.2500:
UWI. F11109:
~C
DEPT.M :
GR.API :
RML.OHMM :
RI. :
RXO.OHMM :
CALI.CM :
SP.MV :
DEN.GM/CC :
~A
# ...
  173.7500    62.8890    99.9390    91.5310   103.7490    25.7730   -28.7220     2.2950 
  173.8750    62.5140   108.8370   100.2180   100.7830    25.6620   -28.7220     2.2900 
  174.0000    61.6430   116.3550   107.8900    89.7910    25.5540   -28.7470     2.2910 
  174.1250    61.8150   121.2240   113.1090   101.9520    25.4710   -28.7770     2.2950 
  174.2500    62.3730   124.1140   116.2930   114.7890    25.4100   -28.8030     2.3000 
  174.3750    63.1420   125.8040   118.1340   118.5440    25.3700   -28.8330     2.3060 
  174.5000    64.0270   126.9330   119.2770   114.4360    25.3450   -28.8650     2.3110 
  174.6250    62.8370   127.9680   120.1910   116.4610    25.3350   -28.8820     2.3070 
  174.7500    61.0040   129.4550   121.4590   118.9980    25.3340   -28.8950     2.2950 
  174.8750    61.6680   131.8210   123.5860   121.9290    25.3470   -28.9300     2.2800 
  175.0000    62.9530   135.0820   126.7290   130.6960    25.3820   -28.9990     2.2690 
  175.1250    61.2460   138.6140   130.4690   141.1260    25.4470   -29.1420     2.2680 
  175.2500    58.9940   141.3200   133.7450   149.0190    25.5310   -29.3350     2.2750 
  175.3750    59.1700   142.3460   135.6610   148.5750    25.6140   -29.5530     2.2850 
  175.5000    59.5820   141.2610   135.6420   142.6860    25.6800   -29.7810     2.2940 
  175.6250    56.5800   137.9200   133.3560   135.9450    25.7140   -30.0190     2.2980 
  175.7500    54.4890   133.2040   129.5730   129.5680    25.7220   -30.2250     2.2990 
  175.8750    56.6360   127.5600   124.7260   121.0990    25.7060   -30.3680     2.2960 
  176.0000    61.1770   121.2530   119.0900   112.3430    25.6680   -30.4240     2.2910 
  176.1250    64.2780   114.5000   112.8670   109.4550    25.6100   -30.3610     2.2890 
  176.2500    66.0360   107.8880   106.6480   107.5940    25.5500   -30.2000     2.2930 
  176.3750    67.8870   102.1040   101.1110   100.8860    25.5020   -29.9700     2.3030 
  176.5000    68.7860    97.8380    96.9630    91.0810    25.4740   -29.7040     2.3120 
  176.6250    67.0910    95.9470    95.0800    82.7310    25.4650   -29.4240     2.3150 
  176.7500    64.3130    96.1500    95.2490    76.9230    25.4640   -29.1450     2.3180 
  176.8750    60.9830    98.0530    97.1280    71.4350    25.4640   -28.8560     2.3310 
  177.0000    59.1490   100.9240   100.0390    68.2010    25.4640   -28.5550     2.3580 
  177.1250    60.3330   103.7540   102.9870    64.5870    25.4710   -28.2440     2.3870 
  177.2500    62.6230   105.7850   105.1300    64.6960    25.5030   -27.9190     2.4000 
  177.3750    64.7520   106.9080   106.2720    65.3030    25.5730   -27.5410     2.3900 
  177.5000    66.2880   107.6040   106.8110    65.9470    25.6810   -27.0820     2.3630 
  177.6250    68.1530   108.9140   107.7500    70.4350    25.8030   -26.5640     2.3330 
  177.7500    70.7070   111.6140   109.9490    78.6450    25.9050   -26.0400     2.3140 
  177.8750    72.8850   116.1370   113.8830    86.1170    25.9650   -25.5560     2.3190 
  178.0000    71.4730   122.6280   119.7140    97.5240    25.9730   -25.1130     2.3570 
  178.1250    65.1150   131.2360   127.6000   106.7840    25.9020   -24.6930     2.4340 
  178.2500    60.2570   141.1890   136.8100   124.9690    25.7480   -24.2900     2.5110 
  178.3750    58.2790   151.8730   146.7880   138.2250    25.0040   -23.8970     2.5480 
  178.5000    56.0070   162.6630   157.0230   132.4710    24.8340   -23.5090     2.5350 
  178.6250    54.2180   172.9810   167.1670   136.3930    24.8420   -23.0750     2.4990 
  178.7500    55.7620   182.5630   177.0220   140.8270    24.8340   -22.5800     2.4810 
  178.8750    58.0960   190.9740   186.1730   152.0320    24.8820   -22.0260     2.4870 
  179.0000    57.8820   197.2360   193.5990   178.0250    24.9690   -21.4300     2.5100 
  179.1250    57.5050   199.0680   196.9440   201.2010    25.0200   -20.8250     2.5300 
  179.2500    59.7240   195.7120   195.2800   208.6630    25.0690   -20.2080     2.5430 
  179.3750    61.7970   185.8110   187.3470   203.0630    25.0840   -19.5630     2.5600 
  179.5000    61.5260   166.7970   170.6460   195.1780    25.0660   -18.8680     2.5950 
  179.6250    60.7120   135.0670   140.3800   191.5990    25.0410   -18.1310     2.6380 
  179.7500    60.1890    97.3880   102.2170   204.0130    25.0840   -17.3880     2.6570 
  179.8750    59.1510    62.7070    65.9930   204.8460    25.2170   -16.6670     2.6320 
  180.0000    59.5900    37.0930    39.2200   129.2240    25.2890   -15.9820     2.5650 
  180.1250    65.3920    22.4940    24.2210    48.3280    25.2990   -15.3750     2.4780 
  180.2500    72.6140    14.5070    16.0600    16.8790    25.2770   -14.8760     2.4000 
  180.3750    76.8320    10.5600    11.9400     8.2380    25.2710   -14.4940     2.3440 
  180.5000    77.3890     8.8570    10.0330     7.1650    25.2700   -14.2210     2.3150 
  180.6250    78.3380     8.4290     9.4520     7.7750    25.2710   -14.0300     2.3090 
  180.7500    80.7640     8.4530     9.4320     7.6040    25.2660   -13.8860     2.3080 
  180.8750    82.7980     8.5770     9.6160     7.1880    25.2510   -13.7880     2.3030 
  181.0000    82.7990     8.5870     9.7410     7.1600    25.2460   -13.7480     2.2970 
  181.1250    83.5740     8.3970     9.6470     7.1230    25.2340   -13.7610     2.2990 
  181.2500    86.5060     8.1010     9.3900     6.7850    25.2350   -13.8040     2.3150 
  181.3750    87.8530     7.7760     9.0470     6.4630    25.2300   -13.8790     2.3420 
  181.5000    83.7260     7.4960     8.7010     6.0750    25.2150   -13.9880     2.3720 
  181.6250    77.1880     7.3610     8.4470     6.2750    25.1920   -14.1300     2.3960 
  181.7500    74.7250     7.3910     8.3120     6.7090    25.1660   -14.2940     2.4130 
  181.8750    76.6320     7.5650     8.2810     6.9120    25.1480   -14.4570     2.4240 
  182.0000    79.2100     7.8180     8.3090     6.9720    25.1280   -14.6060     2.4300 
  182.1250    78.3950     8.0460     8.3310     7.2150    25.1090   -14.7330     2.4310 
  182.2500    76.2060     8.1830     8.3070     6.9990    25.1060   -14.8510     2.4280 
  182.3750    75.2480     8.2250     8.2340     6.5350    25.1520   -14.9550     2.4240 
  182.5000    74.7050     8.2050     8.1330     6.2010    25.2370   -15.0310     2.4150 
  182.6250    73.7290     8.1790     8.0330     6.1300    25.3990   -15.0450     2.4010 
  182.7500    72.0440     8.2040     7.9780     6.5620    25.2940   -15.0140     2.3840 
  182.8750    71.9330     8.3280     8.0110     7.2250    25.2090   -14.9620     2.3730 
  183.0000    73.9380     8.5730     8.1590     7.0480    25.1650   -14.9020     2.3740 
  183.1250    76.6690     8.9230     8.4210     7.1610    25.1510   -14.8270     2.3870 
  183.2500    78.3500     9.2610     8.7000     7.2680    25.1400   -14.7270     2.4010 
  183.3750    78.5670     9.4310     8.8640     7.4360    25.1280   -14.6140     2.4010 
  183.5000    77.6200     9.2880     8.7730     7.3780    25.1070   -14.4960     2.3820 
  183.6250    76.4210     8.7390     8.3180     7.1860    25.0940   -14.3770     2.3550 
  183.7500    76.0050     7.9850     7.6500     6.5840    25.0870   -14.2380     2.3370 
  183.8750    75.7050     7.2340     6.9380     5.8170    25.0830   -14.0600     2.3330 
  184.0000    73.4340     6.6620     6.3350     5.2260    25.0780   -13.8520     2.3390 
  184.1250    68.6080     6.3940     5.9720     4.8800    25.0340   -13.6690     2.3480 
  184.2500    63.7920     6.3600     5.8210     4.8240    24.9280   -13.5290     2.3560 
  184.3750    60.3970     6.4860     5.8430     4.9120    24.7740   -13.4500     2.3600 
  184.5000    59.2130     6.6950     5.9810     5.2440    24.6370   -13.4300     2.3600 
  184.6250    59.9080     6.9160     6.1720     5.4130    24.5390   -13.4720     2.3510 
  184.7500    60.5700     7.1150     6.3590     5.7130    24.5740   -13.5600     2.3390 
  184.8750    61.1220     7.2930     6.5240     6.1990    24.6770   -13.6730     2.3300 
