~V
VERS. 2.00: Ver 2.00
~W
STRT.M 56.0000:
STOP.M 252.0000:
STEP.M 0.1250:
NULL. -999.2500:
UWI. F11142:
~C
DEPT.M :
SP.MV :
DEN.GM/CC :
GR.API :
RML.OHMM :
RI. :
RXO.OHMM :
CALI.CM :
~A
# ...
   78.5000   -15.6830     2.2260   102.5890     5.9670     4.9150     6.3410    24.5390 
   78.6250   -13.6200     2.2570   105.7480     5.5500     4.6160     5.6010    24.6620 
   78.7500   -11.7260     2.2980   110.1130     5.1540     4.3030     4.5430    24.8030 
   78.8750   -10.1560     2.3210   112.5970     4.8260     4.0090     3.9900    24.8600 
   79.0000    -8.9400     2.3170   112.7990     4.6290     3.7730     3.9230    24.8690 
   79.1250    -7.8580     2.3080   113.2950     4.6160     3.6290     3.9360    24.8490 
   79.2500    -6.8630     2.3140   114.8800     4.9040     3.6410     3.9330    24.8350 
   79.3750    -6.0730     2.3390   116.1530     5.6680     3.9120     4.2630    24.8300 
   79.5000    -5.7920     2.3810   115.4520     7.2630     4.6970     5.7310    24.8520 
   79.6250    -5.9940     2.4400   111.2150     9.7500     6.1530     8.7670    24.8820 
   79.7500    -6.5800     2.5120   101.4990    13.0600     8.4300    14.3580    24.9260 
   79.8750    -7.5130     2.5800    89.1620    16.7480    11.4240    23.0390    24.9900 
   80.0000    -8.9600     2.6140    80.0470    19.7110    14.5280    32.6540    24.8240 
   80.1250   -10.9340     2.6090    75.7490    20.9250    16.7160    39.6530    24.7030 
   80.2500   -13.3990     2.5680    74.1630    19.8320    17.1230    41.7840    24.5850 
   80.3750   -16.2600     2.4820    73.5900    16.8200    15.5560    34.3850    24.4890 
   80.5000   -19.4410     2.3550    73.0320    13.3220    12.8960    21.2660    24.3790 
   80.6250   -22.6840     2.2370    70.9090    10.6750    10.5330    14.1260    24.2600 
   80.7500   -25.7700     2.1610    68.8930     9.1310     8.8950    12.1780    24.2180 
   80.8750   -28.6190     2.1320    69.4540     8.4770     7.9770    12.1300    24.2210 
   81.0000   -31.0760     2.1270    72.9730     8.4290     7.6780    12.4720    24.3500 
   81.1250   -33.0440     2.1210    74.7710     8.5810     7.6900    12.7060    24.4250 
   81.2500   -34.4540     2.1090    71.9520     8.7370     7.8290    12.7070    24.4080 
   81.3750   -35.3210     2.1000    66.7450     8.7860     7.9380    12.5450    24.4250 
   81.5000   -35.5640     2.0990    63.9640     8.6460     7.8680    12.4250    24.4490 
   81.6250   -35.3060     2.1030    64.8030     8.3280     7.5850    12.2950    24.3830 
   81.7500   -34.5120     2.1090    66.7360     7.8380     7.0900    12.0360    24.3600 
   81.8750   -33.0200     2.1250    67.5230     7.2360     6.4490    11.3060    24.4480 
   82.0000   -30.6790     2.1700    69.8060     6.7180     5.8360     9.8960    24.6080 
   82.1250   -27.9270     2.2390    77.0230     6.5370     5.4580     8.1080    24.5850 
   82.2500   -25.2110     2.3150    87.0650     6.8790     5.4580     7.4370    24.4950 
   82.3750   -22.8940     2.3820    91.9650     7.7840     5.8860     9.7900    24.4340 
   82.5000   -21.2920     2.4340    86.7760     9.0950     6.7100    14.7480    24.2860 
   82.6250   -20.3950     2.4530    78.6410    10.3250     7.6360    20.1670    24.0740 
   82.7500   -20.2800     2.4070    71.9800    11.0490     8.3760    23.4660    23.9040 
   82.8750   -21.0390     2.2950    67.2760    11.0080     8.6740    19.9060    23.7860 
   83.0000   -22.7610     2.1770    64.6200    10.2410     8.4110    13.6380    23.8000 
   83.1250   -24.9210     2.1000    66.0170     9.3370     7.9190    11.6160    24.1610 
   83.2500   -27.0200     2.0650    70.3750     8.6700     7.4700    11.2230    24.5300 
   83.3750   -28.7290     2.0590    74.3740     8.3600     7.2040    11.1620    24.6160 
   83.5000   -29.8080     2.0670    76.3450     8.3450     7.1480    11.0700    24.5080 
   83.6250   -30.3250     2.0770    76.9030     8.4220     7.1900    11.0050    24.3900 
   83.7500   -30.4080     2.0890    76.6880     8.5050     7.2620    10.8540    24.3380 
   83.8750   -30.2790     2.1070    75.7230     8.5770     7.3300    10.8020    24.3220 
   84.0000   -30.0840     2.1240    75.4540     8.6440     7.3820    11.1280    24.3070 
   84.1250   -29.9130     2.1340    75.9850     8.7050     7.4130    11.6840    24.3200 
   84.2500   -29.7880     2.1340    76.0670     8.7390     7.4080    12.0580    24.4000 
   84.3750   -29.6630     2.1310    76.2390     8.7290     7.3510    12.1120    24.4930 
   84.5000   -29.5670     2.1310    77.4300     8.6600     7.2220    11.8270    24.4700 
   84.6250   -29.5930     2.1350    78.6200     8.5490     7.0440    11.4780    24.3570 
   84.7500   -29.7100     2.1390    78.9110     8.4190     6.8480    11.2900    24.2060 
   84.8750   -29.7300     2.1420    78.1350     8.3000     6.6750    11.2510    24.0790 
   85.0000   -29.4690     2.1450    76.7770     8.2360     6.5730    11.3570    23.9400 
   85.1250   -28.9760     2.1460    75.6650     8.2390     6.5510    11.4000    23.7470 
   85.2500   -28.3830     2.1480    76.3230     8.3080     6.6040    11.3830    23.5410 
   85.3750   -27.8260     2.1510    79.3360     8.4150     6.7080    11.4000    23.4180 
   85.5000   -27.3570     2.1550    82.9580     8.5190     6.8250    11.6320    23.3910 
   85.6250   -26.9130     2.1560    84.4850     8.5840     6.9160    12.0020    23.3880 
   85.7500   -26.4920     2.1500    83.3270     8.5930     6.9620    12.1400    23.3970 
   85.8750   -26.1660     2.1410    81.2030     8.5490     6.9660    11.9620    23.4180 
   86.0000   -26.0240     2.1340    81.3620     8.4700     6.9430    11.7560    23.4720 
   86.1250   -26.0770     2.1300    82.1420     8.4050     6.9180    11.5570    23.6130 
   86.2500   -26.2130     2.1260    79.8370     8.3820     6.8950    11.4840    23.8630 
   86.3750   -26.3370     2.1210    74.3400     8.4080     6.8670    11.4600    24.0880 
   86.5000   -26.4010     2.1140    71.7490     8.4610     6.8200    11.3450    24.1710 
   86.6250   -26.4220     2.1100    73.9040     8.5090     6.7590    11.0980    24.1240 
   86.7500   -26.4070     2.1100    77.1490     8.5530     6.7060    10.8520    24.0550 
   86.8750   -26.4220     2.1130    78.5710     8.6170     6.6870    10.6440    23.9890 
   87.0000   -26.6560     2.1180    78.7570     8.7350     6.7280    10.8610    23.9140 
   87.1250   -27.0780     2.1200    79.0450     8.8820     6.8070    11.5590    23.8340 
   87.2500   -27.6890     2.1180    78.6180     9.0090     6.8880    12.4130    23.8180 
   87.3750   -28.4000     2.1140    76.8380     9.0770     6.9380    13.0290    23.9340 
   87.5000   -29.1780     2.1110    73.7320     9.1000     6.9490    13.1360    24.2300 
   87.6250   -29.9740     2.1150    70.2810     9.1840     6.9820    13.0410    24.4470 
   87.7500   -30.7620     2.1270    67.6270     9.4420     7.1130    13.4220    24.6550 
   87.8750   -31.4450     2.1420    65.9890     9.9280     7.3990    15.7290    24.8670 
   88.0000   -31.8250     2.1490    66.2020    10.5730     7.8390    21.4670    24.9240 
   88.1250   -31.9910     2.1540    67.4440    11.1280     8.2920    28.4690    24.8220 
   88.2500   -31.9840     2.1670    68.3960    11.3660     8.6000    34.8510    24.6700 
   88.3750   -31.8480     2.1820    67.8450    11.1450     8.6230    36.3160    24.5790 
   88.5000   -31.5370     2.1780    67.0120    10.4460     8.2660    25.4160    24.3690 
   88.6250   -31.0180     2.1600    69.0850     9.5670     7.6910    15.3150    24.0600 
   88.7500   -30.2430     2.1450    74.2870     8.7380     7.0600    10.7320    23.7480 
   88.8750   -29.1930     2.1390    79.4160     8.1060     6.5070     8.7960    23.6220 
   89.0000   -27.8580     2.1370    80.9700     7.7600     6.1300     7.9140    23.5260 
   89.1250   -26.3030     2.1450    82.3690     7.6320     5.9110     7.6070    23.4000 
   89.2500   -24.6610     2.1680    86.0170     7.6780     5.8250     7.5220    23.2200 
   89.3750   -23.0650     2.1980    89.7960     7.8550     5.8460     7.4800    23.0800 
   89.5000   -21.6030     2.2190    90.9930     8.1510     5.9810     7.7030    23.1050 
   89.6250   -20.3700     2.2310    90.9880     8.5370     6.2240     8.1560    23.2500 
