~V
VERS. 2.00: Ver 2.00
~W
STRT.M 50.0000:
STOP.M 240.0000:
STEP.M 0.1250:
NULL. -999.2500:
UWI. F11117:
~C
DEPT.M :
DEN.GM/CC :
GR.API :
RML.OHMM :
RI. :
RXO.OHMM :
CALI.CM :
SP.MV :
~A
# ...
  162.5000     2.0960    61.0310    79.5420    69.2580    49.2730    39.5720   -19.3060 
  162.6250     2.0940    64.2390    85.0650    73.2690    47.0970    39.2980   -19.0110 
  162.7500     2.1100    66.3200    89.2440    76.1590    45.7710    38.6480   -18.6910 
  162.8750     2.1360    64.2200    92.5260    78.2570    49.5380    38.3050   -18.2750 
  163.0000     2.1620    59.2500    95.9730    80.4020    60.0680    38.1070   -17.7710 
  163.1250     2.1720    53.7840   101.2400    83.9850    69.9990    38.1430   -17.2850 
  163.2500     2.1620    49.5900   108.9340    89.6620    73.6560    38.0100   -16.7590 
  163.3750     2.1360    48.0550   118.9230    97.5380    70.9690    37.8120   -16.1650 
  163.5000     2.1020    49.0080   129.8380   106.7660    63.9840    37.2930   -15.6200 
  163.6250     2.0730    50.3260   137.5830   114.5210    55.7160    36.6650   -15.1140 
  163.7500     2.0600    50.7080   137.7250   117.1630    50.7960    35.6430   -14.6110 
  163.8750     2.0670    51.9330   127.6500   111.9260    51.6310    34.5060   -14.2230 
  164.0000     2.0890    54.7110   109.0270    98.7840    58.7130    33.0920   -13.9080 
  164.1250     2.1070    57.9070    87.7210    81.1540    69.0900    32.7040   -13.6060 
  164.2500     2.1060    60.0010    69.8920    64.9270    62.6770    32.2610   -13.3570 
  164.3750     2.0820    60.0840    57.7440    52.9130    45.8760    31.2910   -13.1350 
  164.5000     2.0440    58.3960    51.6350    45.9730    27.2010    30.0540   -12.8790 
  164.6250     2.0160    56.3060    52.3440    44.9120    16.5470    29.6550   -12.6740 
  164.7500     2.0120    53.8330    59.0460    49.0790    15.1850    29.7500   -12.5150 
  164.8750     2.0330    52.6730    72.2300    59.1300    30.2470    29.6560   -12.3460 
  165.0000     2.0690    53.8650    92.2120    75.6850    79.9160    29.2910   -12.2290 
  165.1250     2.0980    55.9090   117.7740    98.2400   147.0350    28.9650   -12.1710 
  165.2500     2.1050    56.4700   140.1500   119.6930   133.9990    27.5880   -12.1180 
  165.3750     2.0930    55.4910   147.8740   130.8040   126.8170    26.4460   -12.1430 
  165.5000     2.0720    55.9830   135.7520   125.7570   175.4140    26.7600   -12.2450 
  165.6250     2.0540    59.2620   111.6750   107.5440   170.8050    27.0100   -12.2410 
  165.7500     2.0420    63.3170    88.9780    87.6470   117.1900    27.1530   -12.1880 
  165.8750     2.0390    65.3300    70.7150    70.4560    64.3630    26.9660   -12.1540 
  166.0000     2.0510    64.3100    55.9980    56.3570    42.6970    26.5730   -12.0280 
  166.1250     2.0850    65.2010    50.4080    44.6730    38.0410    25.9730   -11.7670 
  166.2500     2.1370    70.3760    38.6650    34.8210    35.3900    25.5680   -11.5350 
  166.3750     2.1970    75.1730    29.7810    27.2440    26.1170    25.1930   -11.3550 
  166.5000     2.2470    76.9810    23.9210    22.1300    16.7850    25.0420   -11.2010 
  166.6250     2.2680    77.0440    20.8970    19.4150    13.7140    24.8300   -11.1440 
  166.7500     2.2670    77.2160    19.3420    18.0320    14.6010    24.7800   -11.0750 
  166.8750     2.2570    77.0680    18.4850    17.3740    17.1800    24.8240   -10.9180 
  167.0000     2.2510    78.3640    17.7860    16.9720    19.7390    24.8280   -10.8560 
  167.1250     2.2570    81.1940    16.9980    16.5280    17.3900    24.7550   -10.9660 
  167.2500     2.2690    82.9700    16.2620    16.0390    13.5980    24.6870   -11.0720 
  167.3750     2.2810    82.8570    15.8600    15.6980    11.5710    24.6580   -11.1040 
  167.5000     2.2870    83.1920    16.0060    15.7240    12.4160    24.8520   -11.1040 
  167.6250     2.2870    83.2830    16.7830    16.2860    15.3700    24.7460   -11.0690 
  167.7500     2.2840    81.0490    17.8310    17.1640    16.6450    24.6720   -11.1210 
  167.8750     2.2820    77.7780    18.7330    18.0080    16.0630    24.5670   -11.2770 
  168.0000     2.2830    75.6430    19.0500    18.3550    16.5630    24.4490   -11.3750 
  168.1250     2.2880    74.6400    18.4060    17.7290    18.1240    24.4210   -11.4220 
  168.2500     2.2950    75.0330    17.1910    16.4410    17.0090    24.6200   -11.4960 
  168.3750     2.3030    77.8310    15.9720    15.0030    14.8040    24.8890   -11.5700 
  168.5000     2.3080    82.6380    15.3930    13.9600    11.9600    25.0020   -11.6410 
  168.6250     2.3050    84.0900    16.3990    13.9790    10.9460    24.5170   -11.7970 
  168.7500     2.2920    80.8680    19.5280    15.4260    12.3930    24.4690   -11.9330 
  168.8750     2.2720    76.0720    25.5400    18.9050    17.1000    24.4610   -12.0540 
  169.0000     2.2490    72.0610    35.1970    25.1880    28.2310    24.3680   -12.2610 
  169.1250     2.2320    68.1110    47.6880    35.5850    49.8560    24.2860   -12.4840 
  169.2500     2.2270    64.6570    58.6070    49.1470    71.2170    24.2580   -12.6800 
  169.3750     2.2320    62.9230    74.8550    63.8050    86.0690    24.1760   -12.9270 
  169.5000     2.2380    62.0120    88.8180    76.5190   102.0580    23.9420   -13.1910 
  169.6250     2.2260    59.4020    97.4250    84.3330   117.4310    23.8930   -13.3680 
  169.7500     2.1860    56.3150   101.6360    87.9780   122.1580    23.9840   -13.5410 
  169.8750     2.1250    55.2990   102.9620    88.6760   112.5750    24.7860   -13.6870 
  170.0000     2.0620    56.5960   102.9430    87.7580    96.0560    26.1870   -13.7440 
  170.1250     2.0240    57.8040   102.9440    86.4570    93.1110    26.7690   -13.7980 
  170.2500     2.0210    58.0660   103.7200    85.6650    99.3750    26.6830   -13.8520 
  170.3750     2.0450    57.8940   105.3740    85.6490   104.6760    26.9620   -13.8610 
  170.5000     2.0790    57.6690   107.6640    86.3400   108.8080    27.7350   -13.9300 
  170.6250     2.0930    58.0970   110.2450    87.5610   113.5340    28.2880   -14.1280 
  170.7500     2.0780    58.3190   112.9150    89.0980   115.8770    28.6620   -14.3380 
  170.8750     2.0440    56.7690   115.8440    91.0570   110.6640    28.9510   -14.5570 
  171.0000     2.0060    55.5850   119.3410    93.6720   100.1700    28.8350   -14.7270 
  171.1250     1.9830    58.3160   123.7050    97.2670    96.3600    27.9930   -14.7670 
  171.2500     1.9790    61.3030   128.4920   101.5540   110.4840    26.9600   -14.7770 
  171.3750     1.9940    59.8350   132.7450   105.8970   130.1230    26.2680   -14.7830 
  171.5000     2.0250    55.4650   134.7490   109.0420   146.1080    25.8550   -14.6750 
  171.6250     2.0640    57.8410   131.5220   108.5950   147.7170    24.8080   -14.4850 
  171.7500     2.1030    65.3610   122.9730   103.8740   142.3600    23.8040   -14.3070 
  171.8750     2.1370    72.2200   110.5540    95.4040   125.8270    23.6980   -14.1250 
  172.0000     2.1620    74.5760    96.7520    84.8830    95.8640    24.3390   -14.0370 
  172.1250     2.1750    72.4030    83.5880    74.0840    67.1600    24.8990   -14.0930 
  172.2500     2.1840    70.6790    71.1500    63.6240    50.1710    25.1100   -14.1180 
  172.3750     2.1940    70.8600    58.9520    53.2540    42.9940    25.0380   -14.1200 
  172.5000     2.2090    73.4490    47.0650    43.0030    38.7860    24.8370   -14.2050 
  172.6250     2.2290    76.2760    36.7860    33.9500    33.1880    24.7610   -14.3140 
  172.7500     2.2520    77.8870    29.0250    26.9560    26.4150    24.6850   -14.3750 
  172.8750     2.2730    79.2400    24.1720    22.3560    21.4770    24.5250   -14.3980 
  173.0000     2.2850    80.0590    22.1060    20.0190    21.8240    24.4880   -14.3610 
  173.1250     2.2840    79.7460    22.7760    19.9280    27.1470    24.2960   -14.2730 
  173.2500     2.2750    77.1900    25.1400    21.3980    32.4470    24.2730   -14.2500 
  173.3750     2.2640    74.2460    28.2950    23.8890    34.1520    24.4240   -14.2900 
  173.5000     2.2600    73.0360    30.9170    26.3970    35.1970    24.5760   -14.3030 
  173.6250     2.2680    74.2980    31.1030    27.1710    32.0030    24.2960   -14.3070 
