~V
VERS. 2.00: Ver 2.00
~W
STRT.M 50.0000:
STOP.M 248.0000:
STEP.M 0.1250:
NULL. -999.2500:
UWI. F11129:
~C
DEPT.M :
SP.MV :
DEN.GM/CC :
GR.API :
RML.OHMM :
RI. :
RXO.OHMM :
CALI.CM :
~A
# ...
  207.5000   -16.9910     2.4130    68.4960    17.4460    13.5880    22.7370    23.6980 
  207.6250   -17.0310     2.3930    60.5040    22.6310    17.3720    32.8470    23.6580 
  207.7500   -17.0530     2.3580    59.4140    27.9230    21.9190    39.2500    23.7340 
  207.8750   -17.0560     2.3280    65.5300    32.4330    26.2890    40.2600    23.8400 
  208.0000   -17.0570     2.3200    70.8390    34.9520    29.3220    40.4480    23.8600 
  208.1250   -17.0600     2.3240    70.5780    35.2020    30.4640    42.4760    23.8360 
  208.2500   -17.0460     2.3170    65.9980    33.7740    29.8700    43.4320    23.8570 
  208.3750   -17.0120     2.2960    61.9620    31.5600    28.1940    39.2790    23.9340 
  208.5000   -16.9660     2.2750    60.5840    29.2530    26.1800    32.9890    24.0020 
  208.6250   -16.8950     2.2640    60.4370    27.1460    24.2140    28.8180    24.0500 
  208.7500   -16.8000     2.2610    61.0810    25.4450    22.5650    27.1100    24.0980 
  208.8750   -16.7100     2.2570    63.8080    24.2420    21.3640    25.6990    24.1590 
  209.0000   -16.6340     2.2510    68.2590    23.4860    20.5880    23.7730    24.1970 
  209.1250   -16.5530     2.2470    71.5160    23.1040    20.1910    23.2070    24.1990 
  209.2500   -16.4590     2.2500    71.1810    22.9650    20.0770    23.7510    24.1040 
  209.3750   -16.3420     2.2630    68.2700    22.8820    20.0920    24.4180    23.8080 
  209.5000   -16.1960     2.2750    65.4810    22.6740    20.0630    24.6520    23.3790 
  209.6250   -16.0340     2.2810    64.6800    22.2610    19.8840    24.7100    23.0390 
  209.7500   -15.8730     2.2820    66.9290    21.7000    19.5530    23.7120    22.9050 
  209.8750   -15.7350     2.2840    71.7500    21.1920    19.2060    22.0150    22.9390 
  210.0000   -15.6540     2.2840    75.8360    20.9590    19.0350    21.4910    23.0910 
  210.1250   -15.6550     2.2780    76.5310    21.1260    19.1600    22.2150    23.3190 
  210.2500   -15.7220     2.2660    74.0950    21.7470    19.6540    23.6140    23.6000 
  210.3750   -15.8180     2.2530    70.5440    22.7360    20.4820    25.6290    23.9560 
  210.5000   -15.9340     2.2470    68.5360    23.8380    21.4610    27.2260    24.3190 
  210.6250   -16.0750     2.2460    68.6440    24.8090    22.3900    27.8130    24.5460 
  210.7500   -16.2560     2.2480    68.7500    25.4070    23.0500    29.0560    24.5910 
  210.8750   -16.4780     2.2500    67.8270    25.4990    23.2960    30.8120    24.5440 
  211.0000   -16.7020     2.2540    67.6210    25.1470    23.1410    30.6740    24.4920 
  211.1250   -16.8940     2.2590    68.5890    24.4970    22.6780    28.5750    24.4570 
  211.2500   -17.0630     2.2640    68.0810    23.7960    22.0930    26.5890    24.4460 
  211.3750   -17.2330     2.2690    65.9010    23.3050    21.6140    25.9670    24.4590 
  211.5000   -17.4030     2.2720    65.7940    23.1840    21.4130    25.9510    24.4680 
  211.6250   -17.5680     2.2730    69.1480    23.4650    21.5630    26.6330    24.4660 
  211.7500   -17.7060     2.2740    72.6030    24.0510    22.0280    27.7250    24.4550 
  211.8750   -17.8030     2.2750    72.7370    24.7200    22.6450    28.7180    24.4370 
  212.0000   -17.8900     2.2770    70.0790    25.2270    23.1990    29.4260    24.4160 
  212.1250   -17.9870     2.2780    66.6860    25.4470    23.5630    29.8360    24.3950 
  212.2500   -18.0900     2.2750    63.4110    25.3740    23.6960    29.8050    24.3720 
  212.3750   -18.2010     2.2710    60.2270    25.1180    23.6540    28.8150    24.3300 
  212.5000   -18.3160     2.2670    58.1210    24.8430    23.5580    27.5680    24.2670 
  212.6250   -18.4150     2.2630    57.8640    24.6440    23.4960    26.8820    24.2100 
  212.7500   -18.4900     2.2590    59.0680    24.5400    23.5150    26.8160    24.1870 
  212.8750   -18.5480     2.2560    60.3670    24.4400    23.5690    26.6530    24.1850 
  213.0000   -18.5980     2.2540    60.9950    24.1830    23.5100    25.8040    24.1740 
  213.1250   -18.6510     2.2550    61.8480    23.6170    23.1720    24.8590    24.1450 
  213.2500   -18.7120     2.2590    63.6220    22.6520    22.4210    24.0980    24.0820 
  213.3750   -18.7830     2.2700    65.1740    21.3520    21.2770    22.3680    23.9690 
  213.5000   -18.8790     2.2870    64.5730    19.9420    19.9440    19.7780    23.8240 
  213.6250   -19.0300     2.3070    62.4010    18.6360    18.6230    17.6820    23.6780 
  213.7500   -19.2620     2.3270    62.0490    17.6700    17.5290    16.4700    23.5500 
  213.8750   -19.5850     2.3450    65.0240    17.2180    16.8330    15.6500    23.4600 
  214.0000   -19.9910     2.3540    68.5690    17.3060    16.5890    14.9980    23.4100 
  214.1250   -20.4820     2.3450    70.1180    17.9380    16.8170    15.3450    23.4160 
  214.2500   -21.0650     2.3190    69.7830    19.1760    17.5760    17.9580    23.4840 
  214.3750   -21.7250     2.2880    68.8570    21.1670    18.9880    22.2590    23.5830 
  214.5000   -22.4250     2.2630    67.3000    24.1430    21.2500    25.6360    23.7170 
  214.6250   -23.1490     2.2440    64.9690    28.5670    24.8040    27.9290    23.8750 
  214.7500   -23.8720     2.2310    61.9330    35.3110    30.5740    34.7960    23.9770 
  214.8750   -24.5670     2.2220    58.1560    45.3260    39.5580    55.4650    23.9960 
  215.0000   -25.1970     2.2160    55.4160    58.7810    51.7730    92.4490    24.0300 
  215.1250   -25.7270     2.2130    55.7510    74.4890    65.8760   128.6270    24.1270 
  215.2500   -26.1330     2.2130    58.6800    87.6170    77.8050   139.5560    24.2470 
  215.3750   -26.4100     2.2170    61.3860    92.0360    82.7630   125.1300    24.3370 
  215.5000   -26.5700     2.2200    62.3310    87.1870    79.8780   102.6030    24.3920 
  215.6250   -26.6040     2.2240    61.8020    77.5020    72.0030    81.2680    24.4300 
  215.7500   -26.4950     2.2340    61.3680    67.8110    63.1990    67.9920    24.4500 
  215.8750   -26.2290     2.2550    62.1150    60.2120    55.9310    62.7700    24.4400 
  216.0000   -25.8450     2.2930    62.9530    54.4860    50.4880    61.8970    24.4020 
  216.1250   -25.3600     2.3510    62.5740    50.0530    46.4330    62.4170    24.3440 
  216.2500   -24.7720     2.4260    61.9240    46.3990    43.2540    61.1280    24.2440 
  216.3750   -24.0960     2.4930    63.1640    43.1070    40.5090    55.0290    24.0860 
  216.5000   -23.3660     2.5280    65.8840    39.7480    37.7870    46.4620    23.9350 
  216.6250   -22.5910     2.5350    67.9970    35.8520    34.6710    41.3030    23.8680 
  216.7500   -21.7910     2.5330    67.1970    30.9220    30.6100    39.8310    23.7780 
  216.8750   -21.0000     2.5310    63.1040    25.2300    25.4530    36.6280    23.4840 
  217.0000   -20.2360     2.5200    59.2830    19.6760    19.8830    29.4110    23.0870 
  217.1250   -19.5440     2.4930    58.5210    14.5440    14.7830    19.1100    22.8960 
  217.2500   -19.0020     2.4570    59.0580    10.5130    10.8750    10.8630    23.0330 
  217.3750   -18.6500     2.4250    58.7790     8.0840     8.3340     7.2010    23.2880 
  217.5000   -18.4610     2.4060    58.2510     6.7950     6.8300     6.2440    23.4830 
  217.6250   -18.4180     2.4000    57.8110     6.3150     6.1080     6.2670    23.6860 
  217.7500   -18.5010     2.3970    57.3350     6.3640     5.9600     6.6380    23.9370 
  217.8750   -18.6920     2.3880    57.8300     6.6680     6.1630     7.1220    24.1190 
  218.0000   -18.9480     2.3690    59.3540     6.9520     6.4470     7.5870    24.1860 
  218.1250   -19.2210     2.3470    59.8780     7.0480     6.6250     7.8620    24.1300 
  218.2500   -19.4760     2.3330    59.1730     6.8750     6.5680     7.6070    24.0010 
  218.3750   -19.7170     2.3310    58.9920     6.4800     6.2700     6.9220    23.8790 
  218.5000   -19.9780     2.3370    59.2680     6.0190     5.8550     6.3130    23.8320 
  218.6250   -20.3040     2.3450    59.6110     5.6380     5.4500     6.0000    23.8340 
