~V
VERS. 2.00: Ver 2.00
~W
STRT.M 14.0000:
STOP.M 209.0000:
STEP.M 0.1250:
NULL. -999.2500:
UWI. F11100:
~C
DEPT.M :
GR.API :
RML.OHMM :
RI. :
RXO.OHMM :
CALI.CM :
SP.MV :
DEN.GM/CC :
~A
# ...
   59.0000    40.5210     0.5850     0.5460     0.5970    25.5810    75.6710     2.0130 
   59.1250    39.6900     0.3070     0.5610     0.7470    25.5770    75.6410     2.0040 
   59.2500    40.1550     0.1580     0.5840     0.9630    25.5750    75.5200     1.9880 
   59.3750    40.8070     0.1240     0.6100     1.0270    25.5750    75.3170     1.9730 
   59.5000    41.7470     0.1640     0.6330     0.9470    25.5780    75.0490     1.9640 
   59.6250    43.0330     0.2340     0.6460     0.9890    25.5820    74.7220     1.9690 
   59.7500    43.1950     0.3010     0.6510     1.1240    25.5840    74.3970     1.9880 
   59.8750    41.5100     0.3560     0.6530     1.1510    25.5830    74.0930     2.0160 
   60.0000    39.5080     0.3980     0.6540     0.7770    25.5780    73.8140     2.0400 
   60.1250    39.9070     0.4500     0.6560     0.6000    25.5770    73.5810     2.0520 
   60.2500    41.0900     0.5320     0.6580     0.5870    25.5770    73.3590     2.0520 
   60.3750    42.0570     0.6460     0.6580     0.6360    25.5760    73.1180     2.0460 
   60.5000    44.0710     0.7800     0.6550     0.5450    25.5780    72.8550     2.0410 
   60.6250    46.4000     0.9120     0.6490     0.4670    25.5830    72.5060     2.0370 
   60.7500    46.4870     1.0180     0.6440     0.5830    25.5880    72.0980     2.0330 
   60.8750    44.4690     1.0860     0.6430     0.7920    25.5880    71.6320     2.0320 
   61.0000    42.7420     1.1360     0.6500     0.8020    25.5860    71.1610     2.0370 
   61.1250    41.7170     1.2120     0.6650     0.6060    25.5850    70.7090     2.0460 
   61.2500    40.5050     1.3360     0.6830     0.4410    25.5840    70.3350     2.0500 
   61.3750    39.7820     1.4790     0.7000     0.4790    25.5850    70.0590     2.0510 
   61.5000    40.1910     1.5630     0.7150     0.6770    25.5910    69.8640     2.0560 
   61.6250    40.7130     1.5140     0.7270     0.7470    25.5940    69.7280     2.0710 
   61.7500    41.7150     1.4120     0.7380     0.6220    25.5890    69.6010     2.0870 
   61.8750    43.3140     1.3330     0.7480     0.6740    25.5840    69.4320     2.0940 
   62.0000    43.8710     1.2940     0.7580     0.8590    25.5860    69.1760     2.0870 
   62.1250    41.9910     1.2810     0.7660     0.9710    25.5880    68.7920     2.0710 
   62.2500    39.6080     1.2870     0.7720     0.7790    25.5900    68.2510     2.0540 
   62.3750    38.4850     1.3130     0.7750     0.7570    25.5910    67.5390     2.0410 
   62.5000    38.6310     1.3580     0.7770     1.0880    25.5840    66.6530     2.0360 
   62.6250    39.3450     1.4050     0.7760     1.5090    25.5620    65.5530     2.0430 
   62.7500    39.2620     1.4060     0.7680     1.7700    25.5410    64.2410     2.0580 
   62.8750    38.3730     1.2600     0.7450     1.8780    25.5300    62.7090     2.0750 
   63.0000    37.4950     0.7440     0.6850     1.9290    25.5230    60.9510     2.0900 
   63.1250    37.1040     0.1650     0.5570     2.2770    25.5130    58.8830     2.1060 
   63.2500    37.7900    -0.0310     0.3830     2.6990    25.5080    56.5030     2.1350 
   63.3750    40.8440    -0.0790     0.2150     2.7300    25.5050    53.7280     2.1960 
   63.5000    44.7880    -0.0940     0.0980     2.2690    25.4810    50.4790     2.3280 
   63.6250    44.8760    -0.0940     0.0450     1.4850    25.3550    46.5560     2.5550 
   63.7500    44.2110    -0.0760     0.0400     1.4050    25.1020    42.0310     2.7660 
   63.8750    47.6100    -0.0200     0.0970     1.9670    24.9110    36.9430     2.8450 
   64.0000    54.7740     0.1230     0.2610     3.6210    25.0400    31.4700     2.7840 
   64.1250    62.0480     0.5060     0.6480     5.9280    25.5230    25.9380     2.6250 
   64.2500    68.1540     1.0170     1.2880     7.0540    25.9720    20.7120     2.4510 
   64.3750    72.8570     1.6860     2.1150     6.7950    26.1990    16.0810     2.3060 
   64.5000    75.7050     2.1140     2.9190     6.0790    26.2590    12.2170     2.2140 
   64.6250    77.6780     1.7570     3.4580     5.3690    26.2580     9.3420     2.1810 
   64.7500    78.5060     1.3000     3.7880     5.1740    26.2510     7.2200     2.1770 
   64.8750    78.1390     1.0430     4.0060     5.1930    26.2530     5.6840     2.1790 
   65.0000    79.3950     1.0600     4.1630     5.1520    26.2570     4.4860     2.1810 
   65.1250    81.9360     1.3750     4.2470     5.1020    26.2600     3.4140     2.1800 
   65.2500    80.8700     1.8560     4.2810     4.9850    26.2620     2.2870     2.1780 
   65.3750    76.6520     2.3740     4.3050     4.9290    26.2510     1.0510     2.1720 
   65.5000    74.6600     2.8290     4.3640     4.9120    26.2060    -0.3320     2.1660 
   65.6250    77.5690     3.2140     4.4810     5.0510    26.1410    -1.8950     2.1650 
   65.7500    80.6310     3.5710     4.6250     5.4550    26.1050    -3.6180     2.1700 
   65.8750    80.3160     3.8730     4.7590     6.1260    26.1060    -5.4730     2.1800 
   66.0000    77.4760     4.1230     4.8520     6.8610    26.1140    -7.4000     2.1900 
   66.1250    75.2600     4.3410     4.8860     7.0240    26.1130    -9.3220     2.1990 
   66.2500    73.5970     4.5500     4.8870     7.0420    26.1460   -11.1530     2.2060 
   66.3750    71.4240     4.7530     4.8790     7.4890    26.3120   -12.8190     2.2010 
   66.5000    68.6410     4.9500     4.8800     7.7110    26.8140   -14.2470     2.1760 
   66.6250    66.3490     5.1430     4.8910     7.6810    27.6390   -15.3390     2.1290 
   66.7500    64.1210     5.3040     4.8980     7.3300    28.1940   -16.1260     2.0800 
   66.8750    61.4560     5.3710     4.8880     7.2790    28.1250   -16.6140     2.0470 
   67.0000    59.0600     5.3180     4.8600     7.4290    27.6600   -16.8240     2.0380 
   67.1250    59.5200     5.1710     4.8120     7.4700    27.3530   -16.7180     2.0510 
   67.2500    61.7930     5.0160     4.7440     7.4460    27.2880   -16.3790     2.0660 
   67.3750    63.8050     4.9030     4.6660     7.4190    27.2860   -15.8170     2.0720 
   67.5000    63.9560     4.8590     4.6060     7.2450    27.2510   -15.0680     2.0680 
   67.6250    65.4430     4.9190     4.6270     6.6780    27.0670   -14.1420     2.0660 
   67.7500    69.3730     5.0820     4.7490     6.2350    26.5800   -13.1300     2.0760 
   67.8750    71.6430     5.3340     4.9620     7.0470    25.8300   -12.1020     2.1030 
   68.0000    69.7110     5.6000     5.2070     9.5050    25.1650   -11.0920     2.1420 
   68.1250    65.5610     5.7230     5.3610     9.6820    25.0170   -10.1310     2.1700 
   68.2500    65.5020     5.6260     5.3500     8.0360    25.2460    -9.1960     2.1750 
   68.3750    71.7720     5.3330     5.1630     6.6250    25.5590    -8.2780     2.1640 
   68.5000    80.2610     4.9850     4.8540     5.4630    25.7750    -7.3480     2.1530 
   68.6250    87.3100     4.7590     4.5180     4.7520    25.8570    -6.4110     2.1570 
   68.7500    92.8690     4.6610     4.2330     4.7210    25.8800    -5.4760     2.1770 
   68.8750    98.2890     4.6110     4.0210     4.3770    25.8910    -4.5730     2.2050 
   69.0000   102.0690     4.5090     3.8730     3.7240    25.8930    -3.7520     2.2340 
   69.1250   100.8330     4.2890     3.7680     3.5520    25.8890    -3.0920     2.2650 
   69.2500    99.6360     4.0070     3.6790     3.6620    25.8750    -2.6140     2.2940 
   69.3750   100.6160     3.7840     3.6370     3.7560    25.8220    -2.3330     2.3110 
   69.5000   101.3970     3.7820     3.7190     3.7500    25.7370    -2.2530     2.3080 
   69.6250    99.3660     4.1850     4.0630     3.8510    25.6780    -2.4210     2.2880 
   69.7500    96.0950     4.9800     4.6670     4.8880    25.6690    -2.7720     2.2760 
   69.8750    91.7350     6.0840     5.4590     8.5330    25.6770    -3.3130     2.2990 
   70.0000    84.0850     7.1980     6.2330    17.0890    25.6760    -4.0350     2.3660 
   70.1250    76.6800     7.6430     6.5800    17.4970    25.6720    -4.9310     2.4450 
