~V
VERS. 2.00: Ver 2.00
~W
STRT.M 45.0000:
STOP.M 270.0000:
STEP.M 0.1250:
NULL. -999.2500:
UWI. F11186:
~C
DEPT.M :
SP.MV :
GR.API :
RI. :
RML.OHMM :
RXO.OHMM :
DEN.GM/CC :
~A
# ...
  135.1250   -24.8290    78.6120     3.1870     3.5590     4.2300     2.2250 
  135.2500   -25.2930    79.1870     3.5540     4.0560     4.7460     2.1880 
  135.3750   -25.9070    77.8150     4.1910     4.8390     5.7590     2.1630 
  135.5000   -26.5730    72.7870     4.9680     5.7440     7.1020     2.1550 
  135.6250   -27.1830    67.1660     5.7390     6.5970     7.8380     2.1610 
  135.7500   -27.6530    64.5460     6.2680     7.1170     7.9440     2.1640 
  135.8750   -27.9210    65.3800     6.4440     7.2300     8.0730     2.1480 
  136.0000   -27.9970    66.8660     6.3480     7.0590     8.0010     2.1260 
  136.1250   -27.8880    67.5350     6.0880     6.7430     7.4320     2.1150 
  136.2500   -27.6300    68.0330     5.7740     6.3980     7.3480     2.1180 
  136.3750   -27.2220    68.6350     5.3770     5.9660     9.1420     2.1280 
  136.5000   -26.6830    69.6460     4.8950     5.4470    10.1800     2.1470 
  136.6250   -26.0300    71.2870     4.3880     4.8720     7.5630     2.1810 
  136.7500   -25.0460    75.2720     3.7560     4.1400     4.6570     2.2130 
  136.8750   -24.4040    79.6720     3.4220     3.7420     4.5210     2.2260 
  137.0000   -23.8810    83.3140     3.2070     3.5020     4.5570     2.2220 
  137.1250   -23.5110    84.1270     3.1220     3.4060     4.3520     2.2160 
  137.2500   -23.2700    82.9960     3.1160     3.4060     4.2030     2.2220 
  137.3750   -23.1310    81.1860     3.1460     3.4250     4.0510     2.2340 
  137.5000   -23.0520    80.3590     3.1730     3.4480     3.9500     2.2360 
  137.6250   -23.0010    80.6000     3.1930     3.4800     4.0960     2.2240 
  137.7500   -22.9540    81.3200     3.1800     3.4710     4.1880     2.2120 
  137.8750   -22.8970    81.2840     3.0760     3.3750     4.1300     2.2120 
  138.0000   -22.8320    79.8610     2.8890     3.1700     4.0660     2.2270 
  138.1250   -22.7750    80.0220     2.6500     2.8930     3.8610     2.2530 
  138.2500   -22.7480    83.1880     2.3920     2.5860     3.5410     2.2740 
  138.3750   -22.7870    87.7080     2.2510     2.4000     3.1350     2.2730 
  138.5000   -22.9170    89.0250     2.4030     2.5670     2.8330     2.2700 
  138.6250   -23.1820    87.1080     2.9710     3.2830     4.1970     2.3080 
  138.7500   -23.5950    84.2620     4.0360     4.6340     9.3400     2.3900 
  138.8750   -24.1670    80.2570     5.6820     6.6990    16.4250     2.4580 
  139.0000   -24.8550    74.2510     7.6540     9.0510    18.5370     2.4370 
  139.1250   -25.6080    68.7540     8.9420    10.3560    14.1560     2.3170 
  139.2500   -26.3500    64.1980     9.2440    10.4510    10.2330     2.1780 
  139.3750   -27.0180    60.2120     8.5380     9.3820     9.5160     2.0940 
  139.5000   -27.5810    56.8720     7.4260     7.9960     9.0820     2.0660 
  139.6250   -28.0170    56.8270     6.7350     7.2390     8.2150     2.0700 
  139.7500   -28.3420    59.5510     6.3480     6.8510     7.8650     2.0850 
  139.8750   -28.5650    64.5650     6.1380     6.6630     7.8890     2.1020 
  140.0000   -28.7180    70.0910     6.0230     6.5890     7.8140     2.1180 
  140.1250   -28.8250    74.4630     6.0790     6.7180     7.7180     2.1390 
  140.2500   -28.9130    77.0800     6.2790     7.0170     7.7700     2.1640 
  140.3750   -28.9990    79.5120     6.6150     7.4290     7.7960     2.1770 
  140.5000   -29.0810    79.8500     6.9980     7.9010     7.5370     2.1680 
  140.6250   -29.1510    73.9990     7.3400     8.2840     7.6200     2.1420 
  140.7500   -29.1980    65.5340     7.5180     8.4610     8.4820     2.1180 
  140.8750   -29.2180    61.2780     7.4580     8.3570     9.0360     2.1040 
  141.0000   -29.2200    61.6710     7.1990     7.9940     8.6230     2.0980 
  141.1250   -29.2190    62.9650     6.8340     7.5610     7.9260     2.1000 
  141.2500   -29.2250    63.6600     6.5110     7.1820     7.5330     2.1120 
  141.3750   -29.2410    64.9690     6.3450     7.0230     7.2890     2.1200 
  141.5000   -29.2550    66.1690     6.3410     7.0400     7.1690     2.1160 
  141.6250   -29.2560    66.7930     6.4440     7.1630     7.3280     2.1050 
  141.7500   -29.2360    66.6920     6.5850     7.3120     7.6240     2.0980 
  141.8750   -29.1950    65.0210     6.7410     7.4810     7.8810     2.1000 
  142.0000   -29.1380    61.8670     6.8730     7.6010     7.9660     2.1030 
  142.1250   -29.0690    60.9050     6.9530     7.6730     7.9850     2.1040 
  142.2500   -28.9890    62.3500     6.9770     7.6770     8.1340     2.1000 
  142.3750   -28.8980    62.5180     6.9390     7.6170     8.2520     2.0970 
  142.5000   -28.7930    59.6730     6.8580     7.5220     8.2210     2.0940 
  142.6250   -28.6730    58.1000     6.7530     7.4110     8.0860     2.0910 
  142.7500   -28.5330    60.7140     6.5870     7.2140     7.8410     2.0880 
  142.8750   -28.3700    64.2210     6.3990     6.9980     7.6960     2.0900 
  143.0000   -28.1810    65.1890     6.2680     6.8530     7.4990     2.0970 
  143.1250   -27.9670    65.3910     6.2290     6.8280     7.0640     2.1030 
  143.2500   -27.7380    66.3370     6.3100     6.9740     6.8780     2.1040 
  143.3750   -27.5080    66.9590     6.4700     7.2110     7.1740     2.1020 
  143.5000   -27.2930    67.1550     6.5870     7.3670     7.7240     2.1020 
  143.6250   -27.1050    67.6070     6.5080     7.2720     8.1950     2.1030 
  143.7500   -26.9510    69.1010     6.1600     6.8380     8.7950     2.1090 
  143.8750   -26.8470    71.8350     5.5690     6.1130     9.0240     2.1350 
  144.0000   -26.8110    74.1550     4.9400     5.3780     7.8190     2.1710 
  144.1250   -26.8750    75.2660     4.4910     4.8530     6.1390     2.1820 
  144.2500   -27.0490    76.4940     4.2980     4.6530     5.0910     2.1540 
  144.3750   -27.3370    77.9340     4.4530     4.9030     4.7580     2.1080 
  144.5000   -27.6980    77.5940     4.9150     5.5060     5.1450     2.0720 
  144.6250   -28.0850    74.2900     5.5310     6.2710     6.3510     2.0510 
  144.7500   -28.4430    71.0500     6.0200     6.8330     7.9440     2.0480 
  144.8750   -28.7370    69.1480     6.1370     6.8880     8.5000     2.0680 
  145.0000   -28.9640    67.1360     5.8780     6.5030     7.8490     2.0940 
  145.1250   -29.1380    65.8000     5.4730     5.9730     7.0170     2.1150 
  145.2500   -29.2930    66.2880     5.1470     5.5830     6.4850     2.1230 
  145.3750   -29.4610    68.2890     5.0460     5.5210     6.6800     2.1150 
  145.5000   -29.6530    68.3550     5.1830     5.7420     7.4010     2.0970 
  145.6250   -29.8550    66.8690     5.4860     6.1400     7.8390     2.0800 
  145.7500   -30.0340    65.2140     5.7760     6.4910     8.0050     2.0700 
  145.8750   -30.1460    64.7120     5.9930     6.7220     8.1550     2.0670 
  146.0000   -30.1700    63.8120     6.1100     6.8260     8.1620     2.0680 
  146.1250   -30.0830    62.7530     6.1900     6.9060     8.1970     2.0690 
  146.2500   -29.8850    62.8850     6.3140     7.0570     8.6210     2.0640 
  146.3750   -29.5610    64.0350     6.4330     7.2330     9.2130     2.0530 
  146.5000   -29.1120    64.5180     6.5400     7.4110     9.4990     2.0430 
  146.6250   -28.5200    64.3690     6.6320     7.6190     9.3770     2.0430 
  146.7500   -27.7950    64.4360     6.5800     7.6270     8.8970     2.0560 
  146.8750   -26.9360    64.8870     6.1650     7.1690     8.3540     2.0970 
  147.0000   -25.9910    64.4370     5.4910     6.3760     7.6870     2.1710 
  147.1250   -25.0260    67.4300     4.6100     5.2870     6.3440     2.2400 
  147.2500   -24.1330    75.0780     3.8290     4.3500     4.9070     2.2620 
  147.3750   -23.4120    84.2610     3.2540     3.6650     4.3010     2.2400 
  147.5000   -22.8990    89.3260     2.9680     3.3700     4.1650     2.2150 
  147.6250   -22.6070    89.9930     2.9780     3.4490     3.9920     2.2100 
  147.7500   -22.4710    89.3410     3.1860     3.7800     4.3050     2.2280 
  147.8750   -22.4310    88.5300     3.4240     4.1250     5.6080     2.2610 
