~V
VERS. 2.00: Ver 2.00
~W
STRT.M 50.0000:
STOP.M 243.0000:
STEP.M 0.1250:
NULL. -999.2500:
UWI. F11115:
~C
DEPT.M :
DEN.GM/CC :
GR.API :
RML.OHMM :
RI. :
RXO.OHMM :
CALI.CM :
SP.MV :
~A
# ...
  207.5000     2.2150    57.3940    35.5740    29.6810    43.2840    24.4220   -25.0240 
  207.6250     2.1870    60.0960    33.5930    28.2140    41.1130    24.2190   -25.1970 
  207.7500     2.1550    63.1710    30.7930    26.2410    38.6180    23.9600   -25.3400 
  207.8750     2.1160    64.1510    27.8820    24.1890    35.0110    23.7140   -25.4730 
  208.0000     2.0910    63.3490    25.7510    22.6020    31.1340    23.5400   -25.6240 
  208.1250     2.1250    62.1570    25.4280    22.1560    27.2410    23.4680   -25.8230 
  208.2500     2.2250    60.3120    26.9760    22.9710    27.0160    23.5100   -26.0640 
  208.3750     2.3590    57.8640    30.1750    25.0010    35.3570    23.6780   -26.3540 
  208.5000     2.4600    56.1230    34.1490    27.7670    52.9630    23.9110   -26.6900 
  208.6250     2.4750    57.1610    36.7980    29.9900    61.9530    24.1080   -27.0490 
  208.7500     2.4420    60.1870    36.4280    30.4060    61.4210    24.2520   -27.3830 
  208.8750     2.3910    64.1620    32.8160    28.5800    54.5070    24.3740   -27.6450 
  209.0000     2.3370    67.7520    27.2650    25.0340    46.5620    24.4680   -27.7970 
  209.1250     2.2930    67.3310    21.5680    20.7770    36.0600    24.5090   -27.8190 
  209.2500     2.2700    63.9580    16.6880    16.7480    25.3540    24.5390   -27.7570 
  209.3750     2.2790    59.1850    12.7890    13.2970    18.1190    24.5760   -27.6090 
  209.5000     2.3200    54.3120     9.8390    10.5610    12.8190    24.6110   -27.3640 
  209.6250     2.3600    52.5170     7.9010     8.6750     7.5910    24.6010   -27.0220 
  209.7500     2.3630    52.0680     6.6920     7.4210     6.1170    24.5300   -26.6220 
  209.8750     2.3280    51.0990     6.0300     6.6470     6.1540    24.4410   -26.1990 
  210.0000     2.2700    49.4970     5.7180     6.1980     6.3840    24.4090   -25.7900 
  210.1250     2.2140    50.9550     5.5490     5.9400     6.2580    24.4660   -25.4150 
  210.2500     2.1780    54.8260     5.3240     5.7200     5.8130    24.5300   -25.0840 
  210.3750     2.1690    56.5450     5.0060     5.4870     5.2900    24.5860   -24.8120 
  210.5000     2.1870    54.2130     4.6830     5.2640     4.7490    24.6690   -24.6230 
  210.6250     2.2290    50.2800     4.5410     5.1520     4.6950    24.7770   -24.5380 
  210.7500     2.2760    48.2440     4.6790     5.2320     4.9530    24.8300   -24.5430 
  210.8750     2.3100    48.1640     5.1320     5.5590     5.6180    24.7910   -24.6470 
  211.0000     2.3150    49.7680     5.8640     6.1290     6.4430    24.6960   -24.8590 
  211.1250     2.2920    52.1490     6.7550     6.8570     7.7220    24.6140   -25.1920 
  211.2500     2.2680    56.6270     7.5470     7.5070     8.6680    24.5790   -25.5980 
  211.3750     2.2650    63.8010     8.0210     7.8890     9.3260    24.5570   -26.0080 
  211.5000     2.2920    73.5410     8.0620     7.9050     9.2820    24.5000   -26.3350 
  211.6250     2.3380    82.2070     7.6950     7.5840     7.2890    24.4250   -26.4690 
  211.7500     2.3710    84.9690     7.1990     7.1520     6.1830    24.3770   -26.4110 
  211.8750     2.3820    83.8090     6.7580     6.7440     6.6100    24.3650   -26.1840 
  212.0000     2.3760    83.6330     6.4660     6.4260     8.1330    24.3660   -25.8440 
  212.1250     2.3690    89.1090     6.3490     6.2280     9.5380    24.3690   -25.4700 
  212.2500     2.3710    96.4470     6.3300     6.1120     8.9350    24.3730   -25.1370 
  212.3750     2.3800   100.5610     6.3660     6.0590     7.7800    24.3670   -24.9030 
  212.5000     2.3920    99.3640     6.4430     6.0650     7.2200    24.3520   -24.7750 
  212.6250     2.4000    97.1220     6.5830     6.1500     7.3840    24.3330   -24.7110 
  212.7500     2.4010    99.4700     6.7690     6.2970     7.6440    24.3080   -24.6280 
  212.8750     2.3930   101.3010     6.9490     6.4680     8.0730    24.2780   -24.4760 
  213.0000     2.3820    97.0880     7.0470     6.6000     8.5270    24.2560   -24.2460 
  213.1250     2.3780    93.3440     6.9910     6.6170     8.7830    24.2520   -23.9520 
  213.2500     2.3850    96.8180     6.8410     6.5330     8.7790    24.2550   -23.6250 
  213.3750     2.3990   100.3730     6.6910     6.4060     8.3960    24.2530   -23.2910 
  213.5000     2.4140    97.8870     6.6320     6.3140     7.9500    24.2480   -22.9480 
  213.6250     2.4200    95.0820     6.7030     6.3270     7.9640    24.2340   -22.5720 
  213.7500     2.4160    96.3660     6.7810     6.3890     8.8380    24.2140   -22.1580 
  213.8750     2.4040    97.8390     6.7240     6.3910    10.1540    24.1960   -21.7130 
  214.0000     2.3870    96.4570     6.4180     6.2300    10.4380    24.1810   -21.2450 
  214.1250     2.3700    95.4650     5.8420     5.8620     9.7670    24.1670   -20.7920 
  214.2500     2.3590    96.5880     5.2100     5.4210     9.2570    24.1560   -20.4000 
  214.3750     2.3560    97.4640     4.7030     5.0240     7.7080    24.1420   -20.0910 
  214.5000     2.3590    97.2290     4.4200     4.7370     5.8690    24.1200   -19.8710 
  214.6250     2.3650    97.0780     4.3740     4.5640     4.9350    24.0940   -19.7550 
  214.7500     2.3680    96.6120     4.4330     4.4320     4.6820    24.0700   -19.6860 
  214.8750     2.3690    93.2340     4.5180     4.3210     4.7340    24.0500   -19.6350 
  215.0000     2.3730    87.6350     4.6000     4.2560     4.9910    24.0550   -19.5980 
  215.1250     2.3830    84.0820     4.7610     4.3200     4.9920    24.1300   -19.5950 
  215.2500     2.3950    81.6050     5.0960     4.5580     4.7400    24.2420   -19.6220 
  215.3750     2.4020    78.5170     5.6490     4.9890     4.5680    24.3290   -19.6680 
  215.5000     2.4010    76.0590     6.3900     5.5820     4.9500    24.3630   -19.7110 
  215.6250     2.3910    75.4580     7.1720     6.2460     5.9210    24.3670   -19.6990 
  215.7500     2.3770    75.1280     7.7790     6.8300     7.5750    24.3660   -19.6230 
  215.8750     2.3630    73.3650     8.1070     7.2420     9.4450    24.3430   -19.4970 
  216.0000     2.3530    70.3460     8.2030     7.4690    11.5420    24.2980   -19.3400 
  216.1250     2.3480    66.2980     8.2320     7.5600    10.3720    24.2460   -19.1710 
  216.2500     2.3480    63.4730     8.3350     7.6230     9.0560    24.2020   -19.0210 
  216.3750     2.3530    64.1320     8.5170     7.6990     8.7050    24.1670   -18.9140 
  216.5000     2.3600    66.5260     8.7210     7.7960     9.2680    24.1290   -18.8520 
  216.6250     2.3660    66.7280     8.8880     7.9090     9.6340    24.0870   -18.8440 
  216.7500     2.3720    65.3630     9.0230     8.0330     9.4250    24.0360   -18.8460 
  216.8750     2.3790    65.2500     9.1510     8.1650     9.0430    23.9660   -18.8210 
  217.0000     2.3810    66.1450     9.2850     8.3030     9.2080    23.8860   -18.7480 
  217.1250     2.3720    66.7710     9.3930     8.4250     9.7390    23.8210   -18.6350 
  217.2500     2.3550    67.5610     9.4350     8.5050    10.1120    23.7780   -18.5070 
  217.3750     2.3360    68.8930     9.4130     8.5280    10.2980    23.7520   -18.3870 
  217.5000     2.3240    68.8470     9.3700     8.4960    10.0860    23.7320   -18.2930 
  217.6250     2.3290    68.1410     9.3590     8.4250     9.6600    23.7280   -18.2110 
  217.7500     2.3460    71.3390     9.3850     8.3500     8.8580    23.8070   -18.1270 
  217.8750     2.3680    76.7820     9.4210     8.2930     8.3190    24.0040   -18.0520 
  218.0000     2.3870    78.5810     9.4340     8.2640     8.3440    24.2370   -18.0020 
  218.1250     2.4000    74.1810     9.4080     8.2690     8.3960    24.3540   -17.9810 
  218.2500     2.4110    68.7290     9.3770     8.2980     8.4950    24.3680   -17.9880 
  218.3750     2.4190    64.8940     9.3610     8.3390     8.6010    24.3610   -18.0220 
  218.5000     2.4130    61.8200     9.3620     8.3870     8.9100    24.3650   -18.0920 
  218.6250     2.3760    61.3150     9.3790     8.4410     9.3540    24.3660   -18.1950 
