~V
VERS. 2.00: Ver 2.00
~W
STRT.M 55.0000:
STOP.M 211.0000:
STEP.M 0.1250:
NULL. -999.2500:
UWI. F11125:
~C
DEPT.M :
DEN.GM/CC :
GR.API :
RML.OHMM :
RI. :
RXO.OHMM :
CALI.CM :
SP.MV :
~A
# ...
  100.0000     2.2580    80.3780     5.9070     5.1410     5.2690    22.6460   -15.0090 
  100.1250     2.2620    79.2000     6.0340     5.1770     4.8350    22.8150   -15.0830 
  100.2500     2.2670    77.4340     6.4260     5.4230     4.5040    22.9540   -15.2860 
  100.3750     2.2650    74.9630     7.0830     5.8960     5.0010    22.9630   -15.5990 
  100.5000     2.2520    71.2500     7.9220     6.5580     6.2860    22.9610   -15.9730 
  100.6250     2.2270    68.5820     8.7290     7.2840     7.0440    23.1160   -16.3700 
  100.7500     2.2020    67.4520     9.2630     7.8550     7.3380    23.2550   -16.7360 
  100.8750     2.1840    65.9810     9.3980     8.1140     7.4760    23.2280   -17.0650 
  101.0000     2.1750    64.0440     9.1600     8.0260     7.4490    23.1350   -17.3220 
  101.1250     2.1780    64.4090     8.6880     7.6630     7.2680    23.0760   -17.4670 
  101.2500     2.1890    64.9240     8.1990     7.2290     7.1660    23.0320   -17.4830 
  101.3750     2.2010    62.2520     7.8350     6.8490     7.3270    23.0130   -17.3950 
  101.5000     2.2100    57.9980     7.7490     6.6430     7.5280    23.0980   -17.2480 
  101.6250     2.2140    60.0210     8.2040     6.8040     7.9490    23.3490   -17.0840 
  101.7500     2.2200    67.2450     9.2690     7.4090     9.3110    23.7190   -16.9430 
  101.8750     2.2360    72.2830    10.9640     8.5400    13.0280    24.1500   -16.8300 
  102.0000     2.2690    70.5270    13.1080    10.1820    20.9580    24.5710   -16.7720 
  102.1250     2.3190    64.9870    15.1140    12.0660    34.0330    24.7910   -16.8120 
  102.2500     2.3570    63.0780    16.1910    13.5100    37.9080    24.7380   -17.0070 
  102.3750     2.3680    64.6130    15.8910    13.9310    29.7340    24.4330   -17.3450 
  102.5000     2.3540    65.1850    14.4090    13.2200    19.0070    23.9290   -17.7920 
  102.6250     2.3200    63.7580    12.4550    11.7800    12.1570    23.4310   -18.3030 
  102.7500     2.2700    61.3850    10.7480    10.3080     9.5460    23.2580   -18.8320 
  102.8750     2.2140    59.5830     9.4840     9.0710     8.7340    23.3280   -19.3300 
  103.0000     2.1710    58.3530     8.6480     8.1470     8.3540    23.4190   -19.7750 
  103.1250     2.1520    58.5110     8.2080     7.5710     7.8660    23.3760   -20.1100 
  103.2500     2.1480    60.4940     8.0180     7.2490     7.4670    23.2600   -20.3280 
  103.3750     2.1500    63.8310     8.0050     7.1320     7.2840    23.1690   -20.4540 
  103.5000     2.1450    69.2000     8.1040     7.1690     7.4520    23.1530   -20.5080 
  103.6250     2.1370    71.8730     8.2710     7.3220     7.8140    23.1440   -20.4910 
  103.7500     2.1390    67.6540     8.4540     7.5270     8.0430    23.0860   -20.4310 
  103.8750     2.1560    59.8980     8.6290     7.7490     8.0860    23.0370   -20.3630 
  104.0000     2.1800    56.9760     8.7700     7.9540     8.1040    23.0400   -20.3060 
  104.1250     2.2030    60.9820     8.8340     8.0920     8.2340    23.1050   -20.2740 
  104.2500     2.2250    62.8200     8.8030     8.1400     8.3290    23.2070   -20.2510 
  104.3750     2.2480    62.1910     8.6620     8.0870     8.2440    23.3400   -20.2150 
  104.5000     2.2550    64.5080     8.4310     7.9400     7.9310    23.4550   -20.1170 
  104.6250     2.2340    68.6610     8.1760     7.7330     7.7620    23.5020   -19.9970 
  104.7500     2.2080    67.8110     7.9990     7.5490     7.9100    23.5250   -19.8520 
  104.8750     2.2000    62.3860     7.9710     7.4650     8.1730    23.5380   -19.7110 
  105.0000     2.2100    58.6940     8.1200     7.5360     8.3840    23.5340   -19.5740 
  105.1250     2.2220    61.7120     8.4450     7.8020     8.7110    23.5040   -19.4270 
  105.2500     2.2250    69.3770     8.8430     8.1820     9.0050    23.4540   -19.2960 
  105.3750     2.2160    77.0180     9.2130     8.5800     9.1410    23.3510   -19.1470 
  105.5000     2.1970    77.7150     9.4510     8.8820     9.1750    23.2130   -19.0430 
  105.6250     2.1770    68.8750     9.4670     8.9800     9.1160    23.0410   -18.9240 
  105.7500     2.1650    59.0520     9.3240     8.9050     8.9200    22.9170   -18.8050 
  105.8750     2.1630    54.7610     9.1130     8.7260     8.6230    22.8720   -18.6450 
  106.0000     2.1660    57.1250     8.9200     8.5260     8.3990    22.8660   -18.4450 
  106.1250     2.1640    61.1060     8.7920     8.3750     8.4250    22.8430   -18.2240 
  106.2500     2.1580    63.5230     8.6700     8.2530     8.5870    22.7990   -17.9530 
  106.3750     2.1550    65.6890     8.4930     8.1150     8.7730    22.7920   -17.6740 
  106.5000     2.1560    67.4790     8.2620     7.9470     9.0580    22.8570   -17.3400 
  106.6250     2.1600    68.5880     8.0960     7.8150     9.0890    22.9730   -16.9720 
  106.7500     2.1710    69.2040     8.1400     7.8280     8.9660    23.0440   -16.6140 
  106.8750     2.1910    69.6910     8.5030     8.0810     8.9500    23.0140   -16.3240 
  107.0000     2.2140    69.3700     9.2200     8.6390    10.1930    22.9200   -16.1250 
  107.1250     2.2220    70.5920    10.2540     9.5260    12.8070    22.9280   -16.0230 
  107.2500     2.2090    72.1360    11.3450    10.5470    13.4390    22.9520   -16.0060 
  107.3750     2.1880    70.0620    12.2310    11.4650    13.1900    22.9720   -16.0400 
  107.5000     2.1720    63.3450    12.6750    12.0310    13.0320    22.9620   -16.1250 
  107.6250     2.1690    60.2760    12.5240    12.0460    13.0630    22.9380   -16.2640 
  107.7500     2.1720    63.9970    12.0400    11.7130    12.8440    22.9320   -16.3790 
  107.8750     2.1770    69.2780    11.4810    11.2510    11.8790    22.9370   -16.4750 
  108.0000     2.1840    71.2530    11.0440    10.8410    10.4580    22.9490   -16.5280 
  108.1250     2.1870    67.7530    10.8940    10.6370     9.8510    23.0320   -16.5730 
  108.2500     2.1880    62.0460    11.0450    10.6830    10.3620    23.2710   -16.6050 
  108.3750     2.1970    59.1290    11.5070    11.0140    11.2060    23.6330   -16.6270 
  108.5000     2.2180    61.1680    12.2570    11.6330    11.5070    23.9750   -16.6440 
  108.6250     2.2310    65.6840    13.2520    12.5270    11.8350    24.1370   -16.6470 
  108.7500     2.2170    65.9390    14.3210    13.5490    13.6560    24.1780   -16.6660 
  108.8750     2.1870    61.9560    15.3210    14.5690    16.4780    24.1620   -16.6840 
  109.0000     2.1640    58.5050    16.1190    15.4490    18.5950    24.1210   -16.6990 
  109.1250     2.1650    57.9830    16.5890    16.0440    18.3370    24.0540   -16.6720 
  109.2500     2.1760    58.4430    16.8420    16.4250    16.7310    23.9260   -16.6080 
  109.3750     2.1860    59.6670    17.0260    16.7210    16.2200    23.8040   -16.5250 
  109.5000     2.1890    61.1170    17.2510    17.0420    17.5840    23.7580   -16.4310 
  109.6250     2.1930    60.4070    17.4990    17.3830    19.3650    23.8650   -16.3130 
  109.7500     2.2140    58.4540    17.6190    17.6080    22.0580    24.0100   -16.1990 
  109.8750     2.2540    59.1820    17.4800    17.5760    24.8550    24.0040   -16.0750 
  110.0000     2.2900    63.1070    17.0720    17.2490    25.0820    23.7960   -15.9550 
  110.1250     2.2850    66.3760    16.5810    16.7620    20.0230    23.6260   -15.8420 
  110.2500     2.2580    66.6340    16.2710    16.3800    17.1090    23.5890   -15.7470 
  110.3750     2.2370    64.7480    16.2160    16.2230    16.2560    23.5900   -15.6750 
  110.5000     2.2260    62.3310    16.2920    16.2460    16.9590    23.5540   -15.6310 
  110.6250     2.2180    61.9260    16.1550    16.1950    17.8310    23.4850   -15.6300 
  110.7500     2.2140    63.2630    15.5720    15.7890    17.7990    23.4090   -15.6430 
  110.8750     2.2180    64.1940    14.5800    14.9690    16.6560    23.3310   -15.6750 
  111.0000     2.2270    64.8090    13.4880    13.9420    14.5660    23.2090   -15.7040 
  111.1250     2.2340    65.4640    12.7750    13.1150    12.3790    23.0410   -15.7590 
