~V
VERS. 2.00: Ver 2.00
~W
STRT.M 54.0000:
STOP.M 273.0000:
STEP.M 0.1250:
NULL. -999.2500:
UWI. F11158:
~C
DEPT.M :
SP.MV :
DEN.GM/CC :
GR.API :
RML.OHMM :
RI. :
RXO.OHMM :
CALI.CM :
~A
# ...
  177.7500   -31.6680     2.2200    59.1790   137.8140   130.6820    93.8590    25.2950 
  177.8750   -32.2160     2.2270    59.1070   130.9780   121.6130    88.0450    25.2970 
  178.0000   -32.7280     2.2370    60.5560   125.5760   113.4740    82.8970    25.3060 
  178.1250   -33.2060     2.2490    63.3830   122.8340   107.8450    78.6940    25.3150 
  178.2500   -33.6510     2.2570    65.7810   123.2890   105.5380    74.7190    25.2870 
  178.3750   -34.0590     2.2600    66.0130   126.1820   106.0320    72.0470    25.2130 
  178.5000   -34.4320     2.2570    63.4800   130.4600   108.5540    75.3460    25.1280 
  178.6250   -34.7790     2.2490    60.3150   134.4240   111.7600    85.1470    25.0770 
  178.7500   -35.0970     2.2380    59.7940   135.9570   113.8930    90.8920    25.0280 
  178.8750   -35.3940     2.2320    62.3080   134.0660   113.6950    88.4060    24.9710 
  179.0000   -35.6840     2.2310    66.2860   129.0690   110.9220    81.8140    24.9300 
  179.1250   -35.9310     2.2330    67.7800   123.0340   106.7980    77.9220    24.9460 
  179.2500   -36.1160     2.2310    65.4230   119.1720   103.7960    81.2680    25.0120 
  179.3750   -36.2650     2.2260    61.5690   119.5870   104.0090    91.3070    25.0750 
  179.5000   -36.3790     2.2210    58.0410   125.2030   108.5990   106.7030    25.1030 
  179.6250   -36.4700     2.2140    56.4400   136.0080   117.9780   125.8180    25.1110 
  179.7500   -36.5300     2.2040    56.4900   150.7720   131.4570   147.4430    25.1250 
  179.8750   -36.5200     2.1970    56.2730   165.9320   145.9260   143.1000    25.1310 
  180.0000   -36.4530     2.1960    55.7140   178.1640   158.3540   123.9380    25.1320 
  180.1250   -36.4000     2.2020    55.9130   184.5160   165.8990   112.8650    25.1320 
  180.2500   -36.3780     2.2100    57.2490   183.0540   166.5030   106.9780    25.1270 
  180.3750   -36.3840     2.2170    57.7700   175.4280   161.2690   106.6720    25.1100 
  180.5000   -36.4160     2.2230    58.0900   163.6310   151.6990   110.2900    25.0730 
  180.6250   -36.4510     2.2260    60.0950   150.5580   140.1010   110.3260    25.0420 
  180.7500   -36.5070     2.2300    63.8120   140.0090   129.6300   109.8760    25.0670 
  180.8750   -36.6090     2.2330    66.2990   135.1450   123.4360    92.2670    25.1270 
  181.0000   -36.7390     2.2320    63.9700   138.3960   124.2090    78.9820    25.1760 
  181.1250   -36.8590     2.2230    57.1200   152.0460   134.5490    85.0170    25.1840 
  181.2500   -36.9540     2.2110    51.8170   180.7920   156.8720   117.0370    25.1580 
  181.3750   -37.0050     2.1990    52.3560   228.2320   189.0520   145.6000    25.1360 
  181.5000   -37.0070     2.1920    55.4030   276.1490   227.4180   165.9310    25.1200 
  181.6250   -36.9830     2.1880    55.3180   317.1650   265.0710   185.5800    25.1080 
  181.7500   -36.9280     2.1860    52.1100   359.2550   294.0140   207.3580    25.1040 
  181.8750   -36.8260     2.1880    49.4810   385.0500   313.1240   211.4190    25.1050 
  182.0000   -36.6700     2.1900    47.8560   401.3790   325.8020   203.2250    25.0940 
  182.1250   -36.4510     2.1910    46.9270   414.0380   335.9410   200.3740    25.0790 
  182.2500   -36.1860     2.1880    46.0030   421.5020   343.7630   206.2270    25.0690 
  182.3750   -35.8810     2.1830    44.4680   416.3390   344.6930   223.5070    25.0680 
  182.5000   -35.5420     2.1760    43.3710   390.0470   331.9350   252.4500    25.0710 
  182.6250   -35.1700     2.1750    46.4910   341.7730   301.6810   266.6890    25.0760 
  182.7500   -34.7560     2.1840    53.0020   283.1890   258.2940   234.2290    25.0890 
  182.8750   -34.3210     2.2030    55.9160   231.8920   215.5180   175.4050    25.1020 
  183.0000   -33.8780     2.2250    53.8540   195.4650   182.2160   122.9490    25.0910 
  183.1250   -33.4610     2.2420    52.1290   175.4840   162.6720    94.4840    25.0470 
  183.2500   -33.0930     2.2500    54.4640   170.7750   157.8810    93.0790    24.9950 
  183.3750   -32.7800     2.2490    56.5930   174.6420   162.5020   107.0800    24.9380 
  183.5000   -32.5020     2.2450    56.3640   179.9230   170.1360   128.0970    24.8430 
  183.6250   -32.2100     2.2430    56.4310   176.6760   171.2380   141.3990    24.7130 
  183.7500   -31.8940     2.2460    58.9910   157.2910   156.9780   130.8890    24.5650 
  183.8750   -31.5990     2.2530    62.3190   129.0200   131.6720   100.8690    24.3590 
  184.0000   -31.3470     2.2640    65.7090   102.2340   104.8890    63.1960    24.0740 
  184.1250   -31.1520     2.2790    69.0810    83.6590    84.6720    40.8320    23.8130 
  184.2500   -31.0120     2.2940    70.5260    75.1860    74.2240    38.7100    23.7240 
  184.3750   -30.9010     2.2940    69.4340    74.1820    71.2600    45.1140    23.7790 
  184.5000   -30.8230     2.2780    68.4080    79.3380    74.4780    55.8910    23.9340 
  184.6250   -30.8060     2.2530    67.6200    89.6950    83.0660    66.6820    24.1400 
  184.7500   -30.8590     2.2320    64.7650   104.5450    96.4670    71.9720    24.3370 
  184.8750   -30.9460     2.2200    60.4480   122.1990   112.9090    77.9920    24.5000 
  185.0000   -31.0270     2.2100    58.0410   141.5350   131.0950   101.2200    24.5860 
  185.1250   -31.0600     2.2020    58.0400   161.2380   149.5370   127.2200    24.5890 
  185.2500   -31.0230     2.1960    57.1190   179.5370   166.4320   140.1060    24.5210 
  185.3750   -30.9420     2.1940    53.6060   194.3830   180.0430   142.3880    24.3990 
  185.5000   -30.8420     2.1950    49.9630   203.1470   188.2530   145.9930    24.3170 
  185.6250   -30.7200     2.1980    50.1410   203.0960   188.8070   147.1210    24.3470 
  185.7500   -30.5710     2.2030    54.2290   192.8620   180.3870   144.0780    24.4020 
  185.8750   -30.3890     2.2080    56.2140   175.8020   165.6250   139.3020    24.3990 
  186.0000   -30.1900     2.2140    55.4290   154.9910   146.9860   125.6100    24.3120 
  186.1250   -30.0080     2.2190    55.4350   133.6110   127.2520    98.6170    24.1740 
  186.2500   -29.8560     2.2230    58.4010   114.3510   109.0620    75.3720    24.1030 
  186.3750   -29.7410     2.2280    61.8520    98.2740    93.7400    63.6550    24.1540 
  186.5000   -29.6380     2.2370    64.1880    85.7050    81.7140    60.4970    24.3130 
  186.6250   -29.5370     2.2540    66.4100    76.7070    73.0600    52.7870    24.4340 
  186.7500   -29.4350     2.2710    69.4320    71.3610    67.8350    46.3570    24.4430 
  186.8750   -29.3530     2.2790    72.0380    68.8360    65.2530    44.7190    24.4080 
  187.0000   -29.2980     2.2750    71.3520    68.6560    64.8930    45.4710    24.4510 
  187.1250   -29.2600     2.2660    66.4910    70.2330    66.2700    47.5050    24.6400 
  187.2500   -29.2380     2.2530    61.0540    72.8000    68.7480    53.0330    24.8670 
  187.3750   -29.2220     2.2380    57.6870    75.2320    71.2530    63.1230    25.0470 
  187.5000   -29.2250     2.2270    55.5690    76.7450    72.9780    72.2560    25.1610 
  187.6250   -29.2590     2.2210    55.0630    76.9620    73.4630    70.8190    25.2110 
  187.7500   -29.3250     2.2210    57.6590    76.0260    72.7570    62.1660    25.2280 
  187.8750   -29.4020     2.2210    62.0870    74.6380    71.5280    57.6240    25.2330 
  188.0000   -29.4770     2.2240    64.0380    73.1780    70.1900    58.6340    25.1920 
  188.1250   -29.5450     2.2350    62.0320    71.7420    68.9070    59.8950    25.0970 
  188.2500   -29.6000     2.2520    60.3350    70.1820    67.5920    59.9110    25.0380 
  188.3750   -29.6420     2.2670    61.4610    68.4440    66.1360    59.9600    24.9910 
  188.5000   -29.6770     2.2710    62.7940    66.7990    64.6920    60.1710    24.9150 
  188.6250   -29.7010     2.2640    62.7180    65.8370    63.7220    58.5220    24.7970 
  188.7500   -29.7150     2.2510    63.9330    66.2500    63.8480    53.9320    24.6840 
  188.8750   -29.7250     2.2380    66.8900    68.0320    65.1880    52.4990    24.6170 
