~V
VERS. 2.00: Ver 2.00
~W
STRT.M 59.0000:
STOP.M 247.0000:
STEP.M 0.1250:
NULL. -999.2500:
UWI. F11130:
~C
DEPT.M :
DEN.GM/CC :
SP.MV :
GR.API :
RML.OHMM :
RI. :
RXO.OHMM :
CALI.CM :
~A
# ...
  126.5000     2.6060     1.1130    51.1740    21.4160    18.8330    20.5380    24.7860 
  126.6250     2.6050     1.2360    51.5470    22.1650    19.9660    20.7910    24.7840 
  126.7500     2.6100     1.3090    49.2730    22.3870    20.5250    21.1740    24.7240 
  126.8750     2.6230     1.3010    46.1800    22.3760    20.7880    20.5780    24.6470 
  127.0000     2.6420     1.2840    45.7250    22.3510    20.9590    21.4340    24.5230 
  127.1250     2.6550     1.2090    48.5870    22.3770    21.0660    23.2890    24.4200 
  127.2500     2.6550     1.0260    50.8230    22.3800    21.0740    24.0920    24.4030 
  127.3750     2.6420     0.8250    51.8110    22.2970    20.9680    23.2090    24.4510 
  127.5000     2.6230     0.5910    53.6840    22.1260    20.7600    22.7450    24.5980 
  127.6250     2.6090     0.3370    55.5740    21.9580    20.5220    21.6780    24.6990 
  127.7500     2.6060     0.0930    56.3490    21.9540    20.4030    20.1340    24.7150 
  127.8750     2.6130    -0.1320    55.2040    22.2450    20.5410    19.0840    24.6880 
  128.0000     2.6240    -0.3230    53.4760    22.8930    21.0080    19.0450    24.5880 
  128.1250     2.6350    -0.5230    51.9660    23.8700    21.8420    20.6160    24.5300 
  128.2500     2.6430    -0.6120    50.8990    24.9210    22.8520    23.3870    24.5070 
  128.3750     2.6460    -0.6720    50.9570    25.7850    23.7900    24.8980    24.4980 
  128.5000     2.6430    -0.7300    50.5060    26.2100    24.3680    25.8220    24.4390 
  128.6250     2.6310    -0.6170    49.2090    25.9580    24.3240    24.8180    24.3760 
  128.7500     2.6110    -0.4760    49.4320    25.2220    23.8320    23.3730    24.4260 
  128.8750     2.5880    -0.3060    51.1450    24.2650    23.1280    22.3260    24.5530 
  129.0000     2.5660    -0.2030    53.1000    23.3840    22.4530    21.4790    24.6830 
  129.1250     2.5490    -0.0990    54.0220    22.8300    22.0000    21.1400    24.7400 
  129.2500     2.5390    -0.0030    53.7980    22.5290    21.7230    20.4260    24.7400 
  129.3750     2.5360     0.0730    53.2580    22.3240    21.5100    19.8020    24.6490 
  129.5000     2.5400     0.2150    54.1000    22.0710    21.2630    19.9850    24.5170 
  129.6250     2.5470     0.2800    54.9930    21.7350    20.9580    20.5860    24.4160 
  129.7500     2.5490     0.2950    52.7470    21.4210    20.6870    20.2370    24.4170 
  129.8750     2.5390     0.2560    49.4920    21.2280    20.5410    18.0890    24.4540 
  130.0000     2.5190     0.2340    49.3370    21.1970    20.5690    16.8120    24.4480 
  130.1250     2.4970     0.2440    51.2450    21.3050    20.7510    18.9310    24.3800 
  130.2500     2.4850     0.2370    51.2310    21.4400    20.9370    21.2870    24.3960 
  130.3750     2.4860     0.3120    50.2530    21.5270    21.0220    20.7330    24.4790 
  130.5000     2.4990     0.3290    50.3460    21.5320    20.9760    19.3780    24.5350 
  130.6250     2.5170     0.3030    52.2350    21.4620    20.8450    18.6660    24.5120 
  130.7500     2.5300     0.3480    54.4460    21.3970    20.7410    18.6050    24.4570 
  130.8750     2.5350     0.3970    55.3550    21.3960    20.7340    18.6840    24.4580 
  131.0000     2.5270     0.4360    53.9790    21.4920    20.8440    19.5660    24.4650 
  131.1250     2.5090     0.3220    51.9450    21.7250    21.0520    21.3670    24.4340 
  131.2500     2.4950     0.1320    52.0040    22.1000    21.3500    22.2570    24.3420 
  131.3750     2.4980    -0.1450    54.7320    22.6410    21.8120    24.8020    24.2640 
  131.5000     2.5240    -0.5030    57.8660    23.3220    22.4760    30.8470    24.3120 
  131.6250     2.5630    -0.8730    58.3780    24.0100    23.2640    29.8070    24.1830 
  131.7500     2.5890    -1.3070    56.9040    24.5040    23.9450    26.5230    24.0110 
  131.8750     2.5850    -1.7020    53.9730    24.6600    24.3140    26.2710    24.0270 
  132.0000     2.5470    -2.1350    49.7440    24.4310    24.2570    27.1830    24.3080 
  132.1250     2.4880    -2.4860    46.7740    23.8630    23.7880    25.5140    24.6260 
  132.2500     2.4390    -2.7890    47.9320    23.1820    23.1780    22.1270    25.0490 
  132.3750     2.4230    -3.0780    52.4200    22.5460    22.6010    21.5310    25.4790 
  132.5000     2.4470    -3.2400    54.8150    22.0690    22.1590    22.5620    25.8210 
  132.6250     2.4910    -3.4130    52.4530    21.8400    21.9060    23.3600    25.8150 
  132.7500     2.5140    -3.5610    49.5900    21.8170    21.7970    22.4140    25.5450 
  132.8750     2.4950    -3.7130    48.3770    21.9720    21.8220    20.7580    25.3060 
  133.0000     2.4440    -3.8050    48.0460    22.2990    22.0120    19.6900    25.4250 
  133.1250     2.4020    -3.8940    49.1340    22.8710    22.4650    20.3760    25.8560 
  133.2500     2.4070    -3.9800    50.9930    23.6870    23.1890    22.6960    26.1040 
  133.3750     2.4620    -4.0370    52.9550    24.7210    24.1620    24.6970    25.9310 
  133.5000     2.5380    -4.1610    54.3530    25.8830    25.3040    26.6490    25.4000 
  133.6250     2.5890    -4.2250    53.5450    27.0440    26.5170    26.6350    25.0010 
  133.7500     2.5930    -4.3100    51.3530    28.0840    27.7110    29.9350    24.8740 
  133.8750     2.5570    -4.4200    48.9430    28.8790    28.7730    34.2060    24.9210 
  134.0000     2.5020    -4.4730    48.3850    29.2610    29.5190    32.3810    25.0950 
  134.1250     2.4490    -4.5190    50.9640    28.9380    29.5940    31.4540    25.4420 
  134.2500     2.4080    -4.5520    54.2730    27.9700    28.9240    30.2420    25.5240 
  134.3750     2.3820    -4.6380    57.2420    26.5570    27.5910    27.7800    25.2180 
  134.5000     2.3780    -4.7780    58.4560    25.0700    25.9380    22.1830    24.8410 
  134.6250     2.4020    -4.9300    56.8100    24.0200    24.5170    19.4330    24.6650 
  134.7500     2.4450    -5.0980    53.8370    23.6260    23.6900    18.4510    24.6050 
  134.8750     2.4940    -5.2810    51.5710    23.9240    23.6070    19.4880    24.5210 
  135.0000     2.5350    -5.5840    51.9030    24.7740    24.2430    21.8310    24.3710 
  135.1250     2.5570    -5.8730    52.6440    25.8580    25.3880    23.5950    24.3880 
  135.2500     2.5640    -6.1400    52.1030    26.6770    26.4580    24.4310    24.4260 
  135.3750     2.5610    -6.3440    52.1500    26.8710    26.9610    25.3260    24.3800 
  135.5000     2.5480    -6.4030    53.2720    26.2800    26.6130    25.5700    24.3270 
  135.6250     2.5290    -6.4680    54.4720    25.0050    25.4380    24.4010    24.3330 
  135.7500     2.5140    -6.4570    55.2300    23.6260    24.0650    22.5920    24.3770 
  135.8750     2.5120    -6.3890    56.4690    22.6180    22.9740    20.0440    24.3350 
  136.0000     2.5230    -6.2510    57.5860    22.3140    22.4740    18.2160    24.2730 
  136.1250     2.5300    -6.0710    56.2200    22.9060    22.7680    20.1180    24.2510 
  136.2500     2.5170    -5.8800    54.8720    24.0040    23.6100    23.5290    24.3200 
  136.3750     2.4790    -5.6610    55.9360    25.1740    24.7080    27.0450    24.4490 
  136.5000     2.4320    -5.5730    58.2040    25.9570    25.6590    27.3600    24.6800 
  136.6250     2.4070    -5.5470    60.1870    25.9080    25.9530    24.5460    24.8880 
  136.7500     2.4190    -5.5630    61.9680    25.1640    25.5510    23.8090    24.8690 
  136.8750     2.4650    -5.5890    62.7940    23.9950    24.6360    24.2480    24.6170 
  137.0000     2.5260    -5.5670    61.7170    22.7530    23.5310    23.9320    24.3880 
  137.1250     2.5720    -5.5970    61.8550    21.8140    22.5770    22.1110    24.2300 
  137.2500     2.5830    -5.6210    62.6720    21.3150    21.9230    20.5250    24.1160 
  137.3750     2.5530    -5.7160    60.1640    21.2760    21.6170    20.7010    24.0900 
  137.5000     2.4910    -5.8460    55.0580    21.6050    21.6600    21.1480    24.1840 
  137.6250     2.4240    -5.9420    52.7640    22.1250    22.0110    21.8120    24.3650 
