~V
VERS. 2.00: Ver 2.00
~W
STRT.M 52.0000:
STOP.M 240.0000:
STEP.M 0.1250:
NULL. -999.2500:
UWI. F11139:
~C
DEPT.M :
GR.API :
RML.OHMM :
RI. :
RXO.OHMM :
CALI.CM :
SP.MV :
DEN.GM/CC :
~A
# ...
  209.5000    74.0810     6.6200     5.8370     6.2660    24.2480    -8.5510     2.3250 
  209.6250    71.4360     6.7050     5.9400     6.5210    24.0980    -8.5740     2.3540 
  209.7500    65.6370     6.7980     6.0450     6.8470    23.9760    -8.6060     2.3800 
  209.8750    61.1350     6.8730     6.1280     7.0810    23.9990    -8.6880     2.3820 
  210.0000    60.7730     6.9060     6.1730     7.1480    24.2360    -8.8070     2.3560 
  210.1250    62.2310     6.8810     6.1650     6.9960    24.3950    -8.9050     2.3260 
  210.2500    61.2750     6.8120     6.1160     6.8430    24.3620    -8.9900     2.3170 
  210.3750    59.3660     6.7140     6.0380     6.7030    24.3280    -9.0350     2.3280 
  210.5000    58.0980     6.6050     5.9410     6.6240    24.3400    -9.0640     2.3420 
  210.6250    58.5780     6.5030     5.8370     6.5260    24.5390    -9.0740     2.3460 
  210.7500    60.8050     6.4210     5.7400     6.4480    24.6760    -9.0580     2.3500 
  210.8750    62.1000     6.3600     5.6570     6.3760    24.7300    -8.9860     2.3580 
  211.0000    60.8330     6.3170     5.5920     6.3440    24.7340    -8.9170     2.3650 
  211.1250    58.9560     6.2880     5.5460     6.2700    24.7120    -8.8380     2.3660 
  211.2500    59.0770     6.2630     5.5100     6.3120    24.6700    -8.7310     2.3640 
  211.3750    60.5200     6.2420     5.4770     6.3720    24.5910    -8.5650     2.3610 
  211.5000    62.2300     6.2260     5.4430     6.3940    24.4800    -8.3920     2.3580 
  211.6250    65.1680     6.2190     5.4080     6.2770    24.3340    -8.2460     2.3610 
  211.7500    67.3200     6.2200     5.3790     6.1690    24.2330    -8.1700     2.3680 
  211.8750    67.3100     6.2290     5.3610     6.0990    24.1880    -8.1250     2.3710 
  212.0000    67.3170     6.2490     5.3630     6.0760    24.1400    -8.1050     2.3660 
  212.1250    68.8740     6.2910     5.3940     6.1390    24.0350    -8.1040     2.3520 
  212.2500    71.7210     6.3550     5.4510     6.1170    23.8550    -8.1420     2.3360 
  212.3750    75.8700     6.4340     5.5280     6.0060    23.5950    -8.2400     2.3220 
  212.5000    79.7000     6.5130     5.6110     5.9370    23.2770    -8.3860     2.3110 
  212.6250    81.6270     6.5660     5.6770     5.9380    23.1370    -8.5540     2.3020 
  212.7500    81.6670     6.5800     5.7070     5.9500    23.0890    -8.7130     2.2930 
  212.8750    81.1560     6.5480     5.6910     5.8960    23.0660    -8.8440     2.2910 
  213.0000    81.1430     6.4720     5.6260     5.8690    23.0330    -8.9480     2.3010 
  213.1250    82.1220     6.3630     5.5210     5.8550    22.9480    -9.0180     2.3180 
  213.2500    84.0180     6.2550     5.4080     5.8450    23.0230    -9.0550     2.3280 
  213.3750    83.9360     6.1730     5.3080     5.7530    23.2930    -9.0730     2.3260 
  213.5000    81.3930     6.1340     5.2400     5.6130    23.5710    -9.0820     2.3200 
  213.6250    79.5640     6.1440     5.2160     5.5640    23.7350    -9.0900     2.3270 
  213.7500    78.7470     6.1840     5.2240     5.6310    23.7500    -9.0970     2.3450 
  213.8750    76.8450     6.2390     5.2530     5.8180    23.7520    -9.1190     2.3550 
  214.0000    72.9080     6.2950     5.2910     5.9900    23.7720    -9.1190     2.3410 
  214.1250    69.0750     6.3370     5.3270     6.1130    23.8700    -9.1370     2.3080 
  214.2500    67.6030     6.3540     5.3530     6.1500    23.9270    -9.1460     2.2780 
  214.3750    69.3830     6.3370     5.3620     6.1820    23.9890    -9.1090     2.2550 
  214.5000    72.8840     6.2830     5.3430     6.2400    24.1090    -8.9900     2.2380 
  214.6250    75.0270     6.1880     5.2860     6.1900    24.2360    -8.8420     2.2300 
  214.7500    74.9730     6.0760     5.2010     5.8960    24.2650    -8.6880     2.2340 
  214.8750    74.4690     5.9760     5.1120     5.6610    24.2390    -8.5940     2.2490 
  215.0000    75.1380     5.9320     5.0550     5.5790    24.2050    -8.5200     2.2700 
  215.1250    75.3970     5.9990     5.0860     5.4820    24.0990    -8.4350     2.2820 
  215.2500    73.6400     6.1650     5.2110     5.5180    23.9900    -8.3620     2.2880 
  215.3750    70.5730     6.3880     5.4050     5.7830    23.8670    -8.3620     2.3000 
  215.5000    67.7000     6.5940     5.6120     6.3170    23.6120    -8.4110     2.3290 
  215.6250    67.6580     6.6680     5.7320     6.9340    23.3800    -8.4430     2.3670 
  215.7500    69.7750     6.5670     5.7040     7.1220    23.2360    -8.4380     2.3860 
  215.8750    72.9510     6.2990     5.5170     6.6750    23.3100    -8.3600     2.3740 
  216.0000    76.6760     5.9250     5.2140     5.9940    23.5480    -8.2030     2.3440 
  216.1250    80.1180     5.5530     4.8760     5.4960    23.8330    -7.9880     2.3260 
  216.2500    82.9350     5.2720     4.5910     5.1610    23.9640    -7.7330     2.3290 
  216.3750    84.4290     5.1230     4.4050     5.0410    24.0180    -7.4460     2.3430 
  216.5000    85.1010     5.1070     4.3320     5.0290    24.0320    -7.1660     2.3560 
  216.6250    85.2930     5.2070     4.3740     5.0930    24.0270    -6.9870     2.3730 
  216.7500    84.2250     5.3500     4.4770     5.1720    23.9780    -6.8850     2.4000 
  216.8750    81.9250     5.4760     4.5970     5.2840    23.9400    -6.8470     2.4350 
  217.0000    80.5750     5.5330     4.6910     5.4450    23.9480    -6.8540     2.4560 
  217.1250    83.2210     5.4810     4.7150     5.4720    23.9770    -6.8590     2.4440 
  217.2500    87.4170     5.3580     4.6720     5.3020    24.0040    -6.8910     2.4090 
  217.3750    91.3410     5.2120     4.5820     5.0630    24.0010    -6.9230     2.3710 
  217.5000    93.8940     5.0930     4.4740     4.9290    23.9560    -6.9640     2.3460 
  217.6250    95.4550     5.0360     4.3830     4.8890    23.8970    -6.9050     2.3380 
  217.7500    95.9650     5.0280     4.3250     4.8770    23.7770    -6.8050     2.3390 
  217.8750    94.6140     5.0480     4.3020     4.8990    23.5520    -6.6470     2.3430 
  218.0000    90.5630     5.0790     4.3060     4.9820    23.3580    -6.5310     2.3480 
  218.1250    84.7360     5.1110     4.3250     5.0730    23.3410    -6.4860     2.3490 
  218.2500    80.8280     5.1400     4.3440     5.1080    23.4160    -6.4240     2.3490 
  218.3750    80.7750     5.1550     4.3550     5.0930    23.4940    -6.2930     2.3490 
  218.5000    83.8430     5.1430     4.3550     5.0900    23.5510    -6.0670     2.3520 
  218.6250    88.2880     5.0900     4.3400     5.0600    23.4470    -5.7950     2.3560 
  218.7500    92.5170     5.0120     4.3150     4.9820    23.4800    -5.5450     2.3620 
  218.8750    95.4170     4.9310     4.2880     4.8720    23.6260    -5.3910     2.3740 
  219.0000    95.5400     4.8700     4.2690     4.8050    23.7700    -5.3040     2.3870 
  219.1250    92.1260     4.8510     4.2720     4.8160    23.8260    -5.2380     2.3950 
  219.2500    89.2800     4.8700     4.3020     4.8800    23.7000    -5.1940     2.3950 
  219.3750    89.0280     4.9180     4.3570     4.9740    23.6650    -5.2410     2.3910 
  219.5000    89.6700     4.9810     4.4270     5.0680    23.7620    -5.3890     2.3880 
  219.6250    89.7610     5.0380     4.4950     5.2060    23.9490    -5.5950     2.3840 
  219.7500    91.1130     5.0700     4.5470     5.3190    24.1500    -5.7980     2.3770 
  219.8750    93.0040     5.0670     4.5740     5.3730    24.3180    -5.9920     2.3680 
  220.0000    94.4800     5.0350     4.5730     5.3610    24.4370    -6.1460     2.3620 
  220.1250    95.3800     4.9900     4.5470     5.2880    24.4580    -6.2710     2.3600 
  220.2500    94.4010     4.9530     4.5090     5.1940    24.4520    -6.3840     2.3610 
  220.3750    90.8670     4.9270     4.4690     5.1010    24.4620    -6.4830     2.3650 
  220.5000    86.8310     4.9060     4.4360     5.0110    24.4750    -6.5550     2.3720 
  220.6250    86.4500     4.8860     4.4180     4.9780    24.4830    -6.6040     2.3840 
