~V
VERS. 2.00: Ver 2.00
~W
STRT.M 55.0000:
STOP.M 240.0000:
STEP.M 0.1250:
NULL. -999.2500:
UWI. F11138:
~C
DEPT.M :
SP.MV :
DEN.GM/CC :
GR.API :
RML.OHMM :
RI. :
RXO.OHMM :
CALI.CM :
~A
# ...
  111.2500   -23.0960     2.1230    74.0160     9.2190     7.8150    10.2960    20.9850 
  111.3750   -23.1800     2.0970    76.1310     9.2230     7.8080     9.8650    20.9540 
  111.5000   -23.3340     2.0690    76.2200     9.2730     7.8270     9.6490    20.9420 
  111.6250   -23.5580     2.0450    73.4500     9.3500     7.8710     9.6710    20.9610 
  111.7500   -23.8560     2.0350    70.1210     9.4250     7.9270     9.5730    20.9380 
  111.8750   -24.2350     2.0420    68.7280     9.4820     7.9860     9.5450    20.8650 
  112.0000   -24.6700     2.0590    70.7710     9.5180     8.0420     9.5610    20.8720 
  112.1250   -25.1070     2.0750    73.4780     9.5380     8.0860     9.5200    20.8010 
  112.2500   -25.5000     2.0900    73.8890     9.5610     8.1180     9.6440    20.6970 
  112.3750   -25.8070     2.1000    71.7090     9.6040     8.1410     9.8560    20.6400 
  112.5000   -25.9760     2.1050    68.4030     9.6800     8.1650    10.0270    20.6460 
  112.6250   -25.9730     2.1040    66.1960     9.7910     8.1980    10.1400    20.6750 
  112.7500   -25.8180     2.0970    65.3160     9.9120     8.2400    10.4220    20.7390 
  112.8750   -25.5250     2.0810    65.8200    10.0110     8.2810    10.7190    20.8150 
  113.0000   -25.1160     2.0530    67.3670    10.0570     8.3050    10.8940    20.9270 
  113.1250   -24.5860     2.0250    68.1750    10.0260     8.3000    11.1910    21.2010 
  113.2500   -23.9470     2.0200    66.7190     9.9680     8.2930    11.4630    21.4920 
  113.3750   -23.2120     2.0450    64.0220    10.0250     8.3430    11.5760    21.7170 
  113.5000   -22.4120     2.0970    63.8830    10.3190     8.5350    11.4950    21.7940 
  113.6250   -21.5590     2.1670    67.3430    11.1030     9.0110    11.7840    21.7780 
  113.7500   -20.6730     2.2360    71.4750    12.3440     9.7750    12.4660    21.7450 
  113.8750   -19.7400     2.2860    74.3070    13.7440    10.7570    13.4870    21.7360 
  114.0000   -18.7620     2.3010    74.3040    14.9350    11.7490    14.6370    21.8200 
  114.1250   -17.7950     2.2840    71.2180    15.4580    12.3360    16.0780    22.0270 
  114.2500   -16.8270     2.2690    69.8400    15.0520    12.2510    16.7810    22.1280 
  114.3750   -15.8510     2.2660    73.8220    13.7300    11.4240    16.5760    22.0320 
  114.5000   -14.9050     2.2650    82.0240    11.8480    10.0650    15.1110    21.8690 
  114.6250   -14.0590     2.2570    89.7560     9.9880     8.5970    12.0290    21.9640 
  114.7500   -13.3090     2.2540    95.6610     8.5610     7.3850     8.6940    22.2300 
  114.8750   -12.6590     2.2610   100.9730     7.6570     6.5400     7.0680    22.4570 
  115.0000   -12.0970     2.2730   106.0260     7.2010     6.0480     6.4580    22.5560 
  115.1250   -11.5830     2.2780   108.4530     7.0710     5.8640     6.2930    22.5790 
  115.2500   -11.1570     2.2790   107.8700     7.0540     5.8310     6.2160    22.5980 
  115.3750   -10.8600     2.2810   105.9330     7.0530     5.8640     6.1740    22.6360 
  115.5000   -10.6630     2.2860   105.9090     7.0240     5.9040     6.1650    22.6720 
  115.6250   -10.5060     2.2890   108.4540     6.9770     5.9230     6.1640    22.6590 
  115.7500   -10.3760     2.2830   111.4520     6.9510     5.9350     6.2070    22.6000 
  115.8750   -10.3010     2.2670   112.3180     6.9800     5.9640     6.3280    22.5730 
  116.0000   -10.3030     2.2420   109.9090     7.0920     6.0370     6.4600    22.5860 
  116.1250   -10.4230     2.2140   107.0920     7.3160     6.1810     6.4010    22.6210 
  116.2500   -10.6780     2.1920   105.0950     7.6160     6.3800     6.5410    22.5980 
  116.3750   -11.0610     2.1810   102.6380     7.9360     6.5920     6.9250    22.5320 
  116.5000   -11.5420     2.1790    99.8230     8.1900     6.7590     7.4750    22.3520 
  116.6250   -12.0740     2.1890    98.4430     8.2580     6.7990     7.9110    22.1280 
  116.7500   -12.5790     2.2080    99.4320     8.1420     6.7100     8.1720    21.8230 
  116.8750   -13.0020     2.2280   102.6070     7.9100     6.5360     8.0100    21.6930 
  117.0000   -13.3300     2.2390   107.6900     7.6970     6.3670     7.2840    21.7350 
  117.1250   -13.6140     2.2280   112.0210     7.7010     6.3380     6.9190    21.8880 
  117.2500   -13.9040     2.2060   111.7750     7.9930     6.5090     6.9350    22.0570 
  117.3750   -14.2120     2.1880   107.6920     8.5680     6.8950     7.3950    22.1440 
  117.5000   -14.5750     2.1780   101.6720     9.3450     7.4580     8.0890    21.9850 
  117.6250   -15.0330     2.1650    94.9070    10.1570     8.1030     9.0550    21.8640 
  117.7500   -15.5850     2.1430    88.8130    10.7940     8.6680     9.5580    21.8390 
  117.8750   -16.2430     2.1220    83.8860    11.1180     9.0350     9.5260    21.8520 
  118.0000   -16.9800     2.1140    81.6840    11.0850     9.1430     9.3840    21.7270 
  118.1250   -17.6940     2.1210    82.9530    10.7320     8.9860     9.4190    21.4450 
  118.2500   -18.2950     2.1300    85.7290    10.2760     8.7070     9.4980    21.1770 
  118.3750   -18.7960     2.1370    88.0070     9.8700     8.4160     9.3140    20.9870 
  118.5000   -19.2320     2.1410    88.1170     9.6100     8.1910     9.1260    20.8820 
  118.6250   -19.6090     2.1390    88.4170     9.5430     8.0850     9.1000    20.7880 
  118.7500   -19.9130     2.1350    90.7920     9.5910     8.0670     9.3160    20.6820 
  118.8750   -20.1380     2.1300    92.8960     9.6760     8.0960     9.5070    20.6120 
  119.0000   -20.2760     2.1270    91.3330     9.7180     8.1230     9.6330    20.5880 
  119.1250   -20.3140     2.1240    86.4890     9.6590     8.1030     9.7600    20.6180 
  119.2500   -20.2540     2.1200    83.3050     9.5480     8.0520     9.8760    20.7200 
  119.3750   -20.0760     2.1170    83.2060     9.4740     8.0220     9.9490    20.8560 
  119.5000   -19.7690     2.1210    84.2860     9.5480     8.0860     9.9760    20.9080 
  119.6250   -19.3210     2.1310    85.6180     9.8720     8.3320    10.0270    20.8610 
  119.7500   -18.7260     2.1450    84.9970    10.3560     8.7240    10.4150    20.8370 
  119.8750   -17.9520     2.1650    81.6070    10.8550     9.1850    11.2320    20.8450 
  120.0000   -17.0230     2.2000    78.2810    11.2350     9.6190    12.3940    20.8690 
  120.1250   -15.9580     2.2520    79.8740    11.4860     9.9930    13.8270    20.9160 
  120.2500   -14.8770     2.3120    83.8390    11.8610    10.4340    14.7860    20.9660 
  120.3750   -13.8020     2.3800    85.5250    12.7000    11.1650    13.6790    21.0720 
  120.5000   -12.7500     2.4550    84.3610    14.2900    12.4200    12.2880    21.2930 
  120.6250   -11.8090     2.5090    80.9820    16.7270    14.3800    13.7820    21.6500 
  120.7500   -11.0440     2.5150    74.5990    19.3100    16.6140    17.6780    21.8940 
  120.8750   -10.4810     2.4880    66.6750    21.1590    18.4650    20.6490    22.0520 
  121.0000   -10.1200     2.4620    61.8770    21.4160    19.1570    19.3240    22.1280 
  121.1250    -9.9730     2.4440    62.1200    19.4430    17.9030    18.8710    22.0600 
  121.2500    -9.9490     2.4180    64.6080    16.3660    15.4110    18.8100    21.9660 
  121.3750   -10.0160     2.3890    69.3780    13.4130    12.7330    15.5060    21.9470 
  121.5000   -10.1130     2.3750    76.7570    11.5620    10.7820    10.1260    21.9540 
  121.6250   -10.2040     2.3960    81.4890    11.6660    10.2330     8.3440    21.9550 
  121.7500   -10.2900     2.4410    79.8100    13.2790    11.1050     8.7040    22.0120 
  121.8750   -10.3730     2.5010    73.5560    16.7960    13.5720    10.5950    22.0710 
  122.0000   -10.4310     2.5620    66.7750    22.0650    17.6960    14.7570    22.0870 
  122.1250   -10.4350     2.5970    62.6370    28.5500    23.3030    20.1360    22.0600 
  122.2500   -10.3730     2.6040    59.9700    34.8200    29.1920    27.1360    22.0230 
  122.3750   -10.2510     2.5950    57.2810    39.6130    34.1490    32.5870    21.9950 
