~V
VERS. 2.00: Ver 2.00
~W
STRT.M 49.0000:
STOP.M 247.0000:
STEP.M 0.1250:
NULL. -999.2500:
UWI. F11144:
~C
DEPT.M :
DEN.GM/CC :
SP.MV :
GR.API :
RML.OHMM :
RI. :
RXO.OHMM :
CALI.CM :
~A
# ...
  116.5000     2.3440    -9.7090   121.6730     4.8380     4.3960     5.2290    24.0840 
  116.6250     2.3500    -9.7230   119.5860     4.8390     4.3860     5.1750    24.0730 
  116.7500     2.3600    -9.7210   113.8800     4.8520     4.3800     5.1630    24.0610 
  116.8750     2.3690    -9.7110   110.0170     4.8600     4.3670     5.1640    24.0340 
  117.0000     2.3710    -9.6730   109.2960     4.8470     4.3360     5.2010    24.0000 
  117.1250     2.3700    -9.5950   108.5170     4.7940     4.2790     5.2930    23.9690 
  117.2500     2.3690    -9.5280   105.5310     4.6750     4.1830     5.2520    23.9220 
  117.3750     2.3680    -9.4600   103.5790     4.5220     4.0610     5.2210    23.8520 
  117.5000     2.3680    -9.4020   104.3460     4.4210     3.9610     5.2230    23.7540 
  117.6250     2.3720    -9.3810   106.9780     4.5300     3.9790     5.2590    23.6720 
  117.7500     2.3820    -9.3750   109.1100     5.2030     4.3400     5.4740    23.6470 
  117.8750     2.3980    -9.3810   107.9260     6.6530     5.2180     6.2840    23.6270 
  118.0000     2.4210    -9.4330   100.6310     9.0340     6.8040     8.3840    23.6250 
  118.1250     2.4450    -9.5760    89.2940    12.2190     9.1840    12.9340    23.6360 
  118.2500     2.4530    -9.7460    80.6770    15.2710    11.9610    19.0150    23.6060 
  118.3750     2.4410    -9.9520    76.8440    16.4960    13.7050    20.9620    23.4610 
  118.5000     2.4160   -10.2080    75.9670    15.0180    13.3000    17.0740    23.2560 
  118.6250     2.3830   -10.4250    76.9050    11.8760    11.2060    11.7030    23.1120 
  118.7500     2.3560   -10.6550    79.4170     9.2100     9.0160     8.4370    23.0510 
  118.8750     2.3500   -10.9100    80.3830     7.9510     7.6710     7.4710    23.0270 
  119.0000     2.3640   -11.1240    77.7710     8.2290     7.3740     7.8100    23.0100 
  119.1250     2.3880   -11.3160    72.8280    10.1570     8.2650     8.9610    23.0500 
  119.2500     2.4130   -11.4990    68.3400    14.4410    11.0420    11.3640    23.0220 
  119.3750     2.4460   -11.6790    64.0410    21.1330    16.0850    14.9890    22.8240 
  119.5000     2.4780   -11.8550    59.3540    29.9230    23.6130    19.2210    22.4510 
  119.6250     2.4900   -12.0610    54.3260    38.7480    32.3340    23.1040    22.1330 
  119.7500     2.4710   -12.2470    49.7590    41.7490    37.2700    27.4590    21.9590 
  119.8750     2.4470   -12.3870    46.7070    37.1420    35.4430    26.0130    21.8250 
  120.0000     2.4330   -12.5090    47.0780    28.8410    29.1120    24.5410    21.6920 
  120.1250     2.4270   -12.5610    50.6940    21.7830    22.5880    23.3690    21.6260 
  120.2500     2.4220   -12.5990    54.5840    18.6280    18.7320    16.6580    21.6180 
  120.3750     2.4190   -12.5730    56.8350    18.8280    17.5460    12.4830    21.6210 
  120.5000     2.4290   -12.4740    56.8650    22.1470    19.0040    14.4510    21.5840 
  120.6250     2.4580   -12.3350    54.5030    28.3980    23.2100    22.8100    21.4970 
  120.7500     2.4960   -12.1490    48.4790    39.1700    30.2550    33.6220    21.5160 
  120.8750     2.5270   -11.9510    42.2990    47.3070    37.8010    38.3070    21.7430 
  121.0000     2.5410   -11.7480    40.0350    51.0570    42.8910    36.3610    22.2680 
  121.1250     2.5380   -11.5170    41.6930    49.7640    43.9940    31.7000    22.9970 
  121.2500     2.5260   -11.2620    44.7920    46.1880    42.2220    28.5370    23.5200 
  121.3750     2.5230   -11.0380    45.5660    43.1760    40.0810    26.8860    23.7680 
  121.5000     2.5370   -10.8410    44.9210    40.9870    38.2070    27.9350    23.8920 
  121.6250     2.5600   -10.6870    45.2180    39.1360    36.4890    30.4350    23.9760 
  121.7500     2.5750   -10.6190    47.4850    37.1600    34.6620    32.0660    24.0190 
  121.8750     2.5760   -10.5900    50.2310    35.0390    32.7170    34.2600    24.0390 
  122.0000     2.5680   -10.6020    50.2480    32.9340    30.7750    31.4140    24.0170 
  122.1250     2.5570   -10.6690    48.3380    30.9730    28.9480    26.7750    23.9800 
  122.2500     2.5540   -10.7790    46.7410    29.1880    27.2980    24.6060    23.9500 
  122.3750     2.5560   -10.9040    46.2060    27.5050    25.7780    20.9820    23.9610 
  122.5000     2.5540   -11.0560    44.9850    25.9390    24.3820    18.7260    23.9730 
  122.6250     2.5410   -11.2300    42.3730    24.5790    23.1520    17.5730    23.9720 
  122.7500     2.5200   -11.3600    42.8350    23.5990    22.2120    17.3030    23.9860 
  122.8750     2.4980   -11.4930    47.0870    22.9980    21.5800    17.4120    24.0620 
  123.0000     2.4730   -11.6030    51.3860    22.7490    21.2640    17.3820    24.1120 
  123.1250     2.4450   -11.6940    51.8340    22.7970    21.2320    16.6720    24.1230 
  123.2500     2.4250   -11.7920    49.0840    23.1250    21.4730    16.5920    24.0820 
  123.3750     2.4230   -11.8470    47.1790    23.6410    21.9040    17.0580    24.0280 
  123.5000     2.4360   -11.8970    45.9350    24.2570    22.4690    17.8510    24.0450 
  123.6250     2.4510   -11.9020    45.6060    24.8230    23.0630    18.7140    24.0870 
  123.7500     2.4510   -11.8700    48.6820    25.1160    23.4780    18.7360    24.1030 
  123.8750     2.4350   -11.8500    54.5810    25.1000    23.6080    18.3120    24.1400 
  124.0000     2.4150   -11.7890    58.9400    24.8800    23.4880    18.0220    24.1110 
  124.1250     2.4030   -11.7130    58.2640    24.6480    23.2720    17.8840    24.0610 
  124.2500     2.4060   -11.6330    54.5850    24.5890    23.1570    17.8450    24.0800 
  124.3750     2.4170   -11.5360    52.9830    24.6690    23.1820    17.8500    24.1210 
  124.5000     2.4350   -11.4290    53.2930    24.7300    23.2470    18.2270    24.1240 
  124.6250     2.4640   -11.3710    52.1610    24.5650    23.1850    19.5950    24.0950 
  124.7500     2.4990   -11.3750    48.7420    24.0040    22.8250    19.7520    24.1350 
  124.8750     2.5200   -11.3800    47.1630    23.1930    22.2350    18.0920    24.1800 
  125.0000     2.5130   -11.4580    48.5300    22.3110    21.5360    16.7230    24.2100 
  125.1250     2.4890   -11.6090    50.1880    21.5130    20.8430    16.7250    24.1920 
  125.2500     2.4680   -11.8010    49.5110    20.9050    20.2560    16.8300    24.0960 
  125.3750     2.4560   -12.0850    50.3050    20.4610    19.8030    17.1320    23.9920 
  125.5000     2.4490   -12.4050    53.2580    20.1750    19.5030    16.9060    23.9410 
  125.6250     2.4430   -12.7380    55.5670    20.0760    19.3850    16.0030    23.9450 
  125.7500     2.4310   -13.0970    55.3440    20.2490    19.5240    15.4300    23.9490 
  125.8750     2.4190   -13.4980    53.4000    20.6370    19.8830    15.7010    23.7630 
  126.0000     2.4200   -13.8850    49.9710    21.1410    20.3840    16.2010    23.2030 
  126.1250     2.4410   -14.2210    46.3830    21.6380    20.9090    16.2160    22.3460 
  126.2500     2.4700   -14.5400    46.2360    22.0100    21.3320    16.1910    21.8190 
  126.3750     2.4900   -14.8100    49.2850    22.2280    21.6090    16.2360    21.5990 
  126.5000     2.4930   -15.0710    51.7850    22.2500    21.7010    16.0140    21.5110 
  126.6250     2.4860   -15.2830    53.2830    22.0200    21.5580    15.8510    21.4230 
  126.7500     2.4750   -15.4110    57.9350    21.4620    21.1090    15.8710    21.3070 
  126.8750     2.4650   -15.5150    64.4240    20.7110    20.4570    15.9650    21.2150 
  127.0000     2.4610   -15.5780    66.3950    19.9530    19.7530    15.1900    21.2350 
  127.1250     2.4670   -15.6430    60.5230    19.3860    19.1840    14.2670    21.3620 
  127.2500     2.4890   -15.6720    53.4330    19.1530    18.9050    14.5790    21.4080 
  127.3750     2.5180   -15.6650    51.5650    19.1100    18.8310    15.3930    21.4160 
  127.5000     2.5390   -15.6430    52.1140    19.0630    18.8080    16.0170    21.4500 
  127.6250     2.5390   -15.5760    51.6650    18.8240    18.6580    15.8140    21.5600 
