~V
VERS. 2.00: Ver 2.00
~W
STRT.M 52.0000:
STOP.M 239.0000:
STEP.M 0.1250:
NULL. -999.2500:
UWI. F11118:
~C
DEPT.M :
DEN.GM/CC :
GR.API :
RML.OHMM :
RI. :
RXO.OHMM :
CALI.CM :
SP.MV :
~A
# ...
  220.7500     2.2810    70.3590     8.0070     6.8440     7.6760    25.0850   -11.8860 
  220.8750     2.2770    75.2580     7.7700     6.6410     7.6760    25.0820   -11.7550 
  221.0000     2.2800    76.8300     7.5200     6.4270     6.8730    24.9330   -11.6120 
  221.1250     2.2880    74.8360     7.3220     6.2580     6.2030    24.5920   -11.4480 
  221.2500     2.2970    70.9520     7.1950     6.1500     6.1000    24.5140   -11.2500 
  221.3750     2.3010    66.6910     7.1350     6.0980     6.3030    24.5180   -11.0500 
  221.5000     2.3010    65.3540     7.1270     6.0920     6.4060    24.5260   -10.8840 
  221.6250     2.3000    68.5140     7.1740     6.1320     5.9090    24.5440   -10.7690 
  221.7500     2.3020    70.8540     7.2790     6.2210     5.5460    24.5570   -10.7010 
  221.8750     2.3060    69.4890     7.4490     6.3670     5.6170    24.5350   -10.6590 
  222.0000     2.3140    67.4470     7.6670     6.5530     6.3310    24.5670   -10.6070 
  222.1250     2.3210    69.0820     7.8920     6.7460     7.1270    24.6170   -10.5440 
  222.2500     2.3270    71.7540     8.0760     6.9020     7.5340    24.6650   -10.5400 
  222.3750     2.3310    73.6620     8.1910     7.0010     7.7010    24.6850   -10.6510 
  222.5000     2.3350    74.5760     8.2420     7.0450     8.0910    24.6580   -10.8680 
  222.6250     2.3390    72.5130     8.2390     7.0420     7.3570    24.5210   -11.2340 
  222.7500     2.3460    68.5000     8.2070     7.0150     6.9650    24.4910   -11.7710 
  222.8750     2.3540    65.6590     8.1640     6.9780     6.8490    24.5130   -12.3930 
  223.0000     2.3640    65.2500     8.1340     6.9520     6.7420    24.5080   -12.9180 
  223.1250     2.3730    64.3880     8.1520     6.9680     6.7940    24.4450   -13.1910 
  223.2500     2.3800    61.8120     8.2080     7.0150     6.9470    24.4360   -13.3050 
  223.3750     2.3840    59.1710     8.2590     7.0590     7.1510    24.4330   -13.3290 
  223.5000     2.3840    58.8860     8.2830     7.0790     7.3690    24.4200   -13.2660 
  223.6250     2.3780    60.9690     8.2900     7.0850     7.6190    24.3660   -13.1420 
  223.7500     2.3660    62.1370     8.3130     7.1050     8.0280    24.3420   -13.0400 
  223.8750     2.3490    62.0250     8.3510     7.1380     8.6130    24.5410   -12.9990 
  224.0000     2.3310    61.6080     8.3690     7.1530     9.1700    24.7380   -12.9970 
  224.1250     2.3150    62.3230     8.3230     7.1140     8.9410    24.6330   -12.9960 
  224.2500     2.3060    64.1040     8.2310     7.0350     7.9730    24.4480   -13.0450 
  224.3750     2.3040    64.7350     8.1330     6.9510     7.1140    24.2560   -13.1850 
  224.5000     2.3090    63.4910     8.0640     6.8930     6.5570    24.1840   -13.3650 
  224.6250     2.3200    62.0380     8.0340     6.8660     6.2700    24.2730   -13.5340 
  224.7500     2.3330    63.5380     8.0240     6.8580     6.1920    24.0470   -13.7080 
  224.8750     2.3460    66.5650     8.0470     6.8780     6.2870    23.7940   -13.8810 
  225.0000     2.3580    67.9510     8.1070     6.9290     6.3930    23.9930   -13.9900 
  225.1250     2.3700    67.7430     8.1950     7.0040     6.4910    24.0770   -14.0300 
  225.2500     2.3810    67.2860     8.2780     7.0750     6.6000    23.8770   -14.0810 
  225.3750     2.3860    67.4540     8.3480     7.1350     6.7170    23.7640   -14.1500 
  225.5000     2.3840    67.6590     8.4190     7.1950     6.9330    23.9480   -14.2230 
  225.6250     2.3720    66.0710     8.4960     7.2610     7.3690    24.1610   -14.3140 
  225.7500     2.3590    64.5050     8.5540     7.3110     8.0550    24.2600   -14.4080 
  225.8750     2.3550    65.0010     8.5700     7.3250     8.7720    24.3680   -14.4850 
  226.0000     2.3610    67.3090     8.5530     7.3110     9.2740    24.5280   -14.5730 
  226.1250     2.3790    69.2190     8.5360     7.2960     9.4950    24.6260   -14.6900 
  226.2500     2.3960    69.3860     8.5350     7.2950     9.9080    24.6830   -14.7990 
  226.3750     2.4040    66.3430     8.5530     7.3100    10.4360    24.7630   -14.8790 
  226.5000     2.4000    61.9690     8.5750     7.3290    11.0100    24.9540   -14.9400 
  226.6250     2.3890    60.2450     8.5880     7.3400    10.2950    25.0320   -15.0150 
  226.7500     2.3780    62.0810     8.6000     7.3510     9.5160    25.0800   -15.1200 
  226.8750     2.3710    64.8740     8.6220     7.3690     8.6070    25.0760   -15.2350 
  227.0000     2.3670    66.3570     8.6460     7.3900     8.3310    25.1080   -15.3330 
  227.1250     2.3610    66.3320     8.6810     7.4190     8.2820    25.0770   -15.4320 
  227.2500     2.3530    65.9760     8.7680     7.4940     8.5500    25.1590   -15.5470 
  227.3750     2.3470    66.0580     8.9200     7.6240     8.6760    25.1780   -15.6490 
  227.5000     2.3460    66.1610     9.0920     7.7710     8.5750    25.1380   -15.7250 
  227.6250     2.3520    64.7400     9.2050     7.8680     8.7830    25.1290   -15.8110 
  227.7500     2.3600    62.9060     9.2260     7.8860     9.0540    25.1300   -15.9130 
  227.8750     2.3680    62.3640     9.1740     7.8410     8.8920    25.1480   -16.0300 
  228.0000     2.3740    63.7050     9.1080     7.7840     8.5570    25.2250   -16.1810 
  228.1250     2.3760    64.6570     9.0850     7.7650     8.9440    25.3470   -16.3510 
  228.2500     2.3720    64.3000     9.0980     7.7760    10.2430    25.4750   -16.4970 
  228.3750     2.3590    64.4630     9.1280     7.8020    12.2700    25.5840   -16.5950 
  228.5000     2.3400    64.7620     9.1770     7.8440    14.1260    25.6380   -16.6630 
  228.6250     2.3200    63.7500     9.2710     7.9240    12.9450    25.7030   -16.7640 
  228.7500     2.3050    63.7500     9.3860     8.0220    10.8460    25.7850   -16.9150 
  228.8750     2.2960    63.7500     9.4700     8.0940     9.3230    25.7550   -17.0800 
  229.0000     2.2940    63.7500     9.4930     8.1140     8.8290    25.6560   -17.2120 
  229.1250     2.2980    63.7500     9.4860     8.1080     8.6980    25.6250   -17.3140 
  229.2500     2.3080    63.7500     9.5360     8.1510     8.0960    25.5340   -17.4170 
  229.3750     2.3190    63.7500     9.6740     8.2680     7.4990    25.3690   -17.5240 
  229.5000     2.3230    63.7500     9.8390     8.4090     7.3180    25.0260   -17.6140 
  229.6250     2.3160    63.7500     9.8860     8.4490     7.3080    24.8410   -17.6590 
  229.7500     2.3050    63.7500     9.7540     8.3370     7.0810    25.1100   -17.6690 
  229.8750     2.3030    63.7500     9.4990     8.1190     6.8150    25.1230   -17.6660 
  230.0000     2.3190    63.7500     9.2520     7.9070     6.6940    25.0060   -17.6690 
  230.1250     2.3530    63.7500     9.1570     7.8270     6.8670    24.8750   -17.6660 
  230.2500     2.3890    63.7500     9.2250     7.8840     7.4760    24.8230   -17.6340 
  230.3750     2.4130    63.7500     9.4110     8.0430     8.3130    24.8130   -17.5610 
  230.5000     2.4190    63.7500     9.6500     8.2480     9.1560    24.8260   -17.4640 
  230.6250     2.4100    63.7500     9.8580     8.4260     9.8720    24.7860   -17.3510 
  230.7500     2.3960    63.7500     9.9620     8.5150    10.7130    24.7990   -17.1130 
  230.8750     2.3850    63.7500     9.9190     8.4780    11.4620    24.8410   -16.9350 
  231.0000     2.3750    63.7500     9.7350     8.3210    11.4350    24.8510   -16.8970 
  231.1250     2.3650    63.7500     9.4840     8.1060    10.1500    24.8170   -16.8750 
  231.2500     2.3500    63.7500     9.2790     7.9300     9.1450    24.8260   -16.9050 
  231.3750     2.3310    63.7500     9.1730     7.8410     9.0190    24.8650   -16.9800 
  231.5000     2.3080    63.7500     9.1620     7.8310     9.0220    24.8800   -17.0680 
  231.6250     2.2890    63.7500     9.2110     7.8730     8.7890    24.9100   -17.1680 
  231.7500     2.2840    63.7500     9.2720     7.9250     8.6720    24.9270   -17.3240 
  231.8750     2.2980    63.7500     9.3220     7.9680     8.8350    24.8360   -17.7650 
