~V
VERS. 2.00: Ver 2.00
~W
STRT.M 50.0000:
STOP.M 201.0000:
STEP.M 0.1250:
NULL. -999.2500:
UWI. F11102:
~C
DEPT.M :
GR.API :
RML.OHMM :
RI. :
RXO.OHMM :
CALI.CM :
SP.MV :
DEN.GM/CC :
~A
# ...
  117.5000    66.8590     8.3000     8.1900     8.7450    26.5630    -2.8190     2.3470 
  117.6250    73.7470     6.5440     6.5110     6.9760    26.4670    -2.9730     2.3080 
  117.7500    70.7560     5.6250     5.4560     6.2500    26.4020    -3.1550     2.2910 
  117.8750    65.0650     5.4480     5.0090     5.8550    26.4980    -3.3280     2.2970 
  118.0000    64.6410     5.9500     5.1430     5.6740    26.5810    -3.4860     2.3230 
  118.1250    66.8780     7.2180     5.9480     6.4000    26.6060    -3.5950     2.3620 
  118.2500    64.5060     9.0150     7.2860     9.3620    26.6440    -3.6670     2.4070 
  118.3750    58.2860    10.9820     8.9630    15.6860    26.6690    -3.6980     2.4490 
  118.5000    53.0140    12.5140    10.5320    21.9290    26.6740    -3.6770     2.4770 
  118.6250    51.4070    12.8850    11.2760    20.9060    26.6670    -3.6100     2.4840 
  118.7500    51.9180    12.4470    11.2250    15.2610    26.6330    -3.5400     2.4780 
  118.8750    53.5820    11.9330    10.8660    11.1900    26.5830    -3.4710     2.4700 
  119.0000    55.2600    12.0220    10.7730     9.8450    26.6560    -3.3980     2.4700 
  119.1250    53.3820    13.1730    11.4240    12.7880    26.6690    -3.3190     2.4830 
  119.2500    48.6060    15.1010    12.7680    18.5740    26.6740    -3.2550     2.5000 
  119.3750    44.4760    17.3830    14.5780    23.6470    26.6740    -3.2100     2.5130 
  119.5000    44.4090    19.4270    16.4050    24.2160    26.6700    -3.1860     2.5190 
  119.6250    47.7210    20.5870    17.6270    22.0990    26.6480    -3.1650     2.5190 
  119.7500    50.2380    20.9970    18.1810    20.8970    26.6060    -3.1530     2.5210 
  119.8750    51.2670    21.0450    18.3190    20.8620    26.7360    -3.1640     2.5260 
  120.0000    50.5940    21.0840    18.3550    21.4890    26.7910    -3.2000     2.5320 
  120.1250    48.3270    21.2280    18.4490    22.2670    26.7840    -3.2510     2.5350 
  120.2500    47.2030    21.3300    18.5370    23.3920    26.7600    -3.3140     2.5310 
  120.3750    48.4950    21.2640    18.5180    25.0430    26.7540    -3.3770     2.5230 
  120.5000    51.2620    20.9930    18.3420    24.3870    26.7450    -3.4340     2.5120 
  120.6250    52.4960    20.5700    18.0240    22.5040    26.7180    -3.4970     2.5030 
  120.7500    51.1960    20.1610    17.6880    21.0130    26.7060    -3.5570     2.4960 
  120.8750    47.3680    19.8940    17.4420    20.1220    26.7400    -3.6120     2.4910 
  121.0000    42.7470    19.8530    17.3710    19.7020    26.7300    -3.6730     2.4880 
  121.1250    41.3690    20.0890    17.5450    19.6000    26.6790    -3.7500     2.4880 
  121.2500    43.1950    20.5020    17.8970    19.7580    26.6690    -3.8240     2.4910 
  121.3750    46.6420    21.0040    18.3600    20.5280    26.7350    -3.8980     2.4980 
  121.5000    50.0890    21.4870    18.8430    21.2370    26.7630    -3.9740     2.5050 
  121.6250    51.1370    21.8000    19.2170    21.7260    26.7960    -4.0510     2.5110 
  121.7500    50.8190    21.8560    19.3890    21.1850    26.9080    -4.1220     2.5130 
  121.8750    50.6050    21.6150    19.3050    21.0480    26.8640    -4.1830     2.5100 
  122.0000    50.6120    21.1280    18.9800    22.3370    26.8180    -4.2260     2.5020 
  122.1250    49.6130    20.5390    18.5070    21.4720    26.9380    -4.2210     2.4930 
  122.2500    49.3810    20.0430    18.0560    20.0350    26.9700    -4.1720     2.4870 
  122.3750    50.0410    19.7300    17.7220    18.4430    27.0160    -4.0970     2.4890 
  122.5000    49.4120    19.6030    17.5350    17.5700    27.1590    -4.0150     2.4980 
  122.6250    47.1360    19.5890    17.4710    18.5660    27.1380    -3.9340     2.5120 
  122.7500    48.0010    19.5570    17.4330    20.1790    27.2090    -3.8630     2.5230 
  122.8750    52.0510    19.4340    17.3510    20.6300    27.2420    -3.8010     2.5280 
  123.0000    54.5860    19.2020    17.1860    19.4640    27.2760    -3.7540     2.5250 
  123.1250    51.9050    18.9270    16.9590    17.8600    27.2200    -3.7670     2.5180 
  123.2500    48.2480    18.7560    16.7800    18.1380    27.2540    -3.8340     2.5090 
  123.3750    47.5660    18.8150    16.7600    18.5730    27.3400    -3.9340     2.5010 
  123.5000    49.2800    19.1630    16.9760    17.7890    27.3080    -4.0550     2.4920 
  123.6250    50.1160    19.7740    17.4500    17.5660    27.2750    -4.1760     2.4850 
  123.7500    49.5890    20.4430    18.0270    18.4610    27.2160    -4.2810     2.4810 
  123.8750    47.9460    20.9880    18.5550    20.7900    27.1630    -4.3780     2.4790 
  124.0000    46.1540    21.2560    18.8900    24.1790    27.2120    -4.4720     2.4780 
  124.1250    44.9380    21.1360    18.9030    24.6090    27.2680    -4.5700     2.4710 
  124.2500    45.8200    20.7910    18.6900    21.7530    27.3700    -4.6460     2.4600 
  124.3750    48.4250    20.3850    18.3750    19.7990    27.4950    -4.7000     2.4470 
  124.5000    51.1540    20.0570    18.0810    19.7090    27.5690    -4.7300     2.4370 
  124.6250    52.7890    19.8910    17.8940    20.5110    27.4650    -4.7450     2.4360 
  124.7500    53.4360    19.8500    17.8020    21.5040    27.3650    -4.7550     2.4440 
  124.8750    52.6100    19.8990    17.7790    22.1580    27.3960    -4.7600     2.4590 
  125.0000    50.0820    20.0430    17.8190    21.3840    27.5130    -4.7560     2.4800 
  125.1250    49.2630    20.3460    17.9780    21.0370    27.7220    -4.7110     2.5050 
  125.2500    51.1250    20.8000    18.2730    21.0780    27.8410    -4.6620     2.5290 
  125.3750    52.9650    21.3430    18.6920    21.2650    27.9320    -4.6180     2.5480 
  125.5000    51.6510    21.8640    19.1710    21.3810    28.1250    -4.5930     2.5600 
  125.6250    48.0440    22.1770    19.5800    22.2480    28.3390    -4.5900     2.5640 
  125.7500    46.1030    22.1980    19.8110    24.9530    28.4580    -4.6030     2.5630 
  125.8750    47.3550    21.9050    19.8090    27.4730    28.4660    -4.6340     2.5620 
  126.0000    49.9400    21.3490    19.5800    27.1890    28.3960    -4.6990     2.5590 
  126.1250    50.1640    20.6350    19.1610    27.3980    28.5080    -4.8090     2.5540 
  126.2500    47.8030    19.9560    18.6930    26.0020    28.6910    -4.9280     2.5470 
  126.3750    44.9550    19.4360    18.2840    23.6570    28.7330    -5.0570     2.5370 
  126.5000    43.2080    19.0870    17.9860    21.7290    28.6670    -5.1820     2.5270 
  126.6250    44.3860    18.6710    17.6710    20.1450    28.7910    -5.2930     2.5160 
  126.7500    47.1680    17.7580    16.9900    19.1330    28.8840    -5.4030     2.5040 
  126.8750    49.2210    16.0200    15.6090    19.1090    28.8730    -5.4810     2.4880 
  127.0000    50.4830    13.4940    13.4870    19.1910    28.9990    -5.5080     2.4660 
  127.1250    54.9420    10.7340    11.0290    16.2130    29.4000    -5.4790     2.4370 
  127.2500    63.6070     8.4590     8.8740    10.7630    29.2290    -5.4420     2.4050 
  127.3750    72.3980     6.9820     7.3320     6.9880    28.8640    -5.3860     2.3730 
  127.5000    77.0470     6.3620     6.5090     5.7740    28.6360    -5.3080     2.3490 
  127.6250    74.8340     6.6900     6.5340     6.3110    28.6940    -5.2020     2.3390 
  127.7500    69.5210     7.7680     7.2750     8.0480    28.6940    -5.0830     2.3450 
  127.8750    63.0160     9.4330     8.6640    11.0370    28.7550    -4.9510     2.3640 
  128.0000    54.8040    11.2500    10.4130    14.4190    28.8160    -4.8160     2.3940 
  128.1250    47.8960    12.2140    11.6560    17.9490    28.7960    -4.6570     2.4230 
  128.2500    48.2800    11.7340    11.6160    19.4660    28.7510    -4.4750     2.4420 
  128.3750    58.6430    10.0800    10.3340    17.5550    28.6920    -4.2970     2.4450 
  128.5000    72.0640     8.1810     8.5860    12.6180    28.7490    -4.1090     2.4340 
  128.6250    79.2260     6.9750     7.2500     8.0670    28.8630    -3.9450     2.4210 
