~V
VERS. 2.00: Ver 2.00
~W
STRT.M 63.0000:
STOP.M 246.0000:
STEP.M 0.1250:
NULL. -999.2500:
UWI. F11137:
~C
DEPT.M :
DEN.GM/CC :
GR.API :
RML.OHMM :
RI. :
RXO.OHMM :
CALI.CM :
SP.MV :
~A
# ...
  186.7500     2.2490    70.7560   167.5690   155.6540   139.2600    26.2850   -14.6240 
  186.8750     2.2470    71.6030   163.4770   153.3530   137.7300    26.2770   -14.9290 
  187.0000     2.2460    69.7730   155.3580   146.7650   132.9870    26.1960   -15.1980 
  187.1250     2.2490    67.2700   144.4020   136.3830   124.5390    26.1260   -15.1830 
  187.2500     2.2550    67.6290   133.5570   125.0460   113.6610    26.0950   -14.9230 
  187.3750     2.2650    70.1530   125.3240   115.2990   100.9830    26.0920   -14.5860 
  187.5000     2.2780    71.8360   121.8730   109.4960    85.3140    26.1190   -14.3250 
  187.6250     2.2900    70.5230   125.8380   110.6930    73.2000    26.1950   -14.1540 
  187.7500     2.2970    68.4880   136.4980   118.8400    89.2910    26.2770   -14.0350 
  187.8750     2.2950    66.1580   152.6700   133.3670   113.8190    26.3240   -13.9800 
  188.0000     2.2850    63.3700   171.4030   152.0040   160.8040    26.3300   -14.0080 
  188.1250     2.2710    62.8250   186.9820   169.4350   184.2010    26.3110   -14.1020 
  188.2500     2.2600    64.9800   195.0310   179.8650   173.3490    26.2970   -14.1850 
  188.3750     2.2560    68.4100   194.4350   180.9690   144.6670    26.3190   -14.1940 
  188.5000     2.2570    71.0230   187.6080   174.8740   133.3290    26.3710   -14.2210 
  188.6250     2.2620    71.5700   179.0230   166.3410   129.1670    26.4910   -14.3970 
  188.7500     2.2680    70.3860   172.4340   159.5300   130.6940    26.6530   -14.7650 
  188.8750     2.2720    68.7110   168.7440   155.6270   127.7270    26.6650   -15.1550 
  189.0000     2.2760    67.5220   167.4680   154.3330   110.9400    26.2210   -15.4670 
  189.1250     2.2780    66.4030   167.6660   154.7440    78.4520    25.2940   -15.6760 
  189.2500     2.2780    64.7450   168.1290   155.6100    67.9990    24.7070   -15.9760 
  189.3750     2.2770    64.5230   168.3170   156.4480    84.0810    25.0670   -16.3870 
  189.5000     2.2740    66.3720   167.8780   156.9420   119.1920    26.0260   -16.7300 
  189.6250     2.2700    67.3110   166.3680   156.5770   143.9520    26.7270   -16.9040 
  189.7500     2.2660    67.0180   163.8080   155.1680   151.2310    26.9210   -16.9220 
  189.8750     2.2640    66.8640   160.3130   152.7080   148.9810    26.8490   -16.7990 
  190.0000     2.2650    67.7350   156.2220   149.4300   145.8580    26.6780   -16.6630 
  190.1250     2.2690    69.3030   152.0750   145.7500   143.9040    26.5130   -16.6280 
  190.2500     2.2730    70.4550   148.4240   142.3020   138.7200    26.3950   -16.5830 
  190.3750     2.2750    70.4760   145.6330   139.5140   130.7960    26.3310   -16.4340 
  190.5000     2.2750    69.3870   143.9550   137.6680   126.4720    26.2880   -16.2170 
  190.6250     2.2740    67.9380   143.8470   137.2030   122.4530    26.2630   -15.9620 
  190.7500     2.2740    66.7800   145.3320   138.1650   122.0690    26.2340   -15.6070 
  190.8750     2.2740    65.3270   148.6180   140.7880   121.8890    26.1700   -15.3570 
  191.0000     2.2750    63.4720   153.7720   145.2920   126.3100    26.0250   -15.2590 
  191.1250     2.2750    62.1810   160.6860   151.8980   133.4520    25.7720   -15.2930 
  191.2500     2.2730    61.8950   168.1640   159.5550   148.6250    25.5270   -15.3570 
  191.3750     2.2680    62.7990   175.0110   167.0360   161.0800    25.3250   -15.4530 
  191.5000     2.2610    65.3720   180.0960   173.0150   169.2970    25.1770   -15.5700 
  191.6250     2.2570    67.2970   182.4220   176.1290   157.0890    25.1170   -15.7560 
  191.7500     2.2570    66.0190   182.7640   176.8810   142.3750    25.1430   -16.0310 
  191.8750     2.2540    64.3800   182.1160   176.2770   128.5420    25.1770   -16.3520 
  192.0000     2.2420    65.2830   181.5310   175.6270   121.9900    25.1540   -16.5770 
  192.1250     2.2150    65.5170   181.6770   175.9950   114.7180    24.9860   -16.7410 
  192.2500     2.1840    62.9610   182.0970   177.0990   115.3340    24.7480   -16.9130 
  192.3750     2.1660    61.3260   181.9190   178.0600   130.1030    24.5940   -17.1040 
  192.5000     2.1690    61.3360   180.2800   177.8100   155.0570    24.5690   -17.2730 
  192.6250     2.1950    59.3810   176.5610   175.3620   167.0950    24.6150   -17.5280 
  192.7500     2.2250    58.1480   171.6070   171.3990   163.2530    24.6500   -17.7640 
  192.8750     2.2500    60.0670   166.3380   166.9430   145.9660    24.5540   -17.8820 
  193.0000     2.2670    63.1350   161.4990   162.9390   130.3290    24.2500   -17.9630 
  193.1250     2.2780    64.5820   157.2380   159.6930   125.0370    23.9820   -17.9190 
  193.2500     2.2880    64.7120   152.7280   156.2930   125.0170    23.9900   -17.8590 
  193.3750     2.2930    64.4050   147.0880   151.5900   132.1100    24.2760   -17.8820 
  193.5000     2.2930    63.0400   139.8830   144.7760   140.8040    24.6990   -18.0300 
  193.6250     2.2900    62.7150   131.5880   135.9360   130.7740    25.0220   -17.9810 
  193.7500     2.2900    65.0620   123.9900   127.0390   114.5010    25.0610   -17.8380 
  193.8750     2.2940    67.7280   118.8400   120.0220   101.2920    24.8990   -17.5620 
  194.0000     2.3010    67.0880   117.7510   116.7040    96.8470    24.7440   -17.2000 
  194.1250     2.3020    63.2890   123.1890   119.8790    95.2550    24.8920   -16.8730 
  194.2500     2.2910    61.6800   135.4340   130.3680    97.5140    25.1370   -16.6020 
  194.3750     2.2670    62.2430   154.7360   149.0550   108.8760    25.2900   -16.2890 
  194.5000     2.2380    61.6880   179.3360   174.6310   133.4100    25.3170   -15.7900 
  194.6250     2.2160    59.7180   203.3000   200.7860   194.4430    25.3380   -15.3120 
  194.7500     2.2070    58.0500   219.2860   217.8250   281.6760    25.3390   -14.9540 
  194.8750     2.2130    57.7780   224.4170   221.0100   304.5280    25.3450   -14.6460 
  195.0000     2.2220    59.0680   222.2380   214.1070   217.6730    25.3190   -14.2760 
  195.1250     2.2120    61.6530   222.9050   209.3680   147.5710    25.2100   -13.8340 
  195.2500     2.1760    61.5950   235.7100   217.9750   125.3710    25.0760   -13.3390 
  195.3750     2.1330    57.2750   265.3830   245.0150   187.0260    24.9690   -12.7990 
  195.5000     2.1210    52.5810   310.4090   289.5450   324.0870    24.8320   -12.2740 
  195.6250     2.1900    51.8920   356.7720   339.5310   454.7860    24.6660   -11.7330 
  195.7500     2.3220    52.8140   381.9270   369.0740   477.9070    24.5230   -11.1360 
  195.8750     2.4750    51.9220   374.0270   361.6650   414.8370    24.4480   -10.6630 
  196.0000     2.5960    50.7280   338.4000   324.0110   301.4830    24.4820   -10.3400 
  196.1250     2.6460    53.7150   292.9750   278.4080   225.2770    24.4920   -10.1210 
  196.2500     2.6500    59.9120   253.9080   240.4970   213.4510    24.4640    -9.9030 
  196.3750     2.6410    64.9740   223.9110   212.1050   209.4760    24.4480    -9.6760 
  196.5000     2.6400    65.8940   200.3300   190.9950   199.9200    24.4750    -9.4850 
  196.6250     2.6530    62.6340   178.7000   173.3910   182.9850    24.6080    -9.2940 
  196.7500     2.6610    59.4120   154.7790   154.1020   162.6800    24.9070    -9.0820 
  196.8750     2.6530    58.1020   127.4790   130.2920   161.7410    25.3500    -8.8290 
  197.0000     2.6260    58.0900    98.5460   102.3210   144.3200    25.7700    -8.5510 
  197.1250     2.5960    57.5090    72.3290    74.8860   112.4410    25.9310    -8.2310 
  197.2500     2.5830    56.2810    51.4980    52.6510    76.1840    25.8390    -7.8680 
  197.3750     2.5940    55.5470    36.5900    36.9030    47.8500    25.6800    -7.4770 
  197.5000     2.6190    53.8850    26.6940    26.7260    29.2790    25.5820    -7.1170 
  197.6250     2.6360    48.9970    20.7990    20.8480    22.9970    25.6140    -6.7280 
  197.7500     2.6380    43.1880    16.9860    17.0760    21.7770    25.6410    -6.2620 
  197.8750     2.6300    39.6630    14.4410    14.5290    21.8350    25.5610    -5.7880 
