~V
VERS. 2.00: Ver 2.00
~W
STRT.M 56.0000:
STOP.M 269.0000:
STEP.M 0.1250:
NULL. -999.2500:
UWI. F11148:
~C
DEPT.M :
GR.API :
RML.OHMM :
RI. :
RXO.OHMM :
SP.MV :
DEN.GM/CC :
CALI.CM :
~A
# ...
   78.5000   101.6370     5.7980     4.2870     5.2630   -10.9450     2.3300    25.1530 
   78.6250    97.2860     7.7030     5.3020     5.6920   -11.3040     2.3690    25.2120 
   78.7500    85.1250    11.8380     7.8210     9.9080   -11.9280     2.4200    25.2770 
   78.8750    70.2590    18.3680    12.3970    24.2600   -12.6980     2.4790    25.3040 
   79.0000    60.2850    26.6840    19.2440    53.4690   -13.6240     2.5430    25.2730 
   79.1250    56.8370    33.5740    26.3330    80.6700   -14.6540     2.5980    25.2140 
   79.2500    56.3980    32.4600    27.3450    73.6630   -15.8420     2.5990    25.1230 
   79.3750    56.8040    25.3410    22.5300    50.8020   -17.1590     2.5320    24.9330 
   79.5000    58.6870    17.6690    16.4910    26.8710   -18.5300     2.4300    24.6330 
   79.6250    61.9740    12.3640    11.9570    13.7970   -19.8840     2.3330    24.2900 
   79.7500    64.5640     9.7870     9.4070    10.8370   -21.1390     2.2690    24.1340 
   79.8750    64.9920     8.7220     8.0120    10.3310   -22.2820     2.2320    24.1200 
   80.0000    63.9850     8.5890     7.4170    10.4670   -23.2870     2.2130    24.2000 
   80.1250    63.3290     8.9430     7.3670    10.5630   -24.1240     2.1990    24.2990 
   80.2500    64.1380     9.4170     7.6390    10.6360   -24.7510     2.1850    24.3810 
   80.3750    64.6730     9.7870     7.9720    10.7680   -25.1640     2.1730    24.4320 
   80.5000    64.1010    10.0430     8.2810    10.9930   -25.3760     2.1660    24.4530 
   80.6250    62.5530    10.2210     8.5410    11.3210   -25.3620     2.1590    24.4300 
   80.7500    61.8830    10.2830     8.6940    11.4760   -25.0900     2.1500    24.2570 
   80.8750    63.4190    10.1640     8.6720    11.5040   -24.6110     2.1500    23.9300 
   81.0000    64.1760     9.8290     8.4310    11.2660   -23.9260     2.1670    23.6060 
   81.1250    62.6560     9.3140     7.9860    10.3770   -23.0970     2.1990    23.4710 
   81.2500    62.9570     8.7220     7.4170     8.1970   -22.1060     2.2300    23.5470 
   81.3750    67.5700     8.1950     6.8670     6.6450   -21.1030     2.2500    23.7040 
   81.5000    74.7610     7.8080     6.4140     6.5690   -20.1330     2.2600    23.7700 
   81.6250    81.6300     7.5760     6.0920     7.4150   -19.2750     2.2660    23.6220 
   81.7500    87.1470     7.5130     5.9350     7.2340   -18.6600     2.2750    23.3920 
   81.8750    89.0070     7.5750     5.9130     6.7830   -18.3250     2.2910    23.1810 
   82.0000    86.6240     7.7470     6.0050     6.7520   -18.3020     2.3090    22.9650 
   82.1250    81.8310     8.0140     6.1870     7.3040   -18.5590     2.3160    22.9200 
   82.2500    75.5650     8.3930     6.4600     8.3280   -19.1050     2.2960    23.2690 
   82.3750    70.7550     8.8480     6.8020     9.0820   -19.7800     2.2560    23.8350 
   82.5000    69.7070     9.3280     7.1850     9.4200   -20.5500     2.2110    24.3790 
   82.6250    70.5780     9.7780     7.5610     9.6480   -21.3900     2.1770    24.7530 
   82.7500    71.4970    10.1440     7.8750    10.3000   -22.2840     2.1670    24.9800 
   82.8750    73.0390    10.4060     8.0980    11.3350   -23.1260     2.1740    25.1730 
   83.0000    75.2710    10.5550     8.2150    11.9450   -23.8580     2.1860    25.3070 
   83.1250    74.6760    10.5970     8.2280    11.8400   -24.4530     2.1900    25.4140 
   83.2500    70.3820    10.5080     8.1300    12.2970   -24.8560     2.1810    25.5780 
   83.3750    66.7280    10.2600     7.9290    12.9870   -25.0450     2.1670    25.6520 
   83.5000    63.1510     9.8230     7.6270    13.3510   -24.9680     2.1580    25.5020 
   83.6250    59.7290     9.2830     7.2770    13.3990   -24.6050     2.1560    25.1970 
   83.7500    59.6780     9.0250     7.0780    13.0810   -23.8470     2.1580    24.9300 
   83.8750    62.5990     9.5230     7.2750    12.6370   -22.7850     2.1650    24.6960 
   84.0000    63.8580    11.1210     8.0970    12.1100   -21.4570     2.1770    24.5210 
   84.1250    62.8300    13.8470     9.7040    12.8560   -19.9160     2.1900    24.4600 
   84.2500    65.0710    17.1600    12.0970    18.8910   -18.2370     2.2130    24.6390 
   84.3750    70.6630    19.5090    14.3240    35.8450   -16.5740     2.2630    24.8170 
   84.5000    76.5250    19.4790    15.0790    50.8290   -15.0430     2.3430    24.7560 
   84.6250    80.7110    16.9160    13.7950    35.0500   -13.6830     2.4280    24.5870 
   84.7500    83.5040    13.3490    11.3890    17.4280   -12.6070     2.4650    24.6100 
   84.8750    84.5380    10.5280     9.2510    11.4680   -11.8150     2.4480    24.7010 
   85.0000    83.4060     8.8380     7.7500    11.0810   -11.2840     2.4110    24.5480 
   85.1250    82.3820     8.0890     6.8720     9.6570   -10.9600     2.3760    24.2730 
   85.2500    85.7050     7.9410     6.5240     8.5660   -10.8050     2.3360    24.1130 
   85.3750    90.4470     7.9100     6.4190     7.4710   -10.7210     2.2960    24.0650 
   85.5000    92.4750     7.8150     6.3960     7.0640   -10.6550     2.2710    24.0500 
   85.6250    92.3220     7.6340     6.3700     7.0380   -10.5920     2.2640    24.0310 
   85.7500    92.5410     7.4440     6.3290     7.0210   -10.5170     2.2690    24.0330 
   85.8750    93.0720     7.2940     6.2900     6.6740   -10.4120     2.2790    24.0460 
   86.0000    94.4750     7.1760     6.2470     6.3140   -10.3060     2.2950    24.0590 
   86.1250    99.3130     7.0640     6.1860     5.8790   -10.2500     2.3130    24.1030 
   86.2500   105.1480     6.9160     6.0710     5.8260   -10.2920     2.3270    24.1550 
   86.3750   106.2240     6.7100     5.8910     5.8670   -10.4600     2.3320    24.2130 
   86.5000   104.7350     6.4500     5.6500     5.7470   -10.7600     2.3320    24.2780 
   86.6250   102.4910     6.1420     5.3640     5.4880   -11.2130     2.3300    24.3900 
   86.7500   100.0120     5.8220     5.0620     5.3160   -11.8430     2.3320    24.5600 
   86.8750    99.0890     5.6120     4.8240     5.3960   -12.6500     2.3330    24.7400 
   87.0000    99.6350     5.6940     4.7690     5.6700   -13.6300     2.3290    24.8070 
   87.1250   100.2270     6.2480     5.0190     5.9020   -14.7940     2.3270    24.7950 
   87.2500    96.9250     7.4660     5.7380     6.2590   -16.2040     2.3350    24.7300 
   87.3750    90.2750     9.1450     6.8610     8.0360   -17.8420     2.3480    24.5830 
   87.5000    81.1430    10.9210     8.2190    14.5900   -19.6820     2.3590    24.2890 
   87.6250    69.8040    12.2170     9.4300    25.0200   -21.6470     2.3640    23.9570 
   87.7500    62.1060    12.3640     9.9090    22.5460   -23.5990     2.3480    23.9820 
   87.8750    60.6200    11.6450     9.6890    16.2390   -25.3910     2.2980    24.2680 
   88.0000    64.1920    10.6130     9.1060    14.4690   -26.9550     2.2260    24.5440 
   88.1250    68.3290     9.7910     8.5400    14.5460   -28.2010     2.1670    24.6810 
   88.2500    68.2420     9.5030     8.2730    14.7700   -28.9990     2.1430    24.7120 
   88.3750    65.2930     9.6010     8.2930    14.7950   -29.3540     2.1390    24.7320 
   88.5000    62.5030     9.9080     8.5160    14.6910   -29.2340     2.1390    24.7470 
   88.6250    62.4490    10.2860     8.8450    14.5680   -28.6820     2.1380    24.7630 
   88.7500    64.6110    10.6440     9.2000    14.7310   -27.7250     2.1400    24.7950 
   88.8750    64.9020    10.8910     9.4880    14.9250   -26.4970     2.1460    24.8000 
   89.0000    63.6690    10.9230     9.6030    15.1050   -25.0390     2.1580    24.7710 
   89.1250    65.0270    10.6640     9.4530    15.2970   -23.4020     2.1740    24.7190 
   89.2500    71.6050    10.0820     8.9830    14.2130   -21.6060     2.2000    24.7480 
   89.3750    80.8610     9.3610     8.3480    11.4880   -19.7640     2.2340    24.8220 
   89.5000    89.6230     8.6800     7.7050     8.7110   -18.0220     2.2710    24.8700 
   89.6250    94.9170     8.1890     7.1880     7.8020   -16.4610     2.3010    24.8930 
