~V
VERS. 2.00: Ver 2.00
~W
STRT.M 50.0000:
STOP.M 264.0000:
STEP.M 0.1250:
NULL. -999.2500:
UWI. F11182:
~C
DEPT.M :
SP.MV :
GR.API :
RI. :
RML.OHMM :
RXO.OHMM :
DEN.GM/CC :
~A
# ...
  178.7500    -4.8230    54.8220    23.6870    25.1710    17.7330     2.1460 
  178.8750    -4.9650    54.5510    21.2870    22.6510    17.0110     2.1650 
  179.0000    -5.0360    55.0420    19.8550    21.1480    16.4020     2.1720 
  179.1250    -5.1010    55.9050    18.3600    19.5780    15.5840     2.1770 
  179.2500    -5.1170    56.5580    17.8150    19.0060    15.2300     2.1790 
  179.3750    -5.1120    56.5010    17.9070    19.1020    15.6320     2.1750 
  179.5000    -5.0940    57.4650    18.6350    19.8670    16.7270     2.1650 
  179.6250    -5.0550    59.8850    20.9090    22.2540    19.7490     2.1400 
  179.7500    -5.0250    59.7240    23.1160    24.5720    22.2080     2.1230 
  179.8750    -4.9770    57.1610    26.7240    28.3600    25.5060     2.1100 
  180.0000    -4.9440    55.8170    28.9010    30.6460    27.3670     2.1080 
  180.1250    -4.8950    56.8330    31.0200    32.8710    29.7890     2.1090 
  180.2500    -4.8650    58.3550    31.5130    33.3890    31.3620     2.1120 
  180.3750    -4.8300    59.5330    31.2990    33.1640    32.8200     2.1200 
  180.5000    -4.8140    58.0540    30.9050    32.7500    32.8530     2.1210 
  180.6250    -4.8020    55.9360    30.4510    32.2730    31.9050     2.1220 
  180.7500    -4.7970    56.0490    30.3800    32.1990    31.2210     2.1310 
  180.8750    -4.7890    57.4130    30.6630    32.4960    31.1270     2.1420 
  181.0000    -4.7780    56.8560    31.0600    32.9130    31.7080     2.1380 
  181.1250    -4.7480    55.8240    31.6890    33.5740    33.0330     2.1230 
  181.2500    -4.7200    57.4010    31.8860    33.7800    33.5500     2.1140 
  181.3750    -4.6610    61.2670    31.9070    33.8030    33.0560     2.1060 
  181.5000    -4.6130    62.2960    31.9060    33.8010    32.1970     2.1040 
  181.6250    -4.5250    61.1080    31.9490    33.8460    31.3390     2.0980 
  181.7500    -4.4600    59.4430    32.0270    33.9290    31.6500     2.0880 
  181.8750    -4.3590    57.0870    31.9590    33.8570    33.1090     2.0800 
  182.0000    -4.2960    56.7160    31.4770    33.3510    33.8950     2.0870 
  182.1250    -4.2230    58.5400    29.2930    31.0580    33.7060     2.1170 
  182.2500    -4.1970    59.3680    26.9860    28.6350    32.6280     2.1410 
  182.3750    -4.2030    57.2110    22.8130    24.2540    30.1280     2.1690 
  182.5000    -4.2390    54.1880    20.1770    21.4860    28.6470     2.1770 
  182.6250    -4.3350    52.9540    17.5350    18.7120    25.3490     2.1820 
  182.7500    -4.4210    54.4430    16.4410    17.5630    24.2530     2.1870 
  182.8750    -4.5660    57.5360    15.6350    16.7160    24.0360     2.1930 
  183.0000    -4.6670    58.2130    15.5330    16.6100    24.6420     2.1880 
  183.1250    -4.8170    58.3360    15.7520    16.8390    25.7820     2.1870 
  183.2500    -4.9120    59.6510    15.8910    16.9850    27.9370     2.1960 
  183.3750    -5.0480    61.7930    15.8260    16.9170    28.3360     2.2130 
  183.5000    -5.1340    62.7210    15.5690    16.6480    27.8730     2.2190 
  183.6250    -5.2570    64.4340    15.1090    16.1650    26.4960     2.2210 
  183.7500    -5.3360    65.6880    14.9610    16.0090    25.7750     2.2150 
  183.8750    -5.4420    66.5480    15.2520    16.3140    24.7680     2.1950 
  184.0000    -5.5010    66.0210    15.8400    16.9320    25.0300     2.1860 
  184.1250    -5.5740    64.5910    17.2540    18.4170    27.9650     2.1940 
  184.2500    -5.6170    63.2610    18.4450    19.6670    30.0050     2.1990 
  184.3750    -5.6940    62.2150    20.1140    21.4200    31.0640     2.1940 
  184.5000    -5.7630    63.4350    20.8910    22.2350    30.7700     2.1830 
  184.6250    -5.8960    65.0510    21.4380    22.8100    31.2490     2.1660 
  184.7500    -5.9960    65.6590    21.4410    22.8130    32.7100     2.1600 
  184.8750    -6.1340    66.3810    21.2270    22.5890    33.9520     2.1620 
  185.0000    -6.1980    66.1090    21.0150    22.3660    33.4990     2.1660 
  185.1250    -6.2300    64.0290    20.5500    21.8780    33.0540     2.1640 
  185.2500    -6.2060    62.4120    20.2000    21.5100    33.8280     2.1660 
  185.3750    -6.1150    63.0830    19.8060    21.0960    34.8510     2.1750 
  185.5000    -6.0320    64.0350    19.7180    21.0040    33.8100     2.1760 
  185.6250    -5.9010    65.4570    19.8810    21.1750    31.2130     2.1690 
  185.7500    -5.8190    66.8130    20.1160    21.4220    30.0860     2.1650 
  185.8750    -5.7090    67.8670    20.8750    22.2180    29.3890     2.1690 
  186.0000    -5.6390    65.6830    21.5500    22.9280    29.5630     2.1730 
  186.1250    -5.5260    59.1920    22.6270    24.0590    29.2640     2.1680 
  186.2500    -5.4400    55.8470    23.0630    24.5160    28.7900     2.1590 
  186.3750    -5.2920    55.3290    22.8750    24.3180    28.9760     2.1510 
  186.5000    -5.1880    57.6040    22.5200    23.9460    29.0010     2.1540 
  186.6250    -5.0370    62.0040    21.9930    23.3920    28.0370     2.1590 
  186.7500    -4.9470    63.3770    22.0340    23.4360    27.4200     2.1560 
  186.8750    -4.8360    62.4770    22.9630    24.4110    27.8470     2.1460 
  187.0000    -4.7820    62.1110    24.2920    25.8070    28.7580     2.1400 
  187.1250    -4.7340    62.1500    26.9240    28.5710    29.8500     2.1350 
  187.2500    -4.7290    61.7520    28.4520    30.1750    30.3880     2.1360 
  187.3750    -4.7650    61.2390    29.0470    30.7990    30.9380     2.1410 
  187.5000    -4.8160    60.8340    27.9390    29.6360    30.6530     2.1480 
  187.6250    -4.9290    60.7250    24.9230    26.4690    29.3680     2.1690 
  187.7500    -5.0270    60.1120    22.8260    24.2670    28.4340     2.1860 
  187.8750    -5.2010    61.6340    20.7010    22.0360    26.2050     2.2040 
  188.0000    -5.3320    62.6530    20.2740    21.5870    24.6120     2.2060 
  188.1250    -5.5430    64.3420    20.9990    22.3490    25.1330     2.2000 
  188.2500    -5.6920    65.7060    22.3080    23.7230    27.0040     2.1990 
  188.3750    -5.9230    67.6730    25.8860    27.4810    30.4620     2.1970 
  188.5000    -6.0790    67.2330    28.9710    30.7190    33.7540     2.1900 
  188.6250    -6.3110    62.9390    34.1450    36.1520    38.3140     2.1790 
  188.7500    -6.4620    60.1750    37.8860    40.0800    38.8190     2.1750 
  188.8750    -6.6740    57.9030    43.5440    46.0210    38.6250     2.1660 
  189.0000    -6.8030    58.0270    47.8740    50.5680    40.7800     2.1510 
  189.1250    -6.9660    60.0960    54.5840    57.6130    42.9490     2.1290 
  189.2500    -7.0500    60.3890    60.0720    63.3750    43.9160     2.1260 
  189.3750    -7.1370    57.3490    70.0910    73.8960    49.6010     2.1310 
  189.5000    -7.1740    54.2250    76.8090    80.9500    53.4160     2.1330 
  189.6250    -7.2050    50.8810    85.6880    90.2730    56.3530     2.1280 
  189.7500    -7.2160    50.1520    89.4810    94.2550    57.2330     2.1250 
  189.8750    -7.2190    49.5290    91.8800    96.7740    56.4830     2.1210 
  190.0000    -7.2100    49.2350    91.9980    96.8980    55.5590     2.1170 
  190.1250    -7.1680    49.8850    90.8190    95.6600    54.9190     2.1080 
  190.2500    -7.1160    51.8740    88.6080    93.3390    53.9650     2.1080 
  190.3750    -7.0000    53.1270    83.3890    87.8590    52.0350     2.1170 
  190.5000    -6.9020    52.7000    78.4500    82.6720    50.7900     2.1230 
  190.6250    -6.7350    52.9380    69.0840    72.8380    47.5590     2.1250 
  190.7500    -6.6170    54.3020    62.7080    66.1440    44.8740     2.1270 
  190.8750    -6.4350    55.4340    53.2560    56.2190    41.9040     2.1420 
  191.0000    -6.2440    56.3050    46.1340    48.7400    40.5910     2.1520 
  191.1250    -6.0410    57.9560    41.6540    44.0360    38.1880     2.1610 
  191.2500    -5.8990    59.3520    40.1300    42.4370    36.2980     2.1580 
  191.3750    -5.6830    61.9770    39.5380    41.8150    36.4860     2.1460 
  191.5000    -5.5430    62.4830    40.0730    42.3760    38.3150     2.1370 
