~V
VERS. 2.00: Ver 2.00
~W
STRT.M 55.0000:
STOP.M 211.0000:
STEP.M 0.1250:
NULL. -999.2500:
UWI. F11125:
~C
DEPT.M :
DEN.GM/CC :
GR.API :
RML.OHMM :
RI. :
RXO.OHMM :
CALI.CM :
SP.MV :
~A
# ...
  111.2500     2.2340    64.4690    12.6310    12.7290    11.3700    22.8850   -15.8390 
  111.3750     2.2180    62.8990    13.0840    12.8760    12.7420    22.8130   -15.9550 
  111.5000     2.1850    62.5610    14.0870    13.5660    16.2430    22.8510   -16.0830 
  111.6250     2.1600    63.7450    15.6950    14.8810    17.7100    22.9580   -16.2050 
  111.7500     2.1680    64.5610    19.4410    16.7620    17.2870    23.0890   -16.3180 
  111.8750     2.2100    63.3010    23.9810    19.2230    17.0800    23.2680   -16.4080 
  112.0000     2.2770    60.9240    27.3980    22.1260    19.8630    23.4530   -16.5160 
  112.1250     2.3580    59.1820    30.2650    24.8930    28.6700    23.4630   -16.6310 
  112.2500     2.4340    59.7340    31.5420    26.5600    39.1660    23.3140   -16.7720 
  112.3750     2.4720    60.8360    30.5140    26.3120    40.5720    23.1110   -16.9330 
  112.5000     2.4510    62.6820    27.3570    24.0770    30.7430    22.8850   -17.1690 
  112.6250     2.3790    65.8080    23.1950    20.6850    19.6990    22.5870   -17.4830 
  112.7500     2.3060    67.2490    19.4520    17.4450    15.2110    22.4910   -17.8800 
  112.8750     2.2530    65.7040    16.6130    14.8490    14.4140    22.5580   -18.3360 
  113.0000     2.2140    61.8240    14.7110    12.9910    14.4010    22.7060   -18.8110 
  113.1250     2.1780    58.3900    13.6840    11.8730    14.0220    22.8330   -19.2820 
  113.2500     2.1480    58.4380    13.1780    11.2350    13.9200    22.8910   -19.6960 
  113.3750     2.1360    62.0930    13.0380    10.9610    13.7420    22.8450   -20.0640 
  113.5000     2.1410    64.8170    13.1580    10.9660    13.8890    22.7420   -20.3550 
  113.6250     2.1520    63.2730    13.4250    11.1790    14.1210    22.6850   -20.6150 
  113.7500     2.1640    61.2410    13.6150    11.4140    14.4060    22.7220   -20.8370 
  113.8750     2.1800    60.4420    13.5410    11.4920    14.4840    22.7940   -21.0370 
  114.0000     2.2040    60.0950    13.0890    11.2730    14.4570    22.8680   -21.2100 
  114.1250     2.2340    61.0970    12.2670    10.6950    13.3220    22.9460   -21.4000 
  114.2500     2.2480    62.1970    11.3600     9.9640    11.4040    23.0150   -21.5910 
  114.3750     2.2290    60.4840    10.6140     9.2820     9.8360    23.0210   -21.7820 
  114.5000     2.1880    57.3830    10.1980     8.8090     9.0070    23.0020   -21.9480 
  114.6250     2.1570    57.2670    10.2230     8.6750     9.1270    22.9660   -22.0610 
  114.7500     2.1480    58.5490    10.5440     8.8080    10.0030    22.9170   -22.1500 
  114.8750     2.1530    57.5420    10.9860     9.1050    11.3510    22.8820   -22.2060 
  115.0000     2.1580    54.8290    11.3270     9.4020    12.1540    22.8660   -22.2470 
  115.1250     2.1620    54.4630    11.3360     9.4900    12.2720    22.8480   -22.2200 
  115.2500     2.1670    56.8360    11.0470     9.3280    11.8830    22.8170   -22.1560 
  115.3750     2.1720    59.8190    10.5850     8.9840    11.1480    22.7850   -22.0230 
  115.5000     2.1720    61.9830    10.1140     8.5890    10.1480    22.7430   -21.8440 
  115.6250     2.1670    63.4380     9.7990     8.2930     9.7140    22.7240   -21.6550 
  115.7500     2.1600    62.3060     9.6750     8.1520     9.9080    22.7300   -21.4450 
  115.8750     2.1540    59.0230     9.7360     8.1730    10.4300    22.7380   -21.2250 
  116.0000     2.1480    56.6440     9.9460     8.3280    10.7830    22.7420   -21.0080 
  116.1250     2.1410    56.2820    10.2320     8.5660    11.2330    22.7360   -20.7890 
  116.2500     2.1330    56.9620    10.4880     8.7990    11.5170    22.7130   -20.5930 
  116.3750     2.1280    57.8140    10.6670     8.9790    11.6350    22.6720   -20.4120 
  116.5000     2.1270    59.7930    10.7650     9.0890    11.8340    22.6360   -20.2640 
  116.6250     2.1340    63.3400    10.7980     9.1350    11.5810    22.6530   -20.1280 
  116.7500     2.1510    66.4810    10.8050     9.1560    11.3100    22.7280   -20.0010 
  116.8750     2.1730    66.0010    10.8070     9.1700    11.0230    22.8270   -19.8790 
  117.0000     2.1950    60.4200    10.8090     9.1860    10.7650    22.8910   -19.7630 
  117.1250     2.2060    56.2710    10.7940     9.1940    10.7990    22.8700   -19.6520 
  117.2500     2.2100    57.6120    10.7360     9.1750    11.1570    22.8010   -19.5340 
  117.3750     2.2100    61.6180    10.6260     9.1190    11.6050    22.7720   -19.4030 
  117.5000     2.2080    65.2450    10.4870     9.0310    11.8700    22.8220   -19.2810 
  117.6250     2.1940    66.0130    10.3830     8.9470    11.6020    22.9530   -19.1010 
  117.7500     2.1680    61.7820    10.3820     8.9280    11.1390    23.1200   -18.8900 
  117.8750     2.1420    55.6070    10.5380     9.0350    10.8110    23.2290   -18.6340 
  118.0000     2.1280    55.8140    10.8740     9.3050    11.0360    23.1670   -18.3350 
  118.1250     2.1290    62.6410    11.3820     9.7530    11.7030    23.0480   -17.9640 
  118.2500     2.1380    66.0010    11.9450    10.2840    12.5340    22.9390   -17.5410 
  118.3750     2.1520    65.0290    12.4460    10.7930    13.4560    22.7820   -17.1000 
  118.5000     2.1710    64.4180    12.7590    11.1620    14.0970    22.5220   -16.6260 
  118.6250     2.1840    65.3910    12.7600    11.2580    13.4900    22.2800   -16.1650 
  118.7500     2.1880    65.1580    12.5220    11.1110    12.3230    22.1020   -15.7230 
  118.8750     2.1880    65.4970    12.1350    10.7800    11.5030    21.9880   -15.2980 
  119.0000     2.1920    66.8040    11.6950    10.3520    11.3380    21.9230   -14.8740 
  119.1250     2.2110    66.6870    11.3380     9.9460    11.5280    21.8620   -14.4680 
  119.2500     2.2450    65.5540    11.2290     9.6970    11.6330    21.7980   -14.0470 
  119.3750     2.2910    66.3290    11.6260     9.7720    11.7140    21.7780   -13.5940 
  119.5000     2.3450    69.4420    12.8990    10.3980    11.7390    21.8350   -13.0550 
  119.6250     2.4040    71.8760    15.8000    12.1020    12.4480    22.0060   -12.4770 
  119.7500     2.4620    70.4360    20.5310    15.2090    16.2700    22.2380   -11.8440 
  119.8750     2.5120    66.1830    27.0900    20.0780    28.9760    22.4450   -11.2010 
  120.0000     2.5480    61.3430    34.7160    26.5760    53.3100    22.5970   -10.5290 
  120.1250     2.5530    59.0510    40.9580    33.1270    71.7030    22.9390    -9.8830 
  120.2500     2.5230    58.8670    43.4250    37.0340    66.8250    23.4490    -9.2650 
  120.3750     2.4670    60.3210    41.8290    37.1590    49.6620    23.9140    -8.6840 
  120.5000     2.4170    61.7620    38.1490    34.6630    33.9220    24.0910    -8.1730 
  120.6250     2.4090    63.1580    34.9880    31.7700    28.8770    23.7830    -7.7260 
  120.7500     2.4440    64.5610    33.4040    29.9080    30.7560    23.1810    -7.3000 
  120.8750     2.5020    63.6070    33.4190    29.3600    34.4080    22.6900    -6.9150 
  121.0000     2.5510    60.6580    34.8280    30.0510    29.8690    22.5290    -6.5860 
  121.1250     2.5690    59.1620    37.6610    32.0340    27.0200    22.5960    -6.3160 
  121.2500     2.5720    57.9460    41.5710    35.0280    32.1420    22.6470    -6.1190 
  121.3750     2.5700    53.8690    46.3070    38.8600    43.4780    22.6770    -6.0040 
  121.5000     2.5620    47.8500    51.3740    43.1680    49.1490    22.7810    -5.9510 
  121.6250     2.5490    44.9330    55.7340    47.1720    47.3560    23.1750    -5.9600 
  121.7500     2.5380    44.3120    58.2680    49.8890    51.5390    23.6760    -6.0150 
  121.8750     2.5330    43.2050    58.0910    50.4820    54.0780    23.9120    -6.0790 
  122.0000     2.5330    41.1470    55.0860    48.6830    50.0970    23.7380    -6.1460 
  122.1250     2.5260    40.6880    49.9280    44.8420    42.0850    23.3800    -6.1870 
  122.2500     2.5100    43.3760    44.3980    40.3940    36.7810    23.2260    -6.2100 
  122.3750     2.4870    46.0950    39.5970    36.2790    32.5310    23.3950    -6.2100 
