~V
VERS. 2.00: Ver 2.00
~W
STRT.M 40.0000:
STOP.M 232.0000:
STEP.M 0.1250:
NULL. -999.2500:
UWI. F11121:
~C
DEPT.M :
SP.MV :
DEN.GM/CC :
GR.API :
RML.OHMM :
RI. :
RXO.OHMM :
CALI.CM :
~A
# ...
  107.5000    -2.7370     2.1810    68.6720     7.3770     5.8380     7.3670    22.3960 
  107.6250    -2.7770     2.1570    72.1060     7.4630     5.8950     7.0710    22.3300 
  107.7500    -2.8510     2.1220    69.6950     7.6950     6.0620     7.5460    22.3480 
  107.8750    -2.9100     2.0890    66.0650     7.9690     6.2950     8.2810    22.3560 
  108.0000    -2.9090     2.0720    65.0480     8.1540     6.5180     9.1010    22.3270 
  108.1250    -2.8440     2.0750    63.9150     8.1410     6.6400     9.8450    22.2940 
  108.2500    -2.7390     2.0880    60.4440     7.9880     6.6520     9.7290    22.3270 
  108.3750    -2.5840     2.0990    57.8220     7.8020     6.5960     8.6150    22.4760 
  108.5000    -2.3550     2.1090    57.8670     7.6980     6.5440     7.6730    22.7110 
  108.6250    -2.0310     2.1260    59.4230     7.7560     6.5670     7.4550    22.9490 
  108.7500    -1.6270     2.1470    61.9910     7.9080     6.6470     7.7350    23.2110 
  108.8750    -1.1680     2.1620    66.3860     8.0340     6.7100     7.8820    23.5820 
  109.0000    -0.6840     2.1630    70.3750     7.9740     6.6410     7.8760    24.0340 
  109.1250    -0.2040     2.1540    73.4540     7.5420     6.3050     8.4260    24.3430 
  109.2500     0.2310     2.1520    80.8120     6.8140     5.7500     8.6310    24.3740 
  109.3750     0.5960     2.1620    93.0130     5.9830     5.1050     7.2530    24.2060 
  109.5000     0.8890     2.1800   105.7680     5.3230     4.5550     5.6640    24.0090 
  109.6250     1.1020     2.1940   111.2020     5.1810     4.3420     5.0920    23.8570 
  109.7500     1.2210     2.2050   108.8730     5.7170     4.5850     5.4560    23.6520 
  109.8750     1.2210     2.2330    99.4600     7.1500     5.4390     6.7080    23.3640 
  110.0000     1.1010     2.2940    86.5930     9.6480     7.0590    10.0440    23.1190 
  110.1250     0.8660     2.3890    76.3360    13.1530     9.5670    19.7360    23.0810 
  110.2500     0.5630     2.4750    68.6080    16.5220    12.3010    24.6640    23.1910 
  110.3750     0.2110     2.5130    62.1270    18.2670    14.1910    22.6610    23.3600 
  110.5000    -0.2060     2.4850    58.6150    17.4280    14.2830    19.9850    23.5220 
  110.6250    -0.6810     2.4020    59.4240    14.5320    12.5790    16.3830    23.6230 
  110.7500    -1.1470     2.2970    61.3340    11.6180    10.5050    12.8580    23.6560 
  110.8750    -1.5760     2.1910    61.4140     9.5860     8.8180    11.0520    23.6540 
  111.0000    -1.9410     2.1050    62.0800     8.5980     7.7810    10.2810    23.6530 
  111.1250    -2.1950     2.0710    66.7740     8.5980     7.4760     9.7510    23.6540 
  111.2500    -2.3630     2.1050    71.3110     9.1550     7.6540     9.1490    23.5560 
  111.3750    -2.4720     2.2060    73.4060     9.9290     8.1050     8.4830    23.2680 
  111.5000    -2.5280     2.3280    74.7240    10.5340     8.5540     7.5530    22.8650 
  111.6250    -2.5360     2.3820    77.0930    10.6020     8.7120     6.7730    22.5840 
  111.7500    -2.5380     2.3470    76.8150    10.2440     8.5660     6.4930    22.5050 
  111.8750    -2.5490     2.2670    72.7080     9.6930     8.2300     6.5450    22.5460 
  112.0000    -2.5790     2.1900    68.6550     9.1830     7.8570     6.5810    22.6410 
  112.1250    -2.6460     2.1460    67.1410     8.8730     7.5770     6.8070    22.7990 
  112.2500    -2.7260     2.1270    66.9360     8.7240     7.4040     7.1920    22.9690 
  112.3750    -2.7730     2.1220    68.2810     8.6640     7.3000     7.5460    23.0910 
  112.5000    -2.7810     2.1230    70.9380     8.6280     7.2190     7.7470    23.1430 
  112.6250    -2.7470     2.1270    72.8780     8.5890     7.1370     7.6790    23.1500 
  112.7500    -2.6810     2.1340    73.3400     8.5540     7.0620     7.7540    23.1470 
  112.8750    -2.6020     2.1380    73.0960     8.5390     7.0100     8.0560    23.1380 
  113.0000    -2.5320     2.1360    70.9440     8.5520     6.9910     8.4340    23.1340 
  113.1250    -2.5100     2.1270    67.8300     8.5930     7.0080     8.3520    23.1400 
  113.2500    -2.5210     2.1210    66.4350     8.6460     7.0440     8.2570    23.1040 
  113.3750    -2.5550     2.1230    66.5270     8.6980     7.0910     8.0410    22.9750 
  113.5000    -2.6070     2.1330    64.6820     8.7410     7.1390     8.1920    22.7870 
  113.6250    -2.6790     2.1450    60.4460     8.7720     7.1790     9.6410    22.6740 
  113.7500    -2.7540     2.1520    59.2760     8.8050     7.2070    10.9460    22.7170 
  113.8750    -2.8070     2.1550    61.6000     8.8490     7.2220    10.3000    22.8930 
  114.0000    -2.8100     2.1580    64.3930     8.8990     7.2140     9.2200    23.1200 
  114.1250    -2.7170     2.1580    65.6210     8.9080     7.1580     8.8420    23.3590 
  114.2500    -2.5790     2.1470    68.8360     8.8280     7.0450     8.7340    23.6060 
  114.3750    -2.4260     2.1270    73.6550     8.6400     6.8760     8.7250    23.8200 
  114.5000    -2.2440     2.1030    76.9690     8.3690     6.6710     8.5940    23.9440 
  114.6250    -2.0460     2.0900    75.4400     8.0940     6.4730     8.1940    23.9920 
  114.7500    -1.8350     2.0850    72.3480     7.8990     6.3240     7.7170    24.0500 
  114.8750    -1.6110     2.0820    69.9210     7.8220     6.2480     7.5320    24.1130 
  115.0000    -1.3780     2.0750    68.6650     7.8670     6.2580     7.6340    24.1310 
  115.1250    -1.1480     2.0630    69.0010     8.0770     6.3920     7.9050    24.0330 
  115.2500    -0.8790     2.0530    69.2650     8.4680     6.6630     8.1810    23.8260 
  115.3750    -0.5260     2.0570    69.1550     9.0260     7.0700     8.3340    23.5960 
  115.5000    -0.1100     2.0860    67.7280     9.6320     7.5440     8.5340    23.4470 
  115.6250     0.3850     2.1480    65.4990    10.0020     7.8960     9.3920    23.4220 
  115.7500     0.9210     2.2220    65.2630     9.9480     7.9690    10.9850    23.4790 
  115.8750     1.4470     2.2810    69.0630     9.4600     7.7220    11.8040    23.6440 
  116.0000     1.9330     2.3020    76.9200     8.7410     7.2600    10.0060    23.8940 
  116.1250     2.3620     2.2800    84.1760     8.1400     6.8040     6.9190    23.9620 
  116.2500     2.7080     2.2410    86.1900     7.8260     6.5120     6.2700    23.7150 
  116.3750     2.9570     2.2090    84.9670     7.7760     6.4050     7.0830    23.3370 
  116.5000     3.1400     2.1940    84.0090     7.8470     6.4130     7.9630    23.1240 
  116.6250     3.2800     2.1960    83.9350     7.7990     6.3880     7.8500    23.2270 
  116.7500     3.4080     2.2060    84.1120     7.4860     6.2040     6.7240    23.4550 
  116.8750     3.5400     2.2160    85.4940     6.9330     5.8420     5.7530    23.7010 
  117.0000     3.6880     2.2230    87.9240     6.3250     5.4050     5.1090    23.9470 
  117.1250     3.8570     2.2220    89.2630     5.9710     5.0980     4.9830    24.1810 
  117.2500     4.0410     2.2170    89.9380     6.0390     5.0750     5.0050    24.3570 
  117.3750     4.2170     2.2240    90.9280     6.6040     5.4190     5.3310    24.4400 
  117.5000     4.3520     2.2600    89.5650     7.6230     6.1270     6.3860    24.4550 
  117.6250     4.4460     2.3360    83.0230     8.8500     7.0730     9.2400    24.4570 
  117.7500     4.5340     2.4100    74.3590     9.7570     7.8830    13.6450    24.4620 
  117.8750     4.6450     2.4390    68.9200     9.9020     8.2130    17.1260    24.4650 
  118.0000     4.7600     2.4060    69.9870     9.1880     7.9120    14.5160    24.4460 
  118.1250     4.8480     2.3360    74.8820     7.9850     7.1350     8.1630    24.4210 
  118.2500     4.9270     2.2730    77.2900     6.9090     6.3290     5.9670    24.4380 
  118.3750     5.0010     2.2380    75.3960     6.1940     5.7120     5.4150    24.5230 
  118.5000     5.0760     2.2290    71.9230     5.8430     5.3510     5.5840    24.6540 
  118.6250     5.1120     2.2340    70.7060     5.7680     5.2340     5.6050    24.7570 
