~V
VERS. 2.00: Ver 2.00
~W
STRT.M 58.0000:
STOP.M 206.0000:
STEP.M 0.1250:
NULL. -999.2500:
UWI. F11128:
~C
DEPT.M :
GR.API :
RML.OHMM :
RI. :
RXO.OHMM :
CALI.CM :
SP.MV :
DEN.GM/CC :
~A
   58.0000  -999.2500  -999.2500  -999.2500  -999.2500  -999.2500    28.4360  -999.2500 
   58.1250  -999.2500  -999.2500  -999.2500  -999.2500  -999.2500   113.8060  -999.2500 
   58.2500  -999.2500  -999.2500  -999.2500  -999.2500  -999.2500   113.9770  -999.2500 
   58.3750  -999.2500  -999.2500  -999.2500  -999.2500  -999.2500   114.1410  -999.2500 
   58.5000  -999.2500  -999.2500  -999.2500  -999.2500  -999.2500   114.2210  -999.2500 
   58.6250  -999.2500  -999.2500  -999.2500  -999.2500  -999.2500   114.1870  -999.2500 
   58.7500  -999.2500  -999.2500  -999.2500  -999.2500  -999.2500   114.0570  -999.2500 
   58.8750  -999.2500  -999.2500  -999.2500  -999.2500  -999.2500   113.8480  -999.2500 
   59.0000  -999.2500  -999.2500  -999.2500  -999.2500  -999.2500   113.5630  -999.2500 
   59.1250     0.0000     0.0000     0.0000     0.0000     0.0000   113.1490  -999.2500 
   59.2500     0.0000     0.0000     0.0000     0.0000     0.0000   112.5800  -999.2500 
   59.3750    54.6810     3.5370     0.1710 11179.8820    25.2700   111.9010  -999.2500 
   59.5000    53.3730     3.3430     0.1720 11179.8850    25.2680   111.2130  -999.2500 
   59.6250    53.9870     3.1910     0.1720 11179.8850    25.2620   110.6200  -999.2500 
   59.7500    56.7670     3.0870     0.1730 11179.8850    25.2620   110.1310  -999.2500 
   59.8750    58.5180     3.0010     0.1730 11179.8850    25.2660   109.7220  -999.2500 
   60.0000    56.6170     2.9080     0.1730 11179.8850    25.2650   109.4320  -999.2500 
   60.1250    53.6560     2.8140     0.1720 11179.8850    25.2730   109.2920  -999.2500 
   60.2500    52.5830     2.7390     0.1710 11179.8850    25.2770   109.3390  -999.2500 
   60.3750    53.2750     2.7120     0.1700 11179.8850    25.2740   109.5270  -999.2500 
   60.5000    53.9100     2.7640     0.1690 11179.8850    25.2690   109.7990  -999.2500 
   60.6250    54.5630     2.8770     0.1680 11179.8850    25.2710   110.1280  -999.2500 
   60.7500    54.3870     3.0310     0.1680 11179.8850    25.2790   110.4760  -999.2500 
   60.8750    52.0700     3.1930     0.1690 11179.8850    25.2840   110.8210     2.0870 
   61.0000    47.8710     3.3260     0.1690 11179.8850    25.2860   111.1440     2.0870 
   61.1250    43.4200     3.4260     0.1700 11179.8850    25.2910   111.4370     2.1010 
   61.2500    39.2540     3.5200     0.1700 11179.8850    25.2880   111.6940     2.1230 
   61.3750    36.6280     3.6330     0.1700 11179.8850    25.2800   111.9140     2.1130 
   61.5000    37.2880     3.7210     0.1690 11179.8850    25.2690   112.0970     2.0630 
   61.6250    39.3390     3.6990     0.1680 11179.8850    25.2730   112.2130     2.0050 
   61.7500    40.8000     3.5140     0.1680 11179.8850    25.2770   112.2050     1.9690 
   61.8750    40.9150     3.1820     0.1680 11179.8850    25.2790   112.0970     1.9690 
   62.0000    40.4190     2.7980     0.1690 11179.8850    25.2760   111.9150     1.9930 
   62.1250    39.9490     2.4760     0.1700 11179.8850    25.2810   111.6330     2.0150 
   62.2500    39.5070     2.2470     0.1720 11179.8850    25.2880   111.2040     2.0240 
   62.3750    38.1620     2.0890     0.1730 11179.8850    25.2940   110.6380     2.0200 
   62.5000    36.0820     1.9830     0.1730 11179.8850    25.2940   109.8800     2.0180 
   62.6250    35.4600     1.9280     0.1720 11179.8850    25.2930   108.9440     2.0310 
   62.7500    36.0820     1.9470     0.1700 11179.8850    25.2940   107.8990     2.0590 
   62.8750    36.0500     2.0260     0.1670 11179.8850    25.2940   106.7190     2.1000 
   63.0000    36.2640     2.0640     0.1610 11179.8850    25.2950   105.2560     2.1570 
   63.1250    38.2810     1.9420     0.1520 11179.8850    25.2960   103.4660     2.2290 
   63.2500    40.9620     1.5680     0.1420 10474.2570    25.2900   101.2320     2.3130 
   63.3750    42.8630     0.9590     0.1300  9176.9650    25.2860    98.3640     2.3930 
   63.5000    44.3480     0.3950     0.1200  6573.1210    25.2830    94.5570     2.3890 
   63.6250    45.0900     0.0830     0.1160  2879.2590    25.2800    89.5750     2.2320 
   63.7500    44.5700    -0.0110     0.1240   373.0260    25.2740    82.9540     1.9590 
   63.8750    44.0670     0.0550     0.1620     0.6990    25.2540    74.2850     1.6900 
   64.0000    45.3060     0.3130     0.2850     1.7800    25.2930    63.4170     1.5200 
   64.1250    47.2800     0.8470     0.5410     3.4810    25.9830    51.4860     1.4390 
   64.2500    49.2110     1.8850     0.9830     5.3920    28.2170    39.2300     1.4190 
   64.3750    50.3550     3.6710     1.6400     6.9020    31.8110    27.1420     1.4320 
   64.5000    50.5070     6.3070     2.5050     8.0800    34.2750    15.7270     1.4630 
   64.6250    50.4160     9.3290     3.4360     8.8100    35.1260     5.3620     1.5050 
   64.7500    50.6020    11.9220     4.2960     9.2960    35.2440    -3.3920     1.5620 
   64.8750    51.3070    13.0220     4.9840     9.4220    35.0560   -10.0100     1.6470 
   65.0000    53.1340    12.5900     5.4390     9.1760    34.6210   -14.1220     1.7810 
   65.1250    56.4560    11.5870     5.7140     8.5110    34.3140   -16.6720     1.9450 
   65.2500    60.4090    10.3790     5.8340     7.4710    34.2880   -18.1410     2.0980 
   65.3750    65.3420     9.2610     5.8440     6.4300    33.1300   -18.8230     2.1950 
   65.5000    72.3590     8.5580     5.8110     6.0540    29.7490   -18.9500     2.2160 
   65.6250    80.6060     8.2830     5.8200     6.4270    27.2680   -18.8390     2.2020 
   65.7500    87.9360     8.3450     5.9140     7.0030    26.3310   -18.6820     2.1680 
   65.8750    90.7580     8.6510     6.1040     7.5800    26.1890   -18.6340     2.1170 
   66.0000    89.2440     9.1400     6.3780     8.2550    26.1570   -18.8370     2.0420 
   66.1250    86.4740     9.6930     6.6710     8.7590    26.1770   -19.3300     1.9580 
   66.2500    84.1420    10.2380     6.9340     9.0490    26.2610   -20.1890     1.9000 
   66.3750    81.1220    10.7140     7.1280     9.2630    26.5700   -21.3440     1.9060 
   66.5000    76.2270    11.0820     7.2100     9.3290    27.3410   -22.6240     1.9900 
   66.6250    72.7330    11.4100     7.1930     9.2130    27.9600   -23.8040     2.0970 
   66.7500    72.7670    11.7350     7.0940     9.0190    27.7390   -24.7220     2.1780 
   66.8750    75.6460    12.0100     6.9510     8.9880    26.5560   -25.2690     2.2200 
   67.0000    77.9090    12.0500     6.8270     9.0920    25.6630   -25.4780     2.2500 
   67.1250    78.6070    11.7490     6.7840     9.6130    25.2610   -25.5530     2.2890 
   67.2500    78.8040    11.1560     6.8520    12.5890    25.1210   -25.5950     2.3260 
   67.3750    78.2820    10.5590     7.0210    18.1200    25.0620   -25.6900     2.3240 
   67.5000    77.1000    10.2570     7.2340    25.3870    25.1540   -25.9040     2.2640 
   67.6250    74.4300    10.1850     7.4020    31.4840    25.3950   -26.2060     2.2050 
   67.7500    70.0970    10.2300     7.4640    29.7320    25.5620   -26.6270     2.1760 
   67.8750    65.9540    10.3000     7.3970    18.8950    25.4630   -27.1850     2.1740 
   68.0000    64.9930    10.3290     7.2210    12.7140    25.2110   -27.7620     2.2640 
   68.1250    67.6230    10.2820     7.0180    11.0460    24.9730   -28.2410     2.2050 
   68.2500    72.3510    10.1740     6.8380    10.6080    24.8190   -28.5370     2.1760 
   68.3750    77.5150    10.0940     6.7050    10.2460    24.7430   -28.6620     2.1740 
   68.5000    79.5440    10.2130     6.6240     9.7790    24.6630   -28.6380     2.1790 
   68.6250    78.1840    10.6230     6.5740     9.4930    24.6460   -28.5280     2.1810 
   68.7500    74.7330    11.3280     6.5510     9.4170    24.6670   -28.3720     2.1770 
   68.8750    70.6380    12.1810     6.5590     9.3330    24.7040   -28.2290     2.1670 
   69.0000    68.1910    12.7970     6.6120     9.2090    24.6630   -28.1530     2.1560 
   69.1250    68.0160    12.8050     6.6880     9.2140    24.5810   -28.1220     2.1470 
