~V
VERS. 2.00: Ver 2.00
~W
STRT.M 45.0000:
STOP.M 268.0000:
STEP.M 0.1250:
NULL. -999.2500:
UWI. F11184:
~C
DEPT.M :
SP.MV :
GR.API :
RI. :
RML.OHMM :
RXO.OHMM :
DEN.GM/CC :
~A
# ...
   83.6250   -30.5710    67.2850     5.2390     5.7010     6.3570     2.0720 
   83.7500   -30.5530    69.6320     5.3080     5.7730     6.5580     2.0640 
   83.8750   -30.5310    68.0730     5.3730     5.8410     6.7950     2.0550 
   84.0000   -30.5010    65.6410     5.4380     5.9100     6.9000     2.0490 
   84.1250   -30.4500    63.9920     5.4980     5.9730     6.6910     2.0500 
   84.2500   -30.3630    62.0670     5.5680     6.0460     6.4110     2.0570 
   84.3750   -30.2250    60.4360     5.6300     6.1110     6.2640     2.0680 
   84.5000   -30.0390    61.2550     5.6870     6.1710     6.1350     2.0740 
   84.6250   -29.8040    62.4860     5.7190     6.2050     6.0150     2.0690 
   84.7500   -29.5360    61.4460     5.6880     6.1720     5.9860     2.0630 
   84.8750   -29.2470    59.5370     5.5030     5.9780     5.8990     2.0740 
   85.0000   -28.9500    60.3390     5.1900     5.6490     5.7040     2.1050 
   85.1250   -28.6620    64.6550     4.8090     5.2490     5.5010     2.1490 
   85.2500   -28.4000    69.9850     4.4460     4.8680     5.1470     2.1900 
   85.3750   -28.1910    75.8980     4.2290     4.6400     4.6060     2.2060 
   85.5000   -28.0580    82.0180     4.1450     4.5520     4.5650     2.1900 
   85.6250   -28.0280    85.8630     4.2860     4.7000     5.2220     2.1670 
   85.7500   -28.1020    85.8750     4.6350     5.0670     5.6390     2.1610 
   85.8750   -28.2770    84.5150     5.0720     5.5260     6.4680     2.1650 
   86.0000   -28.5260    84.2240     5.4830     5.9570     7.4920     2.1560 
   86.1250   -28.8210    81.7810     5.7260     6.2120     6.8300     2.1280 
   86.2500   -29.1210    74.8900     5.7580     6.2450     5.9570     2.0940 
   86.3750   -29.3870    66.6870     5.6580     6.1410     6.0840     2.0700 
   86.5000   -29.5920    62.2690     5.5020     5.9770     6.3040     2.0600 
   86.6250   -29.7200    62.8520     5.3720     5.8400     6.4660     2.0560 
   86.7500   -29.7840    64.9060     5.3370     5.8040     6.5200     2.0460 
   86.8750   -29.7910    65.6190     5.3540     5.8210     6.4320     2.0310 
   87.0000   -29.7580    64.5410     5.3820     5.8510     6.3440     2.0240 
   87.1250   -29.6910    63.7050     5.4020     5.8720     6.3070     2.0300 
   87.2500   -29.5950    61.9850     5.4060     5.8760     6.1610     2.0430 
   87.3750   -29.4600    59.1650     5.3910     5.8610     5.6630     2.0570 
   87.5000   -29.2800    57.8880     5.3420     5.8090     5.3410     2.0650 
   87.6250   -29.0430    59.5760     5.2540     5.7170     5.6320     2.0630 
   87.7500   -28.7570    61.5350     5.0860     5.5400     5.8130     2.0600 
   87.8750   -28.4310    61.9290     4.8440     5.2860     5.5760     2.0810 
   88.0000   -28.0900    62.5870     4.5740     5.0030     5.1050     2.1270 
   88.1250   -27.7580    65.1860     4.3100     4.7260     4.5760     2.1690 
   88.2500   -27.4530    68.5580     4.1210     4.5270     4.2790     2.1830 
   88.3750   -27.1870    73.2880     4.0200     4.4210     4.2530     2.1780 
   88.5000   -26.9570    78.3300     4.0240     4.4250     4.4200     2.1640 
   88.6250   -26.7550    81.6910     4.1290     4.5360     4.4180     2.1390 
   88.7500   -26.5620    81.6170     4.2990     4.7140     4.4350     2.1140 
   88.8750   -26.3620    77.9180     4.4670     4.8910     4.6160     2.1150 
   89.0000   -26.1420    74.4490     4.4990     4.9240     4.5210     2.1380 
   89.1250   -25.8970    74.1610     4.3490     4.7660     4.6200     2.1700 
   89.2500   -25.6430    75.7380     4.1080     4.5130     4.7710     2.2050 
   89.3750   -25.4040    78.9690     3.7950     4.1840     4.1820     2.2410 
   89.5000   -25.2120    83.8680     3.5250     3.9010     3.7080     2.2670 
   89.6250   -25.0950    88.5770     3.3670     3.7350     4.2760     2.2800 
   89.7500   -25.0520    90.2680     3.3390     3.7060     4.7380     2.2860 
   89.8750   -25.0680    89.3750     3.4690     3.8430     4.2980     2.2920 
   90.0000   -25.1100    88.4370     3.6730     4.0570     4.5030     2.3030 
   90.1250   -25.1460    86.9980     3.8920     4.2870     5.7820     2.3040 
   90.2500   -25.1530    84.1530     4.0590     4.4620     5.9800     2.2760 
   90.3750   -25.1040    80.0020     4.1690     4.5780     4.8810     2.2260 
   90.5000   -24.9760    77.2160     4.2070     4.6170     4.4000     2.1890 
   90.6250   -24.7410    78.0660     4.1640     4.5720     4.6770     2.1790 
   90.7500   -24.4080    80.1330     4.1030     4.5080     4.7810     2.1850 
   90.8750   -23.9170    80.8730     4.0500     4.4520     4.2350     2.1960 
   91.0000   -23.4250    82.2130     3.9880     4.3870     3.6760     2.2030 
   91.1250   -23.0890    85.8040     3.9300     4.3260     3.8490     2.2090 
   91.2500   -22.8520    88.2480     3.8710     4.2650     4.0810     2.2180 
   91.3750   -22.7310    90.2850     3.8120     4.2030     3.9930     2.2300 
   91.5000   -22.7110    93.6840     3.7580     4.1450     3.7240     2.2340 
   91.6250   -22.7900    96.8440     3.7010     4.0860     3.7050     2.2300 
   91.7500   -22.9540    97.4700     3.6620     4.0450     4.0670     2.2320 
   91.8750   -23.2070    95.4060     3.6660     4.0490     4.4270     2.2450 
   92.0000   -23.5410    91.5660     3.7140     4.0990     4.4590     2.2520 
   92.1250   -23.9640    87.7080     3.8180     4.2090     4.3600     2.2400 
   92.2500   -24.4660    86.7640     3.9930     4.3930     4.3000     2.2190 
   92.3750   -25.0380    86.8220     4.3540     4.7710     4.3610     2.1970 
   92.5000   -25.6440    84.1130     4.8370     5.2790     4.5280     2.1820 
   92.6250   -26.2360    77.6680     5.3400     5.8070     5.7030     2.1920 
   92.7500   -26.7700    72.4610     5.7290     6.2160     8.3740     2.2160 
   92.8750   -27.2090    69.0890     5.8830     6.3780     9.0550     2.2150 
   93.0000   -27.5580    65.8750     5.7990     6.2890     6.6450     2.1760 
   93.1250   -27.8250    64.1740     5.5690     6.0480     5.1290     2.1290 
   93.2500   -28.0340    65.3810     5.3440     5.8110     5.2430     2.1120 
   93.3750   -28.1950    68.0570     5.2130     5.6730     5.5810     2.1260 
   93.5000   -28.3170    67.6110     5.2310     5.6920     5.8520     2.1410 
   93.6250   -28.3970    64.1240     5.3210     5.7870     5.8190     2.1350 
   93.7500   -28.4390    61.3510     5.3380     5.8040     5.7580     2.1140 
   93.8750   -28.4450    61.3670     5.2440     5.7070     5.7580     2.1030 
   94.0000   -28.4240    62.3880     5.1240     5.5800     5.8100     2.1130 
   94.1250   -28.3830    63.2180     5.0890     5.5430     5.7810     2.1300 
   94.2500   -28.3340    64.0290     5.2120     5.6720     5.6110     2.1360 
   94.3750   -28.2860    63.8170     5.4600     5.9330     6.0530     2.1290 
   94.5000   -28.2450    63.3690     5.7330     6.2200     8.9850     2.1190 
   94.6250   -28.2150    62.2520     5.9360     6.4330    11.2810     2.1140 
   94.7500   -28.1930    60.6300     6.0120     6.5120     8.8290     2.1190 
   94.8750   -28.1750    59.3010     5.9540     6.4520     6.2850     2.1230 
   95.0000   -28.1600    59.0180     5.8200     6.3110     5.9020     2.1200 
   95.1250   -28.1450    57.6030     5.6700     6.1530     5.6600     2.1130 
   95.2500   -28.1300    54.2130     5.5240     6.0000     5.7310     2.1070 
   95.3750   -28.1130    51.6560     5.4500     5.9220     5.8390     2.0990 
   95.5000   -28.0900    51.9570     5.5660     6.0440     5.6010     2.0940 
   95.6250   -28.0570    53.8200     5.8930     6.3870     5.3050     2.1200 
   95.7500   -28.0150    54.0270     6.2990     6.8140     6.2570     2.2070 
   95.8750   -27.9640    53.3580     6.5730     7.1020     8.5870     2.3210 
   96.0000   -27.9090    52.7490     6.5800     7.1090     8.8160     2.3530 
   96.1250   -27.8520    52.0010     6.1470     6.6550     6.4190     2.2600 
   96.2500   -27.7930    50.2920     5.5520     6.0290     5.0680     2.1410 
   96.3750   -27.7300    50.5810     4.8920     5.3370     5.0800     2.0880 
