~V
VERS. 2.00: Ver 2.00
~W
STRT.M 52.0000:
STOP.M 216.0000:
STEP.M 0.1250:
NULL. -999.2500:
UWI. F11106:
~C
DEPT.M :
DEN.GM/CC :
GR.API :
RML.OHMM :
RI. :
RXO.OHMM :
CALI.CM :
SP.MV :
~A
# ...
  142.0000     2.2120    51.4010    20.9680    18.0300    16.6940    28.3570   -16.8310 
  142.1250     2.2060    48.7310    22.6460    19.5800    26.1070    28.3840   -16.7560 
  142.2500     2.2010    48.8460    23.9080    20.9420    27.2190    28.3890   -16.6320 
  142.3750     2.1980    50.4960    23.8100    21.2700    20.6980    28.2740   -16.5040 
  142.5000     2.1980    51.7950    21.8700    19.9810    14.5830    28.2010   -16.3600 
  142.6250     2.1990    52.3020    18.4360    17.1790    12.2880    28.2630   -16.2040 
  142.7500     2.2000    51.3170    14.8940    14.0480    11.4050    28.3560   -16.0480 
  142.8750     2.1980    50.4680    11.9940    11.2700    11.1590    28.3670   -15.9100 
  143.0000     2.1960    52.7490    10.0170     9.1310     8.5190    28.3000   -15.8280 
  143.1250     2.1960    59.4130     9.3350     7.8830     5.5220    28.8250   -15.8750 
  143.2500     2.1990    64.3120    10.2000     7.6310     4.2610    29.1780   -16.0350 
  143.3750     2.2050    62.0090    13.1720     8.7930     5.1670    28.3300   -16.2770 
  143.5000     2.2110    54.7610    18.8250    11.9740     9.6020    27.6460   -16.5350 
  143.6250     2.2130    49.6020    28.0550    18.3850    23.3320    27.4550   -16.7980 
  143.7500     2.2090    47.6150    39.2500    27.5460    37.1030    27.2690   -17.1380 
  143.8750     2.2020    47.4510    48.2660    36.9820    41.1440    27.1230   -17.4690 
  144.0000     2.1930    48.2520    49.5990    41.8050    40.0300    26.8870   -17.7360 
  144.1250     2.1860    49.9200    42.3620    38.5900    40.8230    26.7580   -17.8810 
  144.2500     2.1830    51.3110    33.5060    32.0030    40.1750    26.6110   -17.8480 
  144.3750     2.1840    52.5720    25.8470    25.2240    36.5590    26.3570   -17.8970 
  144.5000     2.1900    53.4190    19.7570    19.4620    27.3440    26.2150   -18.0550 
  144.6250     2.2000    54.1420    15.3400    15.1760    17.4890    26.1570   -18.2450 
  144.7500     2.2130    56.6170    12.3460    12.1580    11.5510    25.9930   -18.3970 
  144.8750     2.2240    59.6970    10.6420    10.2760     9.8450    25.9380   -18.5110 
  145.0000     2.2330    60.7200     9.9600     9.3050     8.9930    25.8440   -18.6110 
  145.1250     2.2370    60.2070    10.0650     9.0870     7.6000    25.6210   -18.7200 
  145.2500     2.2380    60.5330    10.6060     9.3190     7.1340    25.4320   -18.8070 
  145.3750     2.2380    60.8020    11.5210     9.9290     7.9970    25.4600   -18.8520 
  145.5000     2.2370    61.0700    12.8590    10.9300     9.7380    25.6580   -18.8710 
  145.6250     2.2350    62.8280    14.8850    12.4730    10.4330    25.2760   -18.8520 
  145.7500     2.2320    64.3680    17.6150    14.5360    11.4210    24.7460   -18.7620 
  145.8750     2.2270    63.7590    20.8400    17.0110    15.9480    24.7370   -18.6260 
  146.0000     2.2220    60.9880    23.9300    19.4940    24.6560    25.0260   -18.5740 
  146.1250     2.2150    58.1620    25.5630    21.0390    30.3160    25.4300   -18.4790 
  146.2500     2.2090    55.2910    25.1430    21.0740    28.1190    25.4800   -18.4320 
  146.3750     2.2040    54.7600    23.0210    19.7230    20.1780    25.2550   -18.3990 
  146.5000     2.2020    59.6590    20.5120    17.8760    13.2440    25.0660   -18.3500 
  146.6250     2.2040    65.4280    19.2420    16.7080    13.2570    25.1450   -18.2960 
  146.7500     2.2070    65.9970    19.4330    16.5610    16.2300    25.3060   -18.2600 
  146.8750     2.2110    61.2950    20.6250    17.2800    19.1330    25.4670   -18.2950 
  147.0000     2.2140    56.3680    22.0430    18.4180    20.5910    25.6220   -18.3700 
  147.1250     2.2170    54.2560    22.7790    19.3310    20.7130    25.7360   -18.4260 
  147.2500     2.2180    52.6240    22.7040    19.7090    20.2170    25.8550   -18.4390 
  147.3750     2.2170    52.1990    22.1810    19.6550    19.8820    25.7460   -18.4530 
  147.5000     2.2130    53.9840    21.6840    19.4590    18.4680    25.4800   -18.4540 
  147.6250     2.2070    57.0800    21.4930    19.3510    17.3940    25.6650   -18.4580 
  147.7500     2.1990    59.8360    21.4700    19.3210    18.2590    26.0660   -18.5420 
  147.8750     2.1920    61.2400    21.4490    19.2960    17.5560    26.1390   -18.6260 
  148.0000     2.1880    61.3850    21.3400    19.2450    15.0540    26.0950   -18.6850 
  148.1250     2.1880    58.3660    21.2420    19.2560    13.8090    25.9740   -18.8160 
  148.2500     2.1900    55.9640    21.3870    19.4670    14.5750    26.0480   -18.9620 
  148.3750     2.1950    58.0310    21.9340    19.9770    17.2730    26.3810   -19.1220 
  148.5000     2.2000    63.5680    22.8530    20.7380    20.9520    26.5440   -19.3430 
  148.6250     2.2050    65.9740    23.8320    21.4630    23.3410    26.5920   -19.6360 
  148.7500     2.2100    64.5100    24.5210    21.8480    23.6130    26.5270   -19.9710 
  148.8750     2.2160    63.4610    25.0050    21.9330    22.5810    26.3860   -20.3700 
  149.0000     2.2210    63.8880    25.8720    22.1380    21.0810    26.3120   -20.8070 
  149.1250     2.2270    64.2310    28.6460    23.5030    20.5980    26.1740   -21.2640 
  149.2500     2.2290    63.0730    34.8340    27.3270    22.4980    26.2370   -21.8310 
  149.3750     2.2250    60.7750    46.1830    35.4630    33.9570    26.4070   -22.4400 
  149.5000     2.2140    58.4120    64.3790    49.8160    78.0490    26.6630   -23.0030 
  149.6250     2.1970    55.2880    91.4810    72.2440   166.2880    26.8140   -23.5360 
  149.7500     2.1800    51.2510   122.7930    98.2050   185.1060    26.9370   -24.0430 
  149.8750     2.1680    48.3430   150.1580   120.7410   135.7200    27.0210   -24.5080 
  150.0000     2.1610    48.7260   167.7480   135.2630   134.9240    26.8620   -24.9420 
  150.1250     2.1600    50.0270   180.8140   145.9530   158.4760    26.8560   -25.3710 
  150.2500     2.1600    48.6730   199.8540   161.3520   235.5290    27.0570   -25.6800 
  150.3750     2.1610    47.4310   226.4510   183.1470   335.1000    27.3930   -25.9120 
  150.5000     2.1640    47.2880   253.8550   206.6240   426.7980    27.4810   -26.1740 
  150.6250     2.1660    45.6080   267.6090   221.5890   488.4900    27.4510   -26.4270 
  150.7500     2.1690    43.1190   263.1970   223.8590   511.7380    27.5780   -26.6250 
  150.8750     2.1700    41.9200   244.0310   214.4840   483.8560    27.8430   -26.7910 
  151.0000     2.1720    42.5060   216.5730   197.1460   392.3120    28.1890   -26.9360 
  151.1250     2.1770    44.1260   186.2480   175.0550   315.3800    28.3690   -27.0300 
  151.2500     2.1840    47.2940   156.8780   151.4920   288.7130    28.5850   -27.1310 
  151.3750     2.1980    49.8870   130.1980   128.2650   284.8280    28.7510   -27.2220 
  151.5000     2.2160    50.7830   107.3780   107.0650   201.2830    28.7250   -27.2580 
  151.6250     2.2380    51.6780    90.0520    90.0540   124.3930    28.6530   -27.3250 
  151.7500     2.2600    54.1570    77.7820    77.5280    85.8530    28.7040   -27.4040 
  151.8750     2.2770    55.8800    70.4490    69.6330    72.6340    28.9090   -27.5340 
  152.0000     2.2860    54.6810    67.6360    66.1240    67.4520    29.2310   -27.6910 
  152.1250     2.2840    52.8800    69.0860    66.9820    83.8110    29.1650   -27.8750 
  152.2500     2.2750    53.0310    72.9230    70.4810   122.3810    29.0530   -28.1170 
  152.3750     2.2630    54.8320    77.8810    75.3470   144.5080    29.0790   -28.3730 
  152.5000     2.2520    56.8130    82.8900    80.3790   120.2320    29.0920   -28.6170 
  152.6250     2.2430    56.6040    87.4320    84.8070    97.6220    29.1490   -28.8460 
  152.7500     2.2380    54.4930    91.8790    88.8670    93.8160    29.3040   -29.0220 
  152.8750     2.2360    51.8460    96.5430    92.9400   101.2300    29.3990   -29.1400 
  153.0000     2.2340    50.1000   101.1000    96.9530   114.5190    29.4090   -29.2690 
  153.1250     2.2310    47.6240   103.9420    99.6170   131.4970    29.3380   -29.3240 
