~V
VERS. 2.00: Ver 2.00
~W
STRT.M 51.0000:
STOP.M 277.0000:
STEP.M 0.1250:
NULL. -999.2500:
UWI. F11147:
~C
DEPT.M :
DEN.GM/CC :
GR.API :
RML.OHMM :
RI. :
RXO.OHMM :
CALI.CM :
SP.MV :
~A
# ...
  118.5000     2.3680    64.2690    11.0760     9.5840     9.3110    25.0310   -16.6050 
  118.6250     2.3720    68.1690    12.1080    10.5980     9.7910    25.0600   -16.2900 
  118.7500     2.3870    69.8490    13.3730    11.8690    10.4280    25.0350   -16.0950 
  118.8750     2.4000    68.6990    14.3390    13.0140    12.9960    25.0930   -16.0260 
  119.0000     2.4030    68.8030    14.3370    13.3870    16.2790    25.1420   -16.0430 
  119.1250     2.4030    73.0950    13.0510    12.5610    15.6290    25.0080   -16.1420 
  119.2500     2.4070    79.3870    10.8670    10.7450    10.6390    24.7440   -16.3330 
  119.3750     2.3980    83.6360     8.7010     8.7070     7.0850    24.6880   -16.6110 
  119.5000     2.3690    85.3300     7.1550     7.0930     5.6180    24.7570   -16.9430 
  119.6250     2.3310    82.4090     6.3070     6.0500     5.2600    24.8240   -17.2990 
  119.7500     2.2930    76.0110     6.0320     5.5250     5.2270    24.8810   -17.6510 
  119.8750     2.2600    72.7690     6.2330     5.4730     5.7560    25.1000   -17.9240 
  120.0000     2.2360    72.4030     6.7930     5.7740     6.4190    25.2580   -18.0910 
  120.1250     2.2290    69.2150     7.7890     6.4710     7.1230    25.4620   -18.1200 
  120.2500     2.2450    62.4940     9.3320     7.6500     7.9680    25.7030   -17.9990 
  120.3750     2.2950    57.3140    11.5490     9.4740    10.2190    25.4730   -17.7830 
  120.5000     2.3810    55.2990    14.4580    11.7790    15.0980    24.9630   -17.5020 
  120.6250     2.4860    53.7020    17.3770    14.2560    20.6060    24.5050   -17.1800 
  120.7500     2.5680    51.5160    19.3900    16.3900    22.0470    24.1560   -16.8460 
  120.8750     2.5830    49.3200    20.2850    17.6070    18.2230    24.0030   -16.5390 
  121.0000     2.5640    49.3940    20.6140    18.1610    15.9340    24.0700   -16.2720 
  121.1250     2.5510    50.7690    20.9790    18.4990    16.8960    24.2500   -16.0740 
  121.2500     2.5580    49.9200    21.7400    19.0030    19.7280    24.4610   -15.9550 
  121.3750     2.5760    47.4420    22.8750    19.8050    22.6310    24.6280   -15.8750 
  121.5000     2.5860    47.1230    23.8780    20.6180    23.0730    24.7120   -15.8230 
  121.6250     2.5800    47.5380    24.3070    21.1000    22.0760    24.7410   -15.7850 
  121.7500     2.5620    46.0110    24.0080    21.0550    20.1400    24.7990   -15.7410 
  121.8750     2.5360    43.8800    23.2330    20.5660    18.8180    24.8500   -15.6910 
  122.0000     2.5100    44.7930    22.5610    20.0650    17.1490    24.8370   -15.6710 
  122.1250     2.4860    46.8330    22.2870    19.8120    16.3240    24.8020   -15.6920 
  122.2500     2.4700    46.5880    22.4910    19.9180    16.3910    24.7410   -15.7350 
  122.3750     2.4790    45.0190    23.1150    20.3910    17.9420    24.6230   -15.8160 
  122.5000     2.5120    44.9380    23.8360    21.0050    20.2790    24.5130   -15.9150 
  122.6250     2.5510    46.2210    24.3770    21.5320    21.3310    24.4630   -16.0190 
  122.7500     2.5720    47.2010    24.5430    21.7800    20.8070    24.4640   -16.1440 
  122.8750     2.5590    46.9690    24.2790    21.6660    19.3490    24.5420   -16.2930 
  123.0000     2.5360    46.2920    23.8160    21.3720    19.5510    24.6350   -16.4520 
  123.1250     2.5190    45.2910    23.3170    21.0450    19.9540    24.7560   -16.5790 
  123.2500     2.5080    45.4520    22.9240    20.8030    19.3610    24.9090   -16.6930 
  123.3750     2.5000    48.6770    22.7920    20.7710    18.2510    24.9180   -16.7740 
  123.5000     2.4980    51.2530    22.9010    20.9390    18.1370    24.7900   -16.8460 
  123.6250     2.5040    51.3340    23.1670    21.2470    18.3440    24.6450   -16.9170 
  123.7500     2.5110    49.5140    23.4410    21.5800    18.6510    24.4730   -16.9680 
  123.8750     2.5170    49.1080    23.4680    21.7410    19.9160    24.1980   -16.9910 
  124.0000     2.5330    52.0750    23.1250    21.6020    21.0950    23.8730   -16.9710 
  124.1250     2.5600    55.0120    22.4310    21.1510    20.4660    23.6190   -16.9280 
  124.2500     2.5830    54.9320    21.5600    20.5050    18.4280    23.5030   -16.8700 
  124.3750     2.5870    53.7720    20.7640    19.8510    18.3370    23.5750   -16.8000 
  124.5000     2.5770    53.7940    20.1790    19.3090    19.0830    23.5960   -16.7210 
  124.6250     2.5640    53.6070    19.8200    18.9100    18.7680    23.6280   -16.6320 
  124.7500     2.5510    50.7900    19.6250    18.6350    17.1760    23.7770   -16.5400 
  124.8750     2.5380    47.2710    19.5020    18.4320    16.2220    23.9470   -16.4700 
  125.0000     2.5260    44.8610    19.3700    18.2360    16.0920    24.1450   -16.4340 
  125.1250     2.5140    44.7030    19.2170    18.0370    16.3380    24.3290   -16.4200 
  125.2500     2.4950    48.5200    19.0490    17.8420    16.3600    24.4030   -16.4180 
  125.3750     2.4750    53.6270    18.8570    17.6500    16.4550    24.2140   -16.4260 
  125.5000     2.4670    55.3640    18.6750    17.4770    16.1930    23.9430   -16.4340 
  125.6250     2.4750    54.3130    18.6180    17.4040    15.5900    23.7220   -16.4460 
  125.7500     2.4970    53.6520    18.8240    17.5410    15.8710    23.5070   -16.4670 
  125.8750     2.5200    52.5090    19.4410    18.0130    16.6180    23.3260   -16.4700 
  126.0000     2.5360    49.6340    20.3450    18.7530    17.3730    23.3080   -16.4550 
  126.1250     2.5450    47.6900    21.3030    19.6070    19.3490    23.3730   -16.4400 
  126.2500     2.5500    47.9030    21.9440    20.2850    23.3610    23.4410   -16.4250 
  126.3750     2.5460    48.5160    21.8290    20.3790    22.5250    23.4290   -16.4090 
  126.5000     2.5310    46.7040    21.1020    19.9110    18.8140    23.5160   -16.3850 
  126.6250     2.5230    44.1870    20.0980    19.1070    16.1480    23.7530   -16.3330 
  126.7500     2.5330    43.9760    19.1850    18.2670    15.2690    24.0930   -16.2600 
  126.8750     2.5520    46.4070    18.6570    17.6760    15.2230    24.1490   -16.1670 
  127.0000     2.5600    48.5960    18.4690    17.3750    15.5190    24.1040   -16.0640 
  127.1250     2.5500    48.0050    18.5070    17.3130    15.5000    24.0630   -15.9580 
  127.2500     2.5210    45.8030    18.6630    17.4070    15.2280    24.0000   -15.8510 
  127.3750     2.4840    44.5290    18.8740    17.5990    14.8640    23.7710   -15.7270 
  127.5000     2.4560    44.4960    19.0990    17.8320    14.8180    23.6330   -15.6040 
  127.6250     2.4430    46.1120    19.2960    18.0670    15.0730    23.6090   -15.4800 
  127.7500     2.4370    49.7820    19.3850    18.2330    15.5090    23.6540   -15.3380 
  127.8750     2.4250    54.1110    19.2230    18.1890    16.1190    23.8360   -15.2040 
  128.0000     2.4110    55.4860    18.8020    17.8980    15.9020    24.2180   -15.0850 
  128.1250     2.4100    53.2890    18.1880    17.3980    15.2130    24.5500   -14.9660 
  128.2500     2.4260    50.6790    17.5260    16.8090    14.1360    24.6280   -14.8440 
  128.3750     2.4490    50.3180    17.0120    16.3120    13.1050    24.5500   -14.7290 
  128.5000     2.4660    52.5400    16.7300    16.0140    13.0760    24.4230   -14.6120 
  128.6250     2.4730    54.5970    16.6690    15.9320    13.7340    24.4150   -14.4990 
  128.7500     2.4750    52.6900    16.7550    16.0160    14.6730    24.6990   -14.4100 
  128.8750     2.4810    49.8210    16.8950    16.1780    15.4310    25.1880   -14.3430 
  129.0000     2.4920    50.5250    17.0130    16.3230    16.0780    25.6200   -14.2910 
  129.1250     2.5080    52.6030    17.1020    16.4310    16.2330    25.7180   -14.2720 
  129.2500     2.5240    52.3270    17.1880    16.5220    15.4440    25.4000   -14.2760 
  129.3750     2.5350    51.2890    17.2830    16.6230    14.4930    24.9500   -14.3140 
  129.5000     2.5390    52.6880    17.3480    16.7050    14.1790    24.6830   -14.3980 
  129.6250     2.5370    54.6570    17.3250    16.7130    14.6450    24.6360   -14.5190 
