~V
VERS. 2.00: Ver 2.00
~W
STRT.M 56.0000:
STOP.M 269.0000:
STEP.M 0.1250:
NULL. -999.2500:
UWI. F11148:
~C
DEPT.M :
GR.API :
RML.OHMM :
RI. :
RXO.OHMM :
SP.MV :
DEN.GM/CC :
CALI.CM :
~A
# ...
  134.7500    80.2530    18.8670    18.1100    20.1500   -14.3570     2.4650    23.1430 
  134.8750    82.0090    18.2490    17.4650    19.1750   -14.2330     2.4580    23.1350 
  135.0000    82.2930    17.9100    17.0510    19.2640   -14.0950     2.4540    23.1590 
  135.1250    79.9480    17.9080    16.9400    19.3700   -14.0060     2.4580    23.2050 
  135.2500    78.4780    18.2140    17.1510    20.0990   -13.9500     2.4680    23.2300 
  135.3750    80.4560    18.5980    17.4980    20.2860   -13.8320     2.4780    23.2330 
  135.5000    83.6650    18.8520    17.7980    21.8200   -13.6680     2.4850    23.2080 
  135.6250    85.0630    18.8210    17.8870    23.3980   -13.5290     2.4890    23.1350 
  135.7500    82.8860    18.4240    17.6470    23.6490   -13.4510     2.4850    23.0880 
  135.8750    79.4800    17.7770    17.1420    21.3970   -13.3490     2.4730    23.0580 
  136.0000    79.3250    16.8830    16.3640    19.0040   -13.1770     2.4540    23.0470 
  136.1250    82.1850    15.6630    15.2350    18.0980   -12.9660     2.4320    23.0640 
  136.2500    84.6850    13.9790    13.6240    16.9240   -12.6930     2.4110    23.1390 
  136.3750    85.8200    11.9980    11.7220    14.7230   -12.3560     2.3920    23.2120 
  136.5000    86.5340     9.9770     9.7870    11.3150   -11.9720     2.3740    23.2880 
  136.6250    87.3840     8.2140     8.0860     8.0710   -11.5310     2.3530    23.3960 
  136.7500    90.8350     7.0040     6.8610     6.2470   -11.0390     2.3300    23.5900 
  136.8750    97.5150     6.2850     6.0610     5.6820   -10.5570     2.3140    23.7730 
  137.0000   103.2300     5.9360     5.6060     5.5800   -10.1110     2.3070    23.9280 
  137.1250   102.9530     5.7920     5.3770     5.5460    -9.6740     2.3020    24.0340 
  137.2500    97.6120     5.7070     5.2640     5.3710    -9.3510     2.2920    24.1250 
  137.3750    92.8480     5.6050     5.1740     5.2140    -9.1370     2.2730    24.1790 
  137.5000    89.9220     5.4960     5.0930     5.1480    -9.0010     2.2500    24.1870 
  137.6250    88.7220     5.4210     5.0380     5.1510    -8.9530     2.2330    24.1500 
  137.7500    87.7020     5.4200     5.0360     5.1910    -9.0210     2.2360    24.0700 
  137.8750    86.3390     5.4710     5.0720     5.2400    -9.1780     2.2530    23.9580 
  138.0000    86.2460     5.5410     5.1160     5.2790    -9.3900     2.2700    23.8350 
  138.1250    88.2740     5.5980     5.1390     5.2700    -9.6350     2.2790    23.6750 
  138.2500    91.1320     5.6140     5.1140     5.2400    -9.9220     2.2890    23.4080 
  138.3750    94.1260     5.6030     5.0540     5.2140   -10.2880     2.3040    23.2110 
  138.5000    95.5110     5.5890     4.9830     5.2290   -10.6950     2.3210    23.1200 
  138.6250    94.3610     5.6020     4.9320     5.3010   -11.0630     2.3290    23.1110 
  138.7500    91.3940     5.6740     4.9320     5.2820   -11.3080     2.3280    23.1510 
  138.8750    89.8200     5.8020     4.9820     5.3500   -11.5010     2.3240    23.2050 
  139.0000    90.0470     5.9680     5.0700     5.4540   -11.7000     2.3220    23.2210 
  139.1250    90.7200     6.1320     5.1670     5.4920   -11.8910     2.3200    23.1790 
  139.2500    90.4960     6.2340     5.2310     5.6220   -11.9510     2.3220    23.0480 
  139.3750    89.0760     6.2440     5.2370     5.8700   -11.9060     2.3260    22.8940 
  139.5000    87.4310     6.1610     5.1770     5.9360   -11.8250     2.3310    22.8080 
  139.6250    86.3580     6.0090     5.0580     5.6580   -11.6890     2.3340    22.7910 
  139.7500    84.9310     5.8420     4.9090     5.2920   -11.5180     2.3320    22.8300 
  139.8750    84.0800     5.7230     4.7830     5.1590   -11.3400     2.3250    22.9700 
  140.0000    84.9140     5.6950     4.7160     5.1580   -11.1490     2.3140    23.2260 
  140.1250    85.6870     5.7820     4.7340     5.1550   -10.9250     2.3040    23.5070 
  140.2500    84.2630     5.9810     4.8450     5.3290   -10.6910     2.2990    23.6580 
  140.3750    83.4600     6.2060     4.9970     5.6820   -10.4790     2.3020    23.7710 
  140.5000    84.6150     6.3680     5.1300     5.9410   -10.2620     2.3100    23.9050 
  140.6250    86.7650     6.3940     5.1820     6.0780   -10.0390     2.3160    24.0130 
  140.7500    88.6190     6.2340     5.1040     6.0240    -9.8020     2.3170    24.0850 
  140.8750    89.2160     5.9670     4.9320     5.8610    -9.5220     2.3120    24.1420 
  141.0000    89.9480     5.6780     4.7180     5.3380    -9.2020     2.3000    24.1700 
  141.1250    91.3350     5.4470     4.5180     4.8860    -8.8900     2.2850    24.1540 
  141.2500    90.7950     5.3340     4.3810     4.7150    -8.6260     2.2740    24.1310 
  141.3750    88.0770     5.3130     4.3070     4.7650    -8.3370     2.2720    24.1120 
  141.5000    85.8170     5.3460     4.2860     4.8320    -8.0620     2.2790    24.0910 
  141.6250    87.7820     5.3980     4.2990     4.8430    -7.8820     2.2950    24.0860 
  141.7500    91.5440     5.4500     4.3340     4.8330    -7.7950     2.3100    24.1130 
  141.8750    92.9800     5.4980     4.3760     4.8600    -7.7380     2.3190    24.1320 
  142.0000    92.0260     5.5420     4.4160     4.9100    -7.6990     2.3240    24.1340 
  142.1250    89.5880     5.5760     4.4450     4.9370    -7.6850     2.3250    24.1330 
  142.2500    88.4870     5.5940     4.4580     5.0030    -7.7400     2.3240    24.1300 
  142.3750    89.7750     5.6050     4.4620     5.0620    -7.8280     2.3260    24.1280 
  142.5000    91.9550     5.6240     4.4690     5.0310    -7.8660     2.3280    24.1270 
  142.6250    92.9430     5.6650     4.4930     4.9590    -7.8800     2.3240    24.1350 
  142.7500    93.1300     5.7300     4.5380     5.0440    -7.9220     2.3120    24.1370 
  142.8750    94.2690     5.7960     4.5870     5.2240    -7.9460     2.3010    24.1020 
  143.0000    95.8220     5.8410     4.6220     5.2870    -7.9380     2.2960    24.0490 
  143.1250    95.7770     5.8490     4.6280     5.3120    -7.9150     2.3000    24.0180 
  143.2500    94.5090     5.8150     4.5980     5.3120    -7.8520     2.3100    23.9690 
  143.3750    92.3360     5.7660     4.5500     5.2060    -7.7590     2.3200    23.8960 
  143.5000    89.3760     5.7250     4.5040     5.0710    -7.6610     2.3210    23.8440 
  143.6250    87.4090     5.7120     4.4740     4.9690    -7.5480     2.3070    23.8370 
  143.7500    89.8630     5.7390     4.4710     4.9550    -7.4310     2.2820    23.8880 
  143.8750    95.7970     5.7940     4.4920     5.0320    -7.3210     2.2580    23.9130 
  144.0000   100.4150     5.8630     4.5310     5.1370    -7.2290     2.2500    23.7750 
  144.1250   100.2270     5.9240     4.5770     5.1820    -7.1440     2.2670    23.6230 
  144.2500    95.1200     5.9560     4.6100     5.1990    -7.0700     2.2960    23.5810 
  144.3750    89.4000     5.9600     4.6230     5.1970    -7.0210     2.3180    23.5970 
  144.5000    85.8750     5.9440     4.6150     5.1870    -6.9860     2.3250    23.6040 
  144.6250    86.5040     5.9170     4.5940     5.1460    -6.9110     2.3230    23.6070 
  144.7500    89.6310     5.8880     4.5670     5.0690    -6.7760     2.3180    23.6100 
  144.8750    90.4570     5.8600     4.5410     5.0270    -6.7180     2.3110    23.6100 
  145.0000    89.7410     5.8390     4.5200     5.0070    -6.7140     2.3040    23.6060 
  145.1250    91.1590     5.8280     4.5040     4.9880    -6.7080     2.3010    23.6020 
  145.2500    94.6740     5.8320     4.4960     4.9880    -6.6500     2.3020    23.6090 
  145.3750    96.7240     5.8440     4.4910     4.9570    -6.5980     2.3020    23.6300 
  145.5000    96.9260     5.8550     4.4910     4.9360    -6.6190     2.2980    23.6400 
  145.6250    96.0230     5.8560     4.4900     4.9550    -6.7190     2.2940    23.5660 
  145.7500    92.2890     5.8400     4.4850     4.9960    -6.8360     2.2990    23.3010 
  145.8750    87.1960     5.8120     4.4740     4.9540    -6.8950     2.3130    23.0970 
