~V
VERS. 2.00: Ver 2.00
~W
STRT.M 58.0000:
STOP.M 206.0000:
STEP.M 0.1250:
NULL. -999.2500:
UWI. F11128:
~C
DEPT.M :
GR.API :
RML.OHMM :
RI. :
RXO.OHMM :
CALI.CM :
SP.MV :
DEN.GM/CC :
~A
# ...
  193.0000    76.2320     7.8410     6.9780     7.1510    23.9960    -4.5840     2.3960 
  193.1250    77.9970     8.1320     7.2410     7.9920    23.9390    -4.6720     2.4270 
  193.2500    77.7370     8.4230     7.5200     9.0240    24.0660    -4.7520     2.4520 
  193.3750    75.4780     8.6890     7.7890     9.2910    24.1620    -4.8400     2.4630 
  193.5000    74.1320     8.9000     8.0210     9.2800    24.1290    -4.9720     2.4630 
  193.6250    75.1650     9.0520     8.2070     9.2580    24.0840    -5.1390     2.4550 
  193.7500    76.5560     9.1470     8.3460     9.2300    24.0870    -5.3530     2.4440 
  193.8750    76.5930     9.2030     8.4500     9.1250    24.1100    -5.5060     2.4340 
  194.0000    75.6180     9.2540     8.5430     9.1200    24.1140    -5.6570     2.4310 
  194.1250    74.5310     9.3330     8.6500     9.2450    24.0680    -5.7890     2.4320 
  194.2500    74.1360     9.4420     8.7800     9.4330    24.0140    -5.9130     2.4270 
  194.3750    74.5170     9.5520     8.9160     9.6850    24.0320    -5.9880     2.4160 
  194.5000    74.5060     9.5800     8.9960     9.8370    24.0990    -6.0350     2.4070 
  194.6250    73.8340     9.4590     8.9560     9.8970    24.1660    -6.1500     2.4060 
  194.7500    73.9330     9.1610     8.7520     9.6700    24.1740    -6.2910     2.4110 
  194.8750    76.8650     8.7150     8.3880     8.9300    24.1170    -6.4460     2.4190 
  195.0000    79.9690     8.2090     7.9210     7.7940    24.0370    -6.4910     2.4240 
  195.1250    79.3720     7.7640     7.4690     6.6600    23.9880    -6.5710     2.4130 
  195.2500    75.9800     7.4430     7.1070     5.9650    24.0080    -6.6450     2.3840 
  195.3750    73.9350     7.2580     6.8690     5.8160    24.1110    -6.7870     2.3550 
  195.5000    75.7580     7.1950     6.7630     6.0810    24.1940    -6.8760     2.3520 
  195.6250    77.8050     7.1880     6.7310     6.3330    24.2190    -6.8700     2.3660 
  195.7500    78.6080     7.2070     6.7390     6.4400    24.1490    -6.8040     2.3780 
  195.8750    78.6080     7.2450     6.7680     6.4790    23.9760    -6.7390     2.3770 
  196.0000    78.6080     7.3200     6.8250     6.5780    23.8580    -6.7000     2.3720 
  196.1250    78.6080     7.4520     6.9270     6.7510    23.9070    -6.7020     2.3720 
  196.2500    78.6080     7.6570     7.0920     7.0540    24.0010    -6.8040     2.3770 
  196.3750    78.6080     7.9350     7.3320     7.5370    24.1180    -6.8790     2.3850 
  196.5000    78.6080     8.2750     7.6480     7.9520    24.1860    -6.9900     2.4020 
  196.6250    78.6080     8.6230     7.9980     8.7080    24.1460    -7.1570     2.4180 
  196.7500    78.6080     8.9200     8.3270     9.5450    24.0350    -7.3410     2.4130 
  196.8750    78.6080     9.1040     8.5720     9.4310    23.9710    -7.5690     2.3800 
  197.0000    78.6080     9.1050     8.6510     9.7450    24.0180    -7.8490     2.3440 
  197.1250    78.6080     8.9590     8.5740     9.4890    24.0740    -8.0900     2.3270 
  197.2500    78.6080     8.7240     8.3810     8.4770    24.1700    -8.1990     2.3270 
  197.3750    78.6080     8.4820     8.1480     7.3830    24.2570    -8.2460     2.3410 
  197.5000    78.6080     8.3290     7.9680     6.9240    24.3550    -8.3180     2.3660 
  197.6250    78.6080     8.2810     7.8790     6.7690    24.4690    -8.3830     2.3880 
  197.7500    78.6080     8.3130     7.8780     6.8720    24.5230    -8.4440     2.3970 
  197.8750    78.6080     8.3740     7.9280     7.4240    24.5000    -8.3860     2.3930 
  198.0000    78.6080     8.3960     7.9740     8.0920    24.4160    -8.2260     2.3870 
  198.1250    78.6080     8.3520     7.9690     8.7360    24.3430    -8.0750     2.3840 
  198.2500    78.6080     8.2470     7.9010     9.4000    24.2670    -7.9610     2.3900 
  198.3750    78.6080     8.1080     7.7850     9.5520    24.1330    -7.8980     2.4060 
  198.5000    78.6080     7.9770     7.6530     9.1660    24.0070    -7.8770     2.4240 
  198.6250    78.6080     7.8870     7.5470     8.4950    23.9020    -7.9070     2.4360 
  198.7500    78.6080     7.8630     7.4980     7.6920    23.8030    -8.0070     2.4410 
  198.8750    78.6080     7.9210     7.5280     6.7940    23.8270    -8.1480     2.4370 
  199.0000    78.6080     8.0710     7.6560     6.5310    24.0000    -8.1180     2.4240 
  199.1250    78.6080     8.2750     7.8500     6.9960    24.1450    -7.9560     2.4050 
  199.2500    78.6080     8.5010     8.0800     7.7530    24.1650    -7.8080     2.3870 
  199.3750    78.6080     8.7130     8.3090     8.5110    24.1520    -7.7210     2.3770 
  199.5000    78.6080     8.8740     8.4990     8.7150    24.1810    -7.7010     2.3700 
  199.6250    78.6080     8.9830     8.6380     8.4610    24.2350    -7.6720     2.3540 
  199.7500    78.6080     9.0460     8.7260     7.9110    24.2650    -7.5470     2.3240 
  199.8750    78.6080     9.0770     8.7720     7.3640    24.2390    -7.4040     2.2920 
  200.0000    78.6080     9.0870     8.7880     6.9660    24.2230    -7.4950     2.2740 
  200.1250    78.6080     9.0880     8.7920     6.6670    24.2000    -7.7550     2.2800 
  200.2500    78.6080     9.0830     8.7940     6.4760    24.2800    -8.0370     2.3100 
  200.3750    78.6080     9.0750     8.7950     6.5620    24.3240    -8.2830     2.3520 
  200.5000    78.6080     9.0670     8.7950     6.8230    24.3030    -8.4150     2.3870 
  200.6250    78.6080     9.0640     8.7940     6.8480    24.2350    -8.5020     2.4080 
  200.7500    78.6080     9.0670     8.7930     6.6650    24.1770    -8.6260     2.4160 
  200.8750    78.6080     9.0730     8.7910     6.4720    24.1060    -8.7950     2.4090 
  201.0000    78.6080     9.0770     8.7900     6.2170    24.0300    -9.0260     2.3850 
  201.1250    78.6080     9.0760     8.7890     6.2540    24.0220    -9.2100     2.3650 
  201.2500    78.6080     9.0710     8.7880     6.4120    24.0790    -9.3360     2.3660 
  201.3750    78.6080     9.0630     8.7870     6.7160    24.2190    -9.4550     2.3820 
  201.5000    78.6080     9.0560     8.7870     7.4840    24.2660    -9.6120     2.3880 
  201.6250    78.6080     9.0530     8.7870     8.2440    24.1930    -9.7410     2.3810 
  201.7500    78.6080     9.0530     8.7870     8.7940    24.1650    -9.8390     2.3780 
  201.8750    78.6080     9.0530     8.7870     8.9420    24.3010    -9.9430     2.3860 
  202.0000    78.6080     9.0530     8.7870     8.7860    24.4420    -9.9830     2.3910 
  202.1250    78.6080     9.0530     8.7870     8.6600    24.5410   -10.0340     2.3830 
  202.2500    78.6080     9.0530     8.7870     8.7950    24.4950   -10.1500     2.3560 
  202.3750    78.6080     9.0530     8.7870     8.9920    24.4300   -10.1750     2.3310 
  202.5000    78.6080     9.0530     8.7870     9.4180    24.7000   -10.1290     2.3310 
  202.6250    78.6080     9.0530     8.7870    10.0620    25.1760   -10.1320     2.3580 
  202.7500    78.6080     9.0530     8.7870    10.5530    25.2930   -10.1580     2.3930 
  202.8750    78.6080     9.0530     8.7870    10.3030    24.7970   -10.1440     2.4150 
  203.0000    78.6080     9.0530     8.7870    10.0590    24.2800   -10.3610     2.4250 
  203.1250    78.6080     9.0530     8.7870     9.7180    23.9500   -10.6720     2.4330 
  203.2500    78.6080     9.0530     8.7870     9.4230    23.8650   -10.9470     2.4380 
  203.3750    78.6080     9.0530     8.7870     9.1630    23.9380   -11.2980     2.4340 
  203.5000    78.6080     9.0530     8.7870     9.2560    24.1450   -11.6850     2.4080 
  203.6250    78.6080     9.0530     8.7870     9.4400    24.2700   -12.0670     2.3450 
  203.7500    78.6080     9.0530     8.7870     9.5590    24.2970   -12.4530     2.2390 
  203.8750    78.6080     9.0530     8.7870     9.3380    24.3260   -12.8300     2.1080 
  204.0000    78.6080     9.0530     8.7870     8.7740    24.5060   -12.8300     1.9500 
  204.1250    78.6080     9.0530     8.7870     8.3720    24.7480   -12.8300     1.7560 
