~V
VERS. 2.00: Ver 2.00
~W
STRT.M 63.0000:
STOP.M 208.0000:
STEP.M 0.1250:
NULL. -999.2500:
UWI. F11108:
~C
DEPT.M :
GR.API :
RML.OHMM :
RI. :
RXO.OHMM :
CALI.CM :
SP.MV :
DEN.GM/CC :
~A
# ...
  198.0000    72.5590     6.2500     5.2430     6.0540    24.1600    -6.6440     2.4330 
  198.1250    72.5590     6.1930     5.1550     6.0270    24.1090    -6.6180     2.4210 
  198.2500    72.5590     6.2030     5.1210     6.3160    24.1490    -6.6010     2.4080 
  198.3750    72.5590     6.2840     5.1490     6.1470    24.2930    -6.5380     2.4000 
  198.5000    72.5590     6.4350     5.2410     5.7180    24.4060    -6.4180     2.4000 
  198.6250    72.5590     6.6460     5.3980     5.5500    24.4180    -6.3260     2.4100 
  198.7500    72.5590     6.8740     5.5860     5.7410    24.3550    -6.3170     2.4220 
  198.8750    72.5590     7.0800     5.7700     6.0510    24.2740    -6.3350     2.4320 
  199.0000    72.5590     7.2250     5.9090     6.3580    24.2910    -6.3140     2.4360 
  199.1250    72.5590     7.2800     5.9680     6.7920    24.4870    -6.2590     2.4360 
  199.2500    72.5590     7.2820     5.9680     7.0230    24.7370    -6.2470     2.4350 
  199.3750    72.5590     7.2790     5.9490     6.7770    24.8830    -6.2850     2.4290 
  199.5000    72.5590     7.3290     5.9620     6.1920    24.9110    -6.3930     2.4160 
  199.6250    72.5590     7.4870     6.0700     5.4050    24.8440    -6.5660     2.3980 
  199.7500    72.5590     7.7380     6.2740     5.4260    24.7390    -6.7200     2.3860 
  199.8750    72.5590     8.0450     6.5580     6.4910    24.7280    -6.8740     2.3880 
  200.0000    72.5590     8.3560     6.8810     7.8230    24.7550    -7.0520     2.4030 
  200.1250    72.5590     8.6050     7.1850     8.1930    24.7440    -7.2390     2.4160 
  200.2500    72.5590     8.7640     7.4260     7.9010    24.7060    -7.4000     2.4170 
  200.3750    72.5590     8.8230     7.5810     7.9300    24.6370    -7.5440     2.4060 
  200.5000    72.5590     8.7830     7.6380     7.8700    24.6230    -7.6140     2.3920 
  200.6250    72.5590     8.6290     7.5670     7.6290    24.6590    -7.6050     2.3860 
  200.7500    72.5590     8.3640     7.3670     7.4090    24.6800    -7.5740     2.3880 
  200.8750    72.5590     7.9860     7.0350     8.1040    24.5680    -7.5070     2.3970 
  201.0000    72.5590     7.5140     6.5920     9.3820    24.5300    -7.4130     2.4090 
  201.1250    72.5590     7.0210     6.1040     9.4610    24.9510    -7.2420     2.4190 
  201.2500    72.5590     6.6100     5.6710     8.3400    25.9380    -7.0650     2.4160 
  201.3750    72.5590     6.3590     5.3670     7.1180    26.6420    -6.9110     2.3920 
  201.5000    72.5590     6.3080     5.2380     5.8840    26.2370    -6.8020     2.3430 
  201.6250    72.5590     6.4850     5.3290     4.3910    25.4010    -6.6860     2.2720 
  201.7500    72.5590     6.8190     5.5930     3.4980    25.4050    -6.5610     2.1970 
  201.8750    72.5590     7.2680     6.0020     3.2290    25.7750    -6.4410     2.1370 
  202.0000    72.5590     7.7920     6.5110     3.6350    25.7460    -6.3690     2.1110 
  202.1250    72.5590     8.3480     7.0670     5.2530    25.0670    -6.3730     2.1350 
  202.2500    72.5590     8.8780     7.6010     7.9050    24.5390    -6.4020     2.1970 
  202.3750    72.5590     9.3350     8.0620     9.6930    24.3940    -6.4410     2.2740 
  202.5000    72.5590     9.6800     8.4150     9.9590    24.3810    -6.4670     2.3460 
  202.6250    72.5590     9.8810     8.6300     9.7290    24.3180    -6.4590     2.3990 
  202.7500    72.5590     9.9730     8.7460    10.1680    24.2770    -6.4420     2.4360 
  202.8750    72.5590     9.9750     8.7930    10.5150    24.2800    -6.4710     2.4610 
  203.0000    72.5590     9.9040     8.8040    10.1860    24.2090    -6.4910     2.4740 
  203.1250    72.5590     9.7880     8.8020     9.0950    24.1370    -6.4540     2.4660 
  203.2500    72.5590     9.6900     8.7980     8.4220    24.0910    -6.3870     2.4390 
  203.3750    72.5590     9.6610     8.7970     8.1910    24.0760    -6.2880     2.4020 
  203.5000    72.5590     9.7030     8.7970     8.6790    24.0890    -6.1670     2.3670 
  203.6250    72.5590     9.7660     8.7990     9.8750    24.2410    -6.0940     2.3470 
  203.7500    72.5590     9.7980     8.8000    10.3110    24.3650    -6.0670     2.3470 
  203.8750    72.5590     9.8010     8.8000     9.9740    24.3940    -6.0530     2.3650 
  204.0000    72.5590     9.7990     8.8000     9.9540    24.3350    -6.0090     2.3960 
  204.1250    72.5590     9.8000     8.8000    10.0500    24.2580    -5.9450     2.4310 
  204.2500    72.5590     9.8000     8.8000     9.9690    24.2140    -5.8870     2.4580 
  204.3750    72.5590     9.8000     8.8000     9.8270    24.1980    -5.8150     2.4710 
  204.5000    72.5590     9.8000     8.8000     9.7020    24.2040    -5.7770     2.4720 
  204.6250    72.5590     9.8000     8.8000     9.4520    24.2240    -5.8040     2.4690 
  204.7500    72.5590     9.8000     8.8000     9.1760    24.2270    -5.7950     2.4670 
  204.8750    72.5590     9.8000     8.8000     9.1450    24.2460    -5.7220     2.4650 
  205.0000    72.5590     9.8000     8.8000     8.2580    24.3300    -5.6670     2.4580 
  205.1250    72.5590     9.8000     8.8000     7.7340    24.3240    -5.6730     2.4370 
  205.2500    72.5590     9.8000     8.8000     7.8110    24.1170    -5.6910     2.4060 
  205.3750    72.5590     9.8000     8.8000     8.6810    23.9120    -5.7600     2.3760 
  205.5000    72.5590     9.8000     8.8000     9.3910    23.8860    -5.8870     2.3590 
  205.6250    72.5590     9.8000     8.8000     9.4430    23.8580    -6.0070     2.3650 
  205.7500    72.5590     9.8000     8.8000     9.2980    23.8920    -6.1460     2.3900 
  205.8750    72.5590     9.8000     8.8000     9.6850    23.9560    -6.3490     2.4250 
  206.0000    72.5590     9.8000     8.8000    10.4350    23.9200    -6.5640     2.4610 
  206.1250    72.5590     9.8000     8.8000    11.7620    23.8730    -6.7310     2.4920 
  206.2500    72.5590     9.8000     8.8000    14.9190    23.8630    -6.8850     2.5180 
  206.3750    72.5590     9.8000     8.8000    18.7990    23.8360    -7.0340     2.5340 
  206.5000    72.5590     9.8000     8.8000    16.3080    23.7700    -7.0650     2.5310 
  206.6250    72.5590     9.8000     8.8000    15.4970    23.6460    -7.0650     2.4970 
  206.7500    72.5590     9.8000     8.8000    13.9920    23.4570  -999.2500     2.4360 
  206.8750    72.5590     9.8000     8.8000    11.6600    23.2200  -999.2500     2.3540 
  207.0000    72.5590     9.8000     8.8000    10.6720    22.8600  -999.2500     2.2630 
  207.1250    72.5590     9.8000     8.8000    10.2160    22.0140  -999.2500     2.1740 
  207.2500    72.5590     9.8000     8.8000     9.1330    20.6500  -999.2500     2.0950 
  207.3750    72.5590     9.8000     8.8000     7.8310    18.9040  -999.2500     2.0320 
  207.5000    72.5590     9.8000     8.8000     7.0250    17.0670  -999.2500     1.9870 
  207.6250    72.5590     9.8000     8.8000     6.7670    16.2670  -999.2500     1.9640 
  207.7500    72.5590     9.8000     8.8000     6.7210    16.0190  -999.2500     1.9550 
  207.8750    72.5590     9.8000     8.8000     6.7160    16.0000  -999.2500     1.9530 
  208.0000    72.5590     9.8000     8.8000     6.7140    15.9970  -999.2500     1.9530 
