~V
VERS. 2.00: Ver 2.00
~W
STRT.M 50.0000:
STOP.M 243.0000:
STEP.M 0.1250:
NULL. -999.2500:
UWI. F11115:
~C
DEPT.M :
DEN.GM/CC :
GR.API :
RML.OHMM :
RI. :
RXO.OHMM :
CALI.CM :
SP.MV :
~A
# ...
  106.2500     2.1980    62.9900     8.4530     6.8580    11.3230    25.9670   -37.4530 
  106.3750     2.1880    61.5760     8.3320     6.8020    11.6540    25.9690   -37.4040 
  106.5000     2.1670    59.5230     8.2000     6.7250    11.7940    25.9700   -37.3240 
  106.6250     2.1440    60.4250     8.0700     6.6230    11.5600    25.9670   -37.1860 
  106.7500     2.1270    63.0310     7.9430     6.5100    11.2910    25.9700   -36.9520 
  106.8750     2.1200    65.4500     7.8320     6.4070    11.1400    25.9910   -36.5990 
  107.0000     2.1230    66.3870     7.7800     6.3530    11.0680    26.0230   -36.1470 
  107.1250     2.1290    67.1090     7.8670     6.4010    10.8900    26.0420   -35.6450 
  107.2500     2.1400    67.4920     8.0830     6.5370    10.8100    26.0470   -35.1320 
  107.3750     2.1640    68.3470     8.3710     6.7290    11.6110    26.0480   -34.6150 
  107.5000     2.2030    69.6590     8.6290     6.9210    14.1540    26.0460   -34.1360 
  107.6250     2.2410    67.9370     8.7280     7.0420    17.5450    26.0410   -33.7790 
  107.7500     2.2620    64.3010     8.6740     7.0700    15.3780    26.0370   -33.5480 
  107.8750     2.2600    64.0750     8.5330     7.0120    11.8440    26.0370   -33.4190 
  108.0000     2.2420    70.3820     8.3840     6.9040    10.3260    26.0420   -33.3620 
  108.1250     2.2250    76.5540     8.2770     6.7950    10.3930    26.0740   -33.3940 
  108.2500     2.2130    76.1170     8.2100     6.7230    10.6830    26.1440   -33.4940 
  108.3750     2.2010    72.6950     8.1760     6.6910    10.9340    26.2270   -33.6220 
  108.5000     2.1850    71.3240     8.1660     6.6770    11.1990    26.2840   -33.7150 
  108.6250     2.1690    71.5200     8.1790     6.6540    10.8450    26.2980   -33.7220 
  108.7500     2.1600    68.9510     8.2250     6.6380    10.6540    26.2990   -33.6660 
  108.8750     2.1570    64.3740     8.3350     6.6790    10.6510    26.3000   -33.5620 
  109.0000     2.1600    60.9680     8.5550     6.8340    10.7360    26.2990   -33.3930 
  109.1250     2.1640    61.6240     8.9830     7.1740    11.4040    26.3010   -33.1420 
  109.2500     2.1680    64.9420     9.6180     7.6660    13.1700    26.3040   -32.8570 
  109.3750     2.1750    68.8440    10.4100     8.2590    16.2410    26.3000   -32.5630 
  109.5000     2.1860    72.2300    11.2440     8.8770    18.4250    26.2860   -32.2500 
  109.6250     2.2040    75.1160    11.9240     9.4000    18.1010    26.2680   -31.9370 
  109.7500     2.2280    76.2100    12.3040     9.7350    18.0170    26.2590   -31.6310 
  109.8750     2.2560    74.7360    12.3080     9.8190    18.2920    26.2580   -31.3420 
  110.0000     2.2870    71.8260    11.9590     9.6520    18.6430    26.2580   -31.0950 
  110.1250     2.3090    71.6010    11.3420     9.2640    18.9940    26.2560   -30.9420 
  110.2500     2.3120    73.6290    10.6450     8.7760    16.8950    26.2520   -30.8730 
  110.3750     2.2920    73.9520     9.9670     8.2670    13.1170    26.2480   -30.8900 
  110.5000     2.2570    70.4780     9.3760     7.8010    10.8680    26.2500   -30.9760 
  110.6250     2.2180    64.9000     8.9380     7.4390    10.4000    26.2670   -31.0650 
  110.7500     2.1900    61.7310     8.6580     7.1870    10.5020    26.2910   -31.1230 
  110.8750     2.1760    61.7410     8.5180     7.0310    10.5790    26.3450   -31.1280 
  111.0000     2.1790    63.4600     8.4530     6.9280    10.4370    26.4580   -31.0230 
  111.1250     2.1970    66.2380     8.3640     6.8210    10.5400    26.6100   -30.7490 
  111.2500     2.2180    70.1840     8.1960     6.6890    11.7300    26.7220   -30.3880 
  111.3750     2.2290    76.4390     7.9690     6.5480    13.2500    26.7650   -30.0310 
  111.5000     2.2240    81.5430     7.7520     6.4290    12.1170    26.7690   -29.7320 
  111.6250     2.2020    80.0910     7.6390     6.3610    10.5910    26.7710   -29.5650 
  111.7500     2.1760    77.1890     7.6190     6.3390     9.9380    26.7750   -29.5360 
  111.8750     2.1520    73.9650     7.6580     6.3340     9.9820    26.7790   -29.6320 
  112.0000     2.1350    70.4130     7.7970     6.3430    10.0960    26.7840   -29.8050 
  112.1250     2.1300    70.1320     8.0340     6.3760    10.1980    26.7830   -29.9760 
  112.2500     2.1360    70.4830     8.2960     6.4270    10.0690    26.7790   -30.0840 
  112.3750     2.1510    71.3260     8.5190     6.4890     9.8690    26.7700   -30.0950 
  112.5000     2.1720    72.5410     8.6340     6.5420     9.9880    26.7530   -29.9950 
  112.6250     2.1860    72.8370     8.5500     6.5520    10.3100    26.7250   -29.7570 
  112.7500     2.1840    71.0930     8.3180     6.5260    10.7340    26.6880   -29.4170 
  112.8750     2.1670    68.9810     8.1160     6.5320    11.1480    26.6490   -29.0150 
  113.0000     2.1490    68.8850     8.2500     6.7100    11.6760    26.5900   -28.5370 
  113.1250     2.1670    68.9650     9.1950     7.3180    12.9380    26.4900   -27.9430 
  113.2500     2.2430    66.0190    10.9810     8.4280    15.6060    26.4330   -27.5360 
  113.3750     2.3620    63.8420    13.3410     9.9610    20.9770    26.5080   -27.0640 
  113.5000     2.4690    66.5270    15.4830    11.5000    30.5020    26.6920   -26.2060 
  113.6250     2.4890    71.5850    15.8110    12.0290    41.6700    26.8290   -25.2830 
  113.7500     2.4370    76.2250    14.0090    11.1580    37.1360    26.8890   -24.3830 
  113.8750     2.3590    80.9230    11.0280     9.3180    20.2450    26.9590   -23.5680 
  114.0000     2.2940    85.2900     8.2300     7.3310     8.3800    27.0760   -22.8900 
  114.1250     2.2570    90.6340     6.4750     5.8350     5.4800    27.1670   -22.4470 
  114.2500     2.2400    97.3630     5.5510     4.8720     4.8110    27.1950   -22.2290 
  114.3750     2.2400   101.8800     5.1830     4.3470     4.8490    27.1900   -22.2470 
  114.5000     2.2530   102.4520     5.1080     4.1270     4.8760    27.1870   -22.5060 
  114.6250     2.2760   104.1000     5.1130     4.0870     4.6980    27.1900   -22.9690 
  114.7500     2.2920   108.0630     5.1100     4.1110     4.5160    27.1940   -23.5200 
  114.8750     2.2920   107.7640     5.1490     4.1870     4.5010    27.1980   -24.1430 
  115.0000     2.2730    99.7550     5.2970     4.3320     4.6690    27.1970   -24.8670 
  115.1250     2.2420    88.6030     5.5730     4.5590     5.1820    27.1920   -25.6940 
  115.2500     2.2120    79.6160     5.9040     4.8230     6.3290    27.1880   -26.5740 
  115.3750     2.1910    74.8190     6.2330     5.0800     8.0210    27.1890   -27.5100 
  115.5000     2.1810    72.9370     6.5190     5.2950     8.9990    27.1930   -28.5020 
  115.6250     2.1770    72.2750     6.7480     5.4610     8.7160    27.1980   -29.5340 
  115.7500     2.1720    71.9890     6.9440     5.6100     8.5020    27.2010   -30.5490 
  115.8750     2.1640    70.5820     7.1150     5.7530     8.9570    27.1990   -31.5010 
  116.0000     2.1560    67.2100     7.2500     5.8710     9.6560    27.1950   -32.3430 
  116.1250     2.1530    63.2150     7.3020     5.9090     9.9560    27.1900   -33.0070 
  116.2500     2.1550    61.0190     7.2450     5.8520     9.9020    27.1750   -33.4770 
  116.3750     2.1590    62.1220     7.0700     5.7150     9.5990    27.1460   -33.7340 
  116.5000     2.1620    66.4020     6.8200     5.5480     9.1950    27.1140   -33.8150 
  116.6250     2.1630    70.9050     6.6140     5.4290     8.7440    27.0980   -33.7580 
  116.7500     2.1650    71.1980     6.5500     5.4040     8.8030    27.0930   -33.5970 
  116.8750     2.1680    68.6060     6.6640     5.4860     8.8990    27.0880   -33.3530 
  117.0000     2.1710    67.3950     6.9270     5.6540     8.7810    27.0840   -33.0680 
  117.1250     2.1730    68.9630     7.1980     5.8230     8.5670    27.0860   -32.8190 
  117.2500     2.1820    69.1620     7.2620     5.8560     8.7750    27.0920   -32.6000 
  117.3750     2.2020    68.6200     6.9620     5.6490     9.0080    27.0940   -32.3640 
