~V
VERS. 2.00: Ver 2.00
~W
STRT.M 63.0000:
STOP.M 219.0000:
STEP.M 0.1250:
NULL. -999.2500:
UWI. F11123:
~C
DEPT.M :
GR.API :
RML.OHMM :
RI. :
RXO.OHMM :
CALI.CM :
SP.MV :
DEN.GM/CC :
~A
# ...
   96.7500    70.2440     9.3840     7.2860     9.3380    24.7370    -7.2650     2.2210 
   96.8750    72.9670     8.9090     6.9580     8.1220    24.8240    -6.0680     2.2410 
   97.0000    75.4350     8.4590     6.5900     7.1840    24.8950    -4.8140     2.2520 
   97.1250    78.6180     8.1330     6.2760     6.5390    24.9830    -3.6340     2.2600 
   97.2500    82.2090     7.9260     6.0530     6.2340    24.9430    -2.6110     2.2760 
   97.3750    85.3420     7.8200     5.9360     6.0850    24.8610    -1.8450     2.3020 
   97.5000    86.6460     7.7960     5.9260     6.0960    24.8340    -1.3970     2.3270 
   97.6250    84.8030     7.8770     6.0270     6.1480    24.8210    -1.3110     2.3320 
   97.7500    81.5840     8.0650     6.2000     6.3730    24.8150    -1.4700     2.3170 
   97.8750    79.9700     8.3410     6.4150     6.8330    24.7990    -1.7900     2.2910 
   98.0000    80.0390     8.6530     6.6320     7.2020    24.7030    -2.2040     2.2660 
   98.1250    77.1050     8.9060     6.7990     7.1470    24.5770    -2.6450     2.2520 
   98.2500    71.9470     9.0250     6.8950     7.0250    24.5300    -3.0730     2.2440 
   98.3750    69.8560     8.9940     6.9200     7.1620    24.5080    -3.4450     2.2380 
   98.5000    72.3080     8.8540     6.8870     7.3710    24.5020    -3.7470     2.2320 
   98.6250    74.5770     8.6950     6.8180     7.3430    24.4990    -3.9570     2.2250 
   98.7500    73.7220     8.5890     6.7390     7.2590    24.5090    -4.1040     2.2220 
   98.8750    72.2950     8.5530     6.6590     7.0310    24.5190    -4.1940     2.2260 
   99.0000    71.7420     8.5870     6.6020     6.6860    24.5250    -4.2280     2.2320 
   99.1250    71.7530     8.7070     6.6120     6.4750    24.5250    -4.2370     2.2390 
   99.2500    73.3570     8.9060     6.6980     6.4980    24.5440    -4.2650     2.2530 
   99.3750    75.5710     9.1540     6.8480     6.8530    24.5620    -4.3470     2.2810 
   99.5000    76.3990     9.3900     7.0250     7.2880    24.5570    -4.5080     2.3190 
   99.6250    75.4770     9.5180     7.1690     7.4750    24.4810    -4.7530     2.3480 
   99.7500    73.6410     9.5190     7.2470     7.4360    24.4010    -5.0360     2.3470 
   99.8750    72.8080     9.4420     7.2660     7.4130    24.3890    -5.3290     2.3180 
  100.0000    72.4530     9.3720     7.2620     7.5390    24.3890    -5.6090     2.2760 
  100.1250    72.7940     9.3910     7.2710     8.1740    24.3760    -5.8510     2.2460 
  100.2500    72.2760     9.4850     7.2980     8.6770    24.3440    -6.0610     2.2330 
  100.3750    70.3290     9.5890     7.3190     8.8520    24.3620    -6.2500     2.2300 
  100.5000    68.4850     9.6070     7.2900     8.6670    24.3770    -6.4450     2.2320 
  100.6250    70.1610     9.4420     7.1620     8.3150    24.3620    -6.6550     2.2340 
  100.7500    74.6070     9.1670     6.9680     8.1500    24.3030    -6.8980     2.2380 
  100.8750    77.2000     8.9290     6.7900     8.3450    24.2730    -7.1720     2.2450 
  101.0000    76.4770     8.9090     6.7330     8.6520    24.2680    -7.4890     2.2560 
  101.1250    76.3060     9.3160     6.9380     8.5250    24.3160    -7.8550     2.2670 
  101.2500    76.3120    10.1100     7.4080     9.1630    24.4680    -8.2750     2.2670 
  101.3750    73.1660    11.1440     8.0870    11.7450    24.4450    -8.7470     2.2500 
  101.5000    66.3960    12.1390     8.8250    18.2760    24.2950    -9.2700     2.2190 
  101.6250    62.3850    12.7140     9.3910    20.3890    24.2690    -9.8540     2.1870 
  101.7500    63.9230    12.8480     9.7000    16.1010    24.1580   -10.4540     2.1660 
  101.8750    68.2310    12.7430     9.8150    12.0430    24.1310   -11.0460     2.1630 
  102.0000    70.0550    12.6990     9.8810    10.9890    24.1720   -11.5980     2.1750 
  102.1250    66.4480    12.9520    10.0460    12.7860    24.3630   -12.0940     2.2000 
  102.2500    64.2330    13.3360    10.2680    15.6560    24.6220   -12.5120     2.2360 
  102.3750    66.3980    13.5170    10.3850    15.7060    24.6950   -12.8520     2.2790 
  102.5000    69.9480    13.1940    10.2230    13.2000    24.7230   -13.1040     2.3180 
  102.6250    70.2200    12.2710     9.6960    11.7240    24.7970   -13.2750     2.3280 
  102.7500    67.9100    11.1620     9.0090    11.0100    24.8810   -13.4100     2.3070 
  102.8750    65.9210    10.2190     8.3580    10.2360    24.8770   -13.5380     2.2660 
  103.0000    65.4550     9.6660     7.8940    10.1280    24.7740   -13.6530     2.2250 
  103.1250    66.2740     9.6290     7.7350    11.0280    24.7130   -13.7830     2.2080 
  103.2500    67.8130     9.9610     7.8400    11.3850    24.7050   -13.9190     2.2150 
  103.3750    69.0080    10.5540     8.1720    11.4380    24.7130   -14.0640     2.2300 
  103.5000    68.9150    11.2670     8.6500    11.9780    24.7280   -14.2160     2.2360 
  103.6250    66.0040    11.8890     9.1310    14.5300    24.8570   -14.3550     2.2200 
  103.7500    62.5230    12.2460     9.4670    19.4240    24.9040   -14.4770     2.1940 
  103.8750    61.0250    12.2570     9.5810    21.7170    24.7390   -14.5990     2.1720 
  104.0000    61.6520    11.9540     9.4730    16.6010    24.5460   -14.7340     2.1620 
  104.1250    60.8770    11.4810     9.2150    12.8140    24.4850   -14.8740     2.1630 
  104.2500    56.9720    11.0620     8.9580    11.5210    24.4800   -15.0100     2.1690 
  104.3750    53.4370    10.8220     8.7880    11.5200    24.4720   -15.1190     2.1750 
  104.5000    54.0900    10.7940     8.7390    11.6990    24.4540   -15.1830     2.1830 
  104.6250    58.6480    10.9380     8.8060    11.6690    24.4610   -15.2000     2.1940 
  104.7500    62.7380    11.1300     8.9180    11.5300    24.5100   -15.1910     2.2040 
  104.8750    64.4550    11.2840     9.0230    11.3780    24.5500   -15.1540     2.2100 
  105.0000    64.0900    11.3220     9.0670    11.2240    24.5560   -15.1050     2.2100 
  105.1250    63.2910    11.1410     8.9720    11.0810    24.5560   -15.0340     2.2090 
  105.2500    64.0410    10.7710     8.7430    10.8870    24.5290   -14.9610     2.2120 
  105.3750    65.6640    10.2890     8.4200    10.3340    24.4750   -14.9000     2.2170 
  105.5000    66.1760     9.8180     8.0800     9.3220    24.4490   -14.8750     2.2210 
  105.6250    65.2750     9.5290     7.8390     8.4930    24.4270   -14.9140     2.2220 
  105.7500    64.1660     9.4730     7.7480     8.7000    24.4040   -15.0150     2.2220 
  105.8750    62.0550     9.6270     7.8090     9.3950    24.4390   -15.1940     2.2180 
  106.0000    58.4260     9.9030     7.9760    10.2300    24.4410   -15.4430     2.2110 
  106.1250    54.9900    10.1580     8.1620    10.1670    24.4530   -15.7180     2.1980 
  106.2500    53.4630    10.2990     8.2890    10.5200    24.4500   -15.9770     2.1850 
  106.3750    55.6230    10.3240     8.3340    10.3170    24.4500   -16.1750     2.1740 
  106.5000    60.6020    10.2950     8.3230     9.8910    24.4880   -16.2770     2.1700 
  106.6250    64.9570    10.2940     8.3050     9.7650    24.4820   -16.2520     2.1730 
  106.7500    65.8340    10.3310     8.3040     9.9420    24.5080   -16.1470     2.1780 
  106.8750    64.2210    10.3760     8.3210     9.9850    24.5770   -15.9730     2.1840 
  107.0000    64.0540    10.3950     8.3460     9.8630    24.9150   -15.7440     2.1870 
  107.1250    66.5100    10.3100     8.3810     9.5280    24.5540   -15.4930     2.1840 
  107.2500    62.0170    10.2130     8.3840     9.2310    24.5300   -15.2240     2.1770 
  107.3750    55.5990    10.0940     8.3760     9.0500    24.4830   -14.9580     2.1680 
  107.5000    53.4980     9.9690     8.3620     9.0970    24.6720   -14.7220     2.1620 
  107.6250    57.0490     9.8600     8.3510     9.1160    24.9630   -14.4960     2.1600 
  107.7500    60.6600     9.7830     8.3520     9.0240    24.5480   -14.2820     2.1600 
  107.8750    62.5190     9.7210     8.3680     9.0640    24.5070   -14.0450     2.1620 
