~V
VERS. 2.00: Ver 2.00
~W
STRT.M 14.0000:
STOP.M 209.0000:
STEP.M 0.1250:
NULL. -999.2500:
UWI. F11100:
~C
DEPT.M :
GR.API :
RML.OHMM :
RI. :
RXO.OHMM :
CALI.CM :
SP.MV :
DEN.GM/CC :
~A
# ...
  104.0000    85.7580     5.4090     4.3460     4.8050    26.4920    -3.4360     2.1500 
  104.1250    83.6480     5.9170     4.5600     5.0470    26.4750    -3.8010     2.1590 
  104.2500    83.2210     7.1250     5.1960     6.7460    26.4480    -4.2630     2.2090 
  104.3750    83.8730     8.9310     6.2320    12.1580    26.4260    -4.8880     2.3070 
  104.5000    81.6600    10.9250     7.4790    21.3040    26.4070    -5.6720     2.4180 
  104.6250    76.2970    12.1420     8.4360    23.8570    26.2990    -6.6290     2.4570 
  104.7500    71.0300    12.0400     8.7040    17.9660    26.0600    -7.6610     2.4090 
  104.8750    68.1510    10.8490     8.2700    11.8860    25.7700    -8.7060     2.3110 
  105.0000    67.2530     9.3150     7.4610     9.0490    25.5670    -9.7070     2.2100 
  105.1250    69.4870     8.1660     6.6920     8.0850    25.5120   -10.5950     2.1400 
  105.2500    72.2480     7.5260     6.1640     7.6560    25.5170   -11.3440     2.1000 
  105.3750    71.5990     7.2830     5.8860     7.5360    25.5310   -11.9680     2.0830 
  105.5000    66.9310     7.2840     5.7980     7.6680    25.5380   -12.4900     2.0770 
  105.6250    63.0740     7.4220     5.8330     7.8290    25.5340   -12.9040     2.0770 
  105.7500    64.6230     7.5950     5.9010     8.0420    25.5400   -13.2340     2.0810 
  105.8750    68.5770     7.7500     5.9620     8.2290    25.5620   -13.4660     2.0880 
  106.0000    69.4420     7.8420     5.9920     8.2800    25.5830   -13.6200     2.0990 
  106.1250    66.7790     7.8360     5.9860     8.2960    25.5900   -13.6800     2.1100 
  106.2500    66.1850     7.7650     5.9580     8.2620    25.5930   -13.6850     2.1200 
  106.3750    68.5260     7.6530     5.9180     8.0860    25.5930   -13.6390     2.1260 
  106.5000    69.8770     7.5270     5.8750     7.9750    25.5900   -13.5760     2.1290 
  106.6250    67.8550     7.4340     5.8360     7.9780    25.5880   -13.5350     2.1260 
  106.7500    65.2060     7.4140     5.8060     7.9350    25.5900   -13.5430     2.1210 
  106.8750    64.7940     7.4750     5.7880     7.9070    25.5950   -13.5880     2.1170 
  107.0000    65.9000     7.5910     5.7790     7.8940    25.6040   -13.6440     2.1170 
  107.1250    64.2070     7.7110     5.7770     7.7540    25.6200   -13.6980     2.1210 
  107.2500    59.8350     7.7980     5.7810     7.6430    25.6260   -13.7340     2.1250 
  107.3750    58.2580     7.8540     5.7950     7.7900    25.6200   -13.7390     2.1280 
  107.5000    61.6700     7.9120     5.8230     7.9300    25.6200   -13.7000     2.1280 
  107.6250    64.5460     7.9930     5.8680     7.9010    25.6390   -13.6340     2.1290 
  107.7500    62.6670     8.0800     5.9210     7.9650    25.6600   -13.5460     2.1330 
  107.8750    58.4140     8.1470     5.9660     8.2030    25.6780   -13.4700     2.1390 
  108.0000    57.2250     8.1630     5.9870     8.4010    25.7170   -13.3940     2.1450 
  108.1250    59.1150     8.1110     5.9690     8.3380    25.7460   -13.3160     2.1470 
  108.2500    60.3800     8.0220     5.9250     8.0410    25.7110   -13.2100     2.1450 
  108.3750    61.0940     7.9360     5.8740     7.6400    25.6720   -13.0800     2.1400 
  108.5000    61.9880     7.8930     5.8400     7.3080    25.7010   -12.9210     2.1330 
  108.6250    62.0670     7.9150     5.8490     7.4260    25.7770   -12.7590     2.1300 
  108.7500    60.7650     7.9650     5.8920     7.8730    25.8180   -12.5980     2.1300 
  108.8750    62.4100     8.0050     5.9500     8.3300    25.8310   -12.4600     2.1290 
  109.0000    68.2320     8.0220     6.0030     8.4810    25.8710   -12.3340     2.1260 
  109.1250    71.5350     8.0320     6.0390     8.4910    25.9280   -12.2090     2.1230 
  109.2500    68.9310     8.0570     6.0670     8.5450    26.0000   -12.0510     2.1200 
  109.3750    64.3030     8.1050     6.1060     8.6390    26.0900   -11.8220     2.1210 
  109.5000    62.8530     8.1720     6.1610     8.7840    26.1810   -11.5120     2.1240 
  109.6250    64.9170     8.2350     6.2190     8.9730    26.2380   -11.1030     2.1300 
  109.7500    66.9470     8.2620     6.2520     8.9340    26.2590   -10.6440     2.1340 
  109.8750    68.3630     8.2310     6.2410     8.6850    26.2620   -10.1540     2.1370 
  110.0000    68.0210     8.1480     6.1890     8.4900    26.2600    -9.6640     2.1390 
  110.1250    66.4630     8.1070     6.1540     8.5610    26.2540    -9.1610     2.1380 
  110.2500    66.0880     8.2550     6.2250     8.6460    26.2360    -8.6350     2.1330 
  110.3750    66.9530     8.6640     6.4530     8.7970    26.2130    -8.0480     2.1330 
  110.5000    67.3720     9.2570     6.8110     8.9920    26.1850    -7.3760     2.1550 
  110.6250    68.0130     9.7350     7.1530    10.1290    26.1520    -6.5900     2.2120 
  110.7500    69.3470     9.7590     7.2740    12.0900    26.1650    -5.7090     2.2810 
  110.8750    70.6160     9.1640     7.0480    11.4630    26.2650    -4.7890     2.3280 
  111.0000    73.6510     8.0690     6.4980     6.8680    26.4170    -3.8860     2.3300 
  111.1250    82.3720     6.8320     5.7890     4.9650    26.5240    -3.1050     2.2930 
  111.2500    90.1520     5.8030     5.1450     4.4080    26.5920    -2.4690     2.2530 
  111.3750    90.9520     5.1030     4.6640     4.3850    26.6690    -1.9990     2.2300 
  111.5000    88.7390     4.7430     4.3700     4.3610    26.7520    -1.6840     2.2240 
  111.6250    91.2460     4.6770     4.2410     4.2090    26.7950    -1.5560     2.2260 
  111.7500    95.7990     4.7270     4.1780     4.2260    26.8020    -1.5780     2.2300 
  111.8750    96.6340     4.7900     4.1300     4.2730    26.7980    -1.7320     2.2340 
  112.0000    93.8150     4.8340     4.0920     4.2750    26.7960    -2.0240     2.2390 
  112.1250    91.4670     4.9100     4.1080     4.1480    26.8080    -2.4830     2.2460 
  112.2500    88.8590     5.0970     4.2170     4.2750    26.8140    -3.1140     2.2550 
  112.3750    84.1060     5.4390     4.4370     5.1390    26.7890    -3.9080     2.2630 
  112.5000    77.1370     5.9240     4.7620     6.6410    26.7450    -4.8330     2.2630 
  112.6250    70.0610     6.4670     5.1490     8.8420    26.7210    -5.8150     2.2470 
  112.7500    64.3920     6.9340     5.5090     8.5270    26.7300    -6.7790     2.2210 
  112.8750    61.8180     7.2390     5.7820     7.9600    26.7450    -7.6680     2.1930 
  113.0000    62.0770     7.3570     5.9410     7.7280    26.7420    -8.4320     2.1730 
  113.1250    61.6270     7.3170     5.9930     7.6710    26.7390    -8.9960     2.1670 
  113.2500    60.5920     7.2290     5.9940     7.7290    26.7760    -9.3830     2.1670 
  113.3750    60.1070     7.1510     5.9770     7.8250    26.8460    -9.6040     2.1680 
  113.5000    61.1490     7.1090     5.9560     7.8870    26.9060    -9.6930     2.1680 
  113.6250    63.8020     7.1240     5.9530     7.7780    26.9160    -9.6880     2.1650 
  113.7500    65.3480     7.2030     5.9910     7.7060    26.9260    -9.6210     2.1580 
  113.8750    64.9680     7.3640     6.0900     7.6280    26.9820    -9.4820     2.1510 
  114.0000    63.5510     7.5930     6.2320     7.5240    27.0740    -9.2750     2.1450 
  114.1250    64.3030     7.7770     6.3310     7.5870    27.1330    -8.9560     2.1400 
  114.2500    66.1370     7.7360     6.2720     7.7150    27.1470    -8.5280     2.1360 
  114.3750    66.6790     7.3170     5.9730     7.7690    27.1850    -7.9860     2.1390 
  114.5000    66.5260     6.5200     5.4480     7.5190    27.2880    -7.3430     2.1540 
  114.6250    68.0430     5.6070     4.8470     6.4910    27.3970    -6.6000     2.1780 
  114.7500    72.3410     4.9780     4.3930     5.0750    27.4770    -5.8330     2.2060 
  114.8750    77.5610     4.8620     4.2270     4.2990    27.5570    -5.1300     2.2420 
  115.0000    79.6460     5.3560     4.4320     4.9420    27.6530    -4.5730     2.2950 
  115.1250    75.4980     6.5130     5.0900     8.9890    27.7290    -4.2680     2.3580 
