~V
VERS. 2.00: Ver 2.00
~W
STRT.M 49.0000:
STOP.M 247.0000:
STEP.M 0.1250:
NULL. -999.2500:
UWI. F11144:
~C
DEPT.M :
DEN.GM/CC :
SP.MV :
GR.API :
RML.OHMM :
RI. :
RXO.OHMM :
CALI.CM :
~A
# ...
  127.7500     2.5120   -15.4740    51.9140    18.2960    18.2320    15.2030    21.7530 
  127.8750     2.4750   -15.3530    54.3270    17.6670    17.6460    14.2010    22.1060 
  128.0000     2.4410   -15.2100    57.0040    17.1520    17.0870    13.5900    22.6750 
  128.1250     2.4160   -15.0450    58.0490    16.9000    16.7150    13.3910    23.2610 
  128.2500     2.4020   -14.8990    58.8050    16.9450    16.6150    13.6530    23.6090 
  128.3750     2.3940   -14.7700    60.2530    17.0980    16.6530    14.3510    23.7360 
  128.5000     2.3930   -14.6330    61.2330    17.2290    16.7040    15.2340    23.7360 
  128.6250     2.4040   -14.5570    58.9530    17.2920    16.7020    15.4390    23.6410 
  128.7500     2.4270   -14.5140    54.6930    17.3990    16.6860    15.1050    23.4570 
  128.8750     2.4490   -14.4650    53.6210    17.7620    16.8160    14.2580    23.2980 
  129.0000     2.4670   -14.4670    55.8180    18.5800    17.2710    14.1890    23.2030 
  129.1250     2.4880   -14.5200    58.1660    19.9400    18.1840    15.3900    23.1400 
  129.2500     2.4910   -14.5870    61.6820    21.8240    19.6350    16.5580    23.0970 
  129.3750     2.4650   -14.6730    68.9160    23.9100    21.3930    17.3280    23.2530 
  129.5000     2.4280   -14.8180    75.7210    25.9040    23.2070    19.4870    23.6150 
  129.6250     2.4070   -14.9470    76.4730    27.5310    24.7970    22.2580    23.9250 
  129.7500     2.4070   -15.1020    73.2860    28.6130    25.9230    23.1300    24.0660 
  129.8750     2.4130   -15.2800    73.8330    29.3760    26.7200    22.1680    24.0860 
  130.0000     2.4110   -15.4220    77.6580    29.9980    27.3310    21.5480    24.0280 
  130.1250     2.3970   -15.5520    79.8660    30.5340    27.8220    21.6910    23.9460 
  130.2500     2.3830   -15.6450    79.3910    30.7970    28.0700    22.6710    23.7810 
  130.3750     2.3800   -15.6950    79.3180    30.5180    27.8740    22.0950    23.3820 
  130.5000     2.3870   -15.6950    79.0050    29.4950    27.0400    18.0800    22.7910 
  130.6250     2.3960   -15.6620    78.2240    27.8290    25.6080    14.6790    22.1720 
  130.7500     2.3980   -15.5620    77.2680    25.9690    23.9090    13.7220    21.9760 
  130.8750     2.3950   -15.4360    77.3960    24.4570    22.4340    13.9300    22.2060 
  131.0000     2.3920   -15.3090    79.8430    23.5670    21.4620    14.3070    22.5970 
  131.1250     2.3990   -15.1430    83.0160    23.3880    21.1280    14.4140    22.8320 
  131.2500     2.4140   -15.0070    84.1660    23.9930    21.5770    15.3390    23.0660 
  131.3750     2.4220   -14.9020    82.5730    25.1560    22.6570    17.0090    23.4020 
  131.5000     2.4220   -14.7960    80.3080    26.6880    24.2240    18.6270    23.6100 
  131.6250     2.4170   -14.7520    77.7660    28.2830    25.9930    20.1290    23.6130 
  131.7500     2.4120   -14.7660    75.2480    29.3880    27.4650    20.8000    23.4330 
  131.8750     2.4080   -14.7890    74.9750    29.3890    28.0210    20.7150    23.2270 
  132.0000     2.4010   -14.8620    76.7210    27.5850    26.8910    20.4810    23.0350 
  132.1250     2.3880   -14.9350    78.7690    23.6710    23.6110    18.5720    22.9400 
  132.2500     2.3640   -14.9670    80.6790    18.2420    18.6350    16.3950    23.0320 
  132.3750     2.3310   -15.0050    81.0950    13.0210    13.6770    13.6710    23.2100 
  132.5000     2.2990   -15.0300    80.5010     8.9750     9.6650     9.8070    23.4550 
  132.6250     2.2760   -15.0390    80.9050     6.3680     6.8750     6.4740    23.6320 
  132.7500     2.2630   -15.0330    83.1890     4.7950     5.2970     5.1380    23.6930 
  132.8750     2.2460   -15.0390    84.6300     4.2400     4.4360     4.7410    23.6990 
  133.0000     2.2200   -15.0630    84.5130     4.0780     4.0630     4.6630    23.6980 
  133.1250     2.2030   -15.1370    84.3040     4.1320     4.0050     4.6620    23.6960 
  133.2500     2.2100   -15.2820    85.2780     4.2890     4.1400     4.6740    23.6850 
  133.3750     2.2300   -15.4390    85.0900     4.4630     4.3350     4.7180    23.6480 
  133.5000     2.2470   -15.6460    85.0530     4.6420     4.5450     4.8030    23.5590 
  133.6250     2.2550   -15.8510    89.5430     4.8230     4.7500     4.9460    23.3370 
  133.7500     2.2620   -16.0420    96.9790     4.9840     4.9260     5.1900    22.9220 
  133.8750     2.2690   -16.2080    99.7020     5.1060     5.0550     5.4350    22.4980 
  134.0000     2.2750   -16.2920    95.4360     5.1780     5.1230     5.5590    22.2310 
  134.1250     2.2760   -16.2960    89.6610     5.2140     5.1280     5.6370    22.1320 
  134.2500     2.2700   -16.2110    88.0730     5.2350     5.0850     5.7030    22.1250 
  134.3750     2.2540   -16.0670    87.9660     5.2700     5.0340     5.7270    22.2010 
  134.5000     2.2240   -15.8460    87.2710     5.3250     4.9980     5.7240    22.4490 
  134.6250     2.1870   -15.6310    85.0120     5.3990     4.9870     5.8080    22.9210 
  134.7500     2.1650   -15.4710    83.6130     5.4850     4.9980     5.9670    23.2810 
  134.8750     2.1660   -15.2890    84.7330     5.5670     5.0150     6.0800    23.3620 
  135.0000     2.1830   -15.1720    90.3870     5.6260     5.0200     6.0570    23.2910 
  135.1250     2.2070   -15.1060    98.7260     5.6430     5.0020     5.9520    23.2220 
  135.2500     2.2270   -15.0710   102.1580     5.6010     4.9510     5.8640    23.2070 
  135.3750     2.2430   -15.0910   100.8480     5.5150     4.8730     5.8690    23.2200 
  135.5000     2.2530   -15.1470    99.1010     5.4080     4.7760     5.8050    23.2340 
  135.6250     2.2550   -15.2040    98.1210     5.3060     4.6730     5.6700    23.2400 
  135.7500     2.2450   -15.2560    95.0750     5.2290     4.5780     5.6010    23.2390 
  135.8750     2.2320   -15.3750    91.9090     5.1790     4.4980     5.5730    23.2290 
  136.0000     2.2200   -15.4980    89.8390     5.1610     4.4390     5.5310    23.1960 
  136.1250     2.2130   -15.6430    87.0280     5.1830     4.4100     5.5270    23.1410 
  136.2500     2.2090   -15.8690    84.7070     5.2590     4.4280     5.6150    23.0720 
  136.3750     2.2050   -16.1220    86.2750     5.3770     4.4850     5.7270    23.0360 
  136.5000     2.1980   -16.4030    89.3470     5.5150     4.5720     5.8970    23.0010 
  136.6250     2.1920   -16.6870    89.0440     5.6440     4.6690     6.1970    22.9350 
  136.7500     2.1880   -16.9400    86.0430     5.7420     4.7530     6.5460    22.8840 
  136.8750     2.1880   -17.1600    84.4170     5.8430     4.8380     6.4830    22.8740 
  137.0000     2.1940   -17.3520    84.8440     6.0060     4.9650     6.3410    22.8610 
  137.1250     2.2090   -17.4870    85.6180     6.2720     5.1670     6.4430    22.8140 
  137.2500     2.2360   -17.4910    82.8460     6.6250     5.4490     6.7880    22.7660 
  137.3750     2.2670   -17.3950    77.4500     6.9370     5.7270     7.2510    22.7560 
  137.5000     2.2890   -17.2070    72.5180     7.0640     5.8910     7.7650    22.7680 
  137.6250     2.2910   -16.9490    71.8300     6.9090     5.8500     7.7140    22.7800 
  137.7500     2.2740   -16.6820    74.6600     6.4850     5.5750     6.8640    22.8050 
  137.8750     2.2590   -16.3730    77.6810     6.0170     5.2190     6.0420    22.8830 
  138.0000     2.2500   -16.0810    81.3610     5.6600     4.9000     5.6560    22.9880 
  138.1250     2.2470   -15.8690    86.9510     5.4940     4.6960     5.7410    23.1010 
  138.2500     2.2460   -15.6910    90.2010     5.5320     4.6500     5.9770    23.1880 
  138.3750     2.2450   -15.6010    86.1580     5.6700     4.7100     6.0890    23.2610 
  138.5000     2.2420   -15.5880    79.1880     5.8350     4.8280     6.0610    23.2970 
  138.6250     2.2380   -15.6070    75.8510     5.9810     4.9630     6.0490    23.2860 
  138.7500     2.2370   -15.6950    77.6590     6.0820     5.0830     6.0830    23.2160 
  138.8750     2.2400   -15.7840    79.8970     6.1370     5.1680     6.1590    23.0930 
