~V
VERS. 2.00: Ver 2.00
~W
STRT.M 50.0000:
STOP.M 264.0000:
STEP.M 0.1250:
NULL. -999.2500:
UWI. F11182:
~C
DEPT.M :
SP.MV :
GR.API :
RI. :
RML.OHMM :
RXO.OHMM :
DEN.GM/CC :
~A
# ...
   88.6250   -15.4190    56.4620     5.8830     6.1160     7.3680     2.0940 
   88.7500   -15.4390    57.1000     5.9530     6.1890     7.4320     2.0950 
   88.8750   -15.5190    58.7280     6.0390     6.2760     7.2540     2.0820 
   89.0000   -15.5790    58.7910     6.0780     6.3180     7.0950     2.0850 
   89.1250   -15.6450    58.0820     6.0960     6.3350     7.1120     2.0980 
   89.2500   -15.6620    56.8580     6.0970     6.3340     7.1760     2.1010 
   89.3750   -15.6510    55.8370     6.1030     6.3430     7.3900     2.0990 
   89.5000   -15.6280    56.4850     6.1070     6.3550     7.6510     2.1010 
   89.6250   -15.5980    57.5870     6.1010     6.3570     7.6070     2.1010 
   89.7500   -15.6040    57.4280     6.0880     6.3570     7.2720     2.1000 
   89.8750   -15.6850    57.3600     6.0830     6.3840     6.9860     2.1000 
   90.0000   -15.8000    57.8530     6.0920     6.4210     7.1000     2.1040 
   90.1250   -16.0650    58.4210     6.1370     6.5210     7.5740     2.1230 
   90.2500   -16.2910    57.4850     6.1710     6.5860     7.8480     2.1460 
   90.3750   -16.6780    57.8960     6.1570     6.5940     7.9510     2.1750 
   90.5000   -16.9470    60.5840     6.0390     6.4740     7.9470     2.1880 
   90.6250   -17.3420    67.7330     5.7260     6.1200     8.0000     2.2130 
   90.7500   -17.5880    72.0960     5.4640     5.8280     7.9730     2.2220 
   90.8750   -17.9250    74.7860     5.1290     5.4800     8.1940     2.2120 
   91.0000   -18.1240    74.9900     5.0030     5.3800     8.5320     2.1930 
   91.1250   -18.3670    76.3050     4.9690     5.4190     8.4130     2.1620 
   91.2500   -18.4800    76.4560     5.0500     5.5660     7.9530     2.1370 
   91.3750   -18.5620    71.9420     5.2100     5.7900     7.0960     2.1030 
   91.5000   -18.5660    68.6810     5.2800     5.8760     6.5110     2.0940 
   91.6250   -18.5340    68.2970     5.2800     5.8470     5.7420     2.1010 
   91.7500   -18.5100    69.9080     5.2320     5.7560     5.5160     2.1120 
   91.8750   -18.4910    70.5430     5.1890     5.6640     6.0750     2.1280 
   92.0000   -18.4840    70.2070     5.2330     5.6870     6.3580     2.1330 
   92.1250   -18.4480    70.7840     5.4000     5.8440     6.2390     2.1240 
   92.2500   -18.3880    70.9300     5.5430     5.9840     6.2950     2.1090 
   92.3750   -18.2400    69.4920     5.7660     6.2080     6.2350     2.0880 
   92.5000   -18.1180    67.8470     5.8680     6.2960     6.0180     2.0870 
   92.6250   -17.9510    66.3410     5.8560     6.2510     5.8530     2.0990 
   92.7500   -17.8750    66.3200     5.6690     6.0290     5.8950     2.1170 
   92.8750   -17.8360    67.8120     5.2030     5.5070     5.9110     2.1610 
   93.0000   -17.8580    71.7850     4.8200     5.0910     5.5790     2.1890 
   93.1250   -17.9460    81.9750     4.2640     4.5010     4.6890     2.2100 
   93.2500   -18.0250    87.0860     3.9910     4.2130     4.3920     2.2120 
   93.3750   -18.1460    89.2050     3.6800     3.8890     4.4500     2.2140 
   93.5000   -18.2160    90.3810     3.5470     3.7550     4.4670     2.2200 
   93.6250   -18.2960    95.8560     3.4640     3.6760     4.6910     2.2340 
   93.7500   -18.3370    99.5790     3.4420     3.6540     4.7940     2.2420 
   93.8750   -18.3920    98.7580     3.4210     3.6380     4.4060     2.2430 
   94.0000   -18.4320    96.9430     3.4050     3.6310     4.2150     2.2440 
   94.1250   -18.5020    95.6050     3.3610     3.5900     4.2090     2.2570 
   94.2500   -18.5550    96.1440     3.3070     3.5280     4.0930     2.2680 
   94.3750   -18.6300    97.9690     3.1980     3.4010     3.8810     2.2800 
   94.5000   -18.6700    99.5120     3.1250     3.3200     3.8110     2.2820 
   94.6250   -18.7020   101.3630     3.0870     3.2930     3.6410     2.2650 
   94.7500   -18.7030   101.4670     3.1310     3.3530     3.6050     2.2400 
   94.8750   -18.6810   102.4330     3.2470     3.4840     3.8680     2.2030 
   95.0000   -18.6580   105.3010     3.3890     3.6280     4.1750     2.2050 
   95.1250   -18.6200   106.8630     3.7240     3.9710     4.5220     2.2790 
   95.2500   -18.5940   104.8490     4.1570     4.4590     4.4480     2.3630 
   95.3750   -18.5460    98.5680     5.0670     5.5140    10.3320     2.4540 
   95.5000   -18.5010    95.2160     5.6600     6.2050    21.7310     2.4510 
   95.6250   -18.4040    86.9950     6.1480     6.7540    34.2560     2.3720 
   95.7500   -18.3210    80.9080     5.9990     6.5260    29.6240     2.3100 
   95.8750   -18.1830    79.8870     5.2890     5.6300    13.3740     2.2490 
   96.0000   -18.0970    85.6730     4.6740     4.9000     6.4360     2.2280 
   96.1250   -18.0040    94.1730     4.0340     4.2250     4.0920     2.2150 
   96.2500   -17.9730    95.0530     3.8960     4.1400     4.4210     2.2080 
   96.3750   -17.9680    91.4630     4.0150     4.3610     4.6380     2.1920 
   96.5000   -17.9780    87.6260     4.1780     4.5700     4.6730     2.1930 
   96.6250   -17.9880    82.5490     4.3480     4.7590     4.8820     2.2260 
   96.7500   -17.9830    80.7970     4.3870     4.7840     4.8420     2.2540 
   96.8750   -17.9580    81.7870     4.3950     4.7640     4.4600     2.2510 
   97.0000   -17.9370    84.3010     4.3930     4.7470     4.3960     2.2190 
   97.1250   -17.9100    85.8710     4.4240     4.7690     4.6310     2.1780 
   97.2500   -17.8920    84.6640     4.4750     4.8190     4.6890     2.1680 
   97.3750   -17.8430    80.2260     4.5900     4.9600     4.3820     2.1610 
   97.5000   -17.7760    77.8490     4.6790     5.0640     4.2510     2.1500 
   97.6250   -17.5970    75.6280     4.7070     5.0930     4.4300     2.1360 
   97.7500   -17.4190    74.0850     4.6440     5.0230     4.4980     2.1470 
   97.8750   -17.0840    70.5900     4.4940     4.8490     4.3200     2.2030 
   98.0000   -16.8470    69.7370     4.3910     4.7320     3.9880     2.2500 
   98.1250   -16.5460    72.7600     4.2630     4.5940     3.7370     2.2770 
   98.2500   -16.4240    76.3030     4.2270     4.5750     4.0900     2.2570 
   98.3750   -16.3930    79.4200     4.2840     4.6740     4.4200     2.2090 
   98.5000   -16.4610    79.8310     4.3460     4.7480     4.4030     2.1920 
   98.6250   -16.6360    79.8460     4.3900     4.7920     4.7530     2.1920 
   98.7500   -16.7620    79.0230     4.3770     4.7620     4.8190     2.1960 
   98.8750   -16.9150    76.4020     4.2530     4.5930     4.4800     2.1990 
   99.0000   -16.9850    74.6660     4.2070     4.5380     4.4550     2.2040 
   99.1250   -17.0450    74.4410     4.3170     4.6770     4.8570     2.2400 
   99.2500   -17.0660    76.1330     4.5150     4.9170     4.9420     2.2950 
   99.3750   -17.0880    76.0730     4.8450     5.3010     5.8770     2.3700 
   99.5000   -17.1090    74.0860     4.9890     5.4520     8.9360     2.3660 
   99.6250   -17.1630    71.6240     5.0070     5.4050    11.3440     2.2900 
   99.7500   -17.2200    72.5330     4.8450     5.1670     8.0950     2.2420 
   99.8750   -17.3340    77.6880     4.5160     4.7490     4.0300     2.2100 
  100.0000   -17.4200    81.6790     4.3170     4.5220     3.9830     2.2000 
  100.1250   -17.5300    82.9840     4.1720     4.3920     4.1730     2.1910 
  100.2500   -17.5710    79.8360     4.1970     4.4490     4.2180     2.1940 
  100.3750   -17.5560    77.9190     4.3540     4.6410     4.3850     2.2000 
  100.5000   -17.4910    81.7110     4.4300     4.7220     4.3570     2.1970 
  100.6250   -17.3260    85.3220     4.4230     4.7050     4.3720     2.1900 
  100.7500   -17.1850    82.4010     4.3430     4.6170     4.5270     2.1960 
  100.8750   -16.9630    77.8470     4.1830     4.4450     4.5690     2.2260 
  101.0000   -16.8250    79.6940     4.0790     4.3390     4.3760     2.2390 
  101.1250   -16.6670    85.0800     3.9920     4.2640     3.8860     2.2380 
  101.2500   -16.6050    85.3890     3.9860     4.2820     3.8220     2.2330 
  101.3750   -16.5700    81.2270     4.0690     4.4080     4.2300     2.2440 
