~V
VERS. 2.00: Ver 2.00
~W
STRT.M 52.0000:
STOP.M 239.0000:
STEP.M 0.1250:
NULL. -999.2500:
UWI. F11118:
~C
DEPT.M :
DEN.GM/CC :
GR.API :
RML.OHMM :
RI. :
RXO.OHMM :
CALI.CM :
SP.MV :
~A
# ...
  130.7500     2.4650    50.2360    25.1500    23.4130    24.2440    27.1390   -14.8870 
  130.8750     2.4590    53.4890    24.8280    23.3140    24.3930    27.0770   -14.9650 
  131.0000     2.4530    55.0470    24.5420    23.0820    24.0870    27.0700   -15.0700 
  131.1250     2.4490    52.9390    24.5460    22.9970    22.9990    27.0820   -15.2010 
  131.2500     2.4500    49.5290    24.7570    23.1320    22.1440    27.0860   -15.3470 
  131.3750     2.4560    47.0040    24.9410    23.3540    22.1120    27.0860   -15.5070 
  131.5000     2.4630    48.5400    24.7590    23.3380    24.6380    27.1550   -15.6610 
  131.6250     2.4610    53.2820    23.8060    22.6110    25.8120    27.3570   -15.8280 
  131.7500     2.4470    57.7920    22.2550    21.2480    24.1520    27.4220   -15.9990 
  131.8750     2.4240    60.7170    20.5050    19.6020    19.5560    27.3920   -16.1650 
  132.0000     2.4000    61.3240    19.0540    18.1310    14.5390    27.2730   -16.2820 
  132.1250     2.3870    58.7540    18.4360    17.3530    13.9570    27.3570   -16.3720 
  132.2500     2.3850    55.7080    18.6370    17.3560    15.7510    27.4410   -16.4090 
  132.3750     2.3900    56.2790    19.4550    18.0570    19.1480    27.5700   -16.3920 
  132.5000     2.3960    58.7610    20.4970    19.1480    20.6570    27.7790   -16.3230 
  132.6250     2.3990    57.7620    21.2080    20.0400    20.8810    28.1590   -16.2150 
  132.7500     2.3970    53.2190    21.3060    20.2890    22.2420    28.5470   -16.0570 
  132.8750     2.3920    50.7260    20.8120    19.8450    21.5040    28.6110   -15.8680 
  133.0000     2.3850    52.7010    20.0020    19.0010    18.6870    28.6140   -15.7000 
  133.1250     2.3740    55.1360    19.3020    18.2200    17.0470    28.5480   -15.5080 
  133.2500     2.3620    54.6750    19.0270    17.7900    18.3090    28.2750   -15.3390 
  133.3750     2.3540    52.1140    19.3620    17.8360    21.0670    27.8480   -15.1870 
  133.5000     2.3560    50.6450    20.3870    18.4320    21.9500    27.5030   -14.9700 
  133.6250     2.3720    51.2620    22.1210    19.6670    22.3150    27.3610   -14.8540 
  133.7500     2.3990    49.5950    24.2230    21.3340    23.1660    27.2880   -14.7810 
  133.8750     2.4300    45.0350    26.3370    23.1760    25.8150    27.3560   -14.7160 
  134.0000     2.4580    40.4690    27.9690    24.7570    30.3820    27.3820   -14.6760 
  134.1250     2.4740    39.9530    28.3630    25.3650    32.3570    27.3860   -14.6680 
  134.2500     2.4780    40.4600    27.4910    24.8720    30.5670    27.3870   -14.6790 
  134.3750     2.4720    41.8390    25.7620    23.5540    27.9290    27.3960   -14.7120 
  134.5000     2.4600    46.7800    23.8800    21.9800    24.2700    27.4080   -14.7420 
  134.6250     2.4440    54.1670    22.5410    20.7630    20.9480    27.4550   -14.7980 
  134.7500     2.4290    57.9160    21.8120    20.0730    19.6900    27.4150   -14.8570 
  134.8750     2.4210    56.7830    21.4690    19.7890    20.1270    27.3060   -14.8940 
  135.0000     2.4190    53.8140    21.1860    19.6100    22.1140    27.1490   -14.9300 
  135.1250     2.4240    52.5770    20.6320    19.1370    25.0200    26.9850   -14.9220 
  135.2500     2.4300    52.7810    19.7800    18.2570    23.6610    26.9790   -14.8840 
  135.3750     2.4320    53.8970    18.7720    17.1030    18.8560    26.9620   -14.8080 
  135.5000     2.4280    55.4590    17.8440    15.9650    15.3230    26.9390   -14.6910 
  135.6250     2.4190    55.1930    17.2580    15.1770    14.8730    27.0610   -14.5610 
  135.7500     2.4090    52.8360    17.0050    14.7830    15.5270    27.1140   -14.3970 
  135.8750     2.4010    50.4070    16.9890    14.7120    16.3600    27.1130   -14.2110 
  136.0000     2.3980    49.1120    17.0740    14.8120    17.1590    27.0400   -14.0120 
  136.1250     2.4000    48.3480    17.1190    14.8930    17.4240    26.8830   -13.8220 
  136.2500     2.4060    46.9930    17.0790    14.8480    17.1050    26.8750   -13.6570 
  136.3750     2.4170    45.9360    17.0190    14.6920    17.0840    26.8140   -13.5330 
  136.5000     2.4320    44.5490    17.0760    14.5240    16.1450    26.5170   -13.4430 
  136.6250     2.4510    44.1360    17.3920    14.4910    15.4830    26.6900   -13.3940 
  136.7500     2.4710    48.7330    17.8950    14.6310    15.5410    26.9540   -13.3810 
  136.8750     2.4870    55.3850    18.4470    14.9280    16.2920    27.0320   -13.4050 
  137.0000     2.4970    58.0290    18.8640    15.2890    18.2220    27.0440   -13.4660 
  137.1250     2.4980    55.9840    18.9340    15.5130    18.8320    27.0440   -13.5560 
  137.2500     2.4930    54.2940    18.6650    15.4580    17.9880    27.0410   -13.6420 
  137.3750     2.4850    54.5370    18.1090    15.0790    17.2600    27.0260   -13.7150 
  137.5000     2.4760    57.2620    17.3520    14.4590    16.9940    26.9690   -13.8010 
  137.6250     2.4690    61.1130    16.5100    13.7690    16.2480    26.9460   -13.8640 
  137.7500     2.4650    60.3420    15.7930    13.1990    15.1800    26.8760   -13.8940 
  137.8750     2.4650    54.8830    15.3810    12.8530    14.3830    26.7710   -13.9430 
  138.0000     2.4700    52.0740    15.3650    12.7750    14.7370    26.7990   -13.9580 
  138.1250     2.4770    55.1750    15.6990    12.9690    15.0050    26.7980   -13.9880 
  138.2500     2.4820    58.2370    16.0240    13.2370    14.9130    26.7890   -14.0150 
  138.3750     2.4780    60.0830    15.9520    13.2940    14.9620    26.8980   -14.0520 
  138.5000     2.4630    61.1220    15.1400    12.8130    15.1870    26.9170   -14.0850 
  138.6250     2.4290    62.4340    13.3610    11.5300    16.1840    26.8450   -14.1150 
  138.7500     2.3840    65.0650    10.5370     9.7800    17.0590    26.7110   -14.1640 
  138.8750     2.3370    69.7610     7.8460     7.9510    14.8380    26.6370   -14.1660 
  139.0000     2.3000    74.6580     6.1760     6.3780    10.0300    26.6620   -14.1810 
  139.1250     2.2810    76.3820     5.1780     5.3170     6.4710    26.6800   -14.1750 
  139.2500     2.2750    77.2520     4.7450     4.7210     5.1720    26.7300   -14.1990 
  139.3750     2.2750    78.8710     4.7670     4.5490     4.8810    26.7040   -14.2370 
  139.5000     2.2720    82.7600     5.1110     4.7360     5.0090    26.6000   -14.3020 
  139.6250     2.2650    85.0260     5.6750     5.2440     5.6300    26.5720   -14.4180 
  139.7500     2.2570    80.5320     6.3220     5.9270     6.7030    26.6270   -14.5390 
  139.8750     2.2500    72.7750     6.9800     6.6830     8.0290    26.7520   -14.7250 
  140.0000     2.2450    68.1870     7.6060     7.4220     8.8240    26.6760   -14.9110 
  140.1250     2.2390    69.3180     8.1780     8.0770     8.9630    26.7450   -15.1090 
  140.2500     2.2310    70.6440     8.7160     8.6670     9.1810    26.8680   -15.2640 
  140.3750     2.2210    69.9650     9.2000     9.1940     9.9830    26.8070   -15.3790 
  140.5000     2.2110    69.8940     9.5400     9.5790    10.7570    26.6710   -15.4290 
  140.6250     2.2050    71.0740     9.4910     9.5570    11.0240    26.7140   -15.4210 
  140.7500     2.2060    73.5820     8.9510     9.0040    10.8640    26.8130   -15.3550 
  140.8750     2.2130    76.4900     7.9650     7.9620    10.0970    26.8010   -15.2200 
  141.0000     2.2280    80.5790     6.7490     6.6740     8.5370    26.6670   -15.0610 
  141.1250     2.2480    85.5070     5.5990     5.4730     6.5830    26.6540   -14.8610 
  141.2500     2.2710    88.7250     4.7330     4.5690     5.1400    26.7200   -14.6970 
  141.3750     2.2910    90.5450     4.2940     4.0600     4.5900    26.9230   -14.5660 
  141.5000     2.3040    92.1830     4.4170     4.0090     4.5430    27.1500   -14.5040 
  141.6250     2.3020    92.8480     5.4120     4.5820     4.9940    27.3140   -14.4700 
  141.7500     2.2890    90.2240     7.2700     5.7730     6.5830    27.4160   -14.5250 
  141.8750     2.2700    82.7380     9.8290     7.5750    10.3690    27.4890   -14.6300 
