~V
VERS. 2.00: Ver 2.00
~W
STRT.M 51.0000:
STOP.M 277.0000:
STEP.M 0.1250:
NULL. -999.2500:
UWI. F11147:
~C
DEPT.M :
DEN.GM/CC :
GR.API :
RML.OHMM :
RI. :
RXO.OHMM :
CALI.CM :
SP.MV :
~A
# ...
  197.2500     2.4850    62.6800   130.1040   122.0480    91.2670    23.8550   -32.0310 
  197.3750     2.5560    61.2070   152.2090   142.7370   129.0430    24.5240   -31.5690 
  197.5000     2.6050    56.0970   146.5000   146.7600   162.6500    24.8060   -31.1030 
  197.6250     2.6300    51.6110   108.3590   119.6460   197.8470    24.8450   -30.6240 
  197.7500     2.6430    50.3710    63.5520    75.0800   173.8020    24.8520   -30.1020 
  197.8750     2.6470    52.3040    35.8420    41.5560    78.1710    24.8550   -29.6030 
  198.0000     2.6330    54.5470    20.8100    22.8170    29.4100    24.8040   -29.0680 
  198.1250     2.5940    55.5940    13.6810    13.6080    12.3390    24.7080   -28.5870 
  198.2500     2.5290    55.2480     8.9210     9.3670     7.5830    24.7080   -28.1190 
  198.3750     2.4690    54.2380     7.7820     7.7340     6.6590    24.7330   -27.7100 
  198.5000     2.4410    52.2080     7.6030     7.1870     6.5910    24.7360   -27.3410 
  198.6250     2.4430    49.1700     7.8530     7.2470     6.6370    24.6720   -27.0220 
  198.7500     2.4600    47.2520     8.1590     7.5500     6.7340    24.6060   -26.8070 
  198.8750     2.4770    47.5740     8.2810     7.7880     6.6050    24.6540   -26.6630 
  199.0000     2.4840    48.6390     8.2360     7.8590     6.1050    24.7400   -26.6200 
  199.1250     2.4720    49.2940     8.1300     7.8240     5.3780    24.7350   -26.6420 
  199.2500     2.4460    50.5680     8.0660     7.7830     5.1140    24.6050   -26.7270 
  199.3750     2.4250    54.9320     8.0960     7.8170     6.1400    24.5080   -26.9030 
  199.5000     2.4140    60.5700     8.1710     7.9010     7.2580    24.4500   -27.0960 
  199.6250     2.4020    63.1700     8.2290     7.9680     7.9530    24.4730   -27.3410 
  199.7500     2.3880    61.5500     8.2160     7.9380     8.3280    24.5750   -27.5570 
  199.8750     2.3750    59.6100     8.1060     7.7490     8.0010    24.6550   -27.7600 
  200.0000     2.3670    59.4270     7.9390     7.4510     7.3310    24.6670   -27.9080 
  200.1250     2.3640    58.1540     7.7540     7.1080     6.8020    24.7270   -27.9780 
  200.2500     2.3650    56.9560     7.5860     6.7850     6.6890    24.7370   -28.0090 
  200.3750     2.3750    58.5820     7.4990     6.5590     6.8370    24.6060   -27.9590 
  200.5000     2.3880    63.4620     7.5640     6.4730     6.8290    24.4300   -27.9050 
  200.6250     2.4030    70.2130     7.8620     6.5800     6.9990    24.3840   -27.8060 
  200.7500     2.4180    79.3200     8.4510     6.9210     7.2270    24.4820   -27.7280 
  200.8750     2.4330    87.3810     8.8390     7.5480     8.0640    24.6440   -27.6350 
  201.0000     2.4560    89.4660     9.8570     8.3570     9.7940    24.7480   -27.5540 
  201.1250     2.4890    87.7910    10.8210     9.1970    12.1310    24.7240   -27.4830 
  201.2500     2.5180    86.4920    11.4580     9.8340    13.6310    24.6330   -27.4170 
  201.3750     2.5200    88.0070    11.4600     9.9710    12.5560    24.4810   -27.3890 
  201.5000     2.5020    89.1530    10.9490     9.6520    11.0430    24.3410   -27.3710 
  201.6250     2.4760    89.3150    10.1530     9.0360    10.0060    24.3540   -27.4210 
  201.7500     2.4510    91.2250     9.3410     8.3350     9.0590    24.4390   -27.4780 
  201.8750     2.4290    93.3330     8.7530     7.7450     8.5070    24.5190   -27.6200 
  202.0000     2.4170    93.3490     8.4220     7.3290     8.0980    24.5700   -27.8080 
  202.1250     2.4160    91.1550     8.3340     7.0960     7.8040    24.6100   -28.0230 
  202.2500     2.4210    88.7860     8.4420     7.0400     7.7740    24.6630   -28.2780 
  202.3750     2.4250    87.8590     8.6930     7.1490     7.8430    24.6770   -28.4820 
  202.5000     2.4240    88.1890     8.9670     7.3320     8.1470    24.6450   -28.6620 
  202.6250     2.4180    89.5710     9.1810     7.5080     8.6680    24.5570   -28.7510 
  202.7500     2.4090    90.3200     9.2660     7.5920     9.1830    24.4280   -28.7660 
  202.8750     2.4010    88.3710     9.1440     7.5000     8.9680    24.2330   -28.7090 
  203.0000     2.3960    87.1940     8.8610     7.2590     8.3760    23.9570   -28.5830 
  203.1250     2.3960    86.9640     8.4940     6.9340     7.8080    23.7690   -28.4420 
  203.2500     2.3970    87.7950     8.1610     6.6170     7.4530    23.7800   -28.2470 
  203.3750     2.3930    89.1070     8.0490     6.4440     7.1460    23.8030   -28.1110 
  203.5000     2.3900    88.2410     8.2800     6.5110     6.9750    23.5120   -27.9850 
  203.6250     2.3980    83.9780     8.9700     6.9180     7.3340    23.1590   -27.8990 
  203.7500     2.4180    79.3080    10.2040     7.7640     8.3830    22.9850   -27.8200 
  203.8750     2.4450    80.6660    12.0930     9.1930    10.0980    23.1530   -27.7190 
  204.0000     2.4740    83.8560    14.4360    11.0930    12.5260    23.4360   -27.5820 
  204.1250     2.5050    83.9880    16.9550    13.2910    16.1610    23.6800   -27.3670 
  204.2500     2.5380    82.1640    19.1550    15.4230    18.9790    23.7970   -27.0320 
  204.3750     2.5630    82.4000    20.1040    16.7120    19.5260    23.8660   -26.4790 
  204.5000     2.5710    83.7520    19.4170    16.6700    18.7380    23.9710   -25.7750 
  204.6250     2.5610    84.6180    17.2090    15.2270    17.8390    24.0580   -24.8660 
  204.7500     2.5340    86.5290    14.1810    12.8750    16.2910    24.0350   -23.8460 
  204.8750     2.4940    89.7400    11.2950    10.4030    12.9130    23.9830   -22.7030 
  205.0000     2.4440    88.0620     8.9550     8.3690     9.0660    23.9480   -21.5580 
  205.1250     2.3950    77.2000     7.3950     6.9120     6.6780    23.7280   -20.4440 
  205.2500     2.3610    62.2050     6.6230     5.9940     5.8420    23.3380   -19.4030 
  205.3750     2.3510    55.4250     6.3860     5.5720     5.8160    23.0350   -18.5210 
  205.5000     2.3450    59.0770     6.4020     5.4460     5.8900    23.0980   -17.7280 
  205.6250     2.3270    68.2740     6.5080     5.4990     5.7720    23.5330   -17.1040 
  205.7500     2.3050    75.6560     6.5880     5.6260     5.4870    24.1500   -16.6080 
  205.8750     2.2970    77.6730     6.5970     5.7490     5.3180    24.5130   -16.2290 
  206.0000     2.3020    78.2930     6.5770     5.8410     5.3470    24.6710   -15.9210 
  206.1250     2.3070    81.4050     6.5560     5.8990     5.4500    24.8060   -15.6260 
  206.2500     2.3080    85.8510     6.5370     5.9160     5.5050    24.9410   -15.3930 
  206.3750     2.3150    87.1030     6.4930     5.8720     5.6300    24.9910   -15.1470 
  206.5000     2.3290    85.5990     6.4150     5.7750     5.7870    25.0040   -14.9570 
  206.6250     2.3430    83.3540     6.3200     5.6490     5.7000    24.9990   -14.7930 
  206.7500     2.3510    81.7170     6.2510     5.5310     5.3320    24.9560   -14.6420 
  206.8750     2.3530    82.0290     6.2450     5.4580     5.1550    24.9040   -14.5520 
  207.0000     2.3550    83.3770     6.2710     5.4120     5.3000    24.8810   -14.4560 
  207.1250     2.3560    84.3890     6.2860     5.3660     5.6410    24.8780   -14.4060 
  207.2500     2.3560    85.2710     6.2730     5.3090     5.9650    24.8790   -14.3490 
  207.3750     2.3540    85.7320     6.2760     5.2740     6.0120    24.8750   -14.3600 
  207.5000     2.3460    84.2370     6.3790     5.3180     5.7080    24.8390   -14.3830 
  207.6250     2.3350    80.6260     6.6640     5.4950     5.7160    24.7560   -14.4520 
  207.7500     2.3240    77.9800     7.1730     5.8450     6.5640    24.6740   -14.5390 
  207.8750     2.3180    76.2980     7.9050     6.3970     8.3110    24.6230   -14.6300 
  208.0000     2.3210    74.9690     8.7350     7.0750     9.3440    24.5890   -14.7700 
  208.1250     2.3240    74.8350     9.5700     7.8120     9.2940    24.5740   -14.8930 
  208.2500     2.3230    75.0050    10.3580     8.5510     9.5310    24.5520   -15.0510 
  208.3750     2.3230    74.6110    11.1100     9.2690    10.3790    24.4960   -15.1730 
