~V
VERS. 2.00: Ver 2.00
~W
STRT.M 63.0000:
STOP.M 246.0000:
STEP.M 0.1250:
NULL. -999.2500:
UWI. F11137:
~C
DEPT.M :
DEN.GM/CC :
GR.API :
RML.OHMM :
RI. :
RXO.OHMM :
CALI.CM :
SP.MV :
~A
# ...
   74.2500     2.1460    68.0070     7.8810     6.5740    11.0110    25.2490   -22.4090 
   74.3750     2.1400    67.5340     7.9370     6.6340    10.7440    25.3150   -23.0290 
   74.5000     2.1360    64.7680     8.0150     6.6890    10.7720    25.2640   -23.5780 
   74.6250     2.1390    65.4010     8.1070     6.7440    11.2030    25.1120   -24.0660 
   74.7500     2.1480    69.9440     8.1820     6.7880    11.7360    24.9490   -24.5450 
   74.8750     2.1600    72.7510     8.2110     6.8020    12.0110    24.8070   -24.8920 
   75.0000     2.1710    68.8230     8.1810     6.7720    11.9540    24.6930   -25.1650 
   75.1250     2.1760    63.7250     8.1030     6.6940    11.6500    24.5790   -25.2860 
   75.2500     2.1750    63.6980     8.0160     6.5990    11.4310    24.4580   -25.3270 
   75.3750     2.1720    65.0280     7.9400     6.5140    11.6410    24.3510   -25.2810 
   75.5000     2.1720    63.2270     7.8730     6.4480    12.2630    24.3140   -25.1710 
   75.6250     2.1790    61.0720     7.7920     6.3900    12.6080    24.3760   -25.0220 
   75.7500     2.1880    63.8130     7.6920     6.3140    12.2380    24.4840   -24.7380 
   75.8750     2.1970    69.0670     7.5850     6.2150    11.9410    24.5540   -24.4170 
   76.0000     2.1990    72.9570     7.4990     6.1020    11.7400    24.5880   -24.0300 
   76.1250     2.1930    74.1720     7.4640     5.9970    11.5950    24.5780   -23.6210 
   76.2500     2.1820    73.9190     7.4640     5.9160    11.4190    24.5550   -23.2060 
   76.3750     2.1720    72.5990     7.4740     5.8590    11.2720    24.5530   -22.7770 
   76.5000     2.1620    70.2690     7.4660     5.8160    11.2280    24.5240   -22.3700 
   76.6250     2.1560    68.0690     7.4240     5.7690    11.3720    24.4530   -21.9380 
   76.7500     2.1540    66.2010     7.3670     5.7090    11.2160    24.3870   -21.5150 
   76.8750     2.1560    64.8280     7.3320     5.6480    11.1300    24.4010   -21.0280 
   77.0000     2.1620    64.2610     7.3620     5.6180    11.0870    24.3540   -20.4530 
   77.1250     2.1720    66.1070     7.4690     5.6770    11.2170    24.2180   -19.8840 
   77.2500     2.1950    67.8050     7.6340     5.7530    11.3160    24.1390   -19.3420 
   77.3750     2.2350    68.8770     7.8820     5.8810    11.4890    24.0860   -18.8690 
   77.5000     2.2930    69.1190     8.2230     6.1500    11.9960    24.0510   -18.4820 
   77.6250     2.3500    68.5610     8.5650     6.4510    13.6930    24.0370   -18.1490 
   77.7500     2.3820    68.8410     8.7610     6.6780    16.2060    23.9780   -17.9140 
   77.8750     2.3740    68.5790     8.7360     6.7460    16.5050    23.8700   -17.8530 
   78.0000     2.3300    66.2860     8.4970     6.6280    14.7380    23.8380   -17.9930 
   78.1250     2.2700    64.6520     8.1190     6.3650    12.6580    23.8950   -18.3340 
   78.2500     2.2180    65.6230     7.7600     6.0920    11.6880    23.8760   -18.7650 
   78.3750     2.1850    67.5770     7.5130     5.8860    11.1890    23.7180   -19.2930 
   78.5000     2.1710    68.2710     7.4130     5.7800    11.0910    23.5930   -19.7630 
   78.6250     2.1710    66.6170     7.4440     5.7710    11.2180    23.7440   -20.1770 
   78.7500     2.1760    64.1540     7.5140     5.8060    11.3150    24.1380   -20.5420 
   78.8750     2.1800    62.6810     7.5740     5.8550    11.4060    24.4640   -20.7640 
   79.0000     2.1790    63.2490     7.6100     5.9050    11.3330    24.5720   -20.8860 
   79.1250     2.1720    62.9880     7.6460     5.9620    11.1070    24.5400   -20.6850 
   79.2500     2.1650    61.3780     7.7060     6.0350    10.8310    24.5110   -20.1360 
   79.3750     2.1660    61.1170     7.7780     6.1180    10.5600    24.4660   -19.1840 
   79.5000     2.1830    65.3130     7.8120     6.1830    10.3600    24.3550   -17.8770 
   79.6250     2.2210    73.2180     7.7060     6.1500    10.4520    24.2710   -16.1700 
   79.7500     2.2700    79.9630     7.4220     5.9630    10.4510    24.3200   -14.1450 
   79.8750     2.3170    84.9900     6.9750     5.6060     9.4150    24.5540   -12.0100 
   80.0000     2.3490    91.4070     6.4430     5.1370     7.3370    24.9770    -9.8640 
   80.1250     2.3630   102.6080     5.9640     4.6790     6.1110    25.4140    -7.9710 
   80.2500     2.3640   113.3140     5.6520     4.3280     5.4220    25.6060    -6.3230 
   80.3750     2.3580   116.5140     5.6000     4.1400     5.2820    25.5400    -5.0100 
   80.5000     2.3450   110.8320     5.8950     4.1740     5.7240    25.4220    -4.1080 
   80.6250     2.3350   102.3770     6.7000     4.5730     6.4990    25.3650    -3.7830 
   80.7500     2.3450    95.3890     7.9580     5.3660     7.0950    25.3070    -3.9060 
   80.8750     2.3890    88.7010     9.5430     6.5680     8.9570    25.2440    -4.4150 
   81.0000     2.4590    81.2500    11.1400     8.0600    14.5090    25.2000    -5.2000 
   81.1250     2.5160    74.3300    12.1410     9.3770    30.6910    25.2610    -6.2150 
   81.2500     2.5230    70.0200    12.2440     9.9530    36.4610    25.2840    -7.4400 
   81.3750     2.4730    68.7400    11.5000     9.6190    24.3870    25.2530    -8.8080 
   81.5000     2.3900    68.9940    10.3080     8.7050    13.8930    25.1630   -10.2420 
   81.6250     2.3140    67.8130     9.2320     7.7380    11.3350    24.9930   -11.6030 
   81.7500     2.2670    66.4740     8.5640     7.0460    11.0710    24.8350   -12.7840 
   81.8750     2.2450    66.9600     8.3040     6.7010    11.1500    24.7400   -13.7410 
   82.0000     2.2380    69.0090     8.3130     6.6470    10.8170    24.6520   -14.4590 
   82.1250     2.2330    70.7090     8.4190     6.7630    10.4780    24.4130   -14.9080 
   82.2500     2.2250    71.3900     8.4910     6.8970    10.5430    24.1880   -15.1710 
   82.3750     2.2150    70.9190     8.5070     7.0010    10.7620    24.1540   -15.2590 
   82.5000     2.2020    68.7830     8.4920     7.0690    10.8210    24.3330   -15.2220 
   82.6250     2.1880    67.1890     8.4930     7.1140    10.6300    24.5200   -15.1200 
   82.7500     2.1750    66.7800     8.5410     7.1620    10.2740    24.5490   -14.9900 
   82.8750     2.1660    67.0330     8.6260     7.2200     9.9360    24.4400   -14.7690 
   83.0000     2.1630    66.9610     8.6830     7.2620     9.4790    24.3510   -14.3920 
   83.1250     2.1690    64.7130     8.5570     7.1800     9.2950    24.3750   -13.6520 
   83.2500     2.1830    61.3000     8.1550     6.8770     9.5020    24.4900   -12.5460 
   83.3750     2.2040    61.3380     7.4770     6.3090     9.3270    24.6770   -11.0740 
   83.5000     2.2290    66.9310     6.6790     5.5630     8.0770    24.9490    -9.3140 
   83.6250     2.2580    74.9320     6.1320     4.9000     6.2350    25.2650    -7.4280 
   83.7500     2.2940    81.3070     6.1630     4.5830     5.3380    25.4900    -5.6730 
   83.8750     2.3490    85.1010     6.9930     4.7920     5.3070    25.5310    -4.1890 
   84.0000     2.4250    85.3360     8.6800     5.6660     7.2490    25.5050    -3.0890 
   84.1250     2.5120    78.7760    11.0190     7.3890    15.2420    25.4260    -2.6220 
   84.2500     2.5760    70.4670    13.1360     9.5340    30.9490    25.2810    -2.7380 
   84.3750     2.5880    65.8530    14.1620    11.2340    35.0820    25.0630    -3.4440 
   84.5000     2.5370    65.0340    13.6310    11.5300    21.5250    24.7320    -4.6510 
   84.6250     2.4380    66.1620    11.7940    10.3000    12.4780    24.3020    -6.1270 
   84.7500     2.3370    69.3640     9.8350     8.7610     9.9630    24.0990    -7.6330 
   84.8750     2.2600    73.5950     8.4070     7.5290     9.7610    24.1490    -8.9560 
   85.0000     2.2160    75.9790     7.6730     6.7780    10.1510    24.3630    -9.9550 
   85.1250     2.2040    74.8830     7.4940     6.4770    10.2650    24.4900   -10.4680 
   85.2500     2.2090    74.1860     7.4920     6.3700    10.0420    24.3910   -10.6080 
   85.3750     2.2210    75.8010     7.4930     6.3130     9.4630    24.2030   -10.4690 
