~V
VERS. 2.00: Ver 2.00
~W
STRT.M 51.0000:
STOP.M 277.0000:
STEP.M 0.1250:
NULL. -999.2500:
UWI. F11147:
~C
DEPT.M :
DEN.GM/CC :
GR.API :
RML.OHMM :
RI. :
RXO.OHMM :
CALI.CM :
SP.MV :
~A
# ...
  174.7500     2.2410    64.0660   105.3510    99.4570    67.9010    24.8900   -39.6970 
  174.8750     2.2450    63.5810   112.2990   105.2200    75.3880    24.9410   -39.7670 
  175.0000     2.2440    61.0370   120.4190   112.4130    87.9050    24.9520   -39.8410 
  175.1250     2.2400    60.3500   127.6620   119.1680   101.0140    24.9200   -39.9050 
  175.2500     2.2360    63.2520   132.3080   123.7890   102.5120    24.8400   -39.9540 
  175.3750     2.2360    67.3000   134.0220   125.6400    90.0240    24.7550   -39.9670 
  175.5000     2.2350    68.5420   135.1870   126.6540    79.0980    24.7520   -39.9750 
  175.6250     2.2290    65.1140   137.5600   128.4780    75.4780    24.7880   -39.9640 
  175.7500     2.2170    59.3460   141.7890   131.9440    81.7060    24.8510   -39.9170 
  175.8750     2.2020    57.4370   147.1710   136.8110    94.1950    24.8950   -39.8380 
  176.0000     2.1880    58.1250   151.3790   141.1620   102.1760    24.9740   -39.7400 
  176.1250     2.1780    58.5500   152.1910   142.9120    96.4050    25.1230   -39.6190 
  176.2500     2.1720    59.6340   148.5280   140.7080    84.9160    25.3090   -39.4770 
  176.3750     2.1660    61.9630   141.0280   134.5530    81.6930    25.4050   -39.3030 
  176.5000     2.1600    64.0080   132.7970   127.1680    83.2250    25.4260   -39.0990 
  176.6250     2.1600    64.8090   125.9050   120.6030    79.7800    25.3690   -38.8850 
  176.7500     2.1700    64.1580   121.6700   116.3120    72.4840    25.2840   -38.6780 
  176.8750     2.1860    62.3940   120.7110   115.1380    77.0020    25.3370   -38.4600 
  177.0000     2.1980    60.8950   121.1870   115.5370    94.1550    25.5180   -38.2230 
  177.1250     2.2020    60.7050   121.0020   115.6630   108.6730    25.6770   -37.9730 
  177.2500     2.2020    60.3170   118.1990   113.7260   106.9600    25.7170   -37.6890 
  177.3750     2.2000    59.7620   111.5190   108.3360   101.3850    25.6070   -37.4100 
  177.5000     2.2030    63.0140   102.9810   100.8950    98.1960    25.4340   -37.1550 
  177.6250     2.2140    68.7580    94.9590    93.4150    82.5350    25.3020   -36.9460 
  177.7500     2.2290    72.3080    89.3780    87.8500    65.0770    25.2500   -36.7800 
  177.8750     2.2420    70.8560    87.5300    85.7530    62.8170    25.2340   -36.6730 
  178.0000     2.2460    67.7180    88.5860    86.5880    69.5590    25.2360   -36.6000 
  178.1250     2.2430    66.0650    94.6370    89.8440    72.9020    25.2620   -36.5630 
  178.2500     2.2410    65.7780   100.1680    94.6600    72.5950    25.3240   -36.5780 
  178.3750     2.2390    65.3570   103.9840    99.3060    74.4570    25.3310   -36.6240 
  178.5000     2.2380    64.7010   104.5280   101.3230    77.7340    25.3420   -36.7030 
  178.6250     2.2360    64.3120   100.1290    98.8070    79.4870    25.3770   -36.7780 
  178.7500     2.2360    64.4210    91.0970    91.5300    77.4240    25.4010   -36.8350 
  178.8750     2.2360    66.7670    79.9710    81.3220    75.5370    25.3800   -36.8740 
  179.0000     2.2370    72.0910    70.2970    71.7560    71.4410    25.3240   -36.9260 
  179.1250     2.2370    76.1460    63.5860    64.6750    62.2440    25.2720   -36.9830 
  179.2500     2.2340    73.3220    59.8260    60.4380    54.3650    25.1860   -37.0540 
  179.3750     2.2290    66.1340    58.2670    58.5160    54.1770    24.8570   -37.1550 
  179.5000     2.2310    62.8050    57.4480    57.4670    48.8980    24.3010   -37.2650 
  179.6250     2.2390    63.3370    56.6960    56.5940    40.7150    24.0130   -37.3790 
  179.7500     2.2430    63.7720    55.6980    55.5080    35.7930    24.2210   -37.5120 
  179.8750     2.2340    63.1370    54.6030    54.2130    33.0310    24.4950   -37.6830 
  180.0000     2.2250    62.9190    53.9680    53.2290    34.2930    24.4680   -37.8750 
  180.1250     2.2280    62.2310    54.2450    53.0370    38.3950    24.1890   -38.0900 
  180.2500     2.2390    61.0570    55.7550    53.9720    38.5000    23.9640   -38.2930 
  180.3750     2.2480    61.0490    59.1210    56.6240    35.6180    24.1550   -38.4700 
  180.5000     2.2450    62.7530    64.4220    61.1110    38.7660    24.5180   -38.6110 
  180.6250     2.2340    64.8410    68.6310    67.6070    49.3390    24.7690   -38.7240 
  180.7500     2.2240    65.9580    76.4210    76.0170    65.2070    24.8910   -38.8180 
  180.8750     2.2190    66.0030    86.4920    85.9020    82.3400    24.9970   -38.8820 
  181.0000     2.2150    66.1770    96.3540    95.6780    94.3650    25.2030   -38.9220 
  181.1250     2.2080    65.3760   104.5190   103.7940    99.0100    25.4800   -38.9480 
  181.2500     2.2030    62.3540   109.8460   109.0480    98.2460    25.6330   -38.9890 
  181.3750     2.2010    60.4360   111.4650   110.5030    97.1250    25.6020   -39.0500 
  181.5000     2.1960    61.8820   110.4440   109.2280    98.3660    25.4630   -39.1110 
  181.6250     2.1840    64.1870   107.6050   106.1040   100.0720    25.3060   -39.1810 
  181.7500     2.1730    64.9990   103.7990   102.0420    98.2530    25.0850   -39.2760 
  181.8750     2.1810    64.1560    99.8200    97.8550    91.6320    24.8330   -39.3920 
  182.0000     2.2050    63.2630    96.3040    94.1370    85.4250    24.6250   -39.5170 
  182.1250     2.2280    62.7660    93.6050    91.2150    80.7750    24.6070   -39.6560 
  182.2500     2.2360    62.5480    91.9440    89.3180    75.0690    24.6850   -39.7950 
  182.3750     2.2320    63.6300    91.6190    88.8120    69.1740    24.7160   -39.9180 
  182.5000     2.2290    64.4750    92.3570    89.4890    67.4780    24.7350   -40.0510 
  182.6250     2.2260    64.4560    93.8090    91.0620    70.9210    24.7350   -40.1880 
  182.7500     2.2220    64.7320    95.2750    92.8850    74.5250    24.5700   -40.3080 
  182.8750     2.2150    66.1970    95.4260    93.6970    74.9900    24.2710   -40.4080 
  183.0000     2.2090    68.3310    93.5310    92.6130    67.2520    24.0730   -40.5090 
  183.1250     2.2040    68.7860    89.6150    89.4200    53.8120    24.0440   -40.5820 
  183.2500     2.2020    67.6470    84.6360    84.8050    43.7350    24.1350   -40.6250 
  183.3750     2.2090    66.6490    80.4000    80.3140    39.5040    24.2650   -40.6600 
  183.5000     2.2210    64.7740    78.3830    77.5250    36.6870    24.1770   -40.6740 
  183.6250     2.2350    61.9060    79.5310    77.5370    36.0080    23.8600   -40.6650 
  183.7500     2.2500    59.6520    84.3030    81.0510    40.1760    23.7260   -40.6430 
  183.8750     2.2600    61.4920    92.8950    88.6250    52.0450    24.1490   -40.5910 
  184.0000     2.2570    63.1920   103.0090    98.2300    68.8960    24.7600   -40.5210 
  184.1250     2.2420    60.4490   111.6420   107.0880    91.0420    25.2000   -40.4740 
  184.2500     2.2220    56.6440   115.5810   111.9970   113.4740    25.4080   -40.4480 
  184.3750     2.2130    58.0820   113.2560   110.7480   110.0870    25.4970   -40.4390 
  184.5000     2.2160    60.8740   108.9850   106.7070    87.5250    25.5300   -40.4600 
  184.6250     2.2230    60.2830   106.7640   103.6960    68.0860    25.5620   -40.4860 
  184.7500     2.2250    58.8370   108.7540   104.3640    63.7640    25.5960   -40.5090 
  184.8750     2.2170    57.5550   114.3140   108.8020    73.6400    25.6320   -40.5420 
  185.0000     2.2040    54.8080   118.4580   112.6780    93.9530    25.6470   -40.5790 
  185.1250     2.1870    52.8550   116.5150   111.7050   119.0120    25.6720   -40.5840 
  185.2500     2.1730    55.0540   107.1910   104.0380   126.4120    25.6610   -40.5700 
  185.3750     2.1700    60.5920    94.4970    92.1610    86.1190    25.5260   -40.5150 
  185.5000     2.1820    64.4990    84.4870    81.7480    55.9500    25.3230   -40.4200 
  185.6250     2.2020    66.1230    79.3540    75.4750    47.4490    25.3140   -40.3210 
  185.7500     2.2180    65.6050    79.1280    73.8860    55.1100    25.6010   -40.2280 
  185.8750     2.2220    63.6040    83.3380    76.8820    66.6430    25.9890   -40.1150 
