~V
VERS. 2.00: Ver 2.00
~W
STRT.M 58.0000:
STOP.M 206.0000:
STEP.M 0.1250:
NULL. -999.2500:
UWI. F11128:
~C
DEPT.M :
GR.API :
RML.OHMM :
RI. :
RXO.OHMM :
CALI.CM :
SP.MV :
DEN.GM/CC :
~A
# ...
  114.2500    60.4140    15.4590    14.6980    19.4750    26.5330   -14.1330     2.1080 
  114.3750    59.8840    15.3740    14.6010    18.7900    26.5370   -14.0140     2.0810 
  114.5000    61.9770    15.3640    14.5850    19.1910    26.1700   -13.8990     2.0510 
  114.6250    64.2700    15.2620    14.5240    20.1040    25.4930   -13.7270     2.0390 
  114.7500    65.6850    14.9340    14.2860    20.3800    24.9780   -13.4950     2.0570 
  114.8750    67.6400    14.3400    13.7990    19.4610    24.7470   -13.2200     2.0950 
  115.0000    69.3440    13.5590    13.0810    18.2940    24.6830   -12.8590     2.1310 
  115.1250    69.4820    12.8240    12.3310    16.4250    24.6540   -12.4480     2.1530 
  115.2500    70.2340    12.3080    11.7190    14.1990    24.6140   -12.0560     2.1700 
  115.3750    72.8620    12.0960    11.3590    12.5660    24.5740   -11.7620     2.1900 
  115.5000    74.3910    12.1860    11.3090    12.4180    24.4890   -11.6210     2.2130 
  115.6250    73.7240    12.3920    11.4370    12.5390    24.3560   -11.6550     2.2380 
  115.7500    73.7440    12.5790    11.6250    12.6350    24.1630   -11.8530     2.2610 
  115.8750    76.2390    12.6640    11.7760    13.1730    23.9910   -12.1770     2.2710 
  116.0000    77.8820    12.6360    11.8370    13.0400    23.8400   -12.5920     2.2550 
  116.1250    77.1670    12.6110    11.8720    12.3660    23.6680   -13.0130     2.2230 
  116.2500    75.5430    12.6850    11.9660    12.2850    23.4680   -13.3930     2.1950 
  116.3750    75.0090    12.8910    12.1710    13.2970    23.3040   -13.6840     2.1840 
  116.5000    73.4290    13.1570    12.4610    14.9190    23.2130   -13.8780     2.1860 
  116.6250    70.1650    13.3210    12.7040    16.4210    23.2250   -13.9890     2.1900 
  116.7500    67.6610    13.3550    12.7770    17.3060    23.3320   -14.0090     2.1870 
  116.8750    68.1820    13.1760    12.6020    17.4110    23.5340   -13.9650     2.1760 
  117.0000    71.0330    12.9200    12.1720    16.7590    23.5930   -13.9300     2.1600 
  117.1250    72.6370    12.7370    11.6530    15.6970    23.5370   -14.0080     2.1500 
  117.2500    72.1190    12.4200    11.1640    14.8240    23.5290   -14.1770     2.1470 
  117.3750    69.7800    11.9580    10.7640    14.4970    23.5980   -14.3860     2.1460 
  117.5000    67.2320    11.5960    10.4590    14.6530    23.6160   -14.5970     2.1450 
  117.6250    66.3410    11.2640    10.1920    14.5450    23.5670   -14.7920     2.1500 
  117.7500    68.1930    10.9420     9.9340    13.9020    23.5130   -14.9740     2.1650 
  117.8750    71.7550    10.6470     9.6880    12.8250    23.5090   -15.1250     2.1840 
  118.0000    72.5420    10.4320     9.4970    12.0190    23.5530   -15.2010     2.1950 
  118.1250    70.1370    10.2990     9.3770    11.7130    23.6190   -15.1310     2.1930 
  118.2500    68.9570    10.2080     9.3080    11.7120    23.6720   -14.9050     2.1780 
  118.3750    72.4510    10.0830     9.2310    11.8430    23.6680   -14.5390     2.1610 
  118.5000    78.4900     9.8180     9.0430    12.0860    23.6630   -14.0400     2.1470 
  118.6250    82.6350     9.4190     8.7150    12.0760    23.5980   -13.4950     2.1400 
  118.7500    84.5380     8.9650     8.2930    11.6060    23.4250   -12.9730     2.1450 
  118.8750    86.2160     8.6050     7.8930    10.5180    23.2470   -12.5430     2.1690 
  119.0000    88.6020     8.5790     7.7300     9.0330    23.1570   -12.2390     2.2090 
  119.1250    89.7240     8.9760     7.9260     8.2110    23.1550   -12.0490     2.2460 
  119.2500    86.8360     9.8110     8.5460     8.8730    23.1810   -12.0090     2.2650 
  119.3750    80.5260    10.9760     9.5560    10.9060    23.1850   -12.1030     2.2630 
  119.5000    73.8580    12.2170    10.8030    13.8610    23.1650   -12.2550     2.2420 
  119.6250    68.6840    13.1970    11.9480    16.7670    23.1950   -12.3200     2.2130 
  119.7500    65.6370    13.7200    12.7220    18.4870    23.2700   -12.1940     2.1900 
  119.8750    64.6140    13.7910    13.0060    18.6820    23.3600   -11.7620     2.1810 
  120.0000    66.0500    13.6610    12.9100    17.7210    23.4140   -10.9480     2.1970 
  120.1250    68.6890    13.6980    12.8290    16.8490    23.4300    -9.9060     2.2370 
  120.2500    69.7680    14.0190    12.9570    16.6150    23.4770    -8.7450     2.3010 
  120.3750    68.1150    14.5180    13.2880    17.1590    23.5390    -7.6110     2.3820 
  120.5000    64.0940    14.9320    13.6450    19.2960    23.5470    -6.6100     2.4640 
  120.6250    60.4120    15.1550    13.8610    20.2430    23.5640    -5.7380     2.5280 
  120.7500    59.6260    15.3620    13.9810    18.5190    23.6140    -5.0020     2.5600 
  120.8750    62.1750    15.9820    14.2790    15.2030    23.7110    -4.4500     2.5590 
  121.0000    63.7450    17.7330    15.3450    14.8080    23.8230    -4.1450     2.5450 
  121.1250    61.6770    20.7400    17.4660    19.4050    23.9500    -3.9950     2.5400 
  121.2500    58.2990    24.8060    20.7040    27.2580    24.0820    -3.9000     2.5510 
  121.3750    55.9270    29.3550    24.7610    35.1900    24.1140    -3.7840     2.5730 
  121.5000    51.7790    33.4280    28.9160    39.8560    24.0920    -3.6620     2.5990 
  121.6250    46.7510    36.4020    32.3200    40.3850    24.0540    -3.6010     2.6170 
  121.7500    45.4100    38.2230    34.5880    38.4140    24.0020    -3.6360     2.6250 
  121.8750    47.8820    39.4130    35.9500    35.8750    23.9590    -3.7780     2.6260 
  122.0000    50.3280    40.8070    37.1010    37.3720    23.9910    -4.0290     2.6290 
  122.1250    50.9010    42.7790    38.6020    41.7690    24.0680    -4.3030     2.6420 
  122.2500    49.9410    45.1950    40.4940    45.6830    24.0800    -4.5690     2.6590 
  122.3750    48.0250    47.6740    42.5580    46.5700    24.0390    -4.7790     2.6710 
  122.5000    44.7820    49.6250    44.3630    45.2120    24.0090    -4.8890     2.6730 
  122.6250    42.7930    50.6550    45.5330    45.6430    24.0580    -4.9320     2.6690 
  122.7500    43.3050    50.4700    45.7710    47.0170    24.1990    -4.9380     2.6660 
  122.8750    44.9850    48.9520    44.9030    47.0750    24.2850    -4.9140     2.6650 
  123.0000    46.5970    46.0770    42.8120    45.5910    24.3270    -4.8190     2.6590 
  123.1250    46.9400    42.5640    40.0310    42.9550    24.3460    -4.7210     2.6440 
  123.2500    46.2910    39.1070    37.1150    38.2970    24.4110    -4.6510     2.6190 
  123.3750    45.0230    36.3770    34.6670    33.1800    24.5370    -4.6210     2.5870 
  123.5000    44.1320    34.9480    33.2830    31.4630    24.7040    -4.6430     2.5570 
  123.6250    44.2110    34.5200    32.8360    31.7300    24.8780    -4.6480     2.5360 
  123.7500    44.2230    34.6310    33.0020    32.9230    24.9860    -4.6070     2.5280 
  123.8750    43.5970    34.6550    33.2470    34.5190    24.9790    -4.5530     2.5380 
  124.0000    43.0850    33.8220    32.8240    36.5590    24.9100    -4.4970     2.5660 
  124.1250    43.7790    31.9750    31.4310    36.4560    24.7670    -4.4190     2.5950 
  124.2500    45.4870    29.3360    29.1520    32.7150    24.6420    -4.3280     2.6060 
  124.3750    47.4790    26.4380    26.4300    27.1220    24.6720    -4.2540     2.5920 
  124.5000    48.7030    23.9890    23.9230    21.8110    24.8490    -4.1930     2.5590 
  124.6250    49.1000    22.3220    22.0480    19.7870    25.0720    -4.1990     2.5240 
  124.7500    49.4170    21.5240    20.9560    19.4500    25.1730    -4.2790     2.4930 
  124.8750    49.9170    21.5270    20.6370    19.8010    25.1140    -4.3640     2.4670 
  125.0000    49.8770    22.2610    21.0810    20.2900    24.9700    -4.4560     2.4440 
  125.1250    48.2450    23.4010    22.0040    20.5150    24.8570    -4.5470     2.4330 
  125.2500    46.2650    24.7230    23.2100    21.5320    24.8330    -4.6250     2.4460 
  125.3750    45.0460    25.9880    24.4690    23.5100    24.8250    -4.6570     2.4770 
