~V
VERS. 2.00: Ver 2.00
~W
STRT.M 63.0000:
STOP.M 244.0000:
STEP.M 0.1250:
NULL. -999.2500:
UWI. F11131:
~C
DEPT.M :
SP.MV :
DEN.GM/CC :
GR.API :
RML.OHMM :
RI. :
RXO.OHMM :
CALI.CM :
~A
# ...
  141.7500   -13.2420     2.1110    76.4170     5.3950     4.8190     4.3980    31.8610 
  141.8750   -13.3540     2.0990    76.4720     5.4420     4.8440     4.4420    31.6960 
  142.0000   -13.4770     2.1100    74.2140     5.5010     4.8820     4.4880    31.4290 
  142.1250   -13.6490     2.1460    74.2500     5.5180     4.8920     4.5460    31.0640 
  142.2500   -13.8890     2.1880    78.4560     5.4960     4.8680     4.5020    30.6440 
  142.3750   -14.1780     2.2100    82.2170     5.4600     4.8230     4.4250    30.1530 
  142.5000   -14.4900     2.1940    83.4670     5.4250     4.7670     4.3820    29.5380 
  142.6250   -14.7750     2.1620    83.9010     5.3930     4.7050     4.3520    28.9080 
  142.7500   -15.0240     2.1410    85.5360     5.3630     4.6410     4.3610    28.5750 
  142.8750   -15.2360     2.1460    87.6500     5.3410     4.5810     4.4060    28.4700 
  143.0000   -15.4600     2.1860    89.7370     5.3330     4.5290     4.4160    27.7350 
  143.1250   -15.6690     2.2400    91.4290     5.3510     4.4930     4.3180    25.7970 
  143.2500   -15.8540     2.2860    92.8660     5.3910     4.4690     4.2780    23.9080 
  143.3750   -16.0110     2.3130    94.0920     5.4430     4.4550     4.3410    23.0020 
  143.5000   -16.1250     2.3220    92.8520     5.4920     4.4450     4.4390    22.9430 
  143.6250   -16.2050     2.3270    88.7200     5.5290     4.4340     4.5160    22.9980 
  143.7500   -16.2630     2.3340    87.0310     5.5570     4.4240     4.5260    22.9600 
  143.8750   -16.3120     2.3410    89.0320     5.5870     4.4200     4.4910    22.8870 
  144.0000   -16.3510     2.3450    91.5200     5.6270     4.4250     4.4680    22.7640 
  144.1250   -16.3820     2.3470    90.3250     5.6790     4.4420     4.4890    22.6210 
  144.2500   -16.3630     2.3440    88.7980     5.7280     4.4600     4.5100    22.4900 
  144.3750   -16.2900     2.3310    88.4750     5.7640     4.4720     4.5370    22.3760 
  144.5000   -16.1680     2.3100    88.4710     5.7700     4.4730     4.5430    22.3550 
  144.6250   -16.0520     2.2920    88.9520     5.7820     4.4710     4.6160    22.4410 
  144.7500   -15.9820     2.2820    90.6380     5.7850     4.4620     4.6600    22.8160 
  144.8750   -15.9620     2.2790    92.5360     5.7870     4.4540     4.6750    23.3650 
  145.0000   -15.9240     2.2730    93.5660     5.7960     4.4530     4.6850    23.8050 
  145.1250   -15.8570     2.2600    93.3140     5.8000     4.4550     4.6960    23.8120 
  145.2500   -15.7960     2.2400    91.8550     5.8180     4.4660     4.7170    23.7160 
  145.3750   -15.7440     2.2220    91.2760     5.8340     4.4810     4.7220    23.3990 
  145.5000   -15.7230     2.2180    92.9340     5.8340     4.4900     4.6700    23.2660 
  145.6250   -15.7290     2.2290    94.7160     5.8030     4.4810     4.6500    23.5300 
  145.7500   -15.7680     2.2510    95.0490     5.7430     4.4510     4.5780    23.8970 
  145.8750   -15.8260     2.2750    93.5840     5.6650     4.4040     4.5200    24.1540 
  146.0000   -15.9120     2.2910    91.2680     5.5810     4.3470     4.5110    24.2260 
  146.1250   -16.0200     2.2990    89.3320     5.5100     4.2900     4.4760    24.0950 
  146.2500   -16.1470     2.3010    87.9120     5.4590     4.2420     4.4310    23.9390 
  146.3750   -16.3190     2.3010    88.7810     5.4300     4.2070     4.4180    23.9260 
  146.5000   -16.5340     2.3000    92.7650     5.4200     4.1870     4.4520    24.0160 
  146.6250   -16.7600     2.2980    95.4780     5.4230     4.1790     4.4570    24.0610 
  146.7500   -16.9560     2.2920    94.8080     5.4310     4.1770     4.4380    24.0580 
  146.8750   -17.0960     2.2870    91.6970     5.4370     4.1780     4.4350    24.0680 
  147.0000   -17.2060     2.2880    90.1670     5.4370     4.1770     4.4590    24.1590 
  147.1250   -17.2820     2.2920    91.3670     5.4300     4.1750     4.4660    24.3110 
  147.2500   -17.3130     2.2960    91.9950     5.4230     4.1720     4.4650    24.3990 
  147.3750   -17.2880     2.2960    92.8220     5.4020     4.1640     4.4580    24.5880 
  147.5000   -17.2180     2.2930    92.0120     5.3730     4.1530     4.4490    24.6850 
  147.6250   -17.1280     2.2890    89.2820     5.3390     4.1410     4.4240    24.7000 
  147.7500   -17.0010     2.2880    86.4310     5.3070     4.1310     4.4140    24.6910 
  147.8750   -16.8560     2.2890    85.1470     5.2820     4.1270     4.3990    24.6240 
  148.0000   -16.7240     2.2950    86.5800     5.2690     4.1330     4.3710    24.4790 
  148.1250   -16.6350     2.3010    90.5880     5.2780     4.1580     4.3280    24.3220 
  148.2500   -16.6080     2.3070    93.4850     5.3040     4.2030     4.2740    24.2090 
  148.3750   -16.6170     2.3110    93.0600     5.3430     4.2620     4.1970    24.0580 
  148.5000   -16.6200     2.3140    90.0240     5.3900     4.3280     4.1040    23.7540 
  148.6250   -16.6120     2.3150    89.4250     5.4390     4.3910     4.0770    23.3450 
  148.7500   -16.6660     2.3140    92.0210     5.4930     4.4460     4.0760    23.0420 
  148.8750   -16.8010     2.3120    93.8770     5.5540     4.4920     4.0890    22.9170 
  149.0000   -16.9860     2.3110    92.7970     5.6260     4.5330     4.0880    22.8860 
  149.1250   -17.1910     2.3130    91.7530     5.7080     4.5650     4.0920    22.8490 
  149.2500   -17.3860     2.3180    92.1130     5.7880     4.5790     4.1020    22.7850 
  149.3750   -17.5860     2.3220    92.3160     5.8420     4.5590     4.1270    22.6800 
  149.5000   -17.7980     2.3230    90.8970     5.8310     4.4850     4.1600    22.5420 
  149.6250   -18.0080     2.3200    88.7430     5.6840     4.3250     4.1620    22.4080 
  149.7500   -18.2070     2.3150    87.7090     5.5430     4.2020     4.1630    22.3350 
  149.8750   -18.4010     2.3100    87.0190     5.3710     4.0660     4.1640    22.2690 
  150.0000   -18.5610     2.3150    85.8670     5.1420     3.8820     4.1890    22.1710 
  150.1250   -18.6830     2.3370    83.8280     5.2660     3.9180     4.2330    22.1220 
  150.2500   -18.7560     2.3680    81.6980     6.0440     4.3440     4.3400    22.1010 
  150.3750   -18.7880     2.3850    79.3350     7.8650     5.4040     4.5760    22.0420 
  150.5000   -18.8110     2.3600    73.3590    11.2190     7.4580     5.4790    21.9350 
  150.6250   -18.8600     2.3020    64.8610    17.0520    11.3050     9.5080    21.9170 
  150.7500   -18.9120     2.2340    60.5670    25.2570    17.1180    20.0830    22.1430 
  150.8750   -18.9320     2.1790    60.0570    34.9510    24.5550    35.6080    22.7210 
  151.0000   -18.9330     2.1550    59.1470    43.5450    31.9570    48.2820    23.5830 
  151.1250   -18.8990     2.1500    57.6140    46.3820    35.8530    54.6170    24.3540 
  151.2500   -18.8630     2.1560    59.2340    43.0010    35.0680    58.7550    24.7160 
  151.3750   -18.8580     2.1670    62.3410    35.4730    30.4500    58.3780    24.7260 
  151.5000   -18.8900     2.1860    63.4670    26.7590    24.0440    56.8910    24.6330 
  151.6250   -18.9240     2.2120    63.0380    19.3940    17.9960    53.9320    24.5750 
  151.7500   -18.9210     2.2410    63.3290    14.0600    13.3080    43.4080    24.5240 
  151.8750   -18.8770     2.2670    67.4580    10.6110    10.0680    27.2910    24.4840 
  152.0000   -18.8350     2.2850    74.3460     8.5790     8.0060    14.3970    24.4750 
  152.1250   -18.8570     2.2960    78.9250     7.5640     6.8670     9.1990    24.4840 
  152.2500   -18.9480     2.3000    80.1820     7.1660     6.3970     7.7100    24.4880 
  152.3750   -19.0670     2.2990    80.7630     6.9110     6.1010     7.1320    24.4870 
  152.5000   -19.1890     2.2930    82.6770     6.5860     5.7600     6.6070    24.4830 
  152.6250   -19.3040     2.2850    86.5780     6.4170     5.6290     6.1950    24.4800 
  152.7500   -19.4340     2.2760    87.8880     6.4530     5.6830     5.7650    24.4820 
  152.8750   -19.6140     2.2660    86.2210     6.7940     5.9770     5.3830    24.4830 
