~V
VERS. 2.00: Ver 2.00
~W
STRT.M 40.0000:
STOP.M 232.0000:
STEP.M 0.1250:
NULL. -999.2500:
UWI. F11121:
~C
DEPT.M :
SP.MV :
DEN.GM/CC :
GR.API :
RML.OHMM :
RI. :
RXO.OHMM :
CALI.CM :
~A
# ...
  163.7500    -1.6230     2.1420    63.9680   211.1390   151.3000   120.3180    24.9300 
  163.8750    -1.6720     2.1390    63.8920   211.3730   152.3260   111.1790    24.9310 
  164.0000    -1.7340     2.1390    64.5100   204.9430   149.9610   109.0010    24.9110 
  164.1250    -1.7960     2.1500    62.2230   191.4480   143.5340    99.0260    24.8580 
  164.2500    -1.8650     2.1700    59.9870   175.9010   135.2550    87.7290    24.7950 
  164.3750    -1.9390     2.1940    62.3670   162.8590   127.5520    78.1010    24.7580 
  164.5000    -1.9790     2.2110    65.8610   155.8250   122.7580    68.2390    24.7720 
  164.6250    -1.9600     2.2150    64.3510   158.2150   123.3800    75.6740    24.8110 
  164.7500    -1.9030     2.2100    61.6230   169.2370   129.1790    91.0710    24.8080 
  164.8750    -1.8150     2.2050    60.9280   188.1800   139.4690    88.4400    24.7600 
  165.0000    -1.7000     2.2040    60.0740   212.9920   152.5710    64.3360    24.6600 
  165.1250    -1.5460     2.2020    56.7570   239.6970   165.8260    44.8630    24.4580 
  165.2500    -1.3740     2.1940    54.8200   262.8850   176.7660    41.0800    24.2120 
  165.3750    -1.1880     2.1810    54.5240   278.7940   184.1060    50.6240    24.0350 
  165.5000    -1.0300     2.1660    54.0060   284.6420   187.0980    59.1870    23.9790 
  165.6250    -0.9550     2.1540    53.5440   276.2330   184.1410    56.6450    24.0000 
  165.7500    -0.9200     2.1500    53.8620   256.5750   175.9950    53.3890    24.0280 
  165.8750    -0.9270     2.1570    56.2320   230.9080   164.1420    50.2580    24.0560 
  166.0000    -0.9820     2.1720    61.5290   206.3980   151.4480    46.2310    24.0690 
  166.1250    -1.0820     2.1910    65.5340   190.3740   141.8530    44.1920    24.0670 
  166.2500    -1.2150     2.2040    64.6120   183.7810   137.0070    44.1600    24.0630 
  166.3750    -1.3750     2.2080    61.1780   185.2050   136.7140    44.8380    24.0610 
  166.5000    -1.5450     2.2040    59.9350   190.6040   138.9230    46.0630    24.0620 
  166.6250    -1.7150     2.2010    60.3640   192.7770   139.8070    47.1720    24.0640 
  166.7500    -1.8780     2.2020    60.2180   187.0820   136.7140    46.9520    24.0650 
  166.8750    -2.0010     2.2070    59.9960   174.2050   129.5650    44.7880    24.0630 
  167.0000    -2.0590     2.2100    60.2560   158.9920   120.5000    43.7050    24.0570 
  167.1250    -2.0630     2.2100    61.2330   147.7470   113.0030    46.9540    24.0750 
  167.2500    -2.0420     2.2030    63.2980   142.6220   108.9300    50.6070    24.1470 
  167.3750    -2.0250     2.1930    66.3700   143.3020   108.4430    54.5040    24.2620 
  167.5000    -2.0180     2.1790    68.6480   147.6510   110.3610    57.5600    24.3730 
  167.6250    -2.0080     2.1670    66.6890   150.9480   111.9220    57.5760    24.4720 
  167.7500    -2.0220     2.1580    63.3060   147.6480   109.8600    60.0160    24.6020 
  167.8750    -2.0720     2.1550    63.0070   134.5640   102.0680    68.5330    24.7440 
  168.0000    -2.1600     2.1550    66.0180   112.6860    88.3640    85.3540    24.8400 
  168.1250    -2.2800     2.1650    67.7110    87.0380    70.7850    88.6740    24.8580 
  168.2500    -2.4140     2.1910    68.1780    63.8870    53.7320    81.9480    24.8400 
  168.3750    -2.5240     2.2350    72.4380    45.7750    39.6560    45.5860    24.8140 
  168.5000    -2.6070     2.2870    79.9190    33.0500    29.3970    26.9710    24.7960 
  168.6250    -2.6570     2.3300    83.9420    25.4670    23.0830    18.4640    24.7930 
  168.7500    -2.6770     2.3550    84.8320    21.0300    19.2670    15.1680    24.7960 
  168.8750    -2.6750     2.3650    86.0560    18.8060    17.2360    14.6520    24.7980 
  169.0000    -2.6750     2.3660    88.0520    18.1040    16.4590    14.0090    24.8060 
  169.1250    -2.6920     2.3600    88.6780    18.4630    16.6150    13.7650    24.8220 
  169.2500    -2.7120     2.3470    86.8110    19.1750    17.1420    15.5140    24.8380 
  169.3750    -2.7370     2.3290    84.5760    19.8040    17.6760    17.8160    24.8500 
  169.5000    -2.7740     2.3160    84.0090    20.0500    17.9390    18.1700    24.8590 
  169.6250    -2.8420     2.3170    85.8000    19.7460    17.7520    16.3270    24.8650 
  169.7500    -2.9460     2.3270    85.4830    19.0880    17.2420    15.0630    24.8730 
  169.8750    -3.0860     2.3390    82.3780    18.2590    16.5430    14.9080    24.8760 
  170.0000    -3.2270     2.3490    81.7140    17.4180    15.7870    15.2720    24.8740 
  170.1250    -3.3400     2.3550    87.0890    16.6590    15.0650    14.4700    24.8860 
  170.2500    -3.4410     2.3590    92.2500    15.9750    14.3980    13.2380    24.9110 
  170.3750    -3.5560     2.3630    92.0850    15.3560    13.7910    12.5430    24.9230 
  170.5000    -3.6800     2.3680    87.8940    14.8090    13.2560    12.1490    24.9140 
  170.6250    -3.7840     2.3740    87.0170    14.3430    12.8050    12.0530    24.9090 
  170.7500    -3.8520     2.3790    89.3920    13.9370    12.4150    11.6840    24.9190 
  170.8750    -3.8830     2.3840    91.0400    13.6040    12.0870    11.1560    24.9260 
  171.0000    -3.9070     2.3870    89.9220    13.3880    11.8450    11.0680    24.9280 
  171.1250    -3.9410     2.3870    89.6990    13.3870    11.7540    10.7100    24.9320 
  171.2500    -3.9840     2.3850    91.2380    13.6030    11.8210    10.4260    24.9360 
  171.3750    -4.0270     2.3790    90.3300    13.9820    12.0190    10.9030    24.9360 
  171.5000    -4.0800     2.3690    86.0780    14.3780    12.2540    12.3750    24.9310 
  171.6250    -4.1690     2.3520    84.0490    14.5240    12.3480    13.1520    24.9280 
  171.7500    -4.2790     2.3380    87.7060    14.2970    12.1930    13.1900    24.9300 
  171.8750    -4.3980     2.3360    94.2350    13.7590    11.8030    12.7050    24.9320 
  172.0000    -4.4960     2.3490    98.6340    13.1790    11.3450    12.2900    24.9330 
  172.1250    -4.5710     2.3680    97.7180    13.0840    11.1680    11.3550    24.9320 
  172.2500    -4.6280     2.3750    93.4180    13.8100    11.5320    10.6400    24.9330 
  172.3750    -4.6760     2.3650    86.7330    15.4810    12.5700    11.4880    24.9340 
  172.5000    -4.7050     2.3420    79.5860    17.8620    14.2000    14.7030    24.9240 
  172.6250    -4.6980     2.3210    74.2350    20.0810    15.9170    22.0740    24.8890 
  172.7500    -4.6780     2.3060    73.1030    20.9590    16.8170    27.3150    24.8420 
  172.8750    -4.6540     2.2940    76.3950    19.8940    16.3300    25.5670    24.8100 
  173.0000    -4.6580     2.2820    82.4880    17.3140    14.6440    17.9570    24.8020 
  173.1250    -4.7110     2.2780    87.9150    14.4580    12.5870    11.6650    24.8060 
  173.2500    -4.7990     2.2820    91.4410    12.3070    10.9230     9.5450    24.8100 
  173.3750    -4.9040     2.2920    93.9700    11.0410     9.8520     8.9200    24.8130 
  173.5000    -5.0310     2.3000    96.7600    10.5060     9.3350     8.5260    24.8120 
  173.6250    -5.1960     2.3030    98.7620    10.4870     9.2800     8.5430    24.8090 
  173.7500    -5.3860     2.3010    97.7480    10.6620     9.4410     9.0190    24.7940 
  173.8750    -5.6080     2.3010    94.9680    10.8890     9.6900     9.6450    24.7510 
  174.0000    -5.8440     2.3060    92.9740    11.0910     9.9390     9.9810    24.6910 
  174.1250    -6.0750     2.3140    91.1030    11.2410    10.1360    10.0070    24.6550 
  174.2500    -6.2970     2.3230    88.4280    11.3620    10.2820     9.8750    24.6520 
  174.3750    -6.4770     2.3320    87.5490    11.4780    10.3890     9.8820    24.6570 
  174.5000    -6.6030     2.3400    89.2230    11.6090    10.4760    10.1090    24.6550 
  174.6250    -6.6670     2.3450    89.0400    11.7830    10.5630    10.5690    24.6480 
  174.7500    -6.6920     2.3480    86.3640    12.0150    10.6750    10.8200    24.6320 
  174.8750    -6.6710     2.3500    85.8160    12.3330    10.8350    10.8920    24.6030 
