~V
VERS. 2.00: Ver 2.00
~W
STRT.M 50.0000:
STOP.M 253.0000:
STEP.M 0.1250:
NULL. -999.2500:
UWI. F11132:
~C
DEPT.M :
DEN.GM/CC :
GR.API :
RML.OHMM :
RI. :
RXO.OHMM :
CALI.CM :
SP.MV :
~A
# ...
  151.2500     2.2590    54.3630    17.8880    16.1710    20.7560    25.5660   -13.0680 
  151.3750     2.2290    49.2640    22.4120    20.3490    30.9970    25.7530   -13.2760 
  151.5000     2.2050    46.1150    28.1320    25.9850    37.7010    26.0710   -13.5050 
  151.6250     2.1920    45.1310    33.8950    32.2710    40.5110    26.3240   -13.7000 
  151.7500     2.1960    44.6210    37.1400    36.4790    40.2510    26.3360   -13.8190 
  151.8750     2.2200    44.0240    35.8230    36.0860    39.1570    26.2100   -13.8700 
  152.0000     2.2500    44.8120    30.4750    31.2930    36.6320    26.1130   -13.8840 
  152.1250     2.2740    47.3970    24.0880    25.0740    32.2770    26.0650   -13.8670 
  152.2500     2.2900    48.5790    19.1760    20.0610    24.7840    26.0570   -13.7770 
  152.3750     2.3010    47.4340    16.2900    16.8350    17.8170    26.1070   -13.6050 
  152.5000     2.3090    45.3780    15.2810    15.3090    15.8800    26.1620   -13.3960 
  152.6250     2.3190    44.7840    15.9810    15.4470    19.4400    26.0670   -13.1890 
  152.7500     2.3410    46.7700    17.7110    16.7640    20.2480    25.9220   -13.0120 
  152.8750     2.3700    49.3370    20.0310    18.9880    21.2320    25.8230   -12.8720 
  153.0000     2.3690    50.5440    22.3390    21.6130    22.6440    25.7640   -12.7810 
  153.1250     2.3270    49.3300    23.6930    23.6500    24.2890    25.6740   -12.7020 
  153.2500     2.2710    47.6440    23.6830    24.3520    25.6250    25.6300   -12.6010 
  153.3750     2.2430    48.1920    22.3390    23.5230    27.0270    25.5980   -12.5140 
  153.5000     2.2390    51.4460    20.0790    21.4930    26.5380    25.5170   -12.4580 
  153.6250     2.2470    57.9820    17.5820    18.9330    21.7180    25.4180   -12.4340 
  153.7500     2.2590    63.2870    15.5320    16.6540    15.9050    25.3410   -12.4310 
  153.8750     2.2710    63.5360    14.2000    15.0000    13.9200    25.3050   -12.4370 
  154.0000     2.2810    59.5670    13.5510    14.0050    14.7780    25.3010   -12.4280 
  154.1250     2.2860    57.6260    13.3640    13.5210    17.5120    25.2930   -12.4190 
  154.2500     2.2860    60.1130    13.1780    13.1270    16.8200    25.2930   -12.4870 
  154.3750     2.2860    63.6790    12.7030    12.5480    15.7390    25.3010   -12.6000 
  154.5000     2.2920    65.6060    11.8860    11.7130    13.7290    25.3180   -12.7100 
  154.6250     2.3020    64.8110    11.0140    10.8510    11.6380    25.2910   -12.8370 
  154.7500     2.3090    62.0810    10.4860    10.2880     9.9300    25.2550   -12.9850 
  154.8750     2.3070    58.7490    10.4910    10.1830     9.3790    25.2240   -13.1610 
  155.0000     2.3050    55.7400    11.0590    10.5800     9.7850    25.2230   -13.3760 
  155.1250     2.3150    54.1550    12.1960    11.5340    12.5320    25.2820   -13.6050 
  155.2500     2.3280    53.9420    13.7080    12.8970    15.7580    25.3900   -13.7850 
  155.3750     2.3080    54.6870    15.5140    14.5990    16.6040    25.4660   -13.9610 
  155.5000     2.2530    53.6960    17.6240    16.6090    16.4950    25.4720   -14.1640 
  155.6250     2.1930    49.3830    20.2080    19.0430    19.0510    25.4530   -14.3430 
  155.7500     2.1550    45.0720    23.2230    21.8720    26.0260    25.5560   -14.4880 
  155.8750     2.1410    43.6910    26.4560    24.9520    33.3630    25.7700   -14.5920 
  156.0000     2.1420    44.8520    29.4510    27.8810    35.6150    25.8840   -14.6290 
  156.1250     2.1560    46.1830    31.3740    29.8230    34.1530    25.8950   -14.6280 
  156.2500     2.1770    48.5140    31.9100    30.3750    33.9030    25.8780   -14.6510 
  156.3750     2.2000    52.2090    31.1180    29.5430    33.0820    25.8390   -14.6600 
  156.5000     2.2240    55.1320    29.4310    27.7510    31.5990    25.7630   -14.6050 
  156.6250     2.2540    54.9900    27.4310    25.5880    28.1000    25.6820   -14.5080 
  156.7500     2.2880    55.0280    25.7010    23.6530    23.1990    25.6400   -14.4100 
  156.8750     2.3190    57.1700    24.6020    22.2900    21.3630    25.6060   -14.3270 
  157.0000     2.3360    59.2570    24.3840    21.7300    21.4670    25.5740   -14.2890 
  157.1250     2.3410    58.2630    25.3060    22.2430    23.3240    25.6030   -14.2770 
  157.2500     2.3360    54.4850    27.0520    23.6150    25.6430    25.6320   -14.2340 
  157.3750     2.3190    49.8810    29.1700    25.5330    27.4610    25.6360   -14.2150 
  157.5000     2.2980    47.1850    30.8900    27.3430    28.7480    25.6170   -14.2650 
  157.6250     2.2830    48.5890    31.0280    27.8900    28.8350    25.5890   -14.3310 
  157.7500     2.2810    50.9290    29.4380    26.8330    27.9860    25.5820   -14.3690 
  157.8750     2.2880    51.7930    26.6300    24.5520    26.4240    25.6130   -14.3760 
  158.0000     2.2980    51.2960    23.5110    21.8580    23.2150    25.6960   -14.3390 
  158.1250     2.3090    51.6820    20.9000    19.4990    17.9150    25.7920   -14.2920 
  158.2500     2.3160    52.9670    18.8270    17.5690    13.4820    25.7860   -14.2570 
  158.3750     2.3110    53.5940    16.9900    15.8470    11.8790    25.6840   -14.1670 
  158.5000     2.2940    53.9480    15.0880    14.0990    13.2360    25.5440   -13.9920 
  158.6250     2.2720    55.4450    13.1270    12.3340    14.9260    25.4080   -13.8080 
  158.7500     2.2590    57.3020    11.4820    10.8320    12.8660    25.3480   -13.6510 
  158.8750     2.2700    59.5450    10.4960     9.8470     8.1270    25.4100   -13.5310 
  159.0000     2.2950    61.9320    10.2800     9.4700     6.3030    25.4670   -13.4560 
  159.1250     2.3170    63.1490    10.6420     9.6090     8.2670    25.4090   -13.3950 
  159.2500     2.3230    61.2980    10.8920     9.7520    11.2210    25.4210   -13.3250 
  159.3750     2.2970    58.0650    10.4710     9.4320    11.6260    25.5170   -13.2600 
  159.5000     2.2530    58.0670     9.2280     8.4750     8.4600    25.6970   -13.2310 
  159.6250     2.2120    63.3990     7.6480     7.2050     6.0180    25.9480   -13.2480 
  159.7500     2.2020    68.1980     6.4850     6.2010     4.8340    26.0420   -13.3140 
  159.8750     2.2400    68.0580     6.0600     5.7330     4.5930    26.0540   -13.4160 
  160.0000     2.2940    63.0800     6.4090     5.8850     5.1620    26.0590   -13.5250 
  160.1250     2.3400    56.9920     7.4740     6.6990     7.1070    25.8340   -13.6550 
  160.2500     2.3720    53.3140     8.8590     7.8970     8.8670    25.6250   -13.8300 
  160.3750     2.3860    53.0650    10.2150     9.1900    10.2380    25.5430   -14.0610 
  160.5000     2.3790    54.7100    11.2210    10.2500    10.1810    25.5840   -14.3010 
  160.6250     2.3530    55.2190    11.7000    10.8210     9.0760    25.6950   -14.5020 
  160.7500     2.3260    53.6780    11.8990    11.0570     7.8020    25.7670   -14.6730 
  160.8750     2.3130    52.1680    11.9440    11.0650     8.2450    25.7970   -14.8310 
  161.0000     2.3070    51.5090    11.7680    10.8170    10.0760    25.8230   -14.9670 
  161.1250     2.3010    51.1780    11.1810    10.1830     9.4820    25.8650   -15.0590 
  161.2500     2.2970    50.5170    10.3600     9.3420     8.4810    25.8720   -15.0950 
  161.3750     2.3000    49.3590     9.6850     8.6020     7.6400    25.8020   -15.1090 
  161.5000     2.3150    48.0380     9.6310     8.3010     6.9720    25.6540   -15.1570 
  161.6250     2.3300    47.7420    10.8630     8.8990     7.1560    25.4470   -15.2530 
  161.7500     2.3290    48.2700    13.4770    10.5370    10.8560    25.4630   -15.3500 
  161.8750     2.3110    48.2230    17.4000    13.3420    19.9890    25.6990   -15.4050 
  162.0000     2.2990    47.0530    22.0400    17.1290    30.7200    25.8720   -15.4380 
  162.1250     2.3010    47.3150    25.6750    20.7770    33.5280    25.8570   -15.4920 
  162.2500     2.3110    49.2650    26.7300    22.5880    29.2070    25.7230   -15.5760 
  162.3750     2.3230    51.3910    25.0890    22.0100    25.0990    25.5800   -15.6470 
