~V
VERS. 2.00: Ver 2.00
~W
STRT.M 50.0000:
STOP.M 253.0000:
STEP.M 0.1250:
NULL. -999.2500:
UWI. F11132:
~C
DEPT.M :
DEN.GM/CC :
GR.API :
RML.OHMM :
RI. :
RXO.OHMM :
CALI.CM :
SP.MV :
~A
# ...
   72.5000     2.4390    62.0960     9.7430     7.7760     6.2740    24.5700    -9.5350 
   72.6250     2.4000    62.0660     8.4780     6.9210     5.6660    24.6510    -9.7640 
   72.7500     2.3630    64.0140     7.5740     6.2300     5.2500    24.8010   -10.0510 
   72.8750     2.3670    68.4760     7.1100     5.8000     4.7290    24.9520   -10.3610 
   73.0000     2.3910    72.5110     7.0180     5.6290     4.2390    25.0720   -10.7570 
   73.1250     2.4140    73.6060     7.2220     5.6950     4.2680    25.1350   -11.2760 
   73.2500     2.4250    73.6630     7.5880     5.9030     4.5650    25.1580   -11.9380 
   73.3750     2.4170    73.3510     8.0530     6.2050     4.9330    25.1510   -12.7610 
   73.5000     2.3950    71.6480     8.5300     6.5430     5.2520    25.0870   -13.6990 
   73.6250     2.3650    69.1020     8.9010     6.8360     5.7140    24.9120   -14.7340 
   73.7500     2.3340    66.5090     9.1140     7.0350     6.6150    24.7100   -15.8390 
   73.8750     2.2960    63.1140     9.1710     7.1290     7.4830    24.5720   -16.9990 
   74.0000     2.2410    59.4360     9.1270     7.1380     7.8810    24.5190   -18.1440 
   74.1250     2.1750    59.0270     9.0680     7.1020     7.9070    24.5120   -19.2230 
   74.2500     2.1150    60.6090     9.0500     7.0600     7.8310    24.5160   -20.2100 
   74.3750     2.0790    62.2340     9.0850     7.0220     7.7110    24.5360   -21.0970 
   74.5000     2.0590    62.9430     9.1620     6.9900     7.5980    24.5780   -21.8800 
   74.6250     2.0470    62.4070     9.2650     6.9650     7.4550    24.6040   -22.5060 
   74.7500     2.0500    60.0830     9.3600     6.9420     7.3500    24.5940   -23.0400 
   74.8750     2.0840    57.3430     9.4240     6.9160     7.3000    24.5830   -23.4960 
   75.0000     2.1380    56.1030     9.4360     6.8770     7.2960    24.5810   -23.8760 
   75.1250     2.1940    56.5540     9.3740     6.8140     7.3640    24.5820   -24.1760 
   75.2500     2.2440    57.5040     9.2670     6.7320     7.4460    24.5830   -24.3960 
   75.3750     2.2780    58.3780     9.1490     6.6460     7.2800    24.5840   -24.5970 
   75.5000     2.2870    58.2320     9.0500     6.5760     6.9750    24.5820   -24.8480 
   75.6250     2.2570    56.2650     8.9980     6.5470     6.7100    24.5810   -25.2020 
   75.7500     2.1940    53.6020     8.9930     6.5590     6.7610    24.5810   -25.5990 
   75.8750     2.1260    52.1610     9.0330     6.6090     7.1440    24.5810   -26.0230 
   76.0000     2.0850    52.6000     9.1180     6.6900     7.5090    24.5810   -26.4660 
   76.1250     2.0810    52.8860     9.2670     6.8100     7.4050    24.5810   -26.9300 
   76.2500     2.1040    51.7000     9.4830     6.9670     7.3740    24.5810   -27.4610 
   76.3750     2.1250    50.8310     9.7590     7.1590     7.7370    24.5850   -28.0290 
   76.5000     2.1240    50.9490    10.0690     7.3680     8.4260    24.6050   -28.5970 
   76.6250     2.1080    50.1530    10.3400     7.5540     9.0690    24.6560   -29.0700 
   76.7500     2.1000    49.0110    10.5040     7.6860     9.4870    24.7030   -29.4430 
   76.8750     2.1390    50.9960    10.5400     7.7530     9.6090    24.7220   -29.7050 
   77.0000     2.2080    54.2610    10.4840     7.7720     9.5960    24.7240   -29.8800 
   77.1250     2.2670    53.8150    10.4280     7.7850     9.6360    24.7430   -29.9710 
   77.2500     2.2760    50.7640    10.4400     7.8320     9.3660    24.8220   -29.9620 
   77.3750     2.2230    48.3280    10.5240     7.9160     9.0270    24.9980   -29.8250 
   77.5000     2.1520    48.5310    10.6330     8.0180     9.1300    25.2270   -29.4840 
   77.6250     2.1110    49.5790    10.6670     8.0850     9.7140    25.4140   -28.8950 
   77.7500     2.1110    48.8270    10.5520     8.0690     9.9010    25.4840   -28.1050 
   77.8750     2.1270    46.5600    10.2710     7.9510     9.6920    25.4170   -27.1180 
   78.0000     2.1530    45.5590     9.9110     7.7750     9.6120    25.2020   -25.9140 
   78.1250     2.1940    46.8590     9.7030     7.6730     9.7070    24.9680   -24.4370 
   78.2500     2.2490    47.6660     9.8090     7.7480     9.4140    24.8380   -22.7400 
   78.3750     2.3010    50.5910    10.2640     8.0380     9.3540    24.8010   -20.8380 
   78.5000     2.3620    57.3050    10.9240     8.4750    10.3510    24.7990   -18.8100 
   78.6250     2.4410    63.8340    11.3800     8.8110    12.5520    24.8140   -16.8620 
   78.7500     2.5140    65.8390    11.2550     8.7730    12.1200    24.8350   -15.1150 
   78.8750     2.5260    65.3560    10.4690     8.2720     9.2110    24.8620   -13.5600 
   79.0000     2.4800    66.1800     9.2790     7.4570     6.4920    24.9560   -12.2250 
   79.1250     2.4220    69.3270     8.1400     6.6200     4.9010    25.1180   -11.2700 
   79.2500     2.3960    72.1230     7.3390     5.9750     4.3810    25.2160   -10.7210 
   79.3750     2.4010    73.3860     6.9070     5.5750     4.1600    25.2360   -10.6210 
   79.5000     2.4060    74.9370     6.7460     5.3760     4.0250    25.2300   -10.9750 
   79.6250     2.3950    79.9370     6.7190     5.3120     3.8930    25.2150   -11.7060 
   79.7500     2.3700    85.1320     6.7320     5.3130     3.8120    25.1870   -12.6720 
   79.8750     2.3310    85.6810     6.8170     5.3970     3.8360    25.1660   -13.9400 
   80.0000     2.2860    79.7260     7.0600     5.6080     3.9590    25.1450   -15.5110 
   80.1250     2.2300    70.9600     7.5710     6.0190     4.5530    25.0930   -17.3390 
   80.2500     2.1590    62.4510     8.2950     6.5910     5.9850    25.0120   -19.2400 
   80.3750     2.0930    53.8870     9.1100     7.2500     7.7510    24.9740   -21.0780 
   80.5000     2.0630    45.3270     9.8320     7.8760     8.8110    24.9920   -22.7320 
   80.6250     2.0670    41.2320    10.2620     8.3140     9.0250    25.0570   -24.1410 
   80.7500     2.0740    42.2620    10.4470     8.5520     9.1510    25.1010   -25.3170 
   80.8750     2.0850    44.8360    10.5110     8.6490     9.2480    25.1520   -26.2190 
   81.0000     2.1020    46.5310    10.5860     8.6880     9.2120    25.2260   -26.8280 
   81.1250     2.1170    46.1720    10.7450     8.7260     9.6180    25.3380   -27.0860 
   81.2500     2.1260    45.6190    10.9310     8.7580    10.9390    25.4240   -27.1090 
   81.3750     2.1400    45.4700    11.0590     8.7420    13.2010    25.4390   -26.9590 
   81.5000     2.1590    45.8550    11.0630     8.6420    14.6800    25.3950   -26.7250 
   81.6250     2.1740    46.1840    10.9280     8.4550    11.5570    25.2880   -26.4870 
   81.7500     2.1760    45.0590    10.7480     8.2520     9.9970    25.3040   -26.2710 
   81.8750     2.1690    43.4460    10.6220     8.1020     9.4420    25.3850   -26.0410 
   82.0000     2.1710    42.7230    10.6490     8.0720     9.3910    25.4290   -25.7680 
   82.1250     2.1930    44.3030    10.9620     8.2470     9.5640    25.3880   -25.4060 
   82.2500     2.2310    46.9270    11.5740     8.6230     9.7570    25.2660   -24.9380 
   82.3750     2.2710    48.1520    12.4800     9.1950     9.8800    25.0910   -24.4150 
   82.5000     2.3040    47.2210    13.5700     9.9030    10.1740    24.9190   -23.8770 
   82.6250     2.3160    46.2490    14.4490    10.5170    10.3980    24.8470   -23.2830 
   82.7500     2.2860    47.1740    14.6090    10.6970    10.4050    24.8600   -22.6040 
   82.8750     2.2120    48.8010    13.7460    10.2290    10.1010    24.9220   -21.8800 
   83.0000     2.1430    50.6090    12.0530     9.2020     9.3410    25.0490   -21.1740 
   83.1250     2.1120    55.3730    10.2140     8.0030     7.5450    25.1800   -20.5910 
   83.2500     2.1240    60.6890     8.8840     7.0500     5.4750    25.2540   -20.2310 
   83.3750     2.1630    61.2290     8.2960     6.5200     4.6520    25.1900   -20.1460 
   83.5000     2.1910    56.5190     8.4360     6.4580     5.6220    24.9810   -20.3080 
   83.6250     2.1820    51.2690     9.2410     6.8990     8.1700    24.8000   -20.6380 
