~V
VERS. 2.00: Ver 2.00
~W
STRT.M 50.0000:
STOP.M 248.0000:
STEP.M 0.1250:
NULL. -999.2500:
UWI. F11129:
~C
DEPT.M :
SP.MV :
DEN.GM/CC :
GR.API :
RML.OHMM :
RI. :
RXO.OHMM :
CALI.CM :
~A
# ...
  173.7500   -40.8100     2.1950    57.3770   450.7870   435.3320   215.5630    23.0030 
  173.8750   -40.4150     2.1960    57.7010   389.7740   386.9370   188.5560    23.2100 
  174.0000   -40.0420     2.1990    56.8240   328.3560   332.0140   158.1340    23.3610 
  174.1250   -39.6760     2.2070    57.4990   276.5050   280.3980   130.6220    23.4420 
  174.2500   -39.3100     2.2140    59.3430   240.3980   241.0800   110.6040    23.4860 
  174.3750   -38.9850     2.2190    60.4990   219.9910   217.3280   102.7650    23.5220 
  174.5000   -38.7390     2.2200    61.7860   209.1940   205.0970   103.3670    23.5590 
  174.6250   -38.5540     2.2190    63.9730   201.3880   198.5460   108.4930    23.5750 
  174.7500   -38.3840     2.2230    64.6390   188.4050   189.6100   116.3810    23.5580 
  174.8750   -38.1750     2.2330    63.2610   168.2050   171.8220   121.2120    23.5210 
  175.0000   -37.9580     2.2460    63.4670   145.2490   145.8050   112.6460    23.4570 
  175.1250   -37.8130     2.2610    65.9340   119.2320   117.2970    90.3900    23.3220 
  175.2500   -37.7720     2.2760    68.5680    96.0040    93.2940    64.8710    23.1080 
  175.3750   -37.7780     2.2890    71.1780    82.2430    77.3630    47.4570    22.8660 
  175.5000   -37.7510     2.2960    74.4370    75.9440    68.7080    38.7400    22.6210 
  175.6250   -37.6970     2.2940    77.0090    75.5700    66.1190    35.1840    22.4000 
  175.7500   -37.6730     2.2840    76.0770    79.7690    68.4220    36.2080    22.2280 
  175.8750   -37.7160     2.2720    73.6360    86.7370    73.9470    38.2720    22.1090 
  176.0000   -37.7760     2.2630    73.6760    93.8330    80.1650    39.3330    22.0550 
  176.1250   -37.7810     2.2570    73.8260    98.7210    84.8900    40.7810    22.1020 
  176.2500   -37.7000     2.2510    70.6470    99.7290    86.4510    44.5210    22.2720 
  176.3750   -37.5760     2.2480    65.8270    97.4230    85.0130    49.0550    22.4900 
  176.5000   -37.4650     2.2480    63.3630    94.5490    82.7100    51.4760    22.6470 
  176.6250   -37.3660     2.2490    63.1420    93.4690    81.5830    51.4110    22.7340 
  176.7500   -37.2540     2.2500    64.3920    95.8620    83.3970    51.9010    22.8240 
  176.8750   -37.0900     2.2500    67.0240   101.4910    88.5820    56.6130    22.9590 
  177.0000   -36.8680     2.2530    68.8410   106.8340    94.7710    66.2700    23.1270 
  177.1250   -36.6470     2.2580    68.2850   106.1480    97.2530    77.1980    23.2750 
  177.2500   -36.4830     2.2680    65.9750    94.0810    90.1540    84.2880    23.3140 
  177.3750   -36.3830     2.2850    63.8020    72.7420    72.9320    83.7300    23.2150 
  177.5000   -36.3030     2.3130    64.5950    51.1220    52.8040    65.4130    23.0360 
  177.6250   -36.2070     2.3490    69.4330    34.4320    35.8890    37.7250    22.8640 
  177.7500   -36.0980     2.3850    75.2730    23.7650    24.6810    20.6320    22.7500 
  177.8750   -36.0250     2.4080    78.2500    17.7700    18.3340    14.6440    22.7150 
  178.0000   -36.0190     2.4200    80.2220    14.3950    14.6910    12.3930    22.7910 
  178.1250   -36.0550     2.4250    84.6330    12.6540    12.6950    10.8770    22.9220 
  178.2500   -36.0790     2.4270    88.8480    11.9080    11.7470     9.9550    23.0040 
  178.3750   -36.0710     2.4250    88.3800    11.7020    11.4250     9.6070    23.0240 
  178.5000   -36.0760     2.4240    85.1620    11.6950    11.3720     9.5750    23.0150 
  178.6250   -36.1420     2.4270    83.9190    11.7420    11.4110     9.6690    22.9890 
  178.7500   -36.2590     2.4320    85.6640    11.7480    11.4180     9.6000    22.9700 
  178.8750   -36.3650     2.4320    88.2410    11.6770    11.3260     9.3550    22.9630 
  179.0000   -36.4340     2.4270    91.8240    11.5750    11.1490     9.2480    22.9310 
  179.1250   -36.4970     2.4180    95.9080    11.5390    10.9590     9.2650    22.8850 
  179.2500   -36.5870     2.4090    95.8400    11.7330    10.8830     9.3850    22.8340 
  179.3750   -36.7130     2.4000    90.8520    12.3450    11.0670     9.7370    22.7890 
  179.5000   -36.8460     2.3900    87.1200    13.5260    11.6340    10.4890    22.8070 
  179.6250   -36.9500     2.3770    87.6440    15.4810    12.7310    11.8050    22.8700 
  179.7500   -37.0360     2.3630    87.8550    18.5420    14.6050    13.7650    22.8450 
  179.8750   -37.1290     2.3500    83.2580    23.0140    17.5000    16.2240    22.6740 
  180.0000   -37.2320     2.3380    77.8700    27.9890    21.4790    19.1190    22.4500 
  180.1250   -37.3490     2.3240    75.9290    33.3080    26.5280    22.3700    22.2670 
  180.2500   -37.4930     2.3110    76.1970    40.4410    32.4200    24.7460    22.0680 
  180.3750   -37.6600     2.2990    76.0310    48.2320    38.6480    25.9190    21.7380 
  180.5000   -37.8340     2.2910    75.4160    55.5740    44.5860    28.5840    21.4480 
  180.6250   -37.9800     2.2850    75.1340    62.0310    49.8070    35.7090    21.5960 
  180.7500   -38.1050     2.2790    74.8150    67.4300    54.0700    47.6150    22.3720 
  180.8750   -38.2500     2.2760    73.1510    72.0290    57.5180    59.3990    23.3640 
  181.0000   -38.4200     2.2740    68.8990    76.4230    60.6700    65.6730    23.9940 
  181.1250   -38.5740     2.2700    62.9380    80.9500    63.9070    67.7690    24.2170 
  181.2500   -38.6530     2.2660    59.2880    85.2910    67.1840    71.5030    24.2870 
  181.3750   -38.6360     2.2640    60.6260    88.2290    69.7720    79.6780    24.3410 
  181.5000   -38.5680     2.2670    63.9220    88.3150    70.6310    88.4360    24.3700 
  181.6250   -38.5090     2.2710    66.1940    84.9280    69.1330    90.4870    24.3590 
  181.7500   -38.4590     2.2780    67.7010    78.8660    65.5010    81.6320    24.3260 
  181.8750   -38.3660     2.2880    68.8420    72.0440    60.8950    65.8850    24.2990 
  182.0000   -38.1890     2.2970    68.3630    66.2770    56.7510    55.9050    24.2880 
  182.1250   -37.9410     2.2970    66.0790    62.3250    53.8490    55.7020    24.2860 
  182.2500   -37.6730     2.2940    63.6510    60.4300    52.5860    59.2850    24.2850 
  182.3750   -37.3950     2.2940    62.1640    60.3460    52.9710    59.7330    24.2780 
  182.5000   -37.0570     2.3000    61.2740    61.0980    54.4490    57.5440    24.2390 
  182.6250   -36.6130     2.3100    61.5240    61.1060    55.9140    56.8640    24.1290 
  182.7500   -36.0600     2.3190    64.1800    57.7040    54.9580    57.6470    23.9180 
  182.8750   -35.4540     2.3240    68.6750    49.2360    49.2980    56.4630    23.6520 
  183.0000   -34.8520     2.3300    74.4840    37.5980    39.5860    49.8000    23.4220 
  183.1250   -34.2630     2.3440    81.0240    26.6650    28.6850    34.7500    23.2430 
  183.2500   -33.6930     2.3710    86.1780    18.6730    19.7330    19.1300    23.1100 
  183.3750   -33.1760     2.4040    89.5730    13.0730    13.9280    10.6240    22.9970 
  183.5000   -32.7430     2.4330    92.9520     9.9870    10.5070     7.3130    22.9030 
  183.6250   -32.4470     2.4550    96.9580     8.5460     8.7070     6.7030    22.8700 
  183.7500   -32.3400     2.4690   100.1390     8.1330     7.9840     6.8950    22.9090 
  183.8750   -32.4450     2.4760   100.0780     8.3050     7.9470     7.1330    22.9950 
  184.0000   -32.7630     2.4760    97.5770     8.7080     8.2350     7.3220    23.0970 
  184.1250   -33.2890     2.4640    95.9860     9.1840     8.6560     7.5420    23.2800 
  184.2500   -33.9970     2.4410    96.1280     9.7020     9.1160     7.8910    23.5650 
  184.3750   -34.8850     2.4140    95.4820    10.3710     9.6500     8.6890    23.8440 
  184.5000   -35.9330     2.3900    91.7280    11.3970    10.3960    10.3030    23.9730 
  184.6250   -37.0720     2.3740    86.9400    13.0530    11.5560    12.6670    23.9340 
  184.7500   -38.1810     2.3600    83.7050    15.7570    13.4560    14.9690    23.8520 
  184.8750   -39.1780     2.3440    80.4090    19.8900    16.4400    17.6590    23.8430 
