~V
VERS. 2.00: Ver 2.00
~W
STRT.M 52.0000:
STOP.M 239.0000:
STEP.M 0.1250:
NULL. -999.2500:
UWI. F11118:
~C
DEPT.M :
DEN.GM/CC :
GR.API :
RML.OHMM :
RI. :
RXO.OHMM :
CALI.CM :
SP.MV :
~A
   52.0000  -999.2500  -999.2500  -999.2500  -999.2500  -999.2500  -999.2500     0.0000 
   52.1250  -999.2500    40.8840     0.2220     0.1060     0.8090    25.3560     0.0000 
   52.2500  -999.2500    40.8840     0.2220     0.1060     0.8090    25.3560     0.0000 
   52.3750  -999.2500    40.5300     0.2500     0.1060     0.8080    25.3510     0.0000 
   52.5000  -999.2500    40.0160     0.3100     0.1080     0.8130    25.3420    22.8710 
   52.6250  -999.2500    38.3440     0.3390     0.1210     0.8190    25.3560    22.8570 
   52.7500  -999.2500    35.6550     0.3060     0.1570     0.8190    25.3560    22.8440 
   52.8750  -999.2500    33.6210     0.2250     0.2100     0.8160    25.3460    22.8300 
   53.0000  -999.2500    34.6330     0.1400     0.2540     0.8120    25.3490    22.8170 
   53.1250     2.0610    37.6410     0.1050     0.2580     0.8100    25.3570    22.8040 
   53.2500     2.0610    40.4800     0.1100     0.2240     0.8110    25.3580    22.7900 
   53.3750     2.0610    43.2230     0.1290     0.1720     0.8100    25.3590    22.7770 
   53.5000     2.0630    44.0550     0.1430     0.1220     0.8080    25.3590    22.7630 
   53.6250     2.0620    42.2140     0.1350     0.0860     0.8060    25.3590    22.7500 
   53.7500     2.0580    40.7380     0.1220     0.0730     0.8100    25.3590    22.7360 
   53.8750     2.0550    39.6200     0.1360     0.0900     0.8140    25.3590    22.7230 
   54.0000     2.0560    37.5870     0.1900     0.1390     0.8130    25.3590    22.7100 
   54.1250     2.0610    37.5040     0.2580     0.2010     0.8100    25.3590    22.6960 
   54.2500     2.0630    42.1750     0.3050     0.2420     0.8110    25.3590    22.6830 
   54.3750     2.0590    48.0930     0.3090     0.2520     0.8110    25.3590    22.6690 
   54.5000     2.0490    49.8030     0.2650     0.2390     0.8050    25.3590    22.6560 
   54.6250     2.0360    47.1660     0.1940     0.2190     0.7960    25.3590    22.6430 
   54.7500     2.0250    43.4670     0.1360     0.1970     0.7920    25.3590    22.6290 
   54.8750     2.0190    40.0270     0.1070     0.1720     0.7890    25.3590    22.6160 
   55.0000     2.0200    38.4840     0.0980     0.1510     0.7880    25.3590    22.6020 
   55.1250     2.0270    39.1560     0.1090     0.1540     0.7910    25.3590    22.5890 
   55.2500     2.0360    39.3460     0.1420     0.1840     0.7930    25.3590    22.5760 
   55.3750     2.0470    38.5080     0.1960     0.2200     0.7970    25.3590    22.5620 
   55.5000     2.0560    37.9200     0.2650     0.2390     0.8020    25.3590    22.5490 
   55.6250     2.0650    38.4210     0.3160     0.2320     0.8090    25.3590    22.5350 
   55.7500     2.0770    38.3660     0.3230     0.2230     0.8170    25.3590    22.5220 
   55.8750     2.0900    37.3260     0.2910     0.2350     0.8210    25.3590    22.5080 
   56.0000     2.1030    36.7900     0.2660     0.2700     0.8220    25.3590    22.4950 
   56.1250     2.1060    37.5030     0.2930     0.3010     0.8240    25.3590    22.4820 
   56.2500     2.0950    37.6020     0.3440     0.2980     0.8250    25.3590    22.4680 
   56.3750     2.0690    37.8880     0.3690     0.2580     0.8230    25.3590    22.4550 
   56.5000     2.0330    40.2610     0.3520     0.1990     0.8200    25.3590    22.4410 
   56.6250     1.9990    43.3390     0.3250     0.1570     0.8150    25.3590    22.4280 
   56.7500     1.9750    45.6810     0.3190     0.1520     0.8100    25.3590    22.4150 
   56.8750     1.9640    47.8170     0.3210     0.1760     0.8070    25.3590    22.4010 
   57.0000     1.9630    50.7490     0.3010     0.2130     0.8030    25.3590    22.3880 
   57.1250     1.9650    53.4230     0.2470     0.2430     0.8020    25.3590    22.3740 
   57.2500     1.9670    54.9710     0.1970     0.2580     0.8040    25.3590    22.3610 
   57.3750     1.9680    55.4950     0.1750     0.2630     0.8080    25.3570    22.3480 
   57.5000     1.9700    54.3070     0.1720     0.2580     0.8120    25.3490    22.3340 
   57.6250     1.9780    52.3020     0.1560     0.2430     0.8140    25.3020    22.3210 
   57.7500     1.9880    49.7060     0.1260     0.2250     0.8100    25.2660    22.3070 
   57.8750     1.9980    46.2920     0.1130     0.2090     0.8070    25.2600    22.2940 
   58.0000     2.0020    43.5980     0.1430     0.2030     0.8070    25.2590    22.2800 
   58.1250     1.9940    43.9940     0.2080     0.2170     0.8070    25.2590    22.2670 
   58.2500     1.9770    45.8540     0.2790     0.2420     0.8070    25.2590    22.2540 
   58.3750     1.9580    47.3150     0.3660     0.2690     0.8070    25.2590    22.2400 
   58.5000     1.9430    47.3810     0.4640     0.2800     0.8090    25.2590    22.2270 
   58.6250     1.9470    47.9460     0.5180     0.2570     0.8080    25.2530    22.1560 
   58.7500     1.9850    49.3820     0.4670     0.2050     0.8040    25.2150    22.0870 
   58.8750     2.0690    49.0840     0.3200     0.1390     0.7980    25.1780    22.0170 
   59.0000     2.2020    45.4660     0.1580     0.0840     0.7940    25.1710    21.9490 
   59.1250     2.3560    40.6200     0.0580     0.0580     0.7920    25.1610    21.8290 
   59.2500     2.4680    38.3440     0.0150     0.0620     0.8190    25.0970    21.6880 
   59.3750     2.4950    39.3210     0.0080     0.0970     1.0130    24.9620    21.3370 
   59.5000     2.4360    42.1120     0.0360     0.1790     1.6490    24.8630    18.0180 
   59.6250     2.3310    44.5100     0.1670     0.3760     3.4440    25.2920    13.4060 
   59.7500     2.2380    47.1280     0.4810     0.7580     5.4640    25.9090     8.0060 
   59.8750     2.1890    51.1110     1.0350     1.4380     6.3750    26.2300     2.3040 
   60.0000     2.1980    57.1770     1.7910     2.5170     6.5560    26.3670    -3.4530 
   60.1250     2.2500    63.8850     2.5630     4.0420     8.2620    26.2130   -10.4840 
   60.2500     2.2970    67.9610     3.2030     5.7230    12.1900    25.7280   -19.9390 
   60.3750     2.3080    68.0680     3.8060     7.2820    14.1250    24.6810   -24.8700 
   60.5000     2.2820    65.7390     4.5860     8.5050    11.6040    23.5310   -28.2820 
   60.6250     2.2430    64.6940     5.6020     9.2050     9.4240    23.9020   -30.1340 
   60.7500     2.2130    63.0000     6.5280     9.4810     8.5950    25.2280   -31.3360 
   60.8750     2.1920    61.1130     7.0620     9.4370     8.1640    26.1870   -32.3780 
   61.0000     2.1700    61.3170     7.0910     9.1670     7.7050    26.0740   -33.4690 
   61.1250     2.1430    62.8810     6.7820     8.7250     7.7000    24.9180   -34.6800 
   61.2500     2.1220    65.4020     6.5820     8.2320     8.2210    24.6340   -35.8850 
   61.3750     2.1150    69.2510     6.7400     7.8330     9.1540    24.6460   -36.9760 
   61.5000     2.1210    71.3500     7.2670     7.6800    10.3870    24.5310   -37.9290 
   61.6250     2.1310    68.6270     7.9500     7.8840    10.6800    24.3270   -38.7360 
   61.7500     2.1340    67.1000     8.5290     8.3100     9.8580    24.3620   -39.4420 
   61.8750     2.1280    68.9630     8.9080     8.7960     9.3640    24.4350   -40.0470 
   62.0000     2.1170    68.1680     9.0660     9.1530     9.1240    24.5310   -40.5640 
   62.1250     2.1040    63.7360     9.0160     9.1970     8.9020    24.1780   -40.9780 
   62.2500     2.0920    62.7000     8.7840     8.9650     9.2510    23.4610   -41.3240 
   62.3750     2.0850    67.0030     8.3470     8.5510    10.2640    23.2710   -41.6100 
   62.5000     2.0850    72.7000     7.7630     8.0850    11.1710    23.2450   -41.8390 
   62.6250     2.0950    72.5480     7.2100     7.7040     9.9900    23.2530   -41.9940 
   62.7500     2.1100    68.6300     6.8810     7.4520     8.9330    23.2640   -42.0940 
   62.8750     2.1220    66.1180     6.8570     7.3130     8.8550    23.2240   -42.1440 
   63.0000     2.1310    65.6310     7.1020     7.2330     9.3640    23.2610   -42.1240 
   63.1250     2.1360    65.7970     7.4440     7.1510     9.4880    23.5460   -42.0110 
