~V
VERS. 2.00: Ver 2.00
~W
STRT.M 50.0000:
STOP.M 201.0000:
STEP.M 0.1250:
NULL. -999.2500:
UWI. F11102:
~C
DEPT.M :
GR.API :
RML.OHMM :
RI. :
RXO.OHMM :
CALI.CM :
SP.MV :
DEN.GM/CC :
~A
# ...
   61.2500    37.0330     0.0350     0.2350     0.3180    25.2860    71.2870     1.9770 
   61.3750    39.0930     0.0420     0.2520     0.2640    25.2810    71.0870     1.9740 
   61.5000    41.5970     0.0470     0.2590     0.2590    25.2570    70.8260     1.9750 
   61.6250    42.4030     0.0510     0.2580     0.2700    25.2150    70.5320     1.9780 
   61.7500    41.1840     0.0540     0.2560     0.2590    25.2090    70.1810     1.9830 
   61.8750    39.0270     0.0550     0.2540     0.2340    25.2140    69.7650     1.9890 
   62.0000    37.2850     0.0530     0.2550     0.2210    25.2510    69.3100     1.9960 
   62.1250    36.0360     0.0520     0.2580     0.2100    25.2510    68.7880     2.0030 
   62.2500    35.0540     0.0490     0.2630     0.1980    25.2490    68.1650     2.0080 
   62.3750    34.6690     0.0450     0.2680     0.1950    25.2590    67.4320     2.0110 
   62.5000    34.6630     0.0390     0.2700     0.1960    25.2290    66.5070     2.0120 
   62.6250    34.5040     0.0300     0.2660     0.2210    25.2000    65.2840     2.0170 
   62.7500    34.3740     0.0200     0.2560     0.2680    25.2110    63.7530     2.0300 
   62.8750    33.7010     0.0170     0.2360     0.3030    25.2450    61.8100     2.0500 
   63.0000    33.0290     0.0280     0.2040     0.3170    25.2650    59.3880     2.0730 
   63.1250    34.2970     0.0460     0.1610     0.4240    25.2500    56.4020     2.0920 
   63.2500    36.6060     0.0550     0.1200     0.7620    25.2090    52.8750     2.1030 
   63.3750    37.7690     0.0510     0.0870     1.2860    25.1740    48.7490     2.1030 
   63.5000    38.9430     0.0400     0.0710     2.1530    25.1790    44.0240     2.0930 
   63.6250    42.3220     0.0330     0.0780     2.9350    25.6600    38.6070     2.0650 
   63.7500    44.5770     0.0440     0.1140     3.9680    27.6480    32.6830     2.0190 
   63.8750    44.3050     0.0970     0.2000     4.5490    29.9740    26.3840     1.9570 
   64.0000    44.0680     0.2360     0.3780     5.2360    32.5750    19.9200     1.8900 
   64.1250    44.4000     0.5610     0.7450     5.8870    37.7540    13.6230     1.8400 
   64.2500    45.4610     1.1170     1.3520     5.6020    41.2920     7.7390     1.8200 
   64.3750    47.4140     1.8890     2.2240     4.9320    39.7870     2.4040     1.8370 
   64.5000    49.1440     2.7600     3.2850     4.5720    32.5730    -2.2870     1.8910 
   64.6250    52.1130     3.5330     4.3440     5.4060    26.6370    -6.1520     1.9700 
   64.7500    57.4470     4.1260     5.2270     6.7680    24.5490    -9.2430     2.0490 
   64.8750    62.2740     4.5550     5.8750     7.6240    24.0550   -11.5550     2.1090 
   65.0000    61.6380     4.8520     6.2920     7.9730    23.9600   -13.2380     2.1400 
   65.1250    57.3720     5.0160     6.4820     8.3640    24.0040   -14.4520     2.1430 
   65.2500    56.2810     5.0990     6.5460     8.7880    24.0080   -15.4090     2.1380 
   65.3750    57.1860     5.1530     6.5520     8.8200    24.0090   -16.1970     2.1310 
   65.5000    56.7910     5.2210     6.5490     8.7510    24.0210   -16.8170     2.1260 
   65.6250    55.3140     5.3210     6.5540     9.1540    24.0860   -17.2630     2.1230 
   65.7500    55.0060     5.4310     6.5590     9.6660    24.2700   -17.6720     2.1220 
   65.8750    55.7900     5.5320     6.5570     9.9110    24.4580   -18.0220     2.1210 
   66.0000    55.3700     5.6050     6.5430     9.7920    24.1290   -18.2950     2.1210 
   66.1250    54.8650     5.6510     6.5220     9.4420    23.6060   -18.5710     2.1240 
   66.2500    55.9970     5.7000     6.5120     9.0200    23.1120   -18.8580     2.1280 
   66.3750    57.1270     5.7840     6.5310     8.6760    22.7340   -19.0900     2.1340 
   66.5000    57.8410     5.9240     6.5950     8.4960    22.5180   -19.3290     2.1390 
   66.6250    58.6020     6.1260     6.7150     8.7290    22.4510   -19.6480     2.1420 
   66.7500    60.8830     6.3460     6.8630     8.9960    22.4560   -19.9580     2.1420 
   66.8750    63.1050     6.5360     7.0050     9.0370    22.5510   -20.3050     2.1400 
   67.0000    63.0000     6.6460     7.0990     9.2190    22.8180   -20.7160     2.1370 
   67.1250    61.3400     6.6350     7.0930     9.6570    23.1140   -21.1270     2.1350 
   67.2500    60.3350     6.5540     7.0120     9.9110    23.2580   -21.4920     2.1350 
   67.3750    58.2760     6.4790     6.9130    10.0120    23.2990   -21.8480     2.1380 
   67.5000    53.9460     6.4790     6.8700     9.7340    23.3270   -22.1220     2.1460 
   67.6250    51.9410     6.5980     6.9440     9.5660    23.4260   -22.2520     2.1590 
   67.7500    55.3480     6.7800     7.1000     9.8800    23.5130   -22.3210     2.1750 
   67.8750    61.1510     6.9430     7.2660    11.4620    23.6450   -22.2850     2.1870 
   68.0000    64.7280     6.9910     7.3480    15.0450    23.9050   -22.1110     2.1890 
   68.1250    66.1540     6.8460     7.2510    16.4840    23.8930   -21.8220     2.1770 
   68.2500    67.4570     6.5890     7.0220    12.9780    23.7310   -21.4250     2.1580 
   68.3750    68.2740     6.3210     6.7430     9.6890    23.5980   -20.9060     2.1400 
   68.5000    67.7360     6.1230     6.4990     8.4250    23.5590   -20.2760     2.1280 
   68.6250    65.0510     6.0240     6.3440     8.2090    23.6060   -19.5130     2.1270 
   68.7500    63.2170     5.9480     6.2350     8.4390    23.6430   -18.6070     2.1330 
   68.8750    65.1840     5.8160     6.1050     8.4570    23.6100   -17.5690     2.1440 
   69.0000    68.6060     5.5920     5.9010     8.1320    23.6250   -16.3780     2.1570 
   69.1250    69.7420     5.3120     5.6280     7.7440    23.9500   -15.0000     2.1700 
   69.2500    69.9590     5.0760     5.3670     6.8480    24.2170   -13.5560     2.1800 
   69.3750    71.4350     4.9380     5.1760     5.9140    24.6060   -12.0930     2.1860 
   69.5000    74.5120     4.8910     5.0710     5.5500    24.5770   -10.6480     2.1880 
   69.6250    77.4280     4.8720     5.0150     5.8290    24.7640    -9.2680     2.1900 
   69.7500    79.9210     4.7870     4.9240     6.1380    24.8870    -7.9760     2.1990 
   69.8750    83.2290     4.5870     4.7440     6.2080    25.2670    -6.8070     2.2160 
   70.0000    88.0930     4.2900     4.4730     5.5510    26.0330    -5.8340     2.2420 
   70.1250    92.7060     3.9940     4.1700     4.5320    26.7870    -5.1480     2.2740 
   70.2500    93.9870     3.8040     3.9370     4.1620    27.0720    -4.7180     2.3020 
   70.3750    92.0260     3.7650     3.8320     4.1510    27.1070    -4.5130     2.3200 
   70.5000    89.6960     3.8800     3.8750     4.2630    27.0910    -4.5240     2.3230 
   70.6250    89.0920     4.1380     4.0660     4.3830    27.0210    -4.8130     2.3090 
   70.7500    89.1110     4.4720     4.3400     4.7180    26.7260    -5.3090     2.2850 
   70.8750    88.1530     4.8410     4.6570     5.3190    25.9120    -5.9880     2.2580 
   71.0000    84.0640     5.2120     4.9810     5.7450    25.4570    -6.8020     2.2290 
   71.1250    77.2930     5.5580     5.2780     5.6010    26.0480    -7.7010     2.2010 
   71.2500    71.4680     5.8580     5.5280     6.1060    27.0010    -8.6250     2.1740 
   71.3750    67.9250     6.0780     5.7080     7.1780    27.5620    -9.5710     2.1480 
   71.5000    65.8360     6.1880     5.7980     7.4680    28.3950   -10.5270     2.1270 
   71.6250    63.0510     6.1830     5.7850     7.1530    28.5390   -11.4220     2.1170 
   71.7500    59.7350     6.2000     5.7530     7.1170    27.9500   -12.2610     2.1220 
   71.8750    58.3890     6.4550     5.8450     7.5900    26.9540   -13.0280     2.1430 
   72.0000    57.8160     7.2160     6.2590     8.0970    26.7260   -13.7030     2.1820 
   72.1250    55.0860     8.8410     7.3130     8.5850    27.4510   -14.2810     2.2390 
   72.2500    51.3850    11.2160     9.0410    10.3270    27.5110   -14.7960     2.3080 
   72.3750    50.4800    13.9540    11.2890    15.3750    27.0250   -15.2510     2.3780 
