~V
VERS. 2.00: Ver 2.00
~W
STRT.M 63.0000:
STOP.M 219.0000:
STEP.M 0.1250:
NULL. -999.2500:
UWI. F11123:
~C
DEPT.M :
GR.API :
RML.OHMM :
RI. :
RXO.OHMM :
CALI.CM :
SP.MV :
DEN.GM/CC :
~A
   63.0000    45.3990     0.5870     0.7300     1.3310    25.3190    62.8330     2.0490 
   63.1250    47.1180     0.2680     0.4530     1.0150    25.2360    58.9350     2.1670 
   63.2500    48.1370     0.0860     0.2470     1.0330    25.1570    54.2350     2.3700 
   63.3750    47.8030    -0.0030     0.1280     1.0840    25.0890    48.6290     2.5580 
   63.5000    47.9020    -0.0140     0.0870     1.0940    25.0740    42.0900     2.6010 
   63.6250    50.6860     0.0840     0.1480     1.7160    25.1700    34.7010     2.4740 
   63.7500    54.4290     0.3240     0.3540     3.6460    25.4060    26.9890     2.2750 
   63.8750    56.6880     0.7760     0.8060     6.3690    25.5300    19.3820     2.0690 
   64.0000    57.3840     1.5300     1.6440     7.9170    25.5590    12.2650     1.9000 
   64.1250    57.0510     2.6380     3.0270     7.6450    25.5640     6.1080     1.8110 
   64.2500    56.5880     3.7830     4.6550     7.8530    25.5640     0.9780     1.8040 
   64.3750    57.9520     4.6480     6.1120     8.4710    25.5630    -3.1100     1.8700 
   64.5000    62.1290     5.1640     7.1440     8.4350    25.5650    -6.2780     1.9810 
   64.6250    67.7610     5.4410     7.7250     8.0780    25.5590    -8.6890     2.0870 
   64.7500    70.9720     5.6180     8.0560     8.1560    25.5630   -10.7420     2.1540 
   64.8750    70.3700     5.7370     8.2370     8.8090    25.5620   -12.5390     2.1830 
   65.0000    68.0300     5.8280     8.3480     9.3570    25.5660   -14.0730     2.1890 
   65.1250    67.0810     5.8900     8.4320     9.4130    25.5680   -15.2720     2.1880 
   65.2500    67.7680     5.9070     8.4860     9.1130    25.5660   -16.2070     2.1900 
   65.3750    69.1940     5.8800     8.4850     8.8270    25.5610   -16.9300     2.1930 
   65.5000    70.9790     5.8410     8.4250     8.6450    25.5600   -17.4980     2.1950 
   65.6250    70.9700     5.8410     8.3310     8.9510    25.5590   -17.9410     2.1940 
   65.7500    68.8500     5.8820     8.2400     9.1460    25.5630   -18.3260     2.1950 
   65.8750    68.3360     5.9510     8.1730     8.9220    25.5600   -18.7200     2.1970 
   66.0000    70.4700     6.0460     8.1470     8.5470    25.5580   -19.1640     2.1990 
   66.1250    70.7510     6.1660     8.1800     8.5170    25.5480   -19.7000     2.1960 
   66.2500    67.8640     6.2900     8.2530     9.0870    25.5390   -20.2950     2.1860 
   66.3750    65.1820     6.3830     8.3370     9.6800    25.5240   -20.9040     2.1720 
   66.5000    64.8760     6.4160     8.3970     9.8080    25.5070   -21.4950     2.1580 
   66.6250    65.6210     6.3710     8.3950     9.7940    25.5080   -21.9900     2.1480 
   66.7500    64.4240     6.2930     8.3330     9.6460    25.5050   -22.3640     2.1410 
   66.8750    61.4730     6.2220     8.2370     9.5500    25.5050   -22.5920     2.1360 
   67.0000    59.7610     6.1840     8.1500     9.5470    25.4940   -22.6580     2.1350 
   67.1250    62.9360     6.2070     8.1280     9.5470    25.4990   -22.5940     2.1430 
   67.2500    66.4790     6.2930     8.1740     9.4890    25.4990   -22.4520     2.1580 
   67.3750    66.8100     6.4160     8.2610     9.3400    25.5010   -22.2760     2.1740 
   67.5000    66.1490     6.5150     8.3300     9.3250    25.4950   -22.0690     2.1800 
   67.6250    67.5410     6.4780     8.2730     9.3100    25.4880   -21.8100     2.1740 
   67.7500    70.1290     6.2770     8.0550     8.6410    25.4860   -21.5050     2.1690 
   67.8750    73.7500     5.9670     7.7170     7.7500    25.5000   -21.1550     2.1790 
   68.0000    78.1240     5.6800     7.3710     7.0920    25.5070   -20.8290     2.2060 
   68.1250    82.0520     5.5750     7.1840     6.5530    25.5060   -20.6600     2.2390 
   68.2500    82.4030     6.3140     7.2280     6.2920    25.5130   -20.7420     2.2580 
   68.3750    78.3400     7.3050     7.5080     7.0040    25.5080   -21.1180     2.2560 
   68.5000    71.5990     7.8380     7.9490     8.7490    25.5080   -21.7880     2.2410 
   68.6250    65.2090     8.3390     8.3900     9.7700    25.5080   -22.7100     2.2270 
   68.7500    60.3280     8.6430     8.6730     9.7860    25.5080   -23.7220     2.2180 
   68.8750    56.3230     8.7140     8.7370     9.4130    25.5050   -24.6990     2.2130 
   69.0000    55.1530     8.6240     8.6140     9.1800    25.5070   -25.5180     2.2080 
   69.1250    58.2200     8.4860     8.3900     9.2180    25.5020   -26.0620     2.2000 
   69.2500    61.4170     8.3880     8.1730     9.5490    25.4970   -26.3880     2.1850 
   69.3750    62.8540     8.3440     8.0080     9.7230    25.4510   -26.5580     2.1650 
   69.5000    62.1690     8.3450     7.9120     9.4160    25.4490   -26.6310     2.1470 
   69.6250    59.5540     8.4030     7.8900     9.2050    25.4460   -26.6380     2.1410 
   69.7500    57.3650     8.5100     7.9110     9.3500    25.4430   -26.5880     2.1470 
   69.8750    58.0110     8.6420     7.9440     9.6000    25.4460   -26.4810     2.1580 
   70.0000    59.6710     8.7520     7.9550     9.6050    25.4490   -26.3090     2.1650 
   70.1250    58.6360     8.8080     7.9210     9.3190    25.4210   -26.0610     2.1610 
   70.2500    57.0240     8.8290     7.8520     9.1940    25.3810   -25.7450     2.1510 
   70.3750    57.1840     8.8270     7.7650     9.3740    25.3300   -25.3670     2.1410 
   70.5000    59.0230     8.8120     7.6720     9.6470    25.2360   -24.9570     2.1350 
   70.6250    60.5910     8.7950     7.5890     9.6370    25.0270   -24.5520     2.1330 
   70.7500    61.4470     8.7830     7.5210     9.7160    24.7960   -24.1560     2.1340 
   70.8750    61.8140     8.7810     7.4690     9.8070    24.5830   -23.7640     2.1360 
   71.0000    62.3390     8.7950     7.4310     9.9100    24.4510   -23.3840     2.1410 
   71.1250    62.9280     8.8210     7.4010    10.0110    24.3340   -22.9960     2.1510 
   71.2500    62.4470     8.8350     7.3660    10.0220    24.1880   -22.6290     2.1610 
   71.3750    62.6070     8.8240     7.3160     9.9630    24.1240   -22.3040     2.1720 
   71.5000    64.7650     8.7800     7.2440     9.9050    24.1050   -22.0300     2.1790 
   71.6250    65.9600     8.6860     7.1350     9.9820    24.1440   -21.8360     2.1800 
   71.7500    64.3440     8.5320     6.9840    10.1170    24.1810   -21.7170     2.1790 
   71.8750    62.5670     8.3150     6.7830    10.1830    24.2880   -21.6680     2.1790 
   72.0000    63.6370     8.0580     6.5410     9.8610    24.8280   -21.6770     2.1800 
   72.1250    67.1480     7.8720     6.3200     9.0010    24.9460   -21.7170     2.1820 
   72.2500    69.5560     7.9230     6.2310     8.3050    25.0710   -21.7990     2.1780 
   72.3750    67.7800     8.3500     6.3810     8.3040    25.1590   -21.9140     2.1700 
   72.5000    62.3270     9.1810     6.8220     8.8200    25.2050   -22.0680     2.1690 
   72.6250    58.6240    10.2700     7.5340     9.9810    25.2160   -22.2970     2.1880 
   72.7500    58.7480    11.1760     8.2600    13.7310    25.2360   -22.5730     2.2170 
   72.8750    59.5330    11.4760     8.6990    20.1370    25.2650   -22.8870     2.2350 
   73.0000    57.4400    10.9770     8.6250    17.1490    25.3010   -23.2330     2.2280 
   73.1250    54.5460     9.8970     8.0490    12.6910    25.3390   -23.5480     2.1980 
   73.2500    55.0400     8.8620     7.3660    10.7460    25.3620   -23.8270     2.1720 
   73.3750    57.8920     8.1940     6.8250    10.5000    25.3730   -24.0350     2.1600 
   73.5000    59.7060     7.9780     6.5440    10.8550    25.3750   -24.1440     2.1530 
   73.6250    60.9820     8.1330     6.5370    11.2630    25.3150   -24.1340     2.1380 
   73.7500    63.8490     8.3590     6.6350    11.2900    25.2810   -23.9990     2.1260 
   73.8750    66.7500     8.4670     6.7060    10.6030    25.4070   -23.7540     2.1310 
   74.0000    67.7110     8.3800     6.6800     9.7190    25.3730   -23.4430     2.1630 
   74.1250    68.8470     8.1190     6.5410     8.8740    25.2800   -23.1300     2.2040 
