~V
VERS. 2.00: Ver 2.00
~W
STRT.M 47.0000:
STOP.M 248.0000:
STEP.M 0.1250:
NULL. -999.2500:
UWI. F11134:
~C
DEPT.M :
GR.API :
RML.OHMM :
RI. :
RXO.OHMM :
CALI.CM :
SP.MV :
DEN.GM/CC :
~A
# ...
  114.5000    67.0630     9.8670     7.9910     8.8200    24.5760   -23.3990     2.1870 
  114.6250    61.8160    11.4130     9.1340    10.2770    24.4460   -24.3250     2.2190 
  114.7500    63.3390    12.8030    10.2470    10.6380    24.3940   -25.2330     2.2770 
  114.8750    69.6410    13.5640    10.9710    10.2910    24.3750   -26.0660     2.3440 
  115.0000    73.9440    13.5140    11.1130     9.9550    24.3110   -26.8000     2.3810 
  115.1250    74.1780    12.8420    10.7380     9.6330    24.1980   -27.4270     2.3610 
  115.2500    71.5280    11.9010    10.0690     9.3070    24.1000   -27.9240     2.2900 
  115.3750    66.8520    11.0640     9.3780     9.1360    24.0500   -28.3010     2.2120 
  115.5000    62.2460    10.5110     8.8370     9.0760    24.0220   -28.5810     2.1650 
  115.6250    59.6280    10.2500     8.5040     9.1130    24.0080   -28.7540     2.1520 
  115.7500    58.2210    10.2120     8.3720     9.2930    24.0180   -28.8240     2.1560 
  115.8750    57.1610    10.2810     8.3860     9.4620    24.0570   -28.8390     2.1760 
  116.0000    56.2610    10.3340     8.4490     9.3490    24.0980   -28.7980     2.2160 
  116.1250    55.5900    10.2930     8.4720     9.1250    24.1000   -28.6920     2.2680 
  116.2500    56.6500    10.1260     8.4080     8.9890    24.0630   -28.5530     2.3010 
  116.3750    61.2360     9.8260     8.2360     8.8700    24.0210   -28.4300     2.2850 
  116.5000    67.6020     9.4580     7.9920     8.6910    23.9970   -28.3830     2.2370 
  116.6250    71.9290     9.1210     7.7440     8.4250    23.9790   -28.4690     2.1900 
  116.7500    72.7640     8.8990     7.5510     8.1840    23.9500   -28.7160     2.1580 
  116.8750    70.6520     8.8490     7.4640     8.1750    23.9180   -29.1020     2.1370 
  117.0000    66.3870     8.9460     7.4860     8.5450    23.8880   -29.6010     2.1270 
  117.1250    61.6150     9.1190     7.5820     9.1720    23.8650   -30.2120     2.1310 
  117.2500    58.7550     9.2910     7.7060     9.4680    23.8530   -30.9260     2.1430 
  117.3750    59.4360     9.3860     7.7980     9.3450    23.8500   -31.6870     2.1400 
  117.5000    61.3110     9.3650     7.8160     9.0890    23.8500   -32.4140     2.1140 
  117.6250    60.5930     9.2400     7.7550     8.8950    23.8540   -33.0800     2.0800 
  117.7500    56.4990     9.0560     7.6390     8.8170    23.8660   -33.6750     2.0550 
  117.8750    51.7160     8.8820     7.5190     8.7860    23.8910   -34.1660     2.0520 
  118.0000    49.4940     8.7780     7.4390     8.7390    23.9110   -34.5340     2.0740 
  118.1250    49.7330     8.7710     7.4270     8.7110    23.9180   -34.7840     2.1110 
  118.2500    50.1390     8.8560     7.4870     8.8350    23.9190   -34.9450     2.1500 
  118.3750    50.7340     9.0070     7.6050     9.0920    23.9200   -35.0160     2.1750 
  118.5000    52.7920     9.1750     7.7460     9.3240    23.9290   -35.0000     2.1880 
  118.6250    55.2290     9.3220     7.8790     9.4730    23.9480   -34.9240     2.1940 
  118.7500    56.0040     9.4310     7.9890     9.5750    23.9590   -34.8050     2.1970 
  118.8750    56.3350     9.4940     8.0730     9.6670    23.9470   -34.6390     2.1990 
  119.0000    57.3390     9.5170     8.1330     9.7510    23.9280   -34.4530     2.1980 
  119.1250    57.6290     9.5030     8.1660     9.7820    23.9180   -34.2900     2.1860 
  119.2500    56.7790     9.4450     8.1650     9.7130    23.9090   -34.1400     2.1640 
  119.3750    56.2930     9.3390     8.1180     9.5470    23.8890   -34.0000     2.1400 
  119.5000    56.6310     9.2000     8.0310     9.3840    23.8670   -33.8880     2.1230 
  119.6250    57.1370     9.0380     7.9130     9.3080    23.8540   -33.7960     2.1190 
  119.7500    57.2960     8.8580     7.7690     9.3190    23.8550   -33.7140     2.1300 
  119.8750    56.6020     8.7000     7.6330     9.4670    23.8700   -33.6520     2.1510 
  120.0000    54.9870     8.6750     7.6000     9.7660    23.9030   -33.5670     2.1790 
  120.1250    54.0370     8.9610     7.8110    10.0430    23.9440   -33.3730     2.2100 
  120.2500    54.9640     9.7420     8.4220    10.4310    23.9710   -33.0530     2.2420 
  120.3750    56.4770    11.1640     9.6000    11.7650    23.9730   -32.6100     2.2840 
  120.5000    56.8570    13.0540    11.2880    15.0370    23.9670   -32.0090     2.3360 
  120.6250    56.3750    14.9140    13.1420    19.9780    23.9870   -31.2040     2.3900 
  120.7500    56.0600    16.0610    14.5530    23.3620    24.0060   -30.2150     2.4240 
  120.8750    55.7370    15.7640    14.7130    20.3260    23.9770   -29.0740     2.4210 
  121.0000    55.0900    14.1240    13.5470    15.0520    23.9420   -27.8000     2.3970 
  121.1250    55.0590    11.8930    11.6690    12.1200    24.0080   -26.4670     2.3760 
  121.2500    56.3790     9.8100     9.7540    10.5400    24.2220   -25.1640     2.3690 
  121.3750    58.2900     8.4590     8.3490     8.5740    24.5340   -23.9600     2.3660 
  121.5000    59.1710     8.0250     7.6720     6.9730    24.8270   -22.8920     2.3570 
  121.6250    58.7410     8.4490     7.7440     6.6170    24.9990   -21.9860     2.3440 
  121.7500    57.7220     9.5770     8.5100     7.6610    24.9940   -21.2440     2.3440 
  121.8750    56.9880    11.0230     9.7550    11.3230    24.8200   -20.6690     2.3720 
  122.0000    57.0630    12.0880    10.8950    16.6750    24.6350   -20.2590     2.4160 
  122.1250    57.6630    12.1170    11.2430    17.7190    24.5800   -19.9780     2.4440 
  122.2500    59.0910    11.0110    10.5600    12.7440    24.6800   -19.7780     2.4250 
  122.3750    61.5380     9.3870     9.2710     8.1980    24.8600   -19.6080     2.3720 
  122.5000    64.1240     8.0690     8.0920     6.5740    25.0320   -19.4510     2.3320 
  122.6250    64.7470     7.5250     7.4820     6.7340    25.1510   -19.3140     2.3260 
  122.7500    61.0390     7.8930     7.6180     8.3000    25.2090   -19.1900     2.3490 
  122.8750    53.7590     9.2680     8.6610    11.1010    25.2190   -19.0680     2.3940 
  123.0000    46.6710    11.5380    10.5900    14.5750    25.1960   -18.9530     2.4530 
  123.1250    42.2940    14.4290    13.2400    18.3450    25.1570   -18.8420     2.5140 
  123.2500    40.6220    17.5430    16.3060    21.8670    25.1130   -18.7250     2.5560 
  123.3750    40.7910    20.2790    19.2140    23.4610    25.0750   -18.6370     2.5740 
  123.5000    41.7600    22.2590    21.4660    23.0100    25.0440   -18.5950     2.5810 
  123.6250    41.6070    23.4920    22.9220    23.2740    25.0340   -18.5560     2.5850 
  123.7500    39.9140    24.1940    23.7120    25.5450    25.0510   -18.4960     2.5850 
  123.8750    38.4620    24.6130    24.0350    28.7560    25.0660   -18.4300     2.5740 
  124.0000    37.7380    24.9380    24.1100    28.7520    25.0580   -18.3810     2.5600 
  124.1250    36.9960    25.2450    24.0770    26.6950    25.0480   -18.3590     2.5480 
  124.2500    36.2070    25.5190    23.9820    25.8180    25.0660   -18.3430     2.5410 
  124.3750    36.7640    25.7120    23.8420    25.1430    25.0980   -18.3060     2.5420 
  124.5000    38.7230    25.8610    23.7150    24.7170    25.1060   -18.2550     2.5530 
  124.6250    40.6120    26.1260    23.7330    24.8150    25.0950   -18.2140     2.5680 
  124.7500    41.7160    26.7190    24.0730    24.9790    25.0850   -18.1720     2.5780 
  124.8750    42.2880    27.7770    24.8840    24.6310    25.0810   -18.1200     2.5750 
  125.0000    41.7140    29.0700    26.0160    26.1070    25.0670   -18.0610     2.5670 
  125.1250    39.0630    30.0740    27.0470    33.6530    25.0420   -17.9790     2.5600 
  125.2500    35.8990    30.2340    27.4580    44.5790    25.0250   -17.8730     2.5560 
  125.3750    35.7080    29.2010    26.8350    43.4790    25.0560   -17.7740     2.5420 
  125.5000    38.4820    27.3560    25.4050    31.4770    25.0970   -17.6800     2.5150 
  125.6250    41.4010    25.3960    23.7470    22.8550    25.1000   -17.5710     2.4900 
