~V
VERS. 2.00: Ver 2.00
~W
STRT.M 40.0000:
STOP.M 232.0000:
STEP.M 0.1250:
NULL. -999.2500:
UWI. F11121:
~C
DEPT.M :
SP.MV :
DEN.GM/CC :
GR.API :
RML.OHMM :
RI. :
RXO.OHMM :
CALI.CM :
~A
# ...
  208.7500    -3.5140     2.1760    56.8500    46.0950    38.8020    47.1150    24.8140 
  208.8750    -3.4140     2.1630    57.9020    48.2520    40.9560    48.9890    24.8160 
  209.0000    -3.3290     2.1570    59.1760    47.2690    40.9170    50.2900    24.8160 
  209.1250    -3.3000     2.1600    59.9670    42.3770    37.8020    50.1250    24.8110 
  209.2500    -3.3140     2.1700    59.6610    35.8010    33.0300    47.7240    24.7950 
  209.3750    -3.3650     2.1830    59.3630    29.5580    28.1090    39.8330    24.7690 
  209.5000    -3.4280     2.1920    60.8070    25.0400    24.2380    28.3180    24.7430 
  209.6250    -3.4830     2.1950    62.9830    23.0340    22.2020    20.0240    24.7180 
  209.7500    -3.5450     2.2060    62.8280    22.6760    21.5220    18.0010    24.6950 
  209.8750    -3.6240     2.2480    62.5480    22.9680    21.5190    20.2030    24.6840 
  210.0000    -3.7100     2.3280    64.7870    22.6390    21.1980    25.9990    24.6940 
  210.1250    -3.7880     2.4250    68.7850    20.4220    19.4350    36.6440    24.7230 
  210.2500    -3.8660     2.4870    74.2160    16.9370    16.5780    35.9790    24.7750 
  210.3750    -3.9350     2.4920    80.7320    13.4160    13.5640    21.7420    24.8590 
  210.5000    -3.9860     2.4570    85.6110    10.8960    11.2350    11.1130    24.9580 
  210.6250    -4.0020     2.4120    85.9000    10.0090    10.1660     8.7720    25.0220 
  210.7500    -3.9560     2.3730    82.8210    10.4290    10.2050     9.7770    25.0440 
  210.8750    -3.8510     2.3380    78.4690    11.9250    11.2530    12.0800    25.0480 
  211.0000    -3.7190     2.3060    74.5610    14.1690    13.1050    15.2530    25.0540 
  211.1250    -3.5530     2.2840    71.8140    16.6400    15.3800    22.0380    25.0790 
  211.2500    -3.3320     2.2790    69.9400    18.6250    17.3850    24.7310    25.0940 
  211.3750    -3.0520     2.3000    69.1080    19.6020    18.5580    21.7510    25.0210 
  211.5000    -2.7560     2.3430    68.6240    19.2940    18.5340    17.4100    24.7990 
  211.6250    -2.4430     2.3870    65.3860    17.5470    17.0880    20.9290    24.4790 
  211.7500    -2.1310     2.4030    59.6430    14.9450    14.7710    23.4080    24.2030 
  211.8750    -1.8280     2.3840    54.9360    12.0480    12.1130    17.9310    24.0320 
  212.0000    -1.5180     2.3410    52.7430     9.4140     9.6310     9.2590    23.9470 
  212.1250    -1.2120     2.2950    53.2540     7.5050     7.7380     6.9290    23.8880 
  212.2500    -0.9450     2.2610    53.8350     6.2710     6.4220     6.2130    23.8080 
  212.3750    -0.7330     2.2410    54.7560     5.6220     5.6350     5.4620    23.7200 
  212.5000    -0.5370     2.2230    56.8560     5.4210     5.2850     4.9470    23.6850 
  212.6250    -0.3730     2.2020    59.4570     5.5330     5.2890     4.9440    23.7630 
  212.7500    -0.2540     2.1800    61.5320     5.7810     5.4770     5.1020    23.8910 
  212.8750    -0.1440     2.1640    63.1170     6.1130     5.7830     5.2590    23.9900 
  213.0000    -0.0260     2.1580    65.1740     6.5080     6.1690     5.5550    24.0130 
  213.1250     0.0610     2.1670    65.5840     6.9270     6.5870     6.2630    24.0120 
  213.2500     0.1320     2.1790    62.5780     7.2940     6.9590     7.1890    24.0700 
  213.3750     0.1810     2.1820    58.6260     7.5200     7.2020     7.8620    24.1900 
  213.5000     0.1930     2.1730    56.8530     7.5190     7.2370     7.9400    24.3110 
  213.6250     0.2090     2.1720    59.2100     7.2340     6.9970     7.5760    24.3660 
  213.7500     0.2870     2.1940    64.8510     6.8090     6.5990     7.1300    24.3750 
  213.8750     0.3920     2.2350    71.5060     6.3950     6.1660     7.1240    24.3720 
  214.0000     0.5030     2.2720    77.0250     6.1220     5.8170     6.6930    24.3680 
  214.1250     0.6750     2.2770    81.1790     6.0760     5.6390     6.2280    24.3810 
  214.2500     0.8800     2.2560    84.6840     6.1690     5.5900     6.2370    24.4090 
  214.3750     1.1360     2.2290    86.7580     6.2920     5.5960     6.4200    24.4390 
  214.5000     1.4470     2.2200    87.1590     6.3250     5.5720     6.8920    24.4540 
  214.6250     1.7510     2.2300    89.3590     6.1720     5.4370     6.6780    24.4330 
  214.7500     2.0170     2.2430    91.7610     5.8910     5.2070     6.0070    24.3940 
  214.8750     2.2880     2.2500    90.4720     5.5720     4.9320     5.3580    24.3650 
  215.0000     2.5570     2.2530    86.7510     5.3060     4.6760     5.0470    24.3540 
  215.1250     2.7970     2.2580    84.1750     5.1720     4.5110     4.9710    24.3290 
  215.2500     3.0690     2.2660    83.8000     5.1800     4.4590     5.0060    24.2810 
  215.3750     3.3220     2.2770    84.1570     5.3480     4.5410     5.0720    24.2400 
  215.5000     3.5010     2.2890    83.5050     5.7030     4.7780     5.2180    24.2270 
  215.6250     3.6290     2.3040    80.9800     6.2960     5.2090     5.7540    24.2280 
  215.7500     3.7390     2.3240    79.0800     7.0440     5.7770     6.6070    24.2100 
  215.8750     3.7610     2.3490    78.3680     7.8160     6.3950     7.6420    24.1760 
  216.0000     3.7200     2.3770    76.8540     8.4090     6.9190     8.7910    24.1470 
  216.1250     3.6740     2.3940    76.8290     8.5360     7.1220     9.2940    24.1470 
  216.2500     3.5850     2.3910    80.8030     8.2150     6.9770     8.8430    24.1560 
  216.3750     3.4780     2.3680    85.6370     7.5960     6.5670     7.8260    24.1580 
  216.5000     3.4190     2.3340    86.6300     6.9090     6.0470     6.8460    24.1560 
  216.6250     3.3690     2.3030    85.0860     6.3700     5.5830     6.1310    24.1560 
  216.7500     3.3310     2.2870    86.0430     6.0310     5.2460     5.7070    24.1590 
  216.8750     3.3220     2.2840    88.7190     5.8690     5.0390     5.5880    24.1530 
  217.0000     3.3530     2.2890    91.2440     5.8210     4.9340     5.5680    24.1290 
  217.1250     3.4060     2.2940    91.6840     5.8140     4.8900     5.5020    24.0990 
  217.2500     3.5010     2.2940    90.2120     5.7870     4.8590     5.2990    24.0820 
  217.3750     3.6500     2.2890    87.2490     5.7230     4.8200     5.1270    24.0820 
  217.5000     3.8490     2.2810    84.8050     5.6360     4.7700     5.0290    24.0850 
  217.6250     4.0610     2.2700    86.8880     5.5670     4.7230     4.9800    24.0820 
  217.7500     4.2640     2.2600    88.2080     5.5420     4.6950     4.9960    24.0720 
  217.8750     4.4360     2.2540    86.3100     5.5640     4.6930     5.0110    24.0670 
  218.0000     4.6190     2.2530    84.4190     5.6140     4.7100     5.0170    24.0630 
  218.1250     4.7530     2.2580    87.0310     5.6630     4.7310     5.0690    24.0360 
  218.2500     4.8320     2.2630    88.6650     5.6870     4.7360     5.0330    23.9900 
  218.3750     4.8560     2.2660    85.7240     5.6860     4.7240     4.9720    23.9520 
  218.5000     4.8140     2.2680    82.5060     5.6760     4.7030     4.9970    23.9370 
  218.6250     4.7690     2.2730    82.4210     5.6840     4.6890     4.9760    23.9350 
  218.7500     4.7480     2.2810    83.3340     5.7200     4.6910     4.9710    23.9350 
  218.8750     4.7500     2.2920    83.9470     5.7770     4.7080     5.0240    23.9380 
  219.0000     4.7010     2.3020    85.8120     5.8380     4.7310     5.2000    23.9420 
  219.1250     4.6520     2.3060    89.4000     5.8890     4.7520     5.4320    23.9430 
  219.2500     4.6120     2.3050    90.4900     5.9290     4.7660     5.4800    23.9450 
  219.3750     4.5840     2.3020    88.3850     5.9680     4.7790     5.4010    23.9470 
  219.5000     4.5690     2.3010    85.3080     6.0190     4.7980     5.2810    23.9230 
  219.6250     4.5440     2.2940    84.6800     6.1050     4.8400     5.2410    23.8120 
  219.7500     4.4870     2.2880    85.4590     6.2400     4.9200     5.3320    23.6500 
  219.8750     4.4300     2.2820    86.9520     6.4450     5.0540     5.4490    23.5350 
