~V
VERS. 2.00: Ver 2.00
~W
STRT.M 45.0000:
STOP.M 270.0000:
STEP.M 0.1250:
NULL. -999.2500:
UWI. F11186:
~C
DEPT.M :
SP.MV :
GR.API :
RI. :
RML.OHMM :
RXO.OHMM :
DEN.GM/CC :
~A
# ...
   57.8750   -40.5810    67.1550     5.4780     5.5520     7.8780     2.0710 
   58.0000   -40.7160    65.2810     5.4020     5.5750     7.8640     2.0720 
   58.1250   -40.9100    67.4090     5.3290     5.5780     7.9180     2.0690 
   58.2500   -41.1770    72.0560     5.3390     5.6570     7.8440     2.0700 
   58.3750   -41.5140    73.7800     5.4960     5.9480     7.7190     2.0970 
   58.5000   -41.8850    71.8110     5.7300     6.3530     8.2500     2.1470 
   58.6250   -42.2480    70.2900     5.9670     6.8150     9.5950     2.1820 
   58.7500   -42.5690    70.5730     6.1080     7.1240    10.5280     2.1740 
   58.8750   -42.8210    70.0420     6.0950     7.1730     9.9260     2.1350 
   59.0000   -43.0000    68.5810     5.9560     6.9920     8.6070     2.1010 
   59.1250   -43.0970    69.1610     5.7220     6.6760     7.7680     2.0850 
   59.2500   -43.1190    72.0310     5.4880     6.3810     7.6150     2.0780 
   59.3750   -43.0640    73.4740     5.3580     6.2110     7.7910     2.0800 
   59.5000   -42.9540    71.0980     5.3270     6.1640     7.9360     2.0900 
   59.6250   -42.8080    68.3030     5.3580     6.1570     7.9850     2.1000 
   59.7500   -42.6650    67.9940     5.4040     6.2310     8.0860     2.1020 
   59.8750   -42.5780    70.3570     5.4580     6.3340     8.3120     2.1000 
   60.0000   -42.5880    73.2610     5.5250     6.4860     8.3500     2.1030 
   60.1250   -42.7290    76.7200     5.6030     6.6510     8.1390     2.1140 
   60.2500   -42.9790    78.8970     5.6850     6.8230     7.8870     2.1200 
   60.3750   -43.2940    77.5030     5.8200     7.0710     7.6790     2.1120 
   60.5000   -43.6180    72.5060     6.0020     7.3910     7.8660     2.0940 
   60.6250   -43.9220    66.5120     6.1560     7.6960     8.6100     2.0800 
   60.7500   -44.2110    61.9600     6.2240     7.8730     8.9580     2.0720 
   60.8750   -44.5080    60.7970     6.1900     7.9140     8.3120     2.0710 
   61.0000   -44.8320    62.2490     6.0480     7.7830     7.6810     2.0760 
   61.1250   -45.1730    64.2890     5.7920     7.4990     7.7140     2.0940 
   61.2500   -45.4960    63.0500     5.5200     7.2280     8.0320     2.1130 
   61.3750   -45.7560    58.7290     5.2460     6.9880     8.1400     2.1030 
   61.5000   -45.9330    54.9770     5.1020     6.9230     7.7430     2.0680 
   61.6250   -46.0200    55.5830     5.0070     6.8970     7.4030     2.0450 
   61.7500   -46.0400    58.4760     4.9560     6.9100     7.5900     2.0510 
   61.8750   -46.0040    59.6360     4.9100     6.8860     7.8190     2.0700 
   62.0000   -45.9260    59.2990     4.8810     6.8790     7.8530     2.0800 
   62.1250   -45.8080    58.9480     4.8870     6.8600     7.9220     2.0810 
   62.2500   -45.6480    59.8230     4.8890     6.8180     8.0490     2.0770 
   62.3750   -45.4350    60.6010     4.9730     6.9020     8.0490     2.0870 
   62.5000   -45.1630    60.7340     5.2370     7.2970     8.0160     2.1350 
   62.6250   -44.8240    60.7200     5.6240     7.9070     8.6620     2.2180 
   62.7500   -44.4380    60.3160     6.0040     8.5080    10.1720     2.2750 
   62.8750   -44.0490    58.5960     6.2140     8.8410    10.9520     2.2510 
   63.0000   -43.7090    57.2250     6.1550     8.7270     9.9080     2.1760 
   63.1250   -43.4760    57.4260     5.8300     8.1820     8.3880     2.1140 
   63.2500   -43.3660    60.0600     5.4260     7.5750     7.8310     2.0950 
   63.3750   -43.3890    63.0720     5.0870     7.1010     7.9400     2.1020 
   63.5000   -43.5200    65.9750     4.8890     6.8900     7.9990     2.1100 
   63.6250   -43.7450    68.4740     4.8600     6.9160     8.1790     2.1050 
   63.7500   -44.0270    69.8660     4.8850     6.9880     8.2270     2.0950 
   63.8750   -44.3360    69.5890     4.8960     6.9800     7.9480     2.0920 
   64.0000   -44.6290    66.2300     4.8800     6.9410     7.9960     2.0940 
   64.1250   -44.8670    61.8100     4.8440     6.8770     8.3110     2.0940 
   64.2500   -45.0280    59.0460     4.7870     6.7620     8.7670     2.0950 
   64.3750   -45.1030    60.0980     4.7410     6.6710     9.0560     2.0950 
   64.5000   -45.1130    62.6410     4.7150     6.6010     8.6100     2.0920 
   64.6250   -45.0820    64.1080     4.7070     6.5530     8.1090     2.0930 
   64.7500   -45.0420    63.3310     4.7350     6.5840     8.1860     2.1040 
   64.8750   -45.0110    61.9250     4.7970     6.6960     8.2420     2.1160 
   65.0000   -44.9950    61.4350     4.8630     6.8420     8.0320     2.1160 
   65.1250   -44.9900    61.9740     4.9310     7.0580     7.9090     2.1080 
   65.2500   -44.9850    61.7310     4.9750     7.2230     7.8330     2.1070 
   65.3750   -44.9740    61.2390     4.9930     7.3290     7.8430     2.1130 
   65.5000   -44.9610    60.6990     4.9920     7.3710     7.9670     2.1150 
   65.6250   -44.9640    60.7990     4.9830     7.3630     8.1130     2.1140 
   65.7500   -45.0060    62.1830     4.9740     7.3660     8.2350     2.1140 
   65.8750   -45.1150    63.3540     4.9760     7.3850     8.0770     2.1140 
   66.0000   -45.2940    62.4840     4.9870     7.4130     7.8560     2.1060 
   66.1250   -45.5300    59.6760     4.9930     7.4470     7.7410     2.0930 
   66.2500   -45.7700    57.9650     5.0070     7.4460     7.5570     2.0860 
   66.3750   -45.9380    58.3040     4.9880     7.3750     7.3530     2.0830 
   66.5000   -45.9710    58.1180     4.9420     7.2700     7.3370     2.0760 
   66.6250   -45.8140    57.8870     4.8850     7.1660     7.5630     2.0670 
   66.7500   -45.4900    57.9130     4.8400     7.1150     7.6620     2.0640 
   66.8750   -45.0440    58.4130     4.8120     7.1010     7.4520     2.0700 
   67.0000   -44.5650    60.1570     4.8140     7.1250     7.2880     2.0790 
   67.1250   -44.1300    62.4460     4.8080     7.1220     7.3690     2.0880 
   67.2500   -43.7870    64.4980     4.7670     7.0280     7.4320     2.0940 
   67.3750   -43.5740    65.1370     4.6900     6.8760     7.4650     2.0970 
   67.5000   -43.5030    66.2030     4.6100     6.7290     7.4010     2.0900 
   67.6250   -43.6140    68.6900     4.5770     6.7030     7.2010     2.0740 
   67.7500   -43.9070    70.3530     4.6170     6.8240     7.2540     2.0560 
   67.8750   -44.3670    69.1560     4.7430     7.0870     7.4180     2.0510 
   68.0000   -44.8990    65.6190     4.9040     7.3730     7.4610     2.0540 
   68.1250   -45.3730    62.4580     5.0510     7.5700     7.4490     2.0550 
   68.2500   -45.6690    60.6780     5.1540     7.6280     7.2930     2.0540 
   68.3750   -45.6800    58.5490     5.1780     7.5520     7.1230     2.0540 
   68.5000   -45.3930    57.1040     5.1740     7.3990     7.0500     2.0560 
   68.6250   -44.7850    58.5430     5.1810     7.3130     6.9850     2.0590 
   68.7500   -43.8990    60.8400     5.2220     7.2850     7.0300     2.0670 
   68.8750   -42.7390    61.6110     5.3880     7.4810     7.2330     2.0730 
   69.0000   -41.3530    60.2690     5.7000     7.9640     7.5410     2.0740 
   69.1250   -39.7530    60.3580     5.9510     8.3560     7.7410     2.0790 
   69.2500   -38.0000    63.8720     6.0290     8.5140     7.5740     2.1010 
   69.3750   -36.1590    70.6980     5.8090     8.2020     7.0340     2.1360 
   69.5000   -34.3370    78.7150     5.3330     7.4850     6.3020     2.1650 
   69.6250   -32.6570    85.7740     4.7640     6.6620     6.0260     2.1830 
   69.7500   -31.2010    92.0460     4.2470     5.9270     6.0570     2.2000 
   69.8750   -30.0520    94.7830     3.9030     5.4610     5.5620     2.2170 
   70.0000   -29.2080    93.9900     3.7510     5.2850     4.9520     2.2250 
   70.1250   -28.6940    92.9620     3.7960     5.3910     5.0110     2.2180 
   70.2500   -28.4640    95.0860     3.9360     5.6070     5.3470     2.2000 
   70.3750   -28.4990    99.9860     4.1470     5.9070     5.3140     2.1770 
   70.5000   -28.7210   103.2880     4.3880     6.2230     5.3450     2.1570 
   70.6250   -29.0730   102.1040     4.6020     6.4530     5.6360     2.1450 
