~V
VERS. 2.00: Ver 2.00
~W
STRT.M 50.0000:
STOP.M 201.0000:
STEP.M 0.1250:
NULL. -999.2500:
UWI. F11102:
~C
DEPT.M :
GR.API :
RML.OHMM :
RI. :
RXO.OHMM :
CALI.CM :
SP.MV :
DEN.GM/CC :
~A
# ...
  140.0000    56.9580    12.7180    11.1490    14.8370    26.0600    -7.4770     2.4890 
  140.1250    59.9930    12.8040    11.2460    14.7330    26.1080    -7.5740     2.4860 
  140.2500    61.3100    12.7960    11.2590    14.8940    26.1620    -7.6520     2.4810 
  140.3750    59.8000    12.7390    11.2190    14.8540    26.2270    -7.7120     2.4760 
  140.5000    58.1090    12.6840    11.1640    14.3930    26.1970    -7.7410     2.4730 
  140.6250    59.9380    12.6760    11.1260    14.4780    26.1850    -7.7620     2.4740 
  140.7500    62.8450    12.7170    11.1190    14.5810    26.1500    -7.7640     2.4750 
  140.8750    64.7190    12.7990    11.1470    14.4280    26.1100    -7.7430     2.4770 
  141.0000    65.3410    12.9150    11.2100    14.1730    26.2540    -7.6640     2.4760 
  141.1250    64.0340    13.0680    11.3140    14.6340    26.2770    -7.5990     2.4750 
  141.2500    61.3350    13.2580    11.4520    14.8630    26.2750    -7.5760     2.4740 
  141.3750    58.2040    13.4860    11.6170    14.8350    26.2320    -7.5770     2.4720 
  141.5000    56.8700    13.7360    11.7920    14.7270    26.2730    -7.6110     2.4700 
  141.6250    58.4530    13.9550    11.9420    14.8980    26.3120    -7.6450     2.4650 
  141.7500    60.0100    14.0900    12.0390    15.1470    26.3350    -7.6850     2.4590 
  141.8750    59.7470    14.0960    12.0610    15.5200    26.3720    -7.7340     2.4530 
  142.0000    59.3490    13.9680    12.0050    15.5210    26.3810    -7.7950     2.4480 
  142.1250    61.7550    13.7430    11.8870    15.3840    26.5000    -7.8310     2.4470 
  142.2500    64.3110    13.5250    11.7620    15.1220    26.6500    -7.8450     2.4490 
  142.3750    63.8830    13.3790    11.6700    14.6760    26.6970    -7.8500     2.4540 
  142.5000    62.8240    13.3290    11.6300    14.3320    26.7210    -7.8460     2.4590 
  142.6250    64.1160    13.3690    11.6520    14.3430    26.7570    -7.8590     2.4630 
  142.7500    64.8720    13.4430    11.7100    14.8670    26.8540    -7.8530     2.4650 
  142.8750    63.0030    13.5110    11.7750    15.8680    26.9140    -7.8520     2.4650 
  143.0000    60.6200    13.5430    11.8250    16.5400    27.0060    -7.8780     2.4640 
  143.1250    58.1140    13.5220    11.8450    15.1930    27.0000    -7.9260     2.4620 
  143.2500    56.1920    13.4640    11.8400    14.6530    26.9110    -7.9710     2.4620 
  143.3750    55.9490    13.3850    11.8140    14.5550    26.9230    -8.0020     2.4630 
  143.5000    57.4320    13.2950    11.7760    14.4250    27.1580    -8.0080     2.4660 
  143.6250    59.6920    13.2070    11.7310    14.4010    27.4440    -8.0000     2.4700 
  143.7500    61.3520    13.1280    11.6780    14.5010    27.5310    -8.0060     2.4740 
  143.8750    61.9390    13.0590    11.6240    14.4430    27.5480    -8.0080     2.4750 
  144.0000    61.1340    12.9990    11.5760    14.3730    27.5210    -8.0040     2.4740 
  144.1250    59.7940    12.9570    11.5530    13.9610    27.4510    -8.0410     2.4700 
  144.2500    58.1550    12.9360    11.5620    13.9790    27.5190    -8.1390     2.4650 
  144.3750    55.5130    12.9440    11.6070    14.2440    27.6730    -8.2830     2.4600 
  144.5000    53.6960    12.9750    11.6820    14.0490    27.9770    -8.4880     2.4550 
  144.6250    54.2250    13.0130    11.7620    14.1950    28.4350    -8.7310     2.4510 
  144.7500    55.1660    13.0240    11.8130    14.6230    28.8260    -8.9990     2.4490 
  144.8750    55.4730    12.9910    11.8200    14.3500    29.1020    -9.2840     2.4470 
  145.0000    54.4780    12.9130    11.7870    13.7860    29.2070    -9.5950     2.4430 
  145.1250    53.3190    12.8110    11.7370    13.3680    30.0060    -9.8760     2.4370 
  145.2500    53.1890    12.7280    11.7120    13.0060    30.6750   -10.1140     2.4290 
  145.3750    54.2340    12.6960    11.7390    12.6700    30.3980   -10.3440     2.4220 
  145.5000    55.4520    12.7240    11.8260    12.8910    30.2650   -10.5420     2.4180 
  145.6250    56.7470    12.7940    11.9680    13.7010    30.9220   -10.7150     2.4160 
  145.7500    56.2740    12.8550    12.1270    14.2090    31.8230   -10.8700     2.4130 
  145.8750    53.2710    12.8710    12.2680    14.5310    32.3400   -11.0240     2.4070 
  146.0000    50.7680    12.8270    12.3700    14.3420    32.3770   -11.1610     2.3970 
  146.1250    52.6770    12.7320    12.4180    14.3970    32.6590   -11.2770     2.3840 
  146.2500    55.7910    12.6110    12.4200    14.4940    32.9980   -11.3870     2.3700 
  146.3750    56.9820    12.4530    12.3650    14.1380    33.2080   -11.4840     2.3570 
  146.5000    56.8840    12.2220    12.2280    13.6210    33.3780   -11.5960     2.3450 
  146.6250    57.5290    11.8740    11.9620    13.6720    33.5050   -11.7500     2.3380 
  146.7500    57.2090    11.4450    11.5940    13.9720    33.5870   -11.9510     2.3340 
  146.8750    55.9140    11.0090    11.1830    13.5520    33.5250   -12.2010     2.3340 
  147.0000    56.0850    10.6860    10.8260    12.4570    33.4750   -12.5250     2.3350 
  147.1250    57.2970    10.6740    10.6910    11.5800    33.5430   -12.9580     2.3310 
  147.2500    57.1580    11.0490    10.8720    11.8770    33.6520   -13.4970     2.3160 
  147.3750    57.0910    11.8760    11.4460    13.0030    33.8540   -14.1360     2.2910 
  147.5000    59.0570    13.1860    12.4680    13.9160    34.1820   -14.8710     2.2590 
  147.6250    60.4660    15.0700    14.0420    14.3020    34.7480   -15.6830     2.2270 
  147.7500    59.0960    17.4440    16.0870    16.2780    34.8360   -16.5410     2.2010 
  147.8750    56.2110    20.3580    18.6060    18.6790    34.9220   -17.4170     2.1810 
  148.0000    54.8680    23.9860    21.6760    20.0770    35.2890   -18.2910     2.1650 
  148.1250    55.9510    28.9800    25.7480    21.7930    35.5500   -19.1470     2.1510 
  148.2500    56.5500    35.8570    31.2820    28.5040    35.6720   -19.9550     2.1360 
  148.3750    54.4780    45.3520    39.0300    37.7490    35.9890   -20.7120     2.1220 
  148.5000    52.5950    58.0670    49.7360    47.1550    36.5280   -21.4170     2.1110 
  148.6250    54.5650    74.5030    64.0990    54.8300    37.2920   -22.0630     2.1080 
  148.7500    54.5480    92.6810    80.3590    54.8500    37.1790   -22.6360     2.1140 
  148.8750    50.5930   109.8660    96.0610    61.6880    37.0000   -23.1490     2.1250 
  149.0000    47.7940   123.0530   108.5330    78.8660    37.1130   -23.6100     2.1360 
  149.1250    50.4800   130.2140   115.8380    94.9500    37.5180   -24.0120     2.1380 
  149.2500    52.7040   134.2080   120.1660    99.2240    37.8950   -24.3530     2.1270 
  149.3750    52.0730   137.9010   123.9860    99.7820    38.3890   -24.6430     2.1040 
  149.5000    51.1120   143.2940   129.3080   102.6700    39.1040   -24.8690     2.0730 
  149.6250    51.2770   150.6920   136.9540   100.7630    40.2150   -25.0320     2.0410 
  149.7500    51.0510   156.9540   144.5770    85.9080    41.7370   -25.1570     2.0170 
  149.8750    49.6200   157.1480   148.0990    54.3120    42.2890   -25.2640     2.0050 
  150.0000    48.2200   146.7180   142.9620    27.2500    40.8080   -25.3470     2.0060 
  150.1250    47.4330   125.1790   126.4220    24.7920    39.2350   -25.3950     2.0210 
  150.2500    46.2370   101.5500   105.1640    39.8540    38.8050   -25.4310     2.0410 
  150.3750    45.1860    82.0130    85.4440    61.6010    38.7290   -25.4430     2.0610 
  150.5000    46.4380    69.2450    71.2350    63.0210    38.7170   -25.4530     2.0780 
  150.6250    50.5710    64.3870    64.7840    46.7580    38.9310   -25.4660     2.0890 
  150.7500    53.3710    65.2730    64.3630    41.0690    39.2420   -25.4840     2.0950 
  150.8750    52.8940    70.8570    68.9840    49.3120    39.7270   -25.4800     2.0970 
  151.0000    49.9590    79.9440    77.4760    65.8040    40.1460   -25.4730     2.0980 
  151.1250    46.6910    90.8730    88.2430    80.1390    40.1910   -25.4470     2.1020 
