~V
VERS. 2.00: Ver 2.00
~W
STRT.M 51.0000:
STOP.M 277.0000:
STEP.M 0.1250:
NULL. -999.2500:
UWI. F11147:
~C
DEPT.M :
DEN.GM/CC :
GR.API :
RML.OHMM :
RI. :
RXO.OHMM :
CALI.CM :
SP.MV :
~A
# ...
  141.0000     2.3170    76.0250     6.2030     5.1560     5.7590    24.4180   -17.3460 
  141.1250     2.3210    76.2080     6.2720     5.2050     5.9510    24.0990   -17.2550 
  141.2500     2.3240    80.5650     6.2160     5.1590     6.1820    24.0240   -17.0650 
  141.3750     2.3270    84.3530     6.0060     4.9890     6.2480    24.3080   -16.7890 
  141.5000     2.3290    87.7150     5.7090     4.7410     5.7530    24.7330   -16.4640 
  141.6250     2.3270    91.7680     5.3940     4.4700     5.0580    24.9650   -16.1160 
  141.7500     2.3210    92.6190     5.1260     4.2310     4.5210    24.9910   -15.7650 
  141.8750     2.3110    89.3640     4.9650     4.0660     4.2680    24.8560   -15.4360 
  142.0000     2.3010    86.1350     4.8950     3.9700     4.2280    24.6320   -15.1490 
  142.1250     2.2910    86.7640     4.8880     3.9270     4.3260    24.3600   -14.9310 
  142.2500     2.2810    91.2030     4.9040     3.9170     4.3960    24.0780   -14.8010 
  142.3750     2.2710    92.9420     4.9150     3.9220     4.2940    23.9380   -14.7670 
  142.5000     2.2630    88.0790     4.9310     3.9350     4.2080    24.0170   -14.7950 
  142.6250     2.2580    82.2500     4.9800     3.9650     4.2050    24.3720   -14.8410 
  142.7500     2.2580    82.5300     5.0800     4.0200     4.2950    24.7790   -14.8800 
  142.8750     2.2660    87.3330     5.2220     4.1030     4.3450    24.9420   -14.9200 
  143.0000     2.2760    90.8770     5.3570     4.1890     4.4470    24.9760   -14.9690 
  143.1250     2.2860    93.5210     5.4430     4.2510     4.5780    24.9690   -15.0220 
  143.2500     2.2980    95.4010     5.4600     4.2740     4.6400    24.9510   -15.0630 
  143.3750     2.3140    92.6870     5.3970     4.2550     4.6060    24.8860   -15.1020 
  143.5000     2.3240    87.4690     5.2920     4.2160     4.5150    24.7120   -15.1310 
  143.6250     2.3220    85.1860     5.1790     4.1690     4.4420    24.3720   -15.1370 
  143.7500     2.3140    86.7120     5.0950     4.1260     4.3970    24.0030   -15.1310 
  143.8750     2.3100    88.3390     5.0810     4.1000     4.3890    23.9530   -15.1050 
  144.0000     2.3130    87.2300     5.1270     4.0910     4.4020    24.0610   -15.0570 
  144.1250     2.3180    85.0170     5.2020     4.0980     4.4370    24.1930   -14.9830 
  144.2500     2.3210    82.8280     5.2700     4.1070     4.4860    24.3750   -14.8930 
  144.3750     2.3230    81.0710     5.3020     4.1050     4.5590    24.6250   -14.7640 
  144.5000     2.3280    81.0430     5.3020     4.0880     4.5460    24.7730   -14.6180 
  144.6250     2.3330    83.5680     5.2800     4.0630     4.4290    24.8210   -14.4900 
  144.7500     2.3380    86.7280     5.2550     4.0410     4.2940    24.8270   -14.3980 
  144.8750     2.3390    86.2130     5.2470     4.0310     4.2850    24.8230   -14.3370 
  145.0000     2.3350    84.8720     5.2570     4.0340     4.3250    24.8150   -14.2940 
  145.1250     2.3280    86.5960     5.2780     4.0420     4.3230    24.7980   -14.3020 
  145.2500     2.3250    92.6440     5.3000     4.0490     4.3090    24.7800   -14.3370 
  145.3750     2.3260    98.1860     5.3080     4.0490     4.3340    24.7870   -14.4040 
  145.5000     2.3260    99.1150     5.3030     4.0450     4.3740    24.8300   -14.5050 
  145.6250     2.3220    98.4550     5.2900     4.0390     4.3470    24.8510   -14.6240 
  145.7500     2.3190    98.8210     5.2820     4.0360     4.3080    24.7920   -14.7400 
  145.8750     2.3190    98.0840     5.2940     4.0410     4.3550    24.6710   -14.8740 
  146.0000     2.3190    94.1440     5.3260     4.0550     4.4160    24.6410   -15.0180 
  146.1250     2.3130    90.7350     5.3760     4.0770     4.4800    24.6890   -15.1340 
  146.2500     2.3020    91.4540     5.4340     4.1060     4.5330    24.7610   -15.2340 
  146.3750     2.2960    94.4860     5.4870     4.1370     4.5480    24.8110   -15.3210 
  146.5000     2.2970    95.9420     5.5310     4.1640     4.5170    24.8160   -15.3780 
  146.6250     2.3050    95.2030     5.5730     4.1840     4.5030    24.8430   -15.4110 
  146.7500     2.3170    94.9080     5.6150     4.1990     4.5420    24.8610   -15.4420 
  146.8750     2.3280    95.7410     5.6430     4.2090     4.6100    24.8490   -15.4600 
  147.0000     2.3340    96.0880     5.6430     4.2170     4.6060    24.7750   -15.4480 
  147.1250     2.3370    96.3090     5.6090     4.2210     4.5970    24.7080   -15.4040 
  147.2500     2.3370    95.6560     5.5540     4.2180     4.6400    24.7390   -15.3320 
  147.3750     2.3390    92.6760     5.5040     4.2010     4.7150    24.8590   -15.2310 
  147.5000     2.3450    89.9970     5.4760     4.1710     4.7020    24.9430   -15.1240 
  147.6250     2.3530    90.9540     5.4740     4.1370     4.6350    24.9680   -15.0130 
  147.7500     2.3580    95.0240     5.4860     4.1080     4.5490    24.9690   -14.8740 
  147.8750     2.3550    94.1520     5.4950     4.0920     4.4970    24.9660   -14.6990 
  148.0000     2.3500    89.8880     5.4900     4.0880     4.4530    24.9010   -14.5320 
  148.1250     2.3470    84.8430     5.4760     4.0920     4.4400    24.7020   -14.4070 
  148.2500     2.3430    80.1010     5.4770     4.1050     4.4210    24.4320   -14.3430 
  148.3750     2.3360    78.9530     5.5350     4.1380     4.3900    24.3030   -14.3330 
  148.5000     2.3260    82.6410     5.6580     4.1960     4.3920    24.2550   -14.3460 
  148.6250     2.3180    89.7960     5.8280     4.2750     4.4530    24.2130   -14.3780 
  148.7500     2.3120    95.1910     5.9950     4.3580     4.5700    24.1240   -14.4350 
  148.8750     2.3110    97.4430     6.0740     4.4100     4.7900    24.1410   -14.5200 
  149.0000     2.3120    99.6270     6.0460     4.4150     4.8480    24.2720   -14.6180 
  149.1250     2.3130   101.1220     5.9410     4.3760     4.6940    24.3960   -14.7250 
  149.2500     2.3160   100.2560     5.8260     4.3180     4.5540    24.3480   -14.8130 
  149.3750     2.3250    96.8200     5.7960     4.2900     4.5550    24.1540   -14.8800 
  149.5000     2.3360    93.6430     5.8740     4.3230     4.6790    23.9600   -14.9380 
  149.6250     2.3380    92.2870     6.0300     4.4180     4.8380    23.8660   -14.9870 
  149.7500     2.3340    92.3570     6.1880     4.5430     4.9110    23.8440   -15.0150 
  149.8750     2.3360    93.5130     6.2480     4.6280     4.9240    23.8440   -15.0040 
  150.0000     2.3430    94.6940     6.1820     4.6260     5.0310    23.8440   -14.9600 
  150.1250     2.3490    93.7640     6.0130     4.5300     4.9960    23.8390   -14.8420 
  150.2500     2.3450    89.8090     5.7970     4.3690     4.5660    23.8070   -14.6730 
  150.3750     2.3370    88.0000     5.5950     4.2000     4.3760    23.7020   -14.4670 
  150.5000     2.3330    89.5390     5.4370     4.0660     4.3540    23.5630   -14.2120 
  150.6250     2.3320    91.8560     5.3300     3.9810     4.3660    23.4650   -13.9070 
  150.7500     2.3300    92.4070     5.2700     3.9370     4.2780    23.4480   -13.5680 
  150.8750     2.3260    91.2780     5.2440     3.9190     4.2500    23.5600   -13.2170 
  151.0000     2.3250    89.4090     5.2260     3.9040     4.2770    23.8010   -12.8780 
  151.1250     2.3270    87.7950     5.1990     3.8870     4.2980    24.0010   -12.5850 
  151.2500     2.3320    88.1600     5.1580     3.8720     4.3050    24.0510   -12.3290 
  151.3750     2.3400    90.3700     5.1090     3.8690     4.3090    23.9600   -12.1060 
  151.5000     2.3490    91.9430     5.0670     3.8820     4.2910    23.9320   -11.9230 
  151.6250     2.3550    93.3070     5.0350     3.9040     4.2520    24.0090   -11.7900 
  151.7500     2.3540    95.4760     5.0080     3.9280     4.2380    24.1430   -11.7250 
  151.8750     2.3480    96.8260     4.9590     3.9260     4.3600    24.2720   -11.7230 
  152.0000     2.3420    95.1400     4.8540     3.8720     4.4410    24.3830   -11.7550 
  152.1250     2.3350    92.4840     4.6670     3.7550     4.2330    24.4170   -11.8060 
