~V
VERS. 2.00: Ver 2.00
~W
STRT.M 50.0000:
STOP.M 245.0000:
STEP.M 0.1250:
NULL. -999.2500:
UWI. F11135:
~C
DEPT.M :
GR.API :
RML.OHMM :
RI. :
RXO.OHMM :
CALI.CM :
SP.MV :
DEN.GM/CC :
~A
# ...
  162.5000    58.9770    55.3360    37.7870    56.8140    25.1360   -31.7950     2.2180 
  162.6250    51.3880    80.1470    56.6240    86.6620    25.1330   -32.4480     2.2190 
  162.7500    50.0280   110.1310    80.5750    98.2590    25.1380   -33.0580     2.2090 
  162.8750    53.8680   138.4360   104.6230   104.5470    25.1390   -33.6310     2.1940 
  163.0000    55.6530   157.2070   122.7010   111.7270    25.1390   -34.1440     2.1800 
  163.1250    52.2400   164.1790   131.8320   111.1820    25.1390   -34.5860     2.1690 
  163.2500    48.4750   166.8730   136.4580   102.0160    25.1390   -34.9730     2.1640 
  163.3750    47.3060   169.6090   139.8230    99.3800    25.1410   -35.3190     2.1600 
  163.5000    48.2220   174.9990   144.4150   105.7660    25.1490   -35.6260     2.1520 
  163.6250    49.9800   185.6700   152.9850   112.1830    25.1550   -35.9020     2.1450 
  163.7500    50.1380   201.4470   165.9630   133.2740    25.1510   -36.1590     2.1410 
  163.8750    49.1640   221.0350   182.5750   147.2840    25.1490   -36.3850     2.1380 
  164.0000    48.3440   241.6310   200.7760   153.2290    25.1400   -36.6130     2.1360 
  164.1250    48.8710   258.9800   217.3730   163.2320    25.1370   -36.8160     2.1360 
  164.2500    49.8610   270.9400   230.1860   160.3980    25.1350   -37.0160     2.1350 
  164.3750    49.9330   277.2790   238.4800   147.0400    25.1410   -37.2150     2.1340 
  164.5000    49.3160   279.1600   242.8430   143.1780    25.1570   -37.3930     2.1330 
  164.6250    48.6190   277.3340   243.7420   165.5490    25.1600   -37.5410     2.1340 
  164.7500    50.5910   272.2260   241.6030   187.4870    25.1600   -37.6950     2.1360 
  164.8750    53.8670   262.8530   235.6050   198.7060    25.1580   -37.8260     2.1390 
  165.0000    54.6330   248.7040   225.0140   194.0010    25.1410   -37.9290     2.1420 
  165.1250    53.0650   231.0220   210.0180   173.6350    25.1300   -38.0140     2.1440 
  165.2500    52.7810   214.1880   194.4740   157.6800    25.1260   -38.0750     2.1430 
  165.3750    53.3760   201.9100   182.1680   142.9910    25.1180   -38.1220     2.1410 
  165.5000    53.4990   197.0340   176.1050   123.0090    25.0640   -38.1540     2.1390 
  165.6250    52.7030   202.8650   179.3000   115.6190    25.0550   -38.1600     2.1370 
  165.7500    52.6890   217.8740   190.4110   135.4080    25.0520   -38.1170     2.1360 
  165.8750    52.6360   239.8180   207.7010   167.6310    25.0520   -38.0740     2.1370 
  166.0000    51.4290   263.8640   227.6990   194.0770    25.0520   -38.0060     2.1400 
  166.1250    49.8000   282.0530   244.6590   194.6640    25.0450   -37.9460     2.1430 
  166.2500    48.9310   291.2440   255.1160   175.3890    25.0060   -37.8650     2.1470 
  166.3750    49.8820   293.6660   259.4130   157.2980    24.9570   -37.7430     2.1500 
  166.5000    50.6020   294.1250   260.6810   160.3160    24.9100   -37.6140     2.1520 
  166.6250    49.7310   295.8030   262.1990   161.7800    24.9100   -37.4840     2.1550 
  166.7500    49.2060   296.8620   263.9030   162.9480    24.9050   -37.4000     2.1570 
  166.8750    50.0390   292.7570   262.8450   162.9410    24.9050   -37.3200     2.1560 
  167.0000    52.2220   278.5840   254.9800   162.0980    24.9260   -37.2770     2.1500 
  167.1250    53.4620   250.3450   235.6970   166.6950    25.0100   -37.2210     2.1420 
  167.2500    52.8540   213.8940   207.6780   172.3170    25.0630   -37.1640     2.1340 
  167.3750    51.7960   176.3120   175.4650   163.1670    25.0730   -37.1250     2.1310 
  167.5000    53.1180   144.2480   144.8070   136.4930    25.0740   -37.0870     2.1360 
  167.6250    55.5670   122.8520   121.5900   105.8920    25.0740   -37.0580     2.1490 
  167.7500    55.2470   110.8230   106.7630    83.6030    25.0740   -37.0100     2.1680 
  167.8750    53.0780   107.1970   100.4640    69.8370    25.0740   -36.9720     2.1900 
  168.0000    52.4040   110.9280   102.1910    68.4270    25.0740   -36.9150     2.2110 
  168.1250    53.5160   121.7880   111.9750    83.4500    25.0740   -36.8640     2.2260 
  168.2500    53.9090   136.7280   126.5810   108.1850    25.0710   -36.8130     2.2340 
  168.3750    53.6120   152.4590   142.7730   128.8920    25.0570   -36.7630     2.2360 
  168.5000    52.8240   164.3010   156.1350   139.4350    24.9790   -36.7060     2.2330 
  168.6250    51.3990   165.8390   160.5480   134.2610    24.8900   -36.6230     2.2300 
  168.7500    50.8190   157.3210   155.3740   120.4070    24.9720   -36.5040     2.2310 
  168.8750    51.8130   141.6460   142.5240   109.4870    25.0640   -36.3570     2.2330 
  169.0000    52.8950   127.9330   125.6150   108.2090    25.0830   -36.1920     2.2320 
  169.1250    52.0330   109.7180   108.5900    92.0110    25.0810   -36.0220     2.2290 
  169.2500    51.4880    94.9490    94.2360    74.9830    25.1020   -35.8650     2.2260 
  169.3750    53.5650    84.5080    83.7450    67.8880    25.1280   -35.7120     2.2270 
  169.5000    57.2670    78.4530    77.3920    69.3830    25.1360   -35.5740     2.2310 
  169.6250    57.9150    76.7990    75.3580    68.7200    25.1270   -35.4600     2.2370 
  169.7500    55.5300    77.8010    76.1220    61.8330    25.1370   -35.3880     2.2400 
  169.8750    54.6650    79.9820    78.3760    63.4930    25.1390   -35.3390     2.2390 
  170.0000    56.4940    81.7360    80.5040    67.1440    25.1400   -35.3290     2.2350 
  170.1250    57.4000    81.7440    80.9340    65.2270    25.1430   -35.3330     2.2290 
  170.2500    55.5360    80.3690    79.7160    58.4290    25.1490   -35.3740     2.2270 
  170.3750    53.5340    78.4110    77.4790    52.1530    25.1500   -35.4610     2.2280 
  170.5000    53.2820    76.8340    75.1410    50.4930    25.1500   -35.5840     2.2330 
  170.6250    54.2430    76.8340    73.9290    54.1070    25.1490   -35.7260     2.2430 
  170.7500    56.3530    78.9970    74.6030    58.3650    25.1450   -35.8670     2.2540 
  170.8750    59.3150    84.0900    77.8550    59.9720    25.1410   -36.0360     2.2640 
  171.0000    60.4690    93.3840    84.6440    59.4360    25.1460   -36.2180     2.2710 
  171.1250    56.7310   109.8890    97.4570    64.6800    25.1400   -36.4330     2.2730 
  171.2500    51.5540   134.2990   117.1450    83.6520    25.1390   -36.6350     2.2710 
  171.3750    48.4350   166.9470   144.3400   124.2740    25.1390   -36.8240     2.2660 
  171.5000    47.7090   205.8460   177.7130   167.7820    25.1390   -36.9860     2.2570 
  171.6250    47.5050   244.3430   212.3340   201.6870    25.1390   -37.1500     2.2430 
  171.7500    46.9060   273.2180   240.4760   217.3610    25.1390   -37.2780     2.2270 
  171.8750    45.2140   286.1770   256.4390   199.3630    25.1360   -37.3510     2.2100 
  172.0000    42.3870   280.8040   257.2110   162.6660    25.1220   -37.3810     2.1970 
  172.1250    41.3720   254.1490   239.0530   139.1430    25.0520   -37.3720     2.1890 
  172.2500    41.7310   213.3720   206.5560   136.0290    25.0670   -37.3220     2.1840 
  172.3750    41.6450   168.1090   166.5890   129.1020    25.1750   -37.2280     2.1770 
  172.5000    40.3350   129.2980   128.9100    98.1080    25.2350   -37.1360     2.1690 
  172.6250    39.1370   105.6340   102.8700    64.6630    25.3170   -37.0420     2.1620 
  172.7500    40.1760    95.5970    89.0860    45.3960    25.3690   -36.9920     2.1590 
  172.8750    42.7090    98.0060    87.2940    41.7260    25.3750   -36.9870     2.1660 
  173.0000    43.6390   112.1620    97.2920    60.0950    25.3630   -37.0180     2.1810 
  173.1250    41.1970   140.0070   121.3260   110.6330    25.2850   -37.0900     2.2010 
  173.2500    38.9480   178.7080   156.5330   154.0700    25.2350   -37.2280     2.2130 
  173.3750    39.4320   224.1520   198.8290   144.7850    25.2440   -37.4080     2.2150 
  173.5000    41.4570   257.7850   240.4660   133.0440    25.3320   -37.5790     2.2050 
  173.6250    42.0120   287.8470   271.3190   140.0170    25.3700   -37.7370     2.1920 
