~V
VERS. 2.00: Ver 2.00
~W
STRT.M 45.0000:
STOP.M 250.0000:
STEP.M 0.1250:
NULL. -999.2500:
UWI. F11133:
~C
DEPT.M :
SP.MV :
DEN.GM/CC :
GR.API :
RML.OHMM :
RI. :
RXO.OHMM :
CALI.CM :
~A
# ...
  236.2500   -17.4150     2.4440    62.7610     9.9200     9.2300     9.6120    23.5760 
  236.3750   -17.4600     2.4550    63.1900    10.0840     9.3880    10.8270    23.5100 
  236.5000   -17.5180     2.4650    61.4490    10.2370     9.5350    11.8270    23.4810 
  236.6250   -17.5550     2.4720    57.8610    10.4410     9.7310    11.9820    23.4750 
  236.7500   -17.5700     2.4750    55.5840    10.7620    10.0400    12.0970    23.4730 
  236.8750   -17.5950     2.4700    57.5450    11.2150    10.4770    13.7160    23.5090 
  237.0000   -17.6190     2.4590    61.2240    11.7060    10.9490    17.9760    23.5990 
  237.1250   -17.6340     2.4490    62.4180    12.0740    11.3040    22.1600    23.7980 
  237.2500   -17.6420     2.4440    60.6590    12.1070    11.3360    20.3220    24.0120 
  237.3750   -17.6310     2.4430    58.8340    11.6980    10.9420    13.7510    24.0920 
  237.5000   -17.5690     2.4440    58.1410    10.9760    10.2460     9.4710    24.0830 
  237.6250   -17.4810     2.4410    57.4250    10.1480     9.4490     7.9140    24.0490 
  237.7500   -17.4040     2.4360    56.8210     9.4500     8.7770     7.5780    24.0230 
  237.8750   -17.3160     2.4300    56.8210     9.0310     8.3730     7.6560    24.0100 
  238.0000   -17.2150     2.4270    56.8210     8.8850     8.2320     7.9530    23.9960 
  238.1250   -17.1430     2.4230    56.8210     8.9350     8.2800     8.4210    23.9650 
  238.2500   -17.0790     2.4170    56.8210     9.0710     8.4110     9.0030    23.9200 
  238.3750   -17.0080     2.4060    56.8210     9.1850     8.5210     9.4160    23.8820 
  238.5000   -16.9810     2.3900    56.8210     9.2220     8.5560     9.1250    23.8650 
  238.6250   -16.9790     2.3750    56.8210     9.1780     8.5150     8.2870    23.8610 
  238.7500   -16.9670     2.3730    56.8210     9.0810     8.4210     7.6410    23.8540 
  238.8750   -16.9600     2.3840    56.8210     8.9700     8.3140     7.3760    23.7990 
  239.0000   -16.9640     2.3990    56.8210     8.8830     8.2300     7.4340    23.6250 
  239.1250   -16.9670     2.4120    56.8210     8.8460     8.1940     7.4930    23.3600 
  239.2500   -16.9940     2.4180    56.8210     8.8740     8.2220     7.6070    23.1530 
  239.3750   -17.0280     2.4170    56.8210     8.9590     8.3030     7.9620    23.1120 
  239.5000   -17.0360     2.4070    56.8210     9.0600     8.4010     8.7230    23.2430 
  239.6250   -17.0590     2.3900    56.8210     9.1360     8.4750    10.3880    23.4550 
  239.7500   -17.1160     2.3700    56.8210     9.1500     8.4870    13.1480    23.6490 
  239.8750   -17.1720     2.3530    56.8210     9.0950     8.4350    14.7270    23.7530 
  240.0000   -17.2040     2.3400    56.8210     9.0050     8.3480    12.9260    23.8130 
  240.1250   -17.2190     2.3310    56.8210     8.9060     8.2530    10.3050    23.8640 
  240.2500   -17.2220     2.3320    56.8210     8.8120     8.1620     9.4150    23.9210 
  240.3750   -17.2130     2.3450    56.8210     8.7170     8.0700    10.4760    23.9610 
  240.5000   -17.1910     2.3690    56.8210     8.6000     7.9580    11.9470    23.9470 
  240.6250   -17.1410     2.3960    56.8210     8.4480     7.8110    12.0460    23.8980 
  240.7500   -17.0550     2.4120    56.8210     8.2640     7.6340    10.1610    23.8570 
  240.8750   -16.9240     2.4190    56.8210     8.0770     7.4540     8.0750    23.8490 
  241.0000   -16.7750     2.4240    56.8210     7.9140     7.2970     7.4000    23.8850 
  241.1250   -16.6350     2.4320    56.8210     7.7860     7.1740     7.4150    23.9490 
  241.2500   -16.4760     2.4380    56.8210     7.6860     7.0770     7.6770    24.0030 
  241.3750   -16.3180     2.4380    56.8210     7.5960     6.9910     7.7430    24.0390 
  241.5000   -16.1970     2.4330    56.8210     7.5080     6.9060     7.4880    24.0870 
  241.6250   -16.0970     2.4250    56.8210     7.4300     6.8300     7.3660    24.1380 
  241.7500   -16.0140     2.4120    56.8210     7.3680     6.7700     7.3930    24.1610 
  241.8750   -15.9920     2.3960    56.8210     7.3190     6.7230     7.4590    24.1320 
  242.0000   -16.0150     2.3820    56.8210     7.2690     6.6760     7.4450    24.0520 
  242.1250   -16.0540     2.3750    56.8210     7.2050     6.6130     7.4060    23.9600 
  242.2500   -16.1110     2.3720    56.8210     7.1060     6.5180     7.3050    23.9010 
  242.3750   -16.1700     2.3680    56.8210     6.9690     6.3870     7.1840    23.8910 
  242.5000   -16.2030     2.3620    56.8210     6.8130     6.2360     7.1180    23.8910 
  242.6250   -16.2350     2.3580    56.8210     6.6610     6.0900     7.1560    23.8870 
  242.7500   -16.2730     2.3560    56.8210     6.5410     5.9740     7.2150    23.8790 
  242.8750   -16.2940     2.3570    56.8210     6.4670     5.9030     7.2670    23.8670 
  243.0000   -16.2980     2.3540    56.8210     6.4340     5.8710     7.3210    23.8610 
  243.1250   -16.3070     2.3480    56.8210     6.4280     5.8650     7.3460    23.8540 
  243.2500   -16.3150     2.3410    56.8210     6.4360     5.8730     7.3430    23.8380 
  243.3750   -16.3250     2.3370    56.8210     6.4480     5.8840     7.3080    23.8140 
  243.5000   -16.3560     2.3380    56.8210     6.4530     5.8890     7.3200    23.7960 
  243.6250   -16.3990     2.3410    56.8210     6.4540     5.8900     7.4610    23.7980 
  243.7500   -16.4230     2.3450    56.8210     6.4530     5.8900     7.6860    23.8190 
  243.8750   -16.4170     2.3490    56.8210     6.4530     5.8900     7.8760    23.8360 
  244.0000   -16.4130     2.3570    56.8210     6.4530     5.8900     7.9230    23.8250 
  244.1250   -16.4250     2.3680    56.8210     6.4530     5.8900     7.8950    23.8030 
  244.2500   -16.4480     2.3810    56.8210     6.4530     5.8900     7.8120    23.7940 
  244.3750   -16.4530     2.3940    56.8210     6.4530     5.8900     7.6470    23.7930 
  244.5000   -16.4430     2.4030    56.8210     6.4530     5.8900     7.5030    23.7720 
  244.6250   -16.4430     2.4040    56.8210     6.4530     5.8900     7.4850    23.6970 
  244.7500   -16.4490     2.3920    56.8210     6.4530     5.8900     7.5000    23.5930 
  244.8750   -16.4780     2.3760    56.8210     6.4530     5.8900     7.4870    23.5080 
  245.0000   -16.5290     2.3690    56.8210     6.4530     5.8900     7.4790    23.4320 
  245.1250   -16.5650     2.3760    56.8210     6.4530     5.8900     7.5410    23.3810 
  245.2500   -16.5910     2.3930    56.8210     6.4530     5.8900     7.7190    23.3580 
  245.3750   -16.6370     2.4150    56.8210     6.4530     5.8900     7.9280    23.3460 
  245.5000   -16.6880     2.4340    56.8210     6.4530     5.8900     8.0620    23.3240 
  245.6250   -16.7190     2.4480    56.8210     6.4530     5.8900     8.3230    23.2880 
  245.7500   -16.7580     2.4550    56.8210     6.4530     5.8900     9.0600    23.2510 
  245.8750   -16.8030     2.4580    56.8210     6.4530     5.8900    10.1310    23.2200 
  246.0000   -16.8310     2.4560    56.8210     6.4530     5.8900    10.5390    23.2000 
  246.1250   -16.8590     2.4500    56.8210     6.4530     5.8900     9.9300    23.1690 
  246.2500   -16.8980     2.4440    56.8210     6.4530     5.8900     9.1480    23.1240 
  246.3750   -16.9480     2.4390    56.8210     6.4530     5.8900     8.6600    23.0760 
  246.5000   -17.0060     2.4300    56.8210     6.4530     5.8900     8.3510    23.0190 
  246.6250   -17.0710     2.4180    56.8210     6.4530     5.8900     8.0990    22.9460 
  246.7500   -17.1210     2.4040    56.8210     6.4530     5.8900     7.9040    22.8400 
  246.8750   -17.1400     2.3850    56.8210     6.4530     5.8900     7.7720    22.6650 
  247.0000   -17.1570     2.3440    56.8210     6.4530     5.8900     7.6630    22.3250 
  247.1250   -17.1920     2.2730    56.8210     6.4530     5.8900     7.5760    21.6800 
  247.2500   -17.2210     2.1730    56.8210     6.4530     5.8900     7.4870    20.8330 
  247.3750   -17.2250     2.0530    56.8210     6.4530     5.8900     7.4190    20.2040 
