~V
VERS. 2.00: Ver 2.00
~W
STRT.M 47.0000:
STOP.M 248.0000:
STEP.M 0.1250:
NULL. -999.2500:
UWI. F11134:
~C
DEPT.M :
GR.API :
RML.OHMM :
RI. :
RXO.OHMM :
CALI.CM :
SP.MV :
DEN.GM/CC :
~A
# ...
  215.7500    52.8820   116.1600   110.0360   111.8110    25.2040   -30.1420     2.2150 
  215.8750    54.7620   123.9720   116.8170   111.9800    25.2040   -30.0440     2.2070 
  216.0000    55.3880   134.7230   126.4030   123.2650    25.2040   -29.9110     2.1950 
  216.1250    53.7880   146.6970   137.2180   147.1090    25.2040   -29.7680     2.1830 
  216.2500    51.3030   157.8840   147.5010   173.5630    25.2040   -29.6190     2.1760 
  216.3750    50.2470   166.0530   155.3180   181.8710    25.2040   -29.4580     2.1750 
  216.5000    49.6000   170.6130   160.0450   176.3580    25.2040   -29.2810     2.1780 
  216.6250    47.5540   172.4970   162.3460   173.7890    25.2010   -29.0880     2.1820 
  216.7500    45.7860   172.9740   163.3180   178.8270    25.1940   -28.8840     2.1870 
  216.8750    46.5990   172.7180   163.7390   183.4200    25.1830   -28.6830     2.1960 
  217.0000    48.5160   170.9870   163.1790   175.4510    25.1850   -28.4850     2.2060 
  217.1250    48.8870   165.5920   159.8060   161.5610    25.1810   -28.2840     2.2160 
  217.2500    47.7880   153.9130   151.1100   160.8460    25.1440   -28.0760     2.2270 
  217.3750    46.9590   134.4810   134.8790   160.6960    25.0960   -27.8750     2.2430 
  217.5000    47.5400   110.3970   112.8780   144.0320    25.0890   -27.7010     2.2600 
  217.6250    50.0530    86.7880    89.6170   114.3150    25.1420   -27.5680     2.2730 
  217.7500    54.6870    67.2150    69.1800    82.3190    25.2170   -27.4630     2.2800 
  217.8750    59.7010    53.5440    54.3490    56.9000    25.2620   -27.3530     2.2860 
  218.0000    62.2920    45.0760    44.9210    41.2820    25.2760   -27.2360     2.2940 
  218.1250    61.9410    40.2420    39.3630    34.2170    25.2740   -27.1170     2.3010 
  218.2500    60.2560    37.8830    36.4330    33.9350    25.2610   -26.9920     2.3080 
  218.3750    58.5160    37.2030    35.3000    37.7370    25.2340   -26.8620     2.3210 
  218.5000    56.0120    37.6470    35.3760    40.8870    25.2100   -26.7270     2.3390 
  218.6250    53.2310    39.0920    36.4740    40.8270    25.1880   -26.5930     2.3580 
  218.7500    52.4230    41.8630    38.8430    38.7220    25.1360   -26.4660     2.3760 
  218.8750    52.9150    46.6350    43.1700    43.2120    25.0520   -26.3360     2.3960 
  219.0000    52.1960    53.4180    49.6200    65.5540    25.0050   -26.1780     2.4180 
  219.1250    50.3280    61.1800    57.3530    96.5300    25.0720   -25.9650     2.4320 
  219.2500    49.0020    67.9110    64.4820   105.5300    25.2010   -25.6960     2.4340 
  219.3750    48.6120    70.7170    68.0830    95.3070    25.2050   -25.3740     2.4480 
  219.5000    49.4000    68.5920    66.8610    85.1700    25.0740   -24.9950     2.4930 
  219.6250    51.6350    62.4460    61.4090    74.5230    24.9470   -24.5310     2.5580 
  219.7500    53.3430    53.5300    52.8550    62.2480    24.9090   -23.9410     2.6110 
  219.8750    52.1400    43.0740    42.5340    55.3690    24.9300   -23.2010     2.6240 
  220.0000    49.7540    32.6280    32.2100    50.5900    24.9350   -22.3610     2.6090 
  220.1250    48.7950    23.6590    23.4230    40.2340    24.9330   -21.5040     2.5800 
  220.2500    48.9970    16.9470    16.8750    25.8990    24.9780   -20.6970     2.5360 
  220.3750    49.0530    12.6770    12.6470    14.5410    25.0430   -19.9910     2.4810 
  220.5000    48.6200    10.2330    10.1220     9.2000    25.0660   -19.3850     2.4380 
  220.6250    48.2860     8.8950     8.6470     7.7410    25.0470   -18.8780     2.4210 
  220.7500    48.4620     8.2210     7.8530     7.8010    25.0160   -18.5040     2.4250 
  220.8750    48.6610     7.8840     7.4750     7.7680    24.9970   -18.2960     2.4300 
  221.0000    48.3370     7.6720     7.3030     7.1840    24.9940   -18.2370     2.4270 
  221.1250    47.9170     7.5320     7.2400     6.7640    25.0030   -18.2840     2.4230 
  221.2500    47.8180     7.5240     7.2970     6.9150    25.0100   -18.4160     2.4260 
  221.3750    47.3060     7.7280     7.5330     7.3810    25.0050   -18.5920     2.4380 
  221.5000    47.4090     8.1260     7.9450     8.1480    24.9730   -18.7820     2.4570 
  221.6250    50.8120     8.6260     8.4600     9.0950    24.9330   -18.9760     2.4740 
  221.7500    57.8640     9.1150     8.9780     9.8020    24.9160   -19.1640     2.4810 
  221.8750    64.9950     9.4910     9.3910    10.2810    24.9230   -19.3290     2.4750 
  222.0000    70.0430     9.7320     9.6590    10.6770    24.9440   -19.4480     2.4640 
  222.1250    74.3650     9.8720     9.8020    10.7520    24.9670   -19.5150     2.4560 
  222.2500    78.5740     9.9510     9.8580    10.5410    24.9820   -19.5210     2.4490 
  222.3750    80.1340     9.9920     9.8560    10.4540    24.9880   -19.4990     2.4430 
  222.5000    79.3050     9.9850     9.8010    10.5300    24.9880   -19.4670     2.4390 
  222.6250    79.2490     9.9130     9.6860    10.4980    24.9870   -19.4120     2.4350 
  222.7500    80.6940     9.7740     9.5120    10.2900    24.9870   -19.3490     2.4350 
  222.8750    82.3410     9.5920     9.2980     9.8940    24.9900   -19.3110     2.4350 
  223.0000    85.0010     9.4170     9.0850     9.3930    24.9970   -19.3240     2.4330 
  223.1250    89.6320     9.2960     8.9110     8.9650    24.9880   -19.4100     2.4290 
  223.2500    92.9660     9.2450     8.7960     8.7270    24.9250   -19.5790     2.4250 
  223.3750    92.6040     9.2560     8.7410     8.7280    24.8390   -19.7950     2.4210 
  223.5000    91.0850     9.2910     8.7190     8.8770    24.8190   -20.0480     2.4150 
  223.6250    89.9600     9.3060     8.6910     8.9570    24.8750   -20.3720     2.4070 
  223.7500    88.8100     9.2600     8.6170     8.7590    24.9280   -20.7780     2.4000 
  223.8750    88.7590     9.1270     8.4690     8.5770    24.9350   -21.2590     2.3970 
  224.0000    89.7520     8.9500     8.2780     8.6570    24.9170   -21.8160     2.3900 
  224.1250    89.5140     8.8680     8.1530     8.9000    24.8740   -22.4440     2.3760 
  224.2500    87.8240     9.0990     8.2610     9.2120    24.7890   -23.1330     2.3630 
  224.3750    86.5460    10.0350     8.9040     9.7000    24.7220   -23.8910     2.3570 
  224.5000    84.8140    12.0320    10.3730    11.0920    24.7510   -24.6930     2.3500 
  224.6250    80.0010    15.4070    12.9880    14.9020    24.7990   -25.4870     2.3370 
  224.7500    72.9540    20.4510    17.1380    24.8520    24.7540   -26.2320     2.3170 
  224.8750    66.6760    27.3820    23.3070    39.5290    24.6670   -26.8980     2.2990 
  225.0000    61.3340    35.6810    31.2320    48.9130    24.5990   -27.4600     2.2860 
  225.1250    56.6380    44.3330    39.9430    53.0150    24.5140   -27.8980     2.2770 
  225.2500    53.7610    52.3850    48.3140    63.6990    24.3990   -28.1760     2.2760 
  225.3750    54.4360    59.1320    55.3660    79.0970    24.4050   -28.2410     2.2790 
  225.5000    56.0180    64.5530    60.8960    84.1890    24.5600   -28.1110     2.2840 
  225.6250    55.0260    68.7160    64.9580    82.8730    24.7510   -27.8420     2.2870 
  225.7500    52.4430    71.0940    67.1640    85.1810    24.9000   -27.4520     2.2870 
  225.8750    51.5480    70.4620    66.5270    91.0620    24.9990   -26.9470     2.2850 
  226.0000    52.5920    66.6890    63.0190    95.0820    25.0540   -26.3370     2.2830 
  226.1250    53.7950    60.9220    57.6760    91.2160    25.0790   -25.6130     2.2840 
  226.2500    54.6370    54.5520    51.7320    75.0750    25.0790   -24.7740     2.2860 
  226.3750    56.2950    48.6570    46.1890    56.9870    25.0700   -23.8600     2.2850 
  226.5000    59.1770    43.4340    41.2910    51.6560    25.0650   -22.9090     2.2860 
  226.6250    61.1480    38.5150    36.7220    55.3950    25.0610   -21.9230     2.2950 
  226.7500    59.5380    33.5810    32.1490    55.6370    25.0550   -20.9210     2.3200 
  226.8750    54.7670    28.6900    27.5890    47.4600    25.0560   -19.9370     2.3590 
