~V
VERS. 2.00: Ver 2.00
~W
STRT.M 45.0000:
STOP.M 270.0000:
STEP.M 0.1250:
NULL. -999.2500:
UWI. F11186:
~C
DEPT.M :
SP.MV :
GR.API :
RI. :
RML.OHMM :
RXO.OHMM :
DEN.GM/CC :
~A
   45.0000     6.3030    40.7050    42.6930    28.1280     0.1840     2.3640 
   45.1250     6.6610    37.4120    42.6920    28.1280     0.1980     2.5360 
   45.2500     7.0880    33.9590    42.6930    28.1280     0.1580     2.5870 
   45.3750     7.4780    33.8560    42.6930    28.1280     0.1300     2.4390 
   45.5000     7.7470    36.2430    42.6940    28.1280     0.1310     2.2700 
   45.6250     7.8270    38.0100    42.6940    28.1280     0.1290     2.2200 
   45.7500     7.7370    38.3400    42.6940    28.1290     0.1200     2.2260 
   45.8750     7.5240    39.1530    42.6950    28.1290     0.1130     2.2420 
   46.0000     7.2950    40.3870    42.6940    28.1290     0.1130     2.2840 
   46.1250     7.1600    40.2100    42.6960    28.1280     0.1190     2.3250 
   46.2500     7.1990    39.1830    42.6970    28.1280     0.1310     2.3170 
   46.3750     7.4830    39.2280    42.6950    28.1280     0.1360     2.2640 
   46.5000     8.0050    39.8310    42.6950    28.1280     0.1280     2.2210 
   46.6250     8.7540    39.4370    42.6940    28.1280     0.1320     2.2110 
   46.7500     9.6560    39.1380    42.6940    28.1280     0.1620     2.2150 
   46.8750    10.6360    40.5270    42.6940    28.1280     0.1830     2.2090 
   47.0000    11.6100    41.4570    42.6950    28.1280     0.1770     2.2000 
   47.1250    12.5100    40.4560    42.6940    28.1280     0.1830     2.2030 
   47.2500    13.3030    38.5510    42.6920    28.1280     0.2200     2.2070 
   47.3750    13.9790    37.7750    42.6910    28.1280     0.2620     2.1950 
   47.5000    14.5820    38.5900    42.6890    28.1280     0.2780     2.1710 
   47.6250    15.1990    39.8840    42.6890    28.1280     0.2670     2.1630 
   47.7500    15.9420    39.5820    42.6890    28.1280     0.2650     2.1730 
   47.8750    16.9530    37.3340    42.6900    28.1280     0.2910     2.1810 
   48.0000    18.3120    35.3550    42.6910    28.1280     0.3080     2.1830 
   48.1250    20.1210    34.9750    42.6910    28.1280     0.3160     2.1830 
   48.2500    22.3850    35.5260    42.6900    28.1280     0.3450     2.1810 
   48.3750    25.1590    37.0890    42.6890    28.1280     0.3690     2.1710 
   48.5000    28.3910    39.6170    42.6880    28.1280     0.3690     2.1600 
   48.6250    32.0640    41.8490    42.6870    28.1280     0.3910     2.1580 
   48.7500    36.0520    42.3020    42.6870    28.1280     0.4650     2.1690 
   48.8750    40.2400    41.5450    42.6860    28.1280     0.6060     2.1890 
   49.0000    44.4700    41.4470    42.6860    28.1280     0.8640     2.2040 
   49.1250    48.5880    42.5380    42.6880    28.1280     1.0760     2.2160 
   49.2500    52.4560    43.0560    42.6900    28.1280     1.3970     2.2630 
   49.3750    55.8950    41.8360    42.6920    28.1280     1.6520     2.3910 
   49.5000    58.8060    40.7150    42.6920    28.1290     1.2020     2.5830 
   49.6250    61.0550    41.0450    42.6910    28.1290     0.6970     2.7560 
   49.7500    62.6650    42.3560    42.6880    28.1290     0.6140     2.8300 
   49.8750    63.6140    44.6480    42.6860    28.1290     0.6130     2.7720 
   50.0000    64.0220    47.4210    42.6860    28.1290     0.6300     2.6500 
   50.1250    63.9570    49.6020    42.6890    28.1290     0.6430     2.5440 
   50.2500    63.6010    49.6230    42.6900    28.1290     0.6500     2.4780 
   50.3750    63.1350    47.7940    42.6920    28.1290     0.6700     2.4460 
   50.5000    62.7770    46.0380    42.6940    28.1280     0.6970     2.4460 
   50.6250    62.7520    46.0540    42.6900    28.1280     0.7080     2.4760 
   50.7500    63.1740    46.9790    42.6900    28.1280     0.6840     2.4890 
   50.8750    64.0950    47.4890    42.6850    28.1280     0.6600     2.4630 
   51.0000    65.3450    46.8810    42.6850    28.1290     0.6410     2.4260 
   51.1250    66.6710    45.7190    42.6870    28.1290     0.5950     2.4030 
   51.2500    67.7830    44.4950    42.6910    28.1290     0.5510     2.3880 
   51.3750    68.4630    44.1480    42.6930    28.1290     0.5390     2.3680 
   51.5000    68.7240    44.0470    42.6940    28.1290     0.5580     2.3450 
   51.6250    68.7000    43.8420    42.6930    28.1290     0.5910     2.3300 
   51.7500    68.6530    43.9380    42.6900    28.1290     0.6040     2.3290 
   51.8750    68.8200    44.7660    42.6890    28.1290     0.5880     2.3290 
   52.0000    69.2820    44.8170    42.6900    28.1280     0.5690     2.3220 
   52.1250    69.9970    43.4250    42.6910    28.1280     0.5670     2.3130 
   52.2500    70.7650    42.4770    42.6950    28.1300     0.5680     2.3110 
   52.3750    71.3700    43.5360    42.5710    28.1190     0.5540     2.3180 
   52.5000    71.6880    44.5880    36.2180    24.8020     0.5350     2.3290 
   52.6250    71.6740    43.7150    24.3830    16.9890     0.5530     2.3410 
   52.7500    71.4400    42.7200    12.5470     9.1740     0.5960     2.3460 
   52.8750    71.1070    43.5250     1.7100     1.4730     0.6050     2.3550 
   53.0000    70.7810    44.6180     0.0890     0.0240     0.6090     2.3760 
   53.1250    70.4790    44.2280     0.0900     0.0240     0.6420     2.4000 
   53.2500    70.1620    43.6760     0.0890     0.0240     0.6770     2.4230 
   53.3750    69.8140    44.6910     0.0870     0.0120     0.7090     2.4380 
   53.5000    69.4980    46.0080     0.0840     0.0000     0.7310     2.4480 
   53.6250    69.3430    45.7730     0.0830     0.0000     0.7370     2.4610 
   53.7500    69.4200    44.3250     0.0840     0.0000     0.7880     2.4920 
   53.8750    69.7050    44.4510     0.0870     0.0000     0.8860     2.5360 
   54.0000    70.0290    47.1550     0.0920     0.0000     0.9380     2.5610 
   54.1250    70.1460    51.6500     0.0950     0.0000     0.9340     2.5600 
   54.2500    69.8060    54.5940     0.0940     0.0000     0.9160     2.5520 
   54.3750    68.6100    55.2230     0.0850     0.0000     0.8940     2.5490 
   54.5000    66.1800    53.0540     0.0670     0.0000     0.8500     2.5440 
   54.6250    61.8220    49.2910     0.0490     0.0000     0.7840     2.5380 
   54.7500    55.1830    46.2190     0.0390     0.0030     0.7260     2.5510 
   54.8750    45.8390    46.5530     0.0640     0.0260     0.6950     2.5500 
   55.0000    34.2840    51.1980     0.1670     0.0990     1.4790     2.4590 
   55.1250    21.2970    59.3590     0.4660     0.3320     3.8600     2.2840 
   55.2500     8.2770    67.5320     1.1970     1.0460     6.2170     2.1420 
   55.3750    -3.3860    72.7260     2.6620     3.3540     6.9960     2.1010 
   55.5000   -12.9300    74.6670     3.9930     4.9940     6.9940     2.1030 
   55.6250   -19.9530    73.1660     4.9200     5.8730     7.0610     2.0960 
   55.7500   -24.9550    69.6070     5.1770     5.5690     7.2490     2.0890 
   55.8750   -28.3640    66.6750     4.9800     4.3650     7.3250     2.0900 
   56.0000   -30.8150    65.5560     4.9880     4.0210     7.2210     2.0930 
   56.1250   -32.6130    66.4920     5.1160     4.1440     7.1980     2.0940 
   56.2500   -34.0240    69.1960     5.2600     4.3190     7.3770     2.0910 
   56.3750   -35.1560    72.4430     5.4030     4.4860     7.5870     2.0820 
   56.5000   -36.1160    72.3200     5.5260     4.6340     7.5880     2.0760 
   56.6250   -36.9420    68.4640     5.6330     4.7160     7.3700     2.0780 
   56.7500   -37.6640    65.1940     5.7140     4.7720     7.3550     2.0880 
   56.8750   -38.2750    64.7480     5.7470     4.8810     7.6240     2.0970 
   57.0000   -38.7870    66.0230     5.7420     4.9950     7.8110     2.1000 
   57.1250   -39.2110    66.4920     5.6910     5.1150     8.0670     2.0910 
   57.2500   -39.5740    65.5790     5.6370     5.2060     8.2130     2.0760 
   57.3750   -39.8810    64.4560     5.6080     5.2850     7.8650     2.0630 
   57.5000   -40.1350    64.7010     5.6030     5.3720     7.6300     2.0610 
   57.6250   -40.3250    67.1270     5.5880     5.4330     7.7500     2.0650 
   57.7500   -40.4650    68.6160     5.5450     5.5060     7.8570     2.0680 
