~V
VERS. 2.00: Ver 2.00
~W
STRT.M 45.0000:
STOP.M 250.0000:
STEP.M 0.1250:
NULL. -999.2500:
UWI. F11133:
~C
DEPT.M :
SP.MV :
DEN.GM/CC :
GR.API :
RML.OHMM :
RI. :
RXO.OHMM :
CALI.CM :
~A
# ...
  123.7500   -20.1250     2.4830    58.7680     7.9370     7.7550    10.6680    24.4370 
  123.8750   -20.1070     2.5390    54.5670     9.1270     8.8210    12.9110    24.4240 
  124.0000   -20.0730     2.5660    53.1110    10.4980    10.0480    12.9730    24.4380 
  124.1250   -20.0330     2.5760    53.2480    12.1340    11.4790    12.4790    24.4210 
  124.2500   -20.0110     2.5870    53.1980    14.0960    13.1690    14.5730    24.3000 
  124.3750   -20.0130     2.6020    51.7590    16.3360    15.0910    18.7310    24.1260 
  124.5000   -20.0250     2.6080    48.5650    18.7010    17.1110    21.8180    24.0770 
  124.6250   -20.0390     2.6030    44.8010    21.0460    19.0900    23.0830    24.1990 
  124.7500   -20.0480     2.5950    42.3030    23.1600    20.8330    23.0850    24.3650 
  124.8750   -20.0670     2.5880    41.1740    24.8130    22.1570    23.6250    24.4640 
  125.0000   -20.1030     2.5860    40.2310    25.9100    23.0080    25.3230    24.4950 
  125.1250   -20.1520     2.5890    40.3020    26.4710    23.4080    26.4180    24.5000 
  125.2500   -20.2000     2.5890    41.7170    26.6340    23.4430    26.0350    24.5010 
  125.3750   -20.2290     2.5820    42.3170    26.6050    23.2620    26.1090    24.5000 
  125.5000   -20.2310     2.5700    41.7700    26.5490    23.0200    28.3240    24.5010 
  125.6250   -20.2200     2.5580    42.2490    26.4970    22.7820    30.1700    24.5030 
  125.7500   -20.2150     2.5450    44.2400    26.3940    22.5600    28.0960    24.4940 
  125.8750   -20.2190     2.5270    46.7150    26.1500    22.3180    25.1460    24.4670 
  126.0000   -20.2230     2.5080    49.7500    25.7220    22.0090    24.8750    24.4420 
  126.1250   -20.2170     2.4940    52.5700    25.1520    21.6400    27.1600    24.4360 
  126.2500   -20.1960     2.4880    52.3120    24.5720    21.2790    26.3710    24.4440 
  126.3750   -20.1630     2.4900    48.5770    24.1030    20.9960    21.1810    24.4520 
  126.5000   -20.1320     2.4960    44.6800    23.7420    20.7890    18.5640    24.4550 
  126.6250   -20.1040     2.5090    42.2360    23.4090    20.6040    18.0760    24.4650 
  126.7500   -20.0600     2.5240    40.8620    23.0520    20.4000    19.1700    24.4830 
  126.8750   -19.9800     2.5340    40.9110    22.7150    20.1960    19.6320    24.4860 
  127.0000   -19.8830     2.5380    42.3530    22.4880    20.0630    18.4980    24.4670 
  127.1250   -19.7900     2.5420    43.6920    22.4350    20.0570    17.3990    24.4150 
  127.2500   -19.7050     2.5460    43.6830    22.5710    20.2040    17.5430    24.3230 
  127.3750   -19.6150     2.5520    42.8660    22.8360    20.4740    18.6330    24.2300 
  127.5000   -19.5170     2.5570    42.8250    23.1040    20.7730    19.0570    24.2200 
  127.6250   -19.4050     2.5600    44.4880    23.2450    20.9950    19.1610    24.3270 
  127.7500   -19.2820     2.5610    47.1460    23.1160    21.0170    20.1570    24.4700 
  127.8750   -19.1710     2.5600    48.5570    22.6580    20.7670    21.4300    24.5350 
  128.0000   -19.0740     2.5580    47.4820    21.9940    20.3100    22.0120    24.5300 
  128.1250   -18.9770     2.5560    44.0200    21.3000    19.7610    22.1930    24.5040 
  128.2500   -18.8630     2.5570    39.4160    20.7370    19.2420    21.8930    24.5050 
  128.3750   -18.7310     2.5620    36.6690    20.3690    18.8370    20.8430    24.5190 
  128.5000   -18.6050     2.5680    37.8700    20.1740    18.5770    20.1010    24.5020 
  128.6250   -18.4990     2.5720    41.1990    20.1670    18.5080    19.6790    24.4680 
  128.7500   -18.4250     2.5730    43.0740    20.4470    18.7220    19.1510    24.4380 
  128.8750   -18.3850     2.5690    42.8770    21.1240    19.3040    18.7050    24.4010 
  129.0000   -18.3590     2.5650    41.9100    22.1630    20.2230    18.6370    24.3030 
  129.1250   -18.3370     2.5620    40.9260    23.3840    21.3510    19.7110    24.1260 
  129.2500   -18.3290     2.5570    40.9780    24.4410    22.4150    21.8180    23.9780 
  129.3750   -18.3620     2.5440    42.5240    24.9820    23.0880    23.3940    23.9940 
  129.5000   -18.4170     2.5210    44.2680    24.8920    23.2040    23.0150    24.1240 
  129.6250   -18.4660     2.4930    46.1970    24.2820    22.8030    21.7450    24.2490 
  129.7500   -18.5140     2.4660    49.4510    23.4670    22.1280    21.1560    24.2930 
  129.8750   -18.5630     2.4420    52.7870    22.8120    21.5080    20.6110    24.2870 
  130.0000   -18.6070     2.4250    54.0020    22.5320    21.1790    19.5860    24.2980 
  130.1250   -18.6500     2.4230    53.0050    22.6470    21.1970    20.0550    24.2980 
  130.2500   -18.6940     2.4410    51.1090    23.0130    21.4730    22.2960    24.2090 
  130.3750   -18.7290     2.4660    49.0790    23.3970    21.8110    23.5180    24.0590 
  130.5000   -18.7460     2.4790    47.0700    23.6380    22.0450    22.3560    23.9840 
  130.6250   -18.7450     2.4700    45.9930    23.7300    22.1500    20.2840    23.9990 
  130.7500   -18.7300     2.4490    46.7430    23.7680    22.2010    19.3230    24.0790 
  130.8750   -18.7150     2.4310    49.6280    23.8690    22.3060    19.4040    24.2200 
  131.0000   -18.7070     2.4300    53.3920    24.0920    22.5290    20.0800    24.3680 
  131.1250   -18.7000     2.4460    55.7620    24.4250    22.8760    21.0850    24.4400 
  131.2500   -18.6840     2.4680    54.7720    24.7990    23.2830    21.4570    24.4450 
  131.3750   -18.6480     2.4820    50.3960    25.0970    23.6260    21.1980    24.4610 
  131.5000   -18.6030     2.4760    45.4500    25.2050    23.7810    21.3820    24.4580 
  131.6250   -18.5720     2.4570    42.9120    25.0770    23.6900    21.8310    24.3940 
  131.7500   -18.5540     2.4380    44.1360    24.7570    23.3990    22.1310    24.3460 
  131.8750   -18.5360     2.4320    47.1960    24.3830    23.0480    21.9840    24.3910 
  132.0000   -18.5220     2.4380    49.0480    24.1310    22.8060    21.7850    24.4920 
  132.1250   -18.5180     2.4510    49.3770    24.1290    22.7750    22.0200    24.5600 
  132.2500   -18.5190     2.4670    49.8550    24.4260    22.9940    22.5870    24.5340 
  132.3750   -18.5260     2.4820    50.8090    24.9130    23.3880    22.7030    24.4330 
  132.5000   -18.5480     2.4980    50.7650    25.3360    23.7580    22.6010    24.3020 
  132.6250   -18.5740     2.5110    50.3640    25.4750    23.9190    22.8000    24.1550 
  132.7500   -18.5950     2.5150    51.9320    25.2020    23.7350    22.4180    24.0250 
  132.8750   -18.6260     2.5120    54.3380    24.5780    23.2180    20.8620    23.9550 
  133.0000   -18.6640     2.5120    53.9700    23.8150    22.5300    19.9160    23.9580 
  133.1250   -18.7050     2.5190    51.2980    23.0510    21.8010    20.1230    24.0000 
  133.2500   -18.7460     2.5320    49.4490    22.3790    21.1260    21.3610    24.0410 
  133.3750   -18.7790     2.5410    48.2780    21.8400    20.5550    23.3570    24.0600 
  133.5000   -18.8010     2.5370    45.6760    21.4270    20.0820    23.1160    24.0600 
  133.6250   -18.8070     2.5200    42.8950    21.1090    19.6880    20.2570    24.0460 
  133.7500   -18.7940     2.4980    41.8350    20.8460    19.3530    18.2990    24.0290 
  133.8750   -18.7550     2.4780    41.8020    20.6260    19.0770    17.5600    23.9900 
  134.0000   -18.6880     2.4620    42.6440    20.4620    18.8770    17.1120    23.9520 
  134.1250   -18.5860     2.4450    45.5650    20.3570    18.7460    16.4240    23.9620 
  134.2500   -18.4560     2.4270    49.3110    20.2440    18.6220    16.0980    24.0860 
  134.3750   -18.3160     2.4150    50.8930    20.0140    18.4020    16.4570    24.3190 
  134.5000   -18.1830     2.4160    50.0030    19.5890    18.0140    17.1430    24.5290 
  134.6250   -18.0840     2.4310    48.8090    18.9670    17.4510    17.2750    24.5910 
  134.7500   -18.0260     2.4520    48.1940    18.2300    16.7790    16.3550    24.4960 
  134.8750   -17.9780     2.4690    48.1550    17.5290    16.1190    14.8960    24.3540 
