~V
VERS. 2.00: Ver 2.00
~W
STRT.M 58.0000:
STOP.M 208.0000:
STEP.M 0.1250:
NULL. -999.2500:
UWI. F11103:
~C
DEPT.M :
DEN.GM/CC :
SP.MV :
GR.API :
RML.OHMM :
RI. :
RXO.OHMM :
CALI.CM :
~A
# ...
  181.7500     2.4210   -31.1800    85.7490    13.5380    10.7300    14.8610    22.7820 
  181.8750     2.4120   -30.5550    91.9100    11.9140     9.5900    13.1100    22.6780 
  182.0000     2.3970   -29.6880    94.3360    10.3350     8.3720    10.5920    22.6640 
  182.1250     2.3790   -28.6920    89.2660     8.3630     7.3310     8.6710    22.7210 
  182.2500     2.3600   -27.6000    79.6470     6.8730     6.5680     7.3580    22.7600 
  182.3750     2.3410   -26.4560    69.2570     6.4940     6.1030     6.5390    22.7940 
  182.5000     2.3260   -25.3500    61.8480     6.3650     5.9100     6.3710    22.8640 
  182.6250     2.3150   -24.2940    56.7000     6.3190     5.8390     6.5110    22.8660 
  182.7500     2.3090   -23.3470    54.4100     6.2560     5.7950     6.5640    22.8680 
  182.8750     2.3090   -22.5030    57.8990     6.1290     5.7190     6.4800    22.7730 
  183.0000     2.3150   -21.8580    67.3940     5.9560     5.6020     6.0830    22.6240 
  183.1250     2.3260   -21.3420    77.3380     5.8040     5.4910     5.6570    22.8120 
  183.2500     2.3410   -20.9710    83.4240     5.7250     5.4280     5.4300    23.1180 
  183.3750     2.3560   -20.6990    85.1500     5.7370     5.4390     5.5990    23.4050 
  183.5000     2.3720   -20.5060    83.8070     5.8270     5.5290     5.9790    23.3150 
  183.6250     2.3850   -20.3430    81.2940     5.9310     5.6380     6.2830    23.2840 
  183.7500     2.3940   -20.1990    80.3000     6.0000     5.7100     6.4240    23.3440 
  183.8750     2.3970   -20.0720    81.1920     5.9960     5.7000     6.3140    23.4210 
  184.0000     2.3930   -19.9400    80.3990     5.9000     5.5840     6.0020    23.4890 
  184.1250     2.3840   -19.8140    74.9550     5.7540     5.4190     5.6030    23.4630 
  184.2500     2.3720   -19.7020    67.9080     5.6020     5.2570     5.3080    23.4280 
  184.3750     2.3610   -19.6050    64.7290     5.4890     5.1420     5.1700    23.4210 
  184.5000     2.3520   -19.5310    67.7060     5.4690     5.1090     5.1230    23.4050 
  184.6250     2.3460   -19.4410    71.7580     5.5470     5.1490     5.0810    23.3120 
  184.7500     2.3420   -19.3380    75.0430     5.7190     5.2540     5.0750    23.0740 
  184.8750     2.3420   -19.2220    78.0080     5.9620     5.4090     5.0540    22.9460 
  185.0000     2.3440   -19.0950    80.8990     6.2420     5.6040     5.0670    22.9030 
  185.1250     2.3480   -18.9490    82.0380     6.5040     5.8180     5.5040    22.9800 
  185.2500     2.3530   -18.7760    83.0910     6.7100     6.0310     6.4270    23.2570 
  185.3750     2.3580   -18.5780    85.0280     6.8340     6.2110     7.5090    23.4520 
  185.5000     2.3630   -18.3330    84.1780     6.8470     6.3040     8.1910    23.5660 
  185.6250     2.3650   -18.0970    81.0180     6.7720     6.2920     8.3590    23.5830 
  185.7500     2.3660   -17.8700    77.9220     6.6280     6.1800     7.4130    23.5860 
  185.8750     2.3650   -17.6580    77.4220     6.4460     5.9990     6.5370    23.5820 
  186.0000     2.3630   -17.4830    78.5220     6.2580     5.7990     6.2010    23.5410 
  186.1250     2.3590   -17.3630    78.3840     6.1030     5.6290     6.1140    23.4090 
  186.2500     2.3530   -17.2760    78.1610     6.0130     5.5170     6.0600    23.2760 
  186.3750     2.3440   -17.2030    79.3640     6.0140     5.4840     6.0330    23.2240 
  186.5000     2.3310   -17.1760    81.4890     6.1350     5.5650     6.0020    23.3370 
  186.6250     2.3160   -17.1730    81.9580     6.3500     5.7520     5.9950    23.5310 
  186.7500     2.3030   -17.1710    80.7570     6.6380     6.0370     5.9570    23.6780 
  186.8750     2.2940   -17.1620    80.0910     6.9640     6.3830     6.1170    23.7520 
  187.0000     2.2940   -17.1080    77.9550     7.2540     6.7140     6.5020    23.7970 
  187.1250     2.2990   -17.0170    74.2650     7.4370     6.9400     6.6820    23.7440 
  187.2500     2.3090   -16.8990    72.5020     7.4710     7.0100     6.5010    23.6780 
  187.3750     2.3180   -16.7680    74.4750     7.3550     6.9190     6.1060    23.6680 
  187.5000     2.3230   -16.6270    76.6760     7.1290     6.7070     6.0590    23.6990 
  187.6250     2.3230   -16.4790    76.1360     6.8980     6.4750     6.1490    23.8130 
  187.7500     2.3200   -16.3450    72.8520     6.7440     6.2920     6.0320    23.9260 
  187.8750     2.3160   -16.2270    68.7970     6.7490     6.2270     5.9290    24.0280 
  188.0000     2.3170   -16.1300    66.8760     7.0240     6.3840     6.2870    24.0260 
  188.1250     2.3230   -16.0600    68.9170     7.5750     6.7870     6.8320    23.9660 
  188.2500     2.3350   -16.0130    73.0890     8.3810     7.4510     7.7130    23.9400 
  188.3750     2.3520   -15.9790    76.5870     9.3470     8.3230     9.3500    23.9830 
  188.5000     2.3690   -15.9180    79.5650    10.2820     9.2510    11.7510    23.8670 
  188.6250     2.3840   -15.8490    81.8940    10.9820    10.0160    14.1450    23.8370 
  188.7500     2.3940   -15.7700    81.3810    11.3400    10.4740    15.2500    23.8870 
  188.8750     2.3970   -15.6760    79.4480    11.3640    10.5910    13.5360    23.9810 
  189.0000     2.3940   -15.6000    79.9930    11.1450    10.4240    11.8530    24.0630 
  189.1250     2.3890   -15.5400    81.3350    10.8470    10.1460    11.2770    24.0370 
  189.2500     2.3830   -15.4750    80.9220    10.5230     9.8270     9.9880    24.0230 
  189.3750     2.3810   -15.4400    78.4260    10.1760     9.4930     8.5810    23.9070 
  189.5000     2.3820   -15.4380    74.9160     9.8050     9.1560     8.3890    24.1200 
  189.6250     2.3850   -15.4380    72.5330     9.4570     8.8480     8.4640    24.1720 
  189.7500     2.3890   -15.4480    73.9320     9.2020     8.6220     8.3790    24.1090 
  189.8750     2.3930   -15.4490    77.4150     9.1080     8.5330     8.1020    23.8610 
  190.0000     2.3960   -15.4460    77.3940     9.2440     8.6450     7.4260    23.7640 
  190.1250     2.3970   -15.4070    75.5830     9.5420     8.9120     6.5410    23.6250 
  190.2500     2.3970   -15.3770    76.4620     9.9260     9.2800     6.6060    23.6080 
  190.3750     2.3940   -15.3230    80.5450    10.2940     9.6720     7.7190    23.6880 
  190.5000     2.3880   -15.2550    83.3120    10.5120     9.9630     8.6290    23.9140 
  190.6250     2.3800   -15.2230    84.0070    10.5350    10.0800     8.4290    24.0250 
  190.7500     2.3710   -15.1730    83.7930    10.3740    10.0070     7.7790    23.9970 
  190.8750     2.3600   -15.1360    82.5620    10.0940     9.7870     7.2210    23.9550 
  191.0000     2.3480   -15.0690    79.6420     9.7940     9.4970     7.4000    24.2290 
  191.1250     2.3350   -14.9810    77.6850     9.5610     9.2400     7.8330    24.2940 
  191.2500     2.3210   -14.8750    78.3550     9.4240     9.0670     8.6660    24.3780 
  191.3750     2.3090   -14.7780    79.1790     9.3700     8.9920     9.7630    24.2370 
  191.5000     2.3020   -14.6410    75.8500     9.3450     8.9860    10.5570    23.8770 
  191.6250     2.3010   -14.4520    72.5910     9.2730     8.9660     9.1470    23.4540 
  191.7500     2.3040   -14.2780    72.0050     9.1140     8.8710     8.1980    23.7140 
  191.8750     2.3090   -14.1150    72.4900     8.8970     8.6960     7.8530    24.2690 
  192.0000     2.3120   -13.9700    71.7630     8.7290     8.5150     7.9090    24.4310 
  192.1250     2.3130   -13.8900    70.4660     8.6860     8.4190     8.5290    24.5510 
  192.2500     2.3120   -13.8370    69.3250     8.7850     8.4420     8.7270    24.5900 
  192.3750     2.3100   -13.7750    68.8210     8.9850     8.5720     8.6990    24.5200 
  192.5000     2.3120   -13.7420    69.1830     9.1900     8.7570     8.8460    24.2380 
  192.6250     2.3170   -13.7520    68.6680     9.3150     8.9220     9.1310    24.0790 
  192.7500     2.3240   -13.7710    67.1240     9.3350     9.0250     9.0470    24.2410 
  192.8750     2.3330   -13.7770    67.3720     9.2620     9.0440     8.6680    24.5640 
