~V
VERS. 2.00: Ver 2.00
~W
STRT.M 56.0000:
STOP.M 252.0000:
STEP.M 0.1250:
NULL. -999.2500:
UWI. F11142:
~C
DEPT.M :
SP.MV :
DEN.GM/CC :
GR.API :
RML.OHMM :
RI. :
RXO.OHMM :
CALI.CM :
~A
# ...
  236.0000    -6.4320     2.4580    67.1130     9.6150     8.8020     9.7200    24.7430 
  236.1250    -6.4850     2.4450    67.5330     9.6710     8.8170     9.5470    24.6880 
  236.2500    -6.5290     2.4300    66.0800     9.7760     8.8650     9.3850    24.5950 
  236.3750    -6.5190     2.4120    66.1380     9.9550     8.9690     9.5500    24.5730 
  236.5000    -6.4210     2.4030    68.4620    10.2430     9.1700    10.0620    24.5570 
  236.6250    -6.2380     2.4080    68.6660    10.6260     9.4650    11.1380    24.5810 
  236.7500    -5.9910     2.4200    66.3090    11.0840     9.8440    12.3860    24.5650 
  236.8750    -5.7130     2.4330    65.1260    11.5740    10.2750    13.5610    24.4570 
  237.0000    -5.4170     2.4390    68.1150    12.0170    10.6950    14.8710    24.2550 
  237.1250    -5.1240     2.4330    71.4000    12.3560    11.0400    15.9900    24.1130 
  237.2500    -4.8360     2.4160    72.5160    12.5670    11.2710    16.8130    24.0500 
  237.3750    -4.5720     2.4020    72.6170    12.6740    11.3910    17.0530    24.0900 
  237.5000    -4.3550     2.4020    73.2420    12.7480    11.4400    14.3290    24.0740 
  237.6250    -4.2080     2.4140    74.2960    12.8800    11.5050    12.7680    24.0850 
  237.7500    -4.1490     2.4320    74.7620    13.1210    11.6460    12.4300    24.0940 
  237.8750    -4.2180     2.4550    74.0730    13.4730    11.8900    13.2770    24.1110 
  238.0000    -4.3610     2.4760    71.1730    13.9000    12.2330    14.8800    24.1250 
  238.1250    -4.4310     2.4940    67.5830    14.3160    12.6020    16.5240    24.1250 
  238.2500    -4.4100     2.5110    65.5930    14.6570    12.9300    17.7850    24.1270 
  238.3750    -4.3520     2.5220    65.6120    14.8750    13.1530    18.1050    24.1670 
  238.5000    -4.3380     2.5250    65.8530    14.9240    13.2080    17.6990    24.1110 
  238.6250    -4.3700     2.5270    65.4070    14.8390    13.1290    17.0690    24.0220 
  238.7500    -4.3700     2.5380    64.9340    14.6570    12.9610    17.1460    23.9890 
  238.8750    -4.2540     2.5530    65.4130    14.4300    12.7610    17.5560    23.8420 
  239.0000    -4.1520     2.5520    67.4260    14.2090    12.5770    17.1350    23.5180 
  239.1250    -4.2110     2.5210    69.8160    14.0090    12.4180    15.9640    23.2850 
  239.2500    -4.3620     2.4730    70.2060    13.8130    12.2620    14.6370    23.1060 
  239.3750    -4.5040     2.4270    68.2090    13.5890    12.0820    13.7910    22.9310 
  239.5000    -4.6340     2.4000    66.9900    13.3110    11.8540    13.0800    22.9050 
  239.6250    -4.7550     2.3900    68.3630    13.0100    11.6020    12.2870    23.0340 
  239.7500    -4.8430     2.3940    70.1210    12.7350    11.3610    11.3380    23.2750 
  239.8750    -4.9130     2.4100    70.3180    12.5320    11.1720    10.3870    23.5250 
  240.0000    -4.9620     2.4340    70.4060    12.4320    11.0710     9.8410    23.7450 
  240.1250    -4.9800     2.4550    71.4460    12.3900    11.0300     9.5990    23.9640 
  240.2500    -4.9710     2.4670    71.4610    12.3490    11.0040     9.8290    24.1690 
  240.3750    -4.9620     2.4700    70.3800    12.2450    10.9390    10.2690    24.2660 
  240.5000    -4.9220     2.4670    69.6120    12.0090    10.7700    10.5000    24.2390 
  240.6250    -4.8800     2.4680    68.1630    11.6540    10.5020    10.5580    24.2260 
  240.7500    -4.8230     2.4770    64.2730    11.2120    10.1630    10.4310    24.2300 
  240.8750    -4.7180     2.4900    60.7970    10.7440     9.8040    10.0170    24.2170 
  241.0000    -4.6220     2.5010    62.8740    10.3360     9.4910     9.7260    24.2500 
  241.1250    -4.6050     2.5020    67.4090    10.0460     9.2600     9.3580    24.2660 
  241.2500    -4.6800     2.4940    69.2710     9.8980     9.1230     9.0430    24.2920 
  241.3750    -4.8220     2.4770    67.7280     9.8830     9.0740     8.8360    24.2980 
  241.5000    -5.0400     2.4630    66.2820     9.9740     9.1040     8.8310    24.2700 
  241.6250    -5.2730     2.4560    66.3780    10.1050     9.1800     9.1150    24.2160 
  241.7500    -5.4840     2.4570    67.4960    10.2410     9.2810     9.6230    24.1910 
  241.8750    -5.7010     2.4630    67.6360    10.3650     9.3900    10.1650    24.1560 
  242.0000    -5.8750     2.4720    66.3370    10.4690     9.4910    10.4580    24.1240 
  242.1250    -5.9690     2.4850    65.4570    10.5590     9.5740    10.4290    24.1130 
  242.2500    -6.0640     2.4980    65.4570    10.6390     9.6360    10.0030    24.1460 
  242.3750    -6.1710     2.5080    65.4570    10.7170     9.6840     9.6600    24.1960 
  242.5000    -6.2580     2.5130    65.4570    10.8040     9.7280     9.9750    24.2270 
  242.6250    -6.3200     2.5140    65.4570    10.9040     9.7800    10.7450    24.2810 
  242.7500    -6.4150     2.5110    65.4570    11.0170     9.8490    11.5870    24.3330 
  242.8750    -6.5610     2.5050    65.4570    11.1430     9.9380    12.2940    24.3470 
  243.0000    -6.7340     2.4960    65.4570    11.2970    10.0580    12.7760    24.3390 
  243.1250    -6.9000     2.4880    65.4570    11.4880    10.2120    13.4360    24.3530 
  243.2500    -6.9520     2.4870    65.4570    11.7310    10.4130    14.1720    24.3610 
  243.3750    -6.8660     2.4950    65.4570    12.0300    10.6690    14.7070    24.3820 
  243.5000    -6.7610     2.5080    65.4570    12.3790    10.9840    14.8150    24.4190 
  243.6250    -6.7260     2.5200    65.4570    12.7280    11.3230    14.5570    24.4310 
  243.7500    -6.7690     2.5300    65.4570    13.0250    11.6380    14.6310    24.4230 
  243.8750    -6.7990     2.5360    65.4570    13.2080    11.8720    14.7220    24.4100 
  244.0000    -6.7410     2.5360    65.4570    13.2030    11.9510    14.5360    24.3810 
  244.1250    -6.6310     2.5320    65.4570    13.0420    11.8810    14.1890    24.3360 
  244.2500    -6.5900     2.5270    65.4570    12.7810    11.6930    13.7500    24.3230 
  244.3750    -6.7630     2.5240    65.4570    12.5070    11.4550    13.3520    24.3170 
  244.5000    -7.0040     2.5200    65.4570    12.3360    11.2600    13.4130    24.3320 
  244.6250    -7.0890     2.5150    65.4570    12.3090    11.1720    14.1180    24.3270 
  244.7500    -7.0100     2.5110    65.4570    12.4270    11.2160    15.5940    24.3250 
  244.8750    -6.7020     2.5070    65.4570    12.6490    11.3830    17.2960    24.3250 
  245.0000    -6.2670     2.4980    65.4570    12.9090    11.6410    18.0680    24.3460 
  245.1250    -5.8840     2.4760    65.4570    13.1380    11.9140    18.4820    24.4250 
  245.2500    -5.5150     2.4440    65.4570    13.3030    12.1550    20.5230    24.4900 
  245.3750    -5.0600     2.4090    65.4570    13.4020    12.3340    23.6110    24.4930 
  245.5000    -4.5730     2.3810    65.4570    13.4490    12.4370    26.7050    24.4980 
  245.6250    -4.1380     2.3700    65.4570    13.4780    12.4920    27.3290    24.5600 
  245.7500    -3.8130     2.3800    65.4570    13.5020    12.5180    22.2610    24.6070 
  245.8750    -3.7600     2.4030    65.4570    13.5250    12.5280    15.9000    24.5990 
  246.0000    -3.8590     2.4240    65.4570    13.5410    12.5290    13.2160    24.5070 
  246.1250    -3.9670     2.4340    65.4570    13.5470    12.5290    12.6190    24.4570 
  246.2500    -4.0710     2.4330    65.4570    13.5400    12.5290    12.8560    24.4730 
  246.3750    -4.1020     2.4180    65.4570    13.5220    12.5290    13.1230    24.4660 
  246.5000    -4.1350     2.3960    65.4570    13.5000    12.5270    13.2000    24.3740 
  246.6250    -4.2880     2.3880    65.4570    13.4860    12.5240    13.0810    24.3000 
  246.7500    -4.3670     2.4060    65.4570    13.4880    12.5200    12.7010    24.2410 
  246.8750    -4.2910     2.4390    65.4570    13.5060    12.5180    11.8810    24.1450 
  247.0000    -4.2530     2.4650    65.4570    13.5260    12.5190    10.8460    24.0600 
  247.1250    -4.2360     2.4770    65.4570    13.5360    12.5230    10.5000    24.1150 
