~V
VERS. 2.00: Ver 2.00
~W
STRT.M 58.0000:
STOP.M 206.0000:
STEP.M 0.1250:
NULL. -999.2500:
UWI. F11128:
~C
DEPT.M :
GR.API :
RML.OHMM :
RI. :
RXO.OHMM :
CALI.CM :
SP.MV :
DEN.GM/CC :
~A
# ...
  159.2500    82.3750     9.5370     9.3090    10.6820    23.8030    -4.5890     2.3230 
  159.3750    85.5420     9.6720     9.0970     8.5330    23.8160    -4.6150     2.3350 
  159.5000    85.1140    10.7270     9.5270     9.0190    23.8570    -4.6330     2.3390 
  159.6250    82.7820    12.5170    10.5480    11.1760    23.9110    -4.5720     2.3330 
  159.7500    80.2060    14.4780    12.0330    14.0620    23.9720    -4.4380     2.3170 
  159.8750    77.7250    16.1500    13.6990    16.7090    24.0240    -4.3090     2.2980 
  160.0000    76.7270    17.2340    15.0350    17.7950    24.0630    -4.2830     2.2810 
  160.1250    77.5500    17.4970    15.6650    17.6110    24.0940    -4.3120     2.2700 
  160.2500    80.4120    16.9630    15.4580    16.7720    24.1260    -4.3510     2.2670 
  160.3750    84.6810    15.9280    14.5880    15.5450    24.1600    -4.4070     2.2710 
  160.5000    87.4810    14.9450    13.4760    14.0160    24.1500    -4.5790     2.2830 
  160.6250    86.7590    14.6480    12.6900    12.7710    24.0890    -4.9810     2.2970 
  160.7500    82.9370    15.6870    12.7500    12.6900    24.0350    -5.6290     2.3090 
  160.8750    79.5480    18.8760    14.3490    15.6640    23.9920    -6.4330     2.3180 
  161.0000    79.1440    26.0400    19.2120    28.4060    23.9750    -7.2920     2.3160 
  161.1250    78.2590    38.0970    28.6340    53.5730    23.9950    -8.1850     2.3000 
  161.2500    75.2710    55.9310    43.9560    89.6250    24.0720    -9.1330     2.2700 
  161.3750    70.8190    78.9220    65.0930   130.0220    24.1900   -10.1320     2.2360 
  161.5000    68.1280   103.6960    89.3540   155.7930    24.2640   -11.1190     2.2160 
  161.6250    68.5940   124.0030   110.3890   152.9020    24.3050   -12.0180     2.2120 
  161.7500    69.4970   134.4630   122.7140   144.3660    24.3330   -12.7890     2.2150 
  161.8750    69.6410   133.4700   124.3650   137.2460    24.3570   -13.4280     2.2180 
  162.0000    69.5420   125.3750   118.3610   129.2200    24.3810   -13.9390     2.2170 
  162.1250    69.2590   117.7030   111.4950   120.2150    24.3950   -14.3650     2.2130 
  162.2500    68.7960   112.8490   106.5130   111.4900    24.3990   -14.7130     2.2090 
  162.3750    68.6050   111.1540   104.3290   106.4280    24.3750   -14.9660     2.2110 
  162.5000    68.9770   112.2950   105.1590   111.0480    24.3180   -15.1320     2.2190 
  162.6250    68.7810   114.3420   107.3740   120.6360    24.2920   -15.2500     2.2280 
  162.7500    67.8430   115.5940   109.3670   126.9980    24.2890   -15.3440     2.2390 
  162.8750    66.5910   114.6000   109.6000   129.2280    24.2940   -15.4300     2.2520 
  163.0000    65.0930   110.3340   106.7510   124.1360    24.2920   -15.4830     2.2660 
  163.1250    64.7060   104.1490   101.7120   108.8960    24.2900   -15.5670     2.2770 
  163.2500    65.8650    97.7120    95.8690    92.1290    24.2890   -15.7380     2.2770 
  163.3750    67.8010    92.6760    90.8450    82.0140    24.2910   -15.9610     2.2670 
  163.5000    68.5690    90.5660    88.3220    79.7910    24.2870   -16.2480     2.2540 
  163.6250    69.5590    91.4260    88.4630    80.1490    24.2580   -16.5990     2.2420 
  163.7500    71.6430    95.0670    91.1270    84.0140    24.1790   -17.0050     2.2310 
  163.8750    72.7720   100.9840    95.7930    92.7250    24.0870   -17.4990     2.2250 
  164.0000    70.3820   108.2230   101.6860   103.7440    23.9880   -18.0730     2.2250 
  164.1250    66.8100   115.1520   107.4700   115.0590    23.9010   -18.6250     2.2260 
  164.2500    66.3590   119.4650   112.1550   120.1040    23.8120   -19.1130     2.2260 
  164.3750    68.6000   121.6780   115.0060   116.8540    23.6930   -19.6110     2.2230 
  164.5000    69.8080   121.1930   115.3690   113.6460    23.5880   -20.1070     2.2160 
  164.6250    69.8930   118.7710   113.8490   104.7420    23.4960   -20.5630     2.2090 
  164.7500    70.2930   115.0230   110.9570    95.8200    23.3940   -20.9830     2.2090 
  164.8750    70.8190   110.5570   107.2270    90.9840    23.3700   -21.3260     2.2180 
  165.0000    71.4620   105.9010   103.1100    90.4510    23.6220   -21.5960     2.2360 
  165.1250    72.4890   101.4730    99.0380    88.0540    24.0830   -21.8290     2.2580 
  165.2500    72.5690    97.4400    95.2050    84.0980    24.4160   -21.9760     2.2790 
  165.3750    70.9630    93.8100    91.6500    80.0280    24.5300   -21.9970     2.2970 
  165.5000    69.2120    90.5830    88.3530    77.0840    24.5820   -21.9180     2.3120 
  165.6250    67.9600    87.7620    85.2970    75.9360    24.6900   -21.7710     2.3300 
  165.7500    65.5540    85.6290    82.7110    75.2810    24.8370   -21.5380     2.3460 
  165.8750    63.0460    84.7270    81.0820    74.2920    24.9990   -21.2160     2.3580 
  166.0000    64.9580    86.3280    81.5970    76.5320    25.2060   -20.8800     2.3600 
  166.1250    68.9810    91.1550    85.0390    83.8100    25.4830   -20.5840     2.3440 
  166.2500    70.5550   100.1040    92.3680    96.4930    25.7010   -20.4580     2.3080 
  166.3750    69.4430   113.7450   104.2420   116.6720    25.7990   -20.4230     2.2640 
  166.5000    68.4970   132.4450   121.1280   143.6160    25.8080   -20.2850     2.2370 
  166.6250    67.7950   153.5370   140.4990   173.9080    25.7450   -20.0780     2.2280 
  166.7500    66.5870   173.7970   159.3310   203.1930    25.6500   -19.8890     2.2290 
  166.8750    64.3420   189.2590   173.9210   223.7520    25.5560   -19.7760     2.2310 
  167.0000    62.0360   194.9620   179.6230   241.5560    25.5430   -19.6690     2.2320 
  167.1250    60.9990   191.8910   177.0340   231.4840    25.5580   -19.4860     2.2380 
  167.2500    61.9320   183.2110   168.6170   197.1770    25.5950   -19.1470     2.2490 
  167.3750    63.3520   173.8670   158.6730   160.8810    25.6480   -18.7620     2.2640 
  167.5000    62.5250   169.6200   152.7620   136.4360    25.7440   -18.5290     2.2770 
  167.6250    61.0930   172.5990   153.6850   127.1600    25.8300   -18.4330     2.2840 
  167.7500    60.3760   183.0440   162.3530   139.7570    25.9270   -18.4010     2.2780 
  167.8750    60.5900   198.7880   177.4240   177.2470    26.0580   -18.3840     2.2580 
  168.0000    60.7820   213.8140   194.2160   239.9950    26.1650   -18.3720     2.2290 
  168.1250    59.5770   220.1730   204.9660   293.7180    26.2050   -18.3810     2.2060 
  168.2500    57.7550   212.5360   203.2540   310.0300    26.2030   -18.4080     2.1930 
  168.3750    56.8550   188.9450   186.0860   277.1290    26.1680   -18.4390     2.1900 
  168.5000    57.3760   155.2480   155.6080   211.5690    26.0550   -18.4400     2.1950 
  168.6250    58.9630   123.1360   122.7740   146.5740    25.8430   -18.4020     2.2110 
  168.7500    61.9320    95.4440    94.1030    94.1590    25.5890   -18.3180     2.2420 
  168.8750    65.2690    73.2510    72.1010    56.8240    25.3850   -18.2070     2.2850 
  169.0000    67.4240    58.3790    57.1630    39.0360    25.2780   -18.0910     2.3300 
  169.1250    69.8040    47.8800    46.6570    32.1380    25.2570   -18.0240     2.3680 
  169.2500    73.0590    40.5270    39.3600    28.4610    25.2770   -18.0480     2.3930 
  169.3750    76.1750    35.4880    34.4140    24.8800    25.3050   -18.1340     2.4070 
  169.5000    77.2770    32.4320    31.4710    21.5400    25.2140   -18.0820     2.4120 
  169.6250    77.0040    30.6440    29.8140    20.2340    24.9960   -17.9110     2.4140 
  169.7500    76.0630    29.8120    29.1400    20.6550    24.8590   -17.7900     2.4100 
  169.8750    75.7940    29.6380    29.1540    22.5440    24.9800   -17.7490     2.3980 
  170.0000    77.5530    29.8660    29.5840    24.8300    25.1360   -17.7690     2.3820 
  170.1250    79.9880    30.2290    30.1090    26.6310    25.1660   -17.7920     2.3680 
  170.2500    81.8180    30.6710    30.6270    27.8020    25.0930   -17.7370     2.3570 
  170.3750    82.6740    31.1990    31.1380    27.4250    24.9290   -17.6390     2.3480 
