~V
VERS. 2.00: Ver 2.00
~W
STRT.M 59.0000:
STOP.M 247.0000:
STEP.M 0.1250:
NULL. -999.2500:
UWI. F11130:
~C
DEPT.M :
DEN.GM/CC :
SP.MV :
GR.API :
RML.OHMM :
RI. :
RXO.OHMM :
CALI.CM :
~A
# ...
  227.7500     2.3820     2.9260    71.6390     9.9230     8.8440     9.6380    24.4710 
  227.8750     2.3510     3.8490    71.6750     9.6380     8.5700     7.4990    24.5970 
  228.0000     2.3310     4.7880    72.7710     9.3080     8.2530     6.2050    24.7300 
  228.1250     2.3250     5.7180    72.9760     8.9850     7.9470     5.4860    24.8230 
  228.2500     2.3250     6.5810    70.5450     8.7060     7.6870     5.1240    24.8600 
  228.3750     2.3270     7.3730    67.3590     8.4850     7.4870     4.9330    24.8460 
  228.5000     2.3310     8.0320    65.6700     8.3250     7.3430     4.9450    24.7780 
  228.6250     2.3370     8.5650    65.5560     8.2220     7.2520     4.9580    24.6050 
  228.7500     2.3480     9.0630    65.7120     8.1540     7.1930     5.1220    24.4810 
  228.8750     2.3610     9.4660    67.5930     8.1120     7.1550     5.3160    24.5120 
  229.0000     2.3760     9.7320    71.3570     8.0940     7.1380     5.4060    24.6550 
  229.1250     2.3870     9.8350    71.8810     8.1040     7.1460     5.4820    24.7450 
  229.2500     2.3910     9.8720    69.0370     8.1400     7.1790     5.9980    24.7740 
  229.3750     2.3860     9.8460    66.2460     8.2010     7.2370     7.0080    24.7510 
  229.5000     2.3730     9.7510    63.8070     8.2750     7.3110     8.5210    24.6650 
  229.6250     2.3580     9.5610    61.3720     8.3380     7.3770    10.0950    24.4610 
  229.7500     2.3470     9.3100    60.1450     8.3690     7.4100    11.4490    24.3780 
  229.8750     2.3430     9.0450    61.1670     8.3570     7.3970    11.7140    24.4620 
  230.0000     2.3450     8.7990    63.2590     8.3080     7.3430    10.5590    24.5100 
  230.1250     2.3500     8.5870    63.8300     8.2460     7.2770     9.9170    24.4840 
  230.2500     2.3560     8.3640    62.7310     8.2050     7.2350     9.4140    24.4850 
  230.3750     2.3630     8.1450    62.1980     8.2000     7.2300     9.1790    24.5310 
  230.5000     2.3720     7.9540    65.3290     8.2340     7.2640     8.9160    24.5590 
  230.6250     2.3850     7.8030    71.0620     8.3080     7.3340     9.1180    24.5110 
  230.7500     2.3970     7.6680    75.1200     8.4060     7.4270    10.0350    24.4400 
  230.8750     2.4070     7.5380    77.1820     8.5140     7.5310    11.5540    24.4050 
  231.0000     2.4130     7.3820    78.4070     8.6160     7.6300    12.6640    24.4260 
  231.1250     2.4150     7.2000    78.5380     8.6820     7.6980    13.2640    24.3810 
  231.2500     2.4100     7.0170    78.7390     8.6930     7.7120    12.0320    24.3470 
  231.3750     2.3950     6.7630    79.7590     8.6390     7.6600    10.3450    24.5070 
  231.5000     2.3710     6.5000    81.5230     8.5370     7.5520    11.0890    24.7270 
  231.6250     2.3440     6.3680    81.6300     8.4320     7.4390    13.6610    24.8490 
  231.7500     2.3330     6.2420    80.1550     8.3790     7.3800    13.1000    24.7290 
  231.8750     2.3440     6.0740    79.3980     8.4040     7.4060     9.5160    24.6050 
  232.0000     2.3750     5.9150    79.8760     8.5020     7.5100     7.4750    24.5200 
  232.1250     2.4060     5.8060    81.3040     8.6270     7.6440     9.2680    24.4660 
  232.2500     2.4220     5.6710    81.9770     8.7120     7.7360    10.5390    24.4400 
  232.3750     2.4240     5.5740    80.6250     8.7150     7.7420    11.1580    24.3170 
  232.5000     2.4220     5.5660    77.6480     8.6250     7.6510    12.5750    24.1400 
  232.6250     2.4270     5.4700    75.5610     8.4630     7.4840    11.5300    24.0320 
  232.7500     2.4380     5.3400    75.4750     8.2980     7.3150     9.8360    24.0190 
  232.8750     2.4480     5.2620    75.3090     8.1810     7.1990     8.1750    24.1420 
  233.0000     2.4570     5.2100    75.2690     8.1330     7.1640     7.7520    24.3630 
  233.1250     2.4700     5.1540    76.0530     8.1480     7.1910     8.1900    24.5250 
  233.2500     2.4890     5.1270    74.0810     8.1720     7.2240     8.2230    24.5330 
  233.3750     2.5090     5.1240    69.7790     8.1740     7.2300     7.8630    24.4920 
  233.5000     2.5180     5.1210    68.1590     8.1390     7.1940     8.0130    24.4900 
  233.6250     2.5060     5.1870    71.0090     8.0700     7.1250     8.9790    24.3730 
  233.7500     2.4850     5.3240    73.7620     7.9950     7.0490     9.1440    24.1140 
  233.8750     2.4700     5.4930    75.2350     7.9340     6.9880     8.2950    24.0100 
  234.0000     2.4730     5.6920    74.9760     7.9010     6.9570     7.4730    24.2500 
  234.1250     2.4950     5.8950    72.8680     7.9010     6.9620     7.1970    24.5250 
  234.2500     2.5180     6.1040    69.7590     7.9130     6.9820     7.8300    24.6100 
  234.3750     2.5280     6.3370    67.8540     7.9150     6.9890     8.8300    24.6360 
  234.5000     2.5190     6.5670    67.1070     7.8940     6.9660     8.9780    24.6440 
  234.6250     2.4900     6.7190    67.1930     7.8540     6.9240     8.9840    24.6200 
  234.7500     2.4560     6.7190    68.5340     7.8200     6.8860     8.8230    24.6050 
  234.8750     2.4290     6.6340    69.4130     7.8060     6.8710     8.8180    24.5620 
  235.0000     2.4140     6.5540    69.6840     7.8200     6.8860     8.9800    24.5010 
  235.1250     2.4090     6.5080    69.5460     7.8550     6.9250     8.9540    24.3350 
  235.2500     2.4080     6.5570    69.0600     7.8870     6.9620     8.6590    24.1890 
  235.3750     2.4030     6.6590    68.9050     7.8910     6.9720     8.3750    24.1060 
  235.5000     2.3910     6.7250    69.1770     7.8490     6.9360     7.8090    24.0590 
  235.6250     2.3780     6.8350    68.5080     7.7530     6.8400     7.0510    23.9830 
  235.7500     2.3760     7.0140    66.5560     7.6360     6.7190     6.3290    24.0560 
  235.8750     2.3930     7.1640    65.6660     7.5370     6.6170     6.1100    24.2930 
  236.0000     2.4260     7.3090    67.1550     7.4860     6.5690     6.3790    24.4550 
  236.1250     2.4620     7.5040    68.3120     7.4920     6.5860     7.3760    24.4940 
  236.2500     2.4850     7.6700    68.0550     7.5110     6.6210     9.2280    24.5060 
  236.3750     2.4920     7.7700    67.8200     7.5010     6.6200    11.2500    24.5260 
  236.5000     2.4900     7.8420    67.8200     7.4400     6.5570    11.2150    24.5260 
  236.6250     2.4840     7.8510    67.8200     7.3410     6.4500     9.0850    24.5000 
  236.7500     2.4790     7.9210    67.8200     7.2480     6.3570     7.1130    24.4930 
  236.8750     2.4710     8.0860    67.8200     7.1910     6.3040     6.1960    24.5400 
  237.0000     2.4590     8.2600    67.8200     7.1750     6.2940     6.0830    24.5710 
  237.1250     2.4460     8.3620    67.8200     7.1980     6.3180     6.4990    24.5500 
  237.2500     2.4390     8.3870    67.8200     7.2420     6.3600     6.9380    24.4890 
  237.3750     2.4430     8.3930    67.8200     7.2950     6.4130     7.2120    24.4800 
  237.5000     2.4550     8.4310    67.8200     7.3400     6.4610     7.2160    24.5180 
  237.6250     2.4670     8.4660    67.8200     7.3550     6.4780     6.9800    24.5530 
  237.7500     2.4720     8.4790    67.8200     7.3350     6.4560     7.2900    24.5840 
  237.8750     2.4650     8.5530    67.8200     7.2890     6.4080     8.0050    24.6340 
  238.0000     2.4470     8.6850    67.8200     7.2310     6.3510     8.6860    24.7090 
  238.1250     2.4260     8.8810    67.8200     7.1710     6.2980     8.9920    24.7380 
  238.2500     2.4110     9.1350    67.8200     7.1010     6.2420     8.8650    24.7140 
  238.3750     2.4050     9.4080    67.8200     7.0040     6.1590     8.1090    24.6810 
  238.5000     2.4070     9.5860    67.8200     6.8670     6.0320     7.3380    24.6540 
  238.6250     2.4150     9.7160    67.8200     6.6890     5.8600     6.2330    24.6340 
  238.7500     2.4240     9.7920    67.8200     6.5040     5.6790     5.7110    24.6390 
  238.8750     2.4340     9.7540    67.8200     6.3460     5.5260     5.4900    24.6510 
