~V
VERS. 2.00: Ver 2.00
~W
STRT.M 50.0000:
STOP.M 243.0000:
STEP.M 0.1250:
NULL. -999.2500:
UWI. F11115:
~C
DEPT.M :
DEN.GM/CC :
GR.API :
RML.OHMM :
RI. :
RXO.OHMM :
CALI.CM :
SP.MV :
~A
# ...
  173.7500     2.1840    71.0860    46.5620    47.2890    39.7050    22.8090   -23.1270 
  173.8750     2.1910    69.8470    45.9410    47.1230    37.3210    22.8070   -23.1120 
  174.0000     2.2010    68.9860    44.0330    45.9580    32.9850    22.8100   -23.0920 
  174.1250     2.2210    71.2610    40.6120    43.5190    29.4650    22.8180   -23.0820 
  174.2500     2.2510    74.1810    36.3440    40.2130    28.0610    22.8370   -23.0750 
  174.3750     2.2690    76.1010    31.8300    36.4370    27.8950    22.8530   -23.0560 
  174.5000     2.2450    76.1520    27.6510    32.6750    27.4460    22.8830   -23.0250 
  174.6250     2.1610    74.9940    24.3970    29.5240    26.1080    23.2020   -23.0170 
  174.7500     2.0550    74.2240    22.1480    27.2160    24.1090    23.8770   -23.0290 
  174.8750     1.9600    73.0790    20.9060    25.8450    21.1150    24.6660   -23.0420 
  175.0000     1.9060    74.1540    20.5750    25.3780    19.2450    25.2850   -23.0790 
  175.1250     1.9240    77.5550    21.0620    25.7690    17.4660    25.4800   -23.1650 
  175.2500     1.9990    79.6900    21.9500    26.6110    15.8620    25.1500   -23.2820 
  175.3750     2.0950    79.1490    22.9030    27.5800    14.8370    24.3930   -23.4110 
  175.5000     2.1700    76.4630    23.5980    28.3610    14.6460    23.6600   -23.5590 
  175.6250     2.1970    73.9250    23.8710    28.7390    15.2140    23.4160   -23.7010 
  175.7500     2.1830    72.4840    24.1150    28.9900    16.2000    23.4540   -23.8290 
  175.8750     2.1320    72.7720    24.9150    29.5800    18.2170    23.5850   -23.9770 
  176.0000     2.0570    73.8040    26.8650    31.0180    22.4060    23.9340   -24.1200 
  176.1250     1.9890    71.9250    30.6660    33.9520    28.5790    24.6440   -24.2330 
  176.2500     1.9610    68.5330    36.0760    38.2990    38.5600    25.2990   -24.3520 
  176.3750     1.9930    68.1000    42.6580    43.7650    46.7460    25.3610   -24.4020 
  176.5000     2.0740    71.9420    49.6710    49.6990    41.1140    24.6830   -24.4940 
  176.6250     2.1450    75.0690    56.5050    55.3540    29.7010    23.7640   -24.5440 
  176.7500     2.1620    73.3330    63.6170    60.7490    22.9070    23.1700   -24.5710 
  176.8750     2.1340    71.6910    66.6440    62.9140    20.5520    23.0180   -24.5730 
  177.0000     2.0890    67.5560    74.1480    67.7580    23.1160    22.9930   -24.5240 
  177.1250     2.0490    64.4310    86.6530    75.1060    29.8100    23.3280   -24.4410 
  177.2500     2.0150    64.0010   101.7130    83.3250    34.5050    23.8670   -24.3460 
  177.3750     1.9870    65.7730   116.5290    90.9400    35.7400    24.3170   -24.2490 
  177.5000     1.9710    67.4750   126.8550    96.1470    34.6880    24.4890   -24.1710 
  177.6250     1.9860    66.9830   129.0480    97.6200    32.8040    24.4650   -24.1220 
  177.7500     2.0310    65.8620   126.8090    96.9940    34.4990    24.4230   -24.0590 
  177.8750     2.0840    64.9440   124.3230    95.9640    39.4580    24.2620   -23.9710 
  178.0000     2.1150    62.7450   124.3840    95.7730    46.2820    23.9060   -23.8920 
  178.1250     2.1120    58.7630   128.1220    96.9910    52.2710    23.5140   -23.8510 
  178.2500     2.0960    56.4980   133.8970    99.0170    54.8680    23.3040   -23.8420 
  178.3750     2.0880    59.3990   140.1480   101.3010    53.7850    23.2710   -23.8400 
  178.5000     2.0950    64.3080   145.4530   103.3820    52.2400    23.2820   -23.8540 
  178.6250     2.1140    64.8000   148.7690   104.9010    55.0270    23.2660   -23.9240 
  178.7500     2.1330    61.4720   150.6980   105.9180    53.5540    23.2430   -24.0470 
  178.8750     2.1460    58.3470   152.0070   106.5910    51.2140    23.2240   -24.1920 
  179.0000     2.1550    57.8880   153.3500   107.1350    53.9380    23.2160   -24.3080 
  179.1250     2.1630    58.6970   154.9380   107.6980    63.5090    23.2200   -24.3630 
  179.2500     2.1640    59.7830   156.2940   108.2180    82.1380    23.2390   -24.3880 
  179.3750     2.1550    60.9880   156.7730   108.5210   100.7320    23.2940   -24.4060 
  179.5000     2.1340    61.2740   155.8900   108.4550   123.1710    23.4270   -24.4120 
  179.6250     2.1120    59.8960   153.3870   107.9520   148.5580    23.6890   -24.3600 
  179.7500     2.1100    59.4770   149.9460   107.2390   180.8610    24.0240   -24.2700 
  179.8750     2.1440    59.7730   146.1810   106.5360   195.1370    24.3190   -24.1980 
  180.0000     2.2190    58.6000   142.7070   106.0550   189.9290    24.3920   -24.1810 
  180.1250     2.3170    55.7260   140.0910   105.9860   194.0700    24.1570   -24.1950 
  180.2500     2.3930    54.6190   137.9710   106.1090   197.3060    23.8680   -24.2080 
  180.3750     2.4150    56.1740   134.8770   105.7380   191.5090    23.7140   -24.2200 
  180.5000     2.3800    57.6870   127.9980   103.5840   179.0350    23.7030   -24.2390 
  180.6250     2.3090    57.8730   113.7230    97.5860   179.6760    23.6980   -24.2740 
  180.7500     2.2360    58.7810    94.4540    88.0120   171.2340    23.6280   -24.2900 
  180.8750     2.1800    60.7960    74.4270    76.2160   124.3570    23.5250   -24.2530 
  181.0000     2.1460    62.5700    57.4700    64.3330    64.9490    23.5310   -24.1760 
  181.1250     2.1330    62.1470    46.1200    54.7430    39.0270    23.8940   -24.0940 
  181.2500     2.1130    62.4310    39.3850    48.1000    32.9030    24.4800   -24.0110 
  181.3750     2.0760    64.3010    36.5140    44.4930    33.9110    24.9880   -23.9200 
  181.5000     2.0300    66.0450    36.8130    43.7260    38.0130    25.2220   -23.8130 
  181.6250     2.0150    63.6630    40.1740    45.9200    46.6590    25.2340   -23.6740 
  181.7500     2.0680    58.7240    45.7490    50.2590    60.4920    25.2300   -23.5040 
  181.8750     2.2030    54.2650    53.1660    56.2410    65.4100    25.2420   -23.3080 
  182.0000     2.3920    51.1840    62.0530    63.2450    54.6520    25.1910   -23.0870 
  182.1250     2.5470    50.2910    72.5550    70.8280    41.6910    24.8950   -22.8410 
  182.2500     2.6340    52.0810    85.0030    78.8940    50.0200    24.4010   -22.5770 
  182.3750     2.6850    54.4300   100.0350    87.5950    85.8730    23.9240   -22.3010 
  182.5000     2.7350    54.6910   116.5450    96.1120   126.4910    23.6560   -22.0240 
  182.6250     2.7550    53.3730   124.6230    99.6720   138.5060    23.6010   -21.7400 
  182.7500     2.7040    53.5900   111.5810    92.7080   164.0740    23.6130   -21.4190 
  182.8750     2.5750    54.1730    79.8190    73.9700   239.1120    23.6530   -21.0300 
  183.0000     2.4050    53.5960    47.2530    50.1530   198.1030    23.6980   -20.5630 
  183.1250     2.2440    53.1030    33.0750    28.6920    74.1640    23.8110   -20.0380 
  183.2500     2.1250    53.5420    18.9030    17.8890    26.3580    24.1820   -19.4940 
  183.3750     2.0600    55.2160    11.5240    11.6360    10.9610    24.9360   -18.9750 
  183.5000     2.0440    57.6220     7.8710     8.2180     6.3280    25.8680   -18.5120 
  183.6250     2.0590    58.4450     6.3280     6.5770     5.3170    26.2610   -18.1470 
  183.7500     2.0810    56.6150     5.6910     5.7780     4.9470    25.9390   -17.8850 
  183.8750     2.1050    53.1050     5.5990     5.5080     4.6180    25.4130   -17.7190 
  184.0000     2.1360    49.8800     5.8230     5.5560     4.3810    25.2880   -17.6430 
  184.1250     2.1660    48.7410     6.1640     5.7780     4.3000    25.6250   -17.6420 
  184.2500     2.1740    48.6590     6.4200     6.0300     4.4040    25.8600   -17.6790 
  184.3750     2.1530    49.1080     6.4940     6.2410     4.6390    25.7580   -17.7340 
  184.5000     2.1260    48.7170     6.3600     6.3600     4.7840    25.4610   -17.8050 
  184.6250     2.1360    46.8010     6.0740     6.3590     4.8470    25.3930   -17.9120 
  184.7500     2.1750    44.8910     5.7940     6.2790     4.8780    25.6940   -18.0480 
  184.8750     2.1950    44.1010     5.6200     6.1560     4.9170    26.0330   -18.2140 
