~V
VERS. 2.00: Ver 2.00
~W
STRT.M 50.0000:
STOP.M 264.0000:
STEP.M 0.1250:
NULL. -999.2500:
UWI. F11182:
~C
DEPT.M :
SP.MV :
GR.API :
RI. :
RML.OHMM :
RXO.OHMM :
DEN.GM/CC :
~A
# ...
   62.8750   -22.3300    59.6590     4.2400     4.6920     6.8620     2.0730 
   63.0000   -22.4580    58.8600     4.2630     4.7730     6.9580     2.0700 
   63.1250   -22.6560    58.2180     4.2690     4.8430     6.3360     2.0640 
   63.2500   -22.7840    57.4010     4.2630     4.8580     5.7230     2.0580 
   63.3750   -22.9630    56.5850     4.2180     4.8500     5.2960     2.0490 
   63.5000   -23.0710    56.5920     4.1560     4.8140     5.0730     2.0440 
   63.6250   -23.2180    56.5580     4.0450     4.7470     4.6040     2.0390 
   63.7500   -23.3050    56.7770     3.9720     4.6970     4.4740     2.0400 
   63.8750   -23.4130    59.0150     3.9210     4.6710     4.3920     2.0460 
   64.0000   -23.4660    60.2140     3.9450     4.7240     4.3280     2.0530 
   64.1250   -23.5130    60.6020     4.0530     4.9030     4.4360     2.0690 
   64.2500   -23.5190    60.9620     4.1660     5.0990     4.6860     2.0780 
   64.3750   -23.4900    62.0010     4.3420     5.4570     5.1360     2.0810 
   64.5000   -23.4420    62.6550     4.4200     5.6560     5.3830     2.0790 
   64.6250   -23.3250    66.5000     4.4710     5.8540     5.3280     2.0880 
   64.7500   -23.2220    71.7790     4.4480     5.8740     5.1050     2.1040 
   64.8750   -23.0500    79.2460     4.3980     5.8440     4.9910     2.1380 
   65.0000   -22.9370    83.0190     4.3810     5.8320     4.9910     2.1620 
   65.1250   -22.7970    88.7130     4.3910     5.8610     5.0170     2.1750 
   65.2500   -22.7280    91.8710     4.4140     5.8980     5.1580     2.1690 
   65.3750   -22.6580    93.1480     4.4750     5.9700     5.5060     2.1690 
   65.5000   -22.6250    91.7770     4.5410     6.0430     5.5730     2.1730 
   65.6250   -22.5870    87.6350     4.7100     6.2620     5.5820     2.1480 
   65.7500   -22.5680    84.3160     4.9060     6.5400     7.2800     2.1140 
   65.8750   -22.5550    80.4940     5.3080     7.1360    12.5190     2.1040 
   66.0000   -22.5610    78.5050     5.5670     7.5270    14.7620     2.1330 
   66.1250   -22.5960    75.0990     5.8110     7.8480    13.1500     2.1560 
   66.2500   -22.6310    72.5370     5.8350     7.8360     9.8100     2.1320 
   66.3750   -22.6800    71.2050     5.7240     7.5790     5.9650     2.0790 
   66.5000   -22.6960    71.4530     5.6240     7.4120     5.1830     2.0620 
   66.6250   -22.6700    71.6180     5.5590     7.3320     5.1870     2.0610 
   66.7500   -22.6120    70.6570     5.5970     7.4250     5.5110     2.0590 
   66.8750   -22.4690    70.4210     5.7120     7.6340     5.8670     2.0520 
   67.0000   -22.3500    70.7450     5.7790     7.7450     5.7690     2.0580 
   67.1250   -22.1730    72.9190     5.6880     7.6600     5.5700     2.0990 
   67.2500   -22.0730    74.9200     5.4930     7.4150     5.4360     2.1380 
   67.3750   -21.9670    79.1950     5.1150     6.9280     5.0060     2.1830 
   67.5000   -21.9230    83.6090     4.8800     6.6120     4.7670     2.1930 
   67.6250   -21.8840    91.3900     4.5730     6.1520     4.7700     2.1830 
   67.7500   -21.8670    95.5380     4.4020     5.8790     5.2930     2.1720 
   67.8750   -21.8470    98.3710     4.3300     5.7360     6.2300     2.1730 
   68.0000   -21.8380    97.6340     4.5410     6.0280     6.3330     2.1990 
   68.1250   -21.8350    94.8830     5.1290     6.8660     8.2530     2.2890 
   68.2500   -21.8400    92.5790     5.5570     7.4850    13.4820     2.3610 
   68.3750   -21.8600    91.2550     6.0840     8.2450    18.9610     2.3850 
   68.5000   -21.8840    89.9670     6.2180     8.3860    14.8420     2.3150 
   68.6250   -21.9280    88.0130     6.0360     8.0110     7.1220     2.1690 
   68.7500   -21.9550    86.8450     5.7140     7.5030     5.6560     2.1160 
   68.8750   -21.9730    85.2600     5.1970     6.7560     5.4100     2.1100 
   69.0000   -21.9630    84.3550     4.9590     6.4640     5.8450     2.1240 
   69.1250   -21.9180    82.0700     4.9340     6.5050     6.6080     2.1340 
   69.2500   -21.8790    80.3520     4.9840     6.5820     6.6670     2.1310 
   69.3750   -21.8310    77.4300     5.0150     6.5870     6.8180     2.1160 
   69.5000   -21.8130    75.8260     5.1080     6.6850     7.1020     2.1080 
   69.6250   -21.8040    76.7400     5.5620     7.2830     7.2730     2.1300 
   69.7500   -21.7990    77.4210     6.1240     8.0450     7.7170     2.1790 
   69.8750   -21.7720    76.4130     7.0850     9.3480    12.2090     2.2740 
   70.0000   -21.7280    73.5020     7.6050    10.0380    17.0510     2.3010 
   70.1250   -21.6090    68.0290     7.8510    10.2470    17.7930     2.2460 
   70.2500   -21.4900    65.6240     7.5840     9.7840    13.3650     2.1750 
   70.3750   -21.2540    65.9730     6.8300     8.6610     8.2050     2.0970 
   70.5000   -21.0670    69.6320     6.2650     7.8790     7.2530     2.0770 
   70.6250   -20.7670    73.8460     5.6790     7.1670     6.7210     2.0710 
   70.7500   -20.5710    72.6510     5.5040     7.0220     6.1790     2.0700 
   70.8750   -20.3070    68.1530     5.4500     7.0580     5.6250     2.0690 
   71.0000   -20.1580    65.3080     5.2850     6.8600     5.5300     2.0720 
   71.1250   -19.9790    64.2480     4.8270     6.2610     5.2600     2.0920 
   71.2500   -19.8990    69.2310     4.4690     5.7630     4.9410     2.1120 
   71.3750   -19.8630    84.3600     4.0180     5.1520     4.3600     2.1340 
   71.5000   -19.9110    94.2320     3.9400     5.0790     4.2540     2.1380 
   71.6250   -20.0940    99.7230     4.1440     5.4090     4.6990     2.1420 
   71.7500   -20.2670    99.5050     4.3860     5.7500     5.0810     2.1510 
   71.8750   -20.5390    96.4880     4.7950     6.2290     5.6340     2.1710 
   72.0000   -20.6960    91.3570     4.9830     6.4050     6.0100     2.1880 
   72.1250   -20.8770    83.0680     5.1140     6.5040     6.5680     2.2230 
   72.2500   -20.9740    81.9150     5.2780     6.7420     7.7680     2.2440 
   72.3750   -21.1260    83.6110     5.8320     7.5750     9.1670     2.2710 
   72.5000   -21.2520    81.4550     6.4110     8.3890     9.7430     2.3010 
   72.6250   -21.4850    75.7770     7.3390     9.5950    15.0850     2.3430 
   72.7500   -21.6580    73.2310     7.8630    10.2220    21.0540     2.3290 
   72.8750   -21.9030    71.4180     8.1790    10.4660    28.1070     2.2370 
   73.0000   -22.0300    70.1540     7.9740    10.1090    25.7110     2.1810 
   73.1250   -22.1390    70.2270     7.3600     9.3070    13.2580     2.1510 
   73.2500   -22.1520    70.4690     6.8680     8.7680     8.6870     2.1470 
   73.3750   -22.0950    68.2640     6.3850     8.3380     8.2890     2.1300 
   73.5000   -22.0210    66.8050     6.2480     8.2420     8.3540     2.1170 
   73.6250   -21.8850    67.1790     6.1230     8.0940     8.3880     2.1080 
   73.7500   -21.7950    69.4250     6.0750     8.0050     8.3930     2.1090 
   73.8750   -21.6790    73.7760     6.1380     8.1070     8.3760     2.1130 
   74.0000   -21.6200    75.4990     6.4150     8.5630     8.3680     2.1120 
   74.1250   -21.5580    74.1160     7.0710     9.5810     8.5810     2.1490 
   74.2500   -21.5280    72.9950     7.5490    10.2660     9.3710     2.2280 
   74.3750   -21.4830    77.6270     8.0180    10.8380    20.6330     2.3580 
   74.5000   -21.4420    80.4490     8.0720    10.7540    29.7250     2.3700 
   74.6250   -21.3490    76.7610     7.6760     9.8650    22.2840     2.2540 
   74.7500   -21.2630    72.1040     7.1940     8.9960    12.2790     2.1600 
   74.8750   -21.1030    68.6600     6.4200     7.7090     8.4800     2.0880 
   75.0000   -20.9850    68.4660     6.0420     7.1560     8.3680     2.0770 
   75.1250   -20.8190    65.2790     5.7740     6.8070     7.5330     2.0760 
   75.2500   -20.7320    63.3480     5.7880     6.8370     7.4800     2.0830 
   75.3750   -20.6690    65.8560     5.9020     6.9680     7.6810     2.1180 
   75.5000   -20.6780    69.1160     5.9650     7.0190     7.7620     2.1670 
   75.6250   -20.7570    72.6110     6.0400     7.0660     7.9030     2.2510 
