~V
VERS. 2.00: Ver 2.00
~W
STRT.M 62.0000:
STOP.M 277.0000:
STEP.M 0.1250:
NULL. -999.2500:
UWI. F11155:
~C
DEPT.M :
SP.MV :
DEN.GM/CC :
GR.API :
RML.OHMM :
RI. :
RXO.OHMM :
CALI.CM :
~A
# ...
  253.2500   -11.1270     2.3010    61.4310     6.6940     6.4370     5.7010    24.5970 
  253.3750   -11.1570     2.3030    62.7090     6.6890     6.4310     5.8220    24.6240 
  253.5000   -11.1370     2.3070    61.3500     6.6680     6.4120     5.8470    24.6360 
  253.6250   -11.1330     2.3080    59.1820     6.6450     6.3890     5.7360    24.6330 
  253.7500   -11.0960     2.2980    57.9860     6.6320     6.3770     5.6150    24.6290 
  253.8750   -11.0470     2.2850    57.9000     6.6360     6.3810     5.6110    24.6330 
  254.0000   -11.0440     2.2830    58.2560     6.6610     6.4050     5.7850    24.6390 
  254.1250   -11.0410     2.2950    57.9020     6.7090     6.4510     6.1410    24.6450 
  254.2500   -10.9620     2.3150    58.8420     6.7850     6.5240     6.4370    24.6650 
  254.3750   -10.8920     2.3320    61.9120     6.8820     6.6170     6.3030    24.6860 
  254.5000   -10.8670     2.3470    65.0700     6.9940     6.7250     6.0880    24.6920 
  254.6250   -10.8340     2.3610    64.9790     7.1170     6.8430     5.9860    24.6710 
  254.7500   -10.8380     2.3740    62.3220     7.2520     6.9730     5.9870    24.5590 
  254.8750   -10.8550     2.3790    61.0160     7.4090     7.1240     6.0790    24.3490 
  255.0000   -10.8760     2.3740    61.1810     7.6000     7.3070     6.3700    24.1690 
  255.1250   -10.9250     2.3630    61.7860     7.8370     7.5360     6.8840    24.3110 
  255.2500   -10.9940     2.3550    62.7920     8.1340     7.8210     7.5780    24.4380 
  255.3750   -11.0560     2.3580    63.8340     8.4720     8.1460     8.4110    24.5110 
  255.5000   -11.1140     2.3700    64.6870     8.8310     8.4910     9.1710    24.5330 
  255.6250   -11.2000     2.3830    64.6950     9.1870     8.8340     9.8260    24.4950 
  255.7500   -11.2760     2.3890    65.0790     9.5140     9.1480    10.6580    24.4290 
  255.8750   -11.3650     2.3860    65.5950     9.8050     9.4280    11.6270    24.3600 
  256.0000   -11.4530     2.3800    64.5780    10.0610     9.6740    12.5480    24.3360 
  256.1250   -11.5050     2.3760    61.9490    10.2880     9.8920    13.0060    24.3230 
  256.2500   -11.5660     2.3800    59.5060    10.4880    10.0850    13.0550    24.2910 
  256.3750   -11.6670     2.3820    60.8480    10.6670    10.2560    12.9320    24.2730 
  256.5000   -11.7770     2.3790    65.7960    10.8240    10.4070    13.2410    24.2750 
  256.6250   -11.8410     2.3760    71.7490    10.9590    10.5380    13.7900    24.2760 
  256.7500   -11.8420     2.3810    73.7130    11.0710    10.6450    13.8160    24.3770 
  256.8750   -11.8470     2.3920    71.4740    11.1660    10.7360    13.4020    24.5490 
  257.0000   -11.8330     2.4020    67.4750    11.2490    10.8160    12.8700    24.6630 
  257.1250   -11.8350     2.4060    63.7740    11.3280    10.8920    12.6610    24.6930 
  257.2500   -11.8530     2.3980    60.3010    11.4180    10.9790    12.9770    24.6520 
  257.3750   -11.8010     2.3870    57.3670    11.5340    11.0900    13.1680    24.5060 
  257.5000   -11.7170     2.3830    56.9190    11.6870    11.2370    12.7300    24.3070 
  257.6250   -11.6580     2.3810    60.4460    11.8850    11.4280    12.5250    24.2680 
  257.7500   -11.6320     2.3760    65.1570    12.1390    11.6720    12.9780    24.4800 
  257.8750   -11.5780     2.3720    67.0960    12.4260    11.9480    14.0320    24.5170 
  258.0000   -11.5160     2.3770    66.5840    12.7120    12.2230    14.8320    24.4190 
  258.1250   -11.4870     2.3880    65.4350    12.9570    12.4590    15.0780    24.3270 
  258.2500   -11.4490     2.4020    64.2510    13.1150    12.6100    15.0630    24.2550 
  258.3750   -11.4560     2.4190    62.4570    13.1840    12.6770    14.8810    24.1910 
  258.5000   -11.4780     2.4370    61.7770    13.1700    12.6640    14.0070    24.1130 
  258.6250   -11.4990     2.4490    64.8760    13.0800    12.5770    12.7220    24.0670 
  258.7500   -11.5420     2.4530    68.3110    12.8950    12.3990    11.7550    24.0900 
  258.8750   -11.6030     2.4580    66.5660    12.6180    12.1330    11.6640    24.1710 
  259.0000   -11.6500     2.4570    62.3760    12.2610    11.7890    12.2620    24.3470 
  259.1250   -11.6580     2.4450    61.5590    11.8600    11.4030    13.0370    24.5480 
  259.2500   -11.6320     2.4270    63.8080    11.4740    11.0320    13.5030    24.6470 
  259.3750   -11.5910     2.4140    63.6250    11.1600    10.7310    13.5620    24.6820 
  259.5000   -11.5490     2.4130    62.3130    10.9620    10.5400    13.2780    24.6900 
  259.6250   -11.4990     2.4200    63.3870    10.9060    10.4860    12.8680    24.6830 
  259.7500   -11.3970     2.4250    65.0660    11.0140    10.5900    12.1230    24.6360 
  259.8750   -11.2910     2.4240    64.5310    11.2220    10.7910    12.0480    24.4810 
  260.0000   -11.1910     2.4220    62.5950    11.4570    11.0160    12.8150    24.1200 
  260.1250   -11.0660     2.4310    62.0400    11.6150    11.1680    13.0250    23.4970 
  260.2500   -10.9390     2.4490    64.0480    11.5590    11.1140    13.2190    23.0100 
  260.3750   -10.8150     2.4640    65.3910    11.2910    10.8570    12.3530    22.9210 
  260.5000   -10.6730     2.4720    62.9410    10.8710    10.4530    10.9810    23.0470 
  260.6250   -10.5290     2.4710    58.5630    10.4040    10.0040     9.9310    23.3710 
  260.7500   -10.4110     2.4630    55.5720    10.0210     9.6360     9.6560    23.8740 
  260.8750   -10.3120     2.4490    53.6960     9.7860     9.4090     9.4480    24.2370 
  261.0000   -10.2400     2.4320    52.7220     9.7080     9.3340     9.1940    24.4660 
  261.1250   -10.2290     2.4140    53.9410     9.7560     9.3800     9.0910    24.6130 
  261.2500   -10.2720     2.4000    57.0270     9.8770     9.4970     9.4460    24.6820 
  261.3750   -10.3120     2.4010    58.6230    10.0030     9.6180     9.9750    24.6890 
  261.5000   -10.3840     2.4170    58.7820    10.0950     9.7070     9.9660    24.6450 
  261.6250   -10.4680     2.4380    59.2210    10.1400     9.7500     9.7590    24.6180 
  261.7500   -10.5580     2.4450    60.1020    10.1200     9.7300     9.9660    24.6520 
  261.8750   -10.6410     2.4390    61.2690    10.0250     9.6390    11.4430    24.6390 
  262.0000   -10.7250     2.4300    61.1440     9.8300     9.4520    14.0200    24.5940 
  262.1250   -10.7910     2.4290    57.6530     9.5300     9.1640    14.0840    24.5460 
  262.2500   -10.8290     2.4410    52.0430     9.1480     8.7960    11.3850    24.5380 
  262.3750   -10.8670     2.4510    49.4250     8.7540     8.4180    10.1860    24.5400 
  262.5000   -10.9010     2.4470    51.2290     8.4070     8.0840    11.5290    24.4990 
  262.6250   -10.9010     2.4240    53.6700     8.1450     7.8320    16.9000    24.4220 
  262.7500   -10.8950     2.3930    51.6380     7.9890     7.6810    31.7480    24.4710 
  262.8750   -10.8890     2.3660    46.7530     7.8940     7.5900    38.7300    24.4570 
  263.0000   -10.8730     2.3500    43.1310     7.8310     7.5300    27.0830    24.4160 
  263.1250   -10.8580     2.3430    43.5390     7.7810     7.4820    13.8480    24.3820 
  263.2500   -10.8220     2.3440    46.4410     7.7320     7.4350     9.6190    24.2950 
  263.3750   -10.7940     2.3490    48.7370     7.6710     7.3760     8.5180    24.1140 
  263.5000   -10.7670     2.3550    50.3030     7.5790     7.2880     8.7420    23.9400 
  263.6250   -10.7360     2.3560    49.8280     7.4370     7.1510     9.0350    23.9180 
  263.7500   -10.6890     2.3510    46.6500     7.2260     6.9480     8.4090    24.0340 
  263.8750   -10.6200     2.3400    44.4600     6.9760     6.7080     8.0080    24.1970 
  264.0000   -10.4920     2.3240    46.1730     6.7190     6.4600     7.7070    24.3750 
  264.1250   -10.3330     2.3090    49.9270     6.6320     6.2340     7.0830    24.5980 
  264.2500   -10.2360     2.3020    52.1570     6.4900     6.0550     6.3730    24.7180 
  264.3750   -10.1290     2.3050    52.0880     6.3860     5.9200     5.8390    24.7030 
