~V
VERS. 2.00: Ver 2.00
~W
STRT.M 50.0000:
STOP.M 242.0000:
STEP.M 0.1250:
NULL. -999.2500:
UWI. F11136:
~C
DEPT.M :
GR.API :
RML.OHMM :
RI. :
RXO.OHMM :
CALI.CM :
SP.MV :
DEN.GM/CC :
~A
# ...
  173.7500    48.5600   227.7030   187.7300    99.9240    24.7540   -18.3450     2.1450 
  173.8750    52.2630   227.7390   189.7100    98.3980    24.7380   -18.1480     2.1560 
  174.0000    52.1290   236.9850   202.4440   124.7550    24.7290   -17.9640     2.1610 
  174.1250    49.7970   248.1950   221.5880   154.0680    24.6860   -17.8040     2.1550 
  174.2500    49.6460   247.3000   233.9920   162.3640    24.6540   -17.6290     2.1450 
  174.3750    50.5140   222.5260   225.0970   151.9580    24.6130   -17.4440     2.1380 
  174.5000    50.0380   175.1940   189.0280   132.5740    24.6450   -17.2750     2.1360 
  174.6250    49.9630   122.8930   137.5710    96.3300    24.6200   -17.1250     2.1420 
  174.7500    51.1620    81.4950    92.0780    55.5160    24.5450   -16.9830     2.1510 
  174.8750    53.6020    53.5850    59.6850    28.8660    24.5140   -16.8870     2.1600 
  175.0000    58.3160    36.5830    39.5850    16.3550    24.4670   -16.8430     2.1680 
  175.1250    65.7730    27.7210    29.1230    12.6880    24.2900   -16.7820     2.1750 
  175.2500    71.5110    22.9690    23.4890    11.8890    23.5310   -16.7370     2.1870 
  175.3750    73.1290    20.9990    20.9870    11.4810    22.5810   -16.7600     2.2050 
  175.5000    73.1780    21.3790    20.8430    11.2070    22.1120   -16.8080     2.2280 
  175.6250    73.7440    24.8680    23.3030    13.0640    21.9340   -16.8460     2.2480 
  175.7500    72.9280    31.8960    28.5070    17.0030    22.0710   -16.9240     2.2560 
  175.8750    68.7870    43.5430    37.4580    28.8980    22.8100   -17.0390     2.2460 
  176.0000    62.0930    60.7520    51.4020    56.2200    23.6560   -17.1570     2.2220 
  176.1250    56.3720    84.4140    71.7890    99.5610    23.9330   -17.2410     2.1910 
  176.2500    53.1440   111.2500    95.6290   118.1040    24.1640   -17.3250     2.1640 
  176.3750    53.2940   136.6840   118.2450   124.5240    24.1980   -17.3960     2.1460 
  176.5000    55.2880   155.8950   134.4870   127.1000    24.2020   -17.4020     2.1390 
  176.6250    55.1220   167.1840   141.7180   104.3940    24.2020   -17.3580     2.1400 
  176.7500    53.4370   176.8650   145.4470    79.1580    24.2000   -17.3180     2.1440 
  176.8750    52.4370   189.5990   150.2380    75.6450    24.1890   -17.2580     2.1460 
  177.0000    50.9590   206.0550   157.8650   108.7060    24.1230   -17.1410     2.1440 
  177.1250    47.8590   221.0750   166.1290   156.9490    24.0380   -17.0040     2.1410 
  177.2500    47.3130   227.1150   170.0360   165.5730    23.9680   -16.8950     2.1400 
  177.3750    51.6290   220.3850   166.1930   129.3560    23.8520   -16.7670     2.1430 
  177.5000    56.9740   204.3450   155.3000    97.6690    23.8440   -16.6240     2.1500 
  177.6250    59.4330   188.5510   142.6560    92.4050    23.9420   -16.5350     2.1590 
  177.7500    60.3060   179.7740   134.0570    98.4980    24.0110   -16.4840     2.1670 
  177.8750    60.1820   179.3850   131.6610    98.5950    23.9780   -16.4090     2.1740 
  178.0000    57.4660   186.3770   135.6070    98.1520    23.9400   -16.3260     2.1790 
  178.1250    52.9780   199.3160   145.4510   109.9950    23.8530   -16.2830     2.1810 
  178.2500    51.7820   214.3320   158.0910   130.3780    23.7630   -16.2470     2.1790 
  178.3750    54.8620   228.2260   171.0410   137.8090    23.6900   -16.2240     2.1720 
  178.5000    58.9860   237.7450   181.7600   130.3990    23.5810   -16.2050     2.1590 
  178.6250    60.4620   238.1010   186.7650   120.4910    23.4850   -16.1840     2.1440 
  178.7500    59.1550   227.4540   184.1410   111.9950    23.4200   -16.1510     2.1310 
  178.8750    58.6360   204.0340   171.4970   108.5780    23.4220   -16.0940     2.1320 
  179.0000    59.9780   169.0610   148.0090   107.5680    23.4040   -16.0470     2.1550 
  179.1250    63.1680   129.0410   116.5760    99.0810    23.2760   -16.0230     2.2140 
  179.2500    66.0710    93.7310    86.2130    72.7120    23.1490   -15.9780     2.2930 
  179.3750    68.1830    67.3720    62.3260    46.6630    23.2100   -15.9230     2.3700 
  179.5000    69.1210    50.1030    46.3960    31.7540    23.7120   -15.9020     2.4200 
  179.6250    69.5850    40.8340    37.9820    25.4530    23.9550   -15.9070     2.4250 
  179.7500    70.3340    36.0880    33.8490    23.9000    24.0760   -15.8940     2.4030 
  179.8750    71.2440    34.4100    32.5460    25.5350    24.1050   -15.9030     2.3710 
  180.0000    70.7320    34.6790    32.9930    27.7970    24.1150   -15.9340     2.3380 
  180.1250    69.7880    35.7910    34.1910    28.5550    24.1230   -15.9820     2.3080 
  180.2500    69.2790    36.4910    34.9790    28.9520    24.1110   -16.0690     2.2800 
  180.3750    69.8250    36.2250    34.7730    30.2200    24.0360   -16.1740     2.2550 
  180.5000    71.2470    35.0720    33.5660    29.9170    23.9180   -16.2950     2.2360 
  180.6250    72.1880    33.6300    31.8820    27.4550    23.8860   -16.4540     2.2260 
  180.7500    72.3830    32.6580    30.4950    25.0540    23.8830   -16.6440     2.2230 
  180.8750    72.9180    32.5400    29.8200    24.5340    23.9690   -16.8750     2.2240 
  181.0000    72.5510    33.4050    30.0670    25.1430    24.0980   -17.1630     2.2260 
  181.1250    69.9000    35.4170    31.4010    27.6260    24.1210   -17.4870     2.2260 
  181.2500    68.8600    38.2360    33.4430    29.7270    24.1260   -17.7830     2.2240 
  181.3750    70.7790    41.4060    35.7920    30.5140    24.1240   -18.1070     2.2210 
  181.5000    72.3510    44.3100    37.9240    31.8270    24.1110   -18.4830     2.2160 
  181.6250    70.3970    46.3160    39.2720    33.7310    24.0280   -18.8220     2.2120 
  181.7500    68.1810    47.5350    39.9550    35.6390    23.9110   -19.1430     2.2100 
  181.8750    67.5350    48.4450    40.4230    35.8190    23.8540   -19.4910     2.2110 
  182.0000    65.9950    49.9620    41.3690    33.4400    23.8470   -19.8570     2.2160 
  182.1250    63.6370    53.8970    43.9540    30.9000    23.7240   -20.1860     2.2220 
  182.2500    62.7990    61.3130    48.8650    34.0740    23.5710   -20.5080     2.2240 
  182.3750    62.8960    72.8910    56.6790    43.5780    23.6120   -20.8210     2.2180 
  182.5000    62.1050    88.4530    67.4810    58.9530    24.0930   -21.1160     2.2070 
  182.6250    61.7990    98.7420    80.7010    69.6600    24.2870   -21.3830     2.1960 
  182.7500    64.3970   114.9480    94.1030    79.3200    24.2670   -21.6450     2.1900 
  182.8750    66.6390   128.4520   105.9240    90.3910    24.2000   -21.8970     2.1910 
  183.0000    63.7720   138.7470   115.3060    98.2580    24.2620   -22.1180     2.1930 
  183.1250    58.5910   146.6580   122.2980   101.6000    24.2750   -22.3320     2.1920 
  183.2500    56.6470   153.7550   128.0860   104.5720    24.2820   -22.5920     2.1870 
  183.3750    58.0960   160.3420   133.2260   108.3410    24.3020   -22.8880     2.1810 
  183.5000    59.1420   166.2440   138.0220   116.6310    24.2190   -23.1630     2.1760 
  183.6250    58.2960   170.8850   142.4020   123.9640    24.1890   -23.4550     2.1740 
  183.7500    57.8520   173.8050   145.9330   122.4520    24.1680   -23.7860     2.1720 
  183.8750    56.9910   174.3310   147.9190   116.8450    24.0000   -24.1270     2.1690 
  184.0000    57.5370   172.1080   147.8140   114.2680    23.9150   -24.4400     2.1650 
  184.1250    63.3460   167.1700   145.2770   113.4320    24.0180   -24.7240     2.1620 
  184.2500    69.3470   161.1950   141.4050   110.2760    24.1800   -25.0050     2.1620 
  184.3750    68.1140   155.5200   137.1660   105.1590    24.2490   -25.2630     2.1650 
  184.5000    61.2690   151.0300   133.3880   101.7300    24.2460   -25.4910     2.1710 
  184.6250    59.3710   147.9700   130.7040   100.9850    24.2220   -25.6910     2.1790 
  184.7500    59.6690   145.2940   128.7930    99.3280    24.1460   -25.8940     2.1860 
  184.8750    56.2410   141.8580   126.8750    97.9180    24.1100   -26.0840     2.1880 
