~V
VERS. 2.00: Ver 2.00
~W
STRT.M 20.0000:
STOP.M 279.0000:
STEP.M 0.1250:
NULL. -999.2500:
UWI. F11153:
~C
DEPT.M :
DEN.GM/CC :
GR.API :
RML.OHMM :
RI. :
RXO.OHMM :
CALI.CM :
SP.MV :
~A
# ...
   65.0000     2.2850    72.5640     6.3090     8.9710     9.8180    26.4110   -31.4880 
   65.1250     2.3260    70.9400     7.2990    10.7480    15.1910    26.2170   -33.2300 
   65.2500     2.3710    67.4050     8.1390    12.1680    28.7740    25.9650   -34.9070 
   65.3750     2.4040    61.9610     8.2350    12.5140    40.4310    25.8680   -36.4520 
   65.5000     2.3660    58.4870     7.4510    11.5580    30.1040    26.4390   -37.8510 
   65.6250     2.2100    60.2020     6.5690     9.8710    15.3820    28.3950   -39.1110 
   65.7500     2.0500    64.3980     6.0650     8.3820    10.0440    30.4220   -40.2210 
   65.8750     1.9720    67.5570     5.8610     7.4330     8.2510    30.9280   -41.1800 
   66.0000     1.9840    67.3000     5.8380     7.0770     8.0560    30.1150   -42.0100 
   66.1250     2.0500    63.5000     5.9690     7.2730     8.3660    29.6690   -42.6630 
   66.2500     2.1010    58.7750     6.2260     7.7370     8.6510    30.1430   -43.2020 
   66.3750     2.0990    55.9580     6.5600     8.2720     8.4510    31.1140   -43.6410 
   66.5000     2.0470    55.3240     6.8550     8.7010     7.8220    31.6340   -44.0150 
   66.6250     1.9910    56.4820     6.9860     8.8660     7.9290    30.7990   -44.3920 
   66.7500     1.9790    59.7680     6.9960     8.7870     8.8210    29.5030   -44.7620 
   66.8750     2.0160    62.6090     6.9690     8.5400     9.7100    28.6580   -45.0580 
   67.0000     2.0740    61.8370     6.9660     8.2320    10.0290    28.3440   -45.2450 
   67.1250     2.1120    58.0380     7.0130     7.9690     9.7960    28.2820   -45.4030 
   67.2500     2.1300    56.1130     7.0950     7.7820     9.6240    28.2690   -45.5890 
   67.3750     2.1430    57.9440     7.1960     7.6640     9.8240    28.2980   -45.7880 
   67.5000     2.1530    61.7610     7.2780     7.5880    10.3350    28.4030   -45.9810 
   67.6250     2.1580    65.7250     7.3060     7.5290    10.3660    28.6130   -46.1590 
   67.7500     2.1580    67.3150     7.3030     7.4670     9.8060    28.8810   -46.3450 
   67.8750     2.1560    64.5510     7.2980     7.4020     9.4370    29.2000   -46.5190 
   68.0000     2.1560    60.9370     7.3230     7.3430     9.4500    29.6550   -46.6550 
   68.1250     2.1570    62.5760     7.3940     7.3040     9.7750    30.2500   -46.7380 
   68.2500     2.1560    65.7380     7.4920     7.2860    10.1400    30.9120   -46.7600 
   68.3750     2.1510    64.4100     7.6020     7.2800    10.4110    31.6240   -46.7050 
   68.5000     2.1450    60.0840     7.7100     7.2670    10.7150    32.4050   -46.5910 
   68.6250     2.1380    59.8440     7.7990     7.2230    11.0650    33.2130   -46.4210 
   68.7500     2.1290    60.7350     7.8580     7.1480    10.9290    33.8120   -46.1960 
   68.8750     2.1170    58.2370     7.8780     7.0540    10.1310    34.0480   -45.9480 
   69.0000     2.1080    55.5600     7.8790     6.9680     9.4480    34.0940   -45.6970 
   69.1250     2.1080    58.3070     7.9100     6.9270     9.3250    34.3220   -45.4410 
   69.2500     2.1100    61.2260     8.0070     6.9520     9.3280    34.8010   -45.2160 
   69.3750     2.1050    59.8300     8.1740     7.0410     9.3040    35.0950   -45.0460 
   69.5000     2.0850    56.3350     8.3790     7.1710     9.1110    34.9550   -44.9070 
   69.6250     2.0520    54.8560     8.5540     7.2950     9.0630    34.5260   -44.7940 
   69.7500     2.0110    54.6960     8.6470     7.3640     9.3560    34.4500   -44.7310 
   69.8750     1.9650    54.1770     8.6340     7.3560     9.5630    35.2580   -44.7000 
   70.0000     1.9190    53.7160     8.5320     7.2690     9.1860    36.3270   -44.6720 
   70.1250     1.8840    53.2720     8.3740     7.1180     9.1960    36.8580   -44.5950 
   70.2500     1.8630    52.8110     8.2130     6.9440     9.4790    36.8180   -44.4690 
   70.3750     1.8560    52.2070     8.0830     6.7710     9.7540    36.6320   -44.3340 
   70.5000     1.8630    51.3600     8.0040     6.6150     9.8920    36.4340   -44.2050 
   70.6250     1.8810    51.3800     7.9910     6.4890     9.5230    36.0300   -44.0330 
   70.7500     1.9040    54.3920     8.0220     6.3950     8.4900    35.0830   -43.8460 
   70.8750     1.9350    58.4160     8.0890     6.3380     7.6430    33.6530   -43.6910 
   71.0000     1.9790    59.7470     8.1810     6.3170     7.8490    32.4920   -43.6160 
   71.1250     2.0290    59.9070     8.2920     6.3250     8.7790    32.2010   -43.5970 
   71.2500     2.0650    60.7090     8.4070     6.3420     9.2510    32.3060   -43.6050 
   71.3750     2.0830    60.3050     8.5140     6.3590     9.4910    32.5480   -43.6640 
   71.5000     2.0820    57.7600     8.6040     6.3730     9.5790    32.8110   -43.7770 
   71.6250     2.0670    56.5340     8.6680     6.3910     9.7460    32.9190   -43.9200 
   71.7500     2.0550    56.8520     8.7080     6.4140     9.9810    33.0050   -44.0540 
   71.8750     2.0480    55.8540     8.7210     6.4400     9.8960    33.3240   -44.1780 
   72.0000     2.0350    53.7730     8.7040     6.4580     9.6040    33.6290   -44.2260 
   72.1250     2.0190    53.8100     8.6610     6.4550     9.6420    33.3890   -44.2020 
   72.2500     2.0180    55.3520     8.6040     6.4270     9.9110    32.9910   -44.1090 
   72.3750     2.0330    57.3340     8.5400     6.3710    10.1610    32.9560   -43.9090 
   72.5000     2.0410    58.2740     8.4730     6.2940    10.1940    33.1460   -43.6130 
   72.6250     2.0190    58.5230     8.4120     6.2100     9.9580    33.2110   -43.2000 
   72.7500     1.9800    59.5880     8.3700     6.1470    10.0500    33.1970   -42.6070 
   72.8750     1.9360    59.2090     8.3720     6.1270    10.5750    33.2320   -41.7580 
   73.0000     1.8910    55.1320     8.4550     6.1750    10.8690    33.3150   -40.7100 
   73.1250     1.8530    50.4170     8.6560     6.3150    10.6650    33.2720   -39.5160 
   73.2500     1.8310    48.8170     8.9210     6.5100    10.5910    32.9490   -38.2060 
   73.3750     1.8360    51.5840     9.1820     6.7130    10.4910    32.0590   -36.7870 
   73.5000     1.8820    58.5790     9.3700     6.8740    10.1330    30.4730   -35.3060 
   73.6250     1.9910    68.6410     9.4010     6.9440     9.4960    28.5970   -33.9090 
   73.7500     2.1380    76.7390     9.2920     6.9210     8.9230    27.6130   -32.6310 
   73.8750     2.2690    80.9190     9.0800     6.8100     8.4580    27.3480   -31.4490 
   74.0000     2.3230    83.9540     8.8010     6.6230     8.8180    27.4110   -30.3770 
   74.1250     2.3080    86.4710     8.4470     6.3470     9.1300    27.5200   -29.4940 
   74.2500     2.2900    85.3010     8.0200     6.0010     8.5160    27.5700   -28.8100 
   74.3750     2.2810    81.3640     7.5410     5.6110     7.1840    27.5550   -28.3680 
   74.5000     2.2830    79.7200     7.0770     5.2250     5.8100    27.5080   -28.2140 
   74.6250     2.2990    83.5740     6.7600     4.9280     5.3370    27.4700   -28.3840 
   74.7500     2.3150    90.7620     6.6530     4.7660     5.2320    27.4370   -28.8500 
   74.8750     2.3160    95.9820     6.7640     4.7630     5.1950    27.4650   -29.6460 
   75.0000     2.2940    94.7980     7.0510     4.9090     5.2210    27.6100   -30.7430 
   75.1250     2.2510    86.6900     7.4590     5.1890     5.4870    27.8640   -32.0870 
   75.2500     2.2040    78.9700     7.9080     5.5290     5.9930    27.9750   -33.5250 
   75.3750     2.1670    74.9870     8.3700     5.8860     6.8910    27.9230   -34.8950 
   75.5000     2.1460    73.3390     8.8170     6.2210     8.6260    27.7090   -36.0630 
   75.6250     2.1440    70.6030     9.1750     6.4850    11.0980    27.3940   -36.8540 
   75.7500     2.1530    66.7490     9.3770     6.6540    12.2790    27.1500   -37.2210 
   75.8750     2.1650    62.8140     9.3890     6.7130    12.1060    27.0000   -37.2170 
   76.0000     2.1760    60.8500     9.2400     6.6660    11.2330    26.9440   -36.9260 
   76.1250     2.1810    61.8500     9.0210     6.5310    10.2440    26.9380   -36.3620 
