~V
VERS. 2.00: Ver 2.00
~W
STRT.M 14.0000:
STOP.M 209.0000:
STEP.M 0.1250:
NULL. -999.2500:
UWI. F11100:
~C
DEPT.M :
GR.API :
RML.OHMM :
RI. :
RXO.OHMM :
CALI.CM :
SP.MV :
DEN.GM/CC :
~A
# ...
  149.0000    52.7090    10.0540     9.3650     8.2240    29.0690    -4.1410     2.3120 
  149.1250    51.5070     9.5110     8.8060     7.4760    29.1350    -4.4690     2.3450 
  149.2500    52.4370     9.6350     8.6760     7.9150    29.2030    -4.8070     2.3840 
  149.3750    52.6150    10.7240     9.1580    10.7890    29.2780    -5.1590     2.4130 
  149.5000    51.7360    13.2190    10.4850    17.4320    29.4180    -5.5240     2.4260 
  149.6250    51.4480    18.2030    13.2560    28.3800    29.6970    -5.9200     2.4130 
  149.7500    52.3130    22.4490    17.7350    51.3970    30.0630    -6.3660     2.3770 
  149.8750    52.4800    27.4760    24.1530    82.5860    30.4340    -6.8460     2.3250 
  150.0000    52.6640    36.6560    32.1360    94.6910    30.7500    -7.3200     2.2680 
  150.1250    54.0180    45.8620    40.1410    83.5920    30.9960    -7.7530     2.2210 
  150.2500    55.7040    52.9440    46.2990    83.1050    31.2130    -8.1420     2.1910 
  150.3750    56.6530    57.1990    49.9990    87.4160    31.4220    -8.4740     2.1760 
  150.5000    56.6550    59.2700    51.8000    88.4240    31.6000    -8.7470     2.1700 
  150.6250    57.3400    60.2400    52.6430    78.6800    31.7220    -8.9730     2.1710 
  150.7500    59.2120    61.0750    53.3700    76.7640    31.8550    -9.1670     2.1730 
  150.8750    61.0250    61.9800    54.1560    87.7380    32.0640    -9.3640     2.1760 
  151.0000    61.2050    62.8860    54.9440   100.8240    32.3440    -9.5630     2.1760 
  151.1250    58.8710    63.5410    55.5140   114.4350    32.6210    -9.7320     2.1700 
  151.2500    55.9130    63.7590    55.7040   118.3140    32.8250    -9.8780     2.1600 
  151.3750    55.8470    63.5490    55.5210   118.0410    32.9420   -10.0080     2.1510 
  151.5000    58.3180    63.2500    55.2610   106.9350    33.0290   -10.0950     2.1440 
  151.6250    59.1210    63.6390    55.5990    91.6330    33.1900   -10.0780     2.1380 
  151.7500    56.4830    65.2500    57.0000    85.0970    33.4010    -9.9900     2.1310 
  151.8750    53.5940    68.3150    59.6650    93.6340    33.5660    -9.8770     2.1210 
  152.0000    53.2620    72.5380    63.3370   116.8900    33.6860    -9.7560     2.1090 
  152.1250    52.7020    76.6900    66.9480   153.4290    33.8580    -9.6430     2.0960 
  152.2500    49.2370    79.0310    68.9830   179.4290    34.0530    -9.5140     2.0820 
  152.3750    44.6150    78.4640    68.4900   184.6050    34.1720    -9.3790     2.0710 
  152.5000    43.2330    75.0470    65.5190   149.7690    34.1910    -9.2660     2.0660 
  152.6250    47.1760    69.9900    61.1220   112.1530    34.1820    -9.1910     2.0690 
  152.7500    52.3720    65.3470    57.0840    88.3430    34.1820    -9.1150     2.0760 
  152.8750    55.8070    62.1870    54.3370    79.5340    34.1800    -9.0230     2.0830 
  153.0000    58.5670    60.8670    53.1890    77.2200    34.1760    -8.9480     2.0860 
  153.1250    61.8530    61.3160    53.5790    75.8470    34.1760    -8.9230     2.0820 
  153.2500    63.5980    62.4980    54.6070    78.9870    34.1800    -8.9070     2.0760 
  153.3750    61.9230    63.5440    55.5160    83.5380    34.1830    -8.8900     2.0710 
  153.5000    58.9050    63.7400    55.6870    89.1670    34.1840    -8.8700     2.0700 
  153.6250    58.9380    62.6950    54.7780    94.9520    34.1810    -8.8930     2.0740 
  153.7500    60.0390    60.9450    53.2570    82.2680    34.1790    -8.9460     2.0810 
  153.8750    58.5080    58.9560    51.5270    66.6770    34.1780    -9.0160     2.0900 
  154.0000    54.6300    57.0960    49.9090    63.1030    34.1790    -9.0900     2.0960 
  154.1250    53.3240    55.6620    48.6620    67.4200    34.1840    -9.1850     2.0960 
  154.2500    55.7290    54.6880    47.8160    78.0640    34.1910    -9.3130     2.0930 
  154.3750    58.9770    54.2500    47.4350    81.9270    34.1790    -9.4540     2.0880 
  154.5000    60.8050    54.5240    47.6730    75.0780    34.1290    -9.5590     2.0850 
  154.6250    61.7900    55.9130    48.8810    67.5500    34.0670    -9.6110     2.0830 
  154.7500    62.9320    58.3470    50.9970    69.6540    34.0350    -9.6570     2.0790 
  154.8750    63.1710    61.6640    53.8820    72.8230    34.0300    -9.7050     2.0700 
  155.0000    61.8610    65.4850    57.2040    90.7620    34.0360    -9.7150     2.0570 
  155.1250    60.0630    69.1740    60.4120   112.5070    34.0250    -9.6660     2.0450 
  155.2500    59.1470    72.1840    63.0300   122.1630    33.9500    -9.6000     2.0370 
  155.3750    58.3740    74.2010    64.7840   120.2170    33.8100    -9.5650     2.0390 
  155.5000    57.6700    75.0650    65.5350   116.6010    33.6620    -9.5830     2.0490 
  155.6250    59.5720    74.5620    65.0970   116.3640    33.5350    -9.6220     2.0680 
  155.7500    63.2400    73.1030    63.8290   126.2800    33.4150    -9.6300     2.0900 
  155.8750    65.8020    71.0400    62.0350   144.4190    33.3190    -9.6190     2.1050 
  156.0000    65.5320    68.6610    59.9660   133.2550    33.2830    -9.6270     2.1060 
  156.1250    63.7460    66.0180    57.6680   106.0660    33.2760    -9.6580     2.0900 
  156.2500    62.6890    63.1010    55.1310    92.8500    33.2400    -9.6720     2.0710 
  156.3750    62.5520    59.9430    52.3850    93.1240    33.1900    -9.6630     2.0560 
  156.5000    62.1110    56.6920    49.5590    80.7780    33.1510    -9.6570     2.0500 
  156.6250    61.0830    53.5700    46.8430    62.1080    33.1360    -9.7090     2.0480 
  156.7500    59.7620    50.7860    44.4230    46.9140    33.1310    -9.7950     2.0470 
  156.8750    58.9340    48.5900    42.5130    40.4190    33.1280    -9.8470     2.0490 
  157.0000    59.6000    47.2340    41.3340    44.4080    33.1340    -9.8430     2.0600 
  157.1250    61.8150    47.1350    41.2480    51.4690    33.1420    -9.7890     2.0830 
  157.2500    64.5340    48.2860    42.2490    53.4680    33.1480    -9.7290     2.1030 
  157.3750    66.6170    50.7210    44.3660    57.6570    33.1250    -9.6410     2.1110 
  157.5000    65.9230    54.2830    47.4630    68.9250    33.0580    -9.4910     2.1050 
  157.6250    62.4210    58.5850    51.2040    79.2620    32.9790    -9.3020     2.0910 
  157.7500    59.2510    62.7770    54.8500    80.5900    32.9270    -9.1330     2.0810 
  157.8750    56.8020    66.2200    57.8440    78.2780    32.8710    -8.9880     2.0800 
  158.0000    53.6730    68.6430    59.9500    83.2320    32.7620    -8.8330     2.0860 
  158.1250    52.0230    70.2950    61.3870    95.0900    32.6170    -8.6560     2.0900 
  158.2500    53.3270    71.9500    62.8260   104.4330    32.5150    -8.4910     2.0890 
  158.3750    54.7360    73.9790    64.5910   111.0920    32.4770    -8.3610     2.0840 
  158.5000    54.6560    76.4300    66.7220   119.1580    32.4730    -8.2570     2.0820 
  158.6250    54.5210    79.1370    69.0750   128.0610    32.4630    -8.1240     2.0870 
  158.7500    53.7170    81.7530    71.3510   139.3500    32.4360    -7.9550     2.0950 
  158.8750    51.8880    83.9920    73.2980   148.9100    32.4040    -7.7820     2.1020 
  159.0000    50.9790    85.5740    74.6730   152.9160    32.3730    -7.6200     2.1030 
  159.1250    51.4800    86.0300    75.0700   152.7200    32.3350    -7.4670     2.1000 
  159.2500    51.5470    85.2490    74.3910   150.1160    32.2850    -7.3030     2.0990 
  159.3750    52.5210    83.1210    72.5400   144.1170    32.2080    -7.1410     2.1020 
  159.5000    56.9230    79.7050    69.5690   137.9090    32.0960    -6.9870     2.1110 
  159.6250    61.8280    74.8510    65.3490   125.9410    31.9940    -6.8780     2.1260 
  159.7500    63.1070    68.6020    59.9150   109.7640    31.9470    -6.8030     2.1410 
  159.8750    60.5520    60.9250    53.2390    91.0480    31.9470    -6.7410     2.1510 
  160.0000    57.7100    52.4310    45.8530    76.9490    31.9370    -6.6890     2.1560 
  160.1250    57.9380    44.6420    39.0800    61.7380    31.8720    -6.6790     2.1630 
