~V
VERS. 2.00: Ver 2.00
~W
STRT.M 55.0000:
STOP.M 207.0000:
STEP.M 0.1250:
NULL. -999.2500:
UWI. F11112:
~C
DEPT.M :
SP.MV :
RML.OHMM :
RI. :
RXO.OHMM :
CALI.CM :
DEN.GM/CC :
GR.API :
~A
# ...
  167.5000   -23.9250    38.6910    37.4350    26.9080    25.1240     2.3290    75.2190 
  167.6250   -24.0580    35.0550    32.9180    19.0720    25.0660     2.3440    80.5990 
  167.7500   -24.0960    36.4100    33.2040    21.4430    24.9500     2.3480    82.9180 
  167.8750   -24.0760    40.7880    36.8280    29.3450    24.7390     2.3360    81.5080 
  168.0000   -24.1240    46.5800    42.5800    40.8240    24.3570     2.3170    79.0370 
  168.1250   -24.3010    51.8470    48.6980    50.0300    23.7880     2.2980    77.2900 
  168.2500   -24.5580    54.1190    52.4850    53.7590    23.2200     2.2890    76.4430 
  168.3750   -24.7730    52.8850    52.5680    50.0220    22.9880     2.2920    75.8100 
  168.5000   -24.9100    48.9610    49.1460    40.6300    22.9330     2.3050    73.9720 
  168.6250   -24.9890    44.3610    44.0750    30.7540    22.9150     2.3210    71.7220 
  168.7500   -25.0490    41.6780    40.0630    25.8050    22.8810     2.3270    71.4760 
  168.8750   -25.1260    41.6750    38.4950    25.9420    22.8590     2.3170    73.1510 
  169.0000   -25.1760    44.5390    39.8420    28.9850    22.9160     2.2970    74.9060 
  169.1250   -25.2080    50.1570    44.2720    35.2850    23.1320     2.2740    75.2480 
  169.2500   -25.1830    58.9530    52.3460    44.0840    23.6260     2.2530    74.9900 
  169.3750   -25.1460    70.2790    63.3070    55.3980    24.2500     2.2370    73.4180 
  169.5000   -25.1280    85.0890    76.5210    64.8460    24.7420     2.2310    71.0260 
  169.6250   -25.1700   100.7920    90.8830    71.9480    24.9200     2.2280    69.1110 
  169.7500   -25.2750   115.4500   104.5440    84.2700    24.9740     2.2180    67.7320 
  169.8750   -25.3980   127.2950   115.7180    98.9560    25.0570     2.1980    67.2700 
  170.0000   -25.5400   135.1300   123.2070   110.1800    25.1230     2.1760    67.3190 
  170.1250   -25.7240   138.7960   126.8080   115.4770    25.1000     2.1630    66.3400 
  170.2500   -25.9500   139.1400   127.3020   108.8190    25.1020     2.1630    63.2790 
  170.3750   -26.1600   138.7080   127.2020    96.1790    25.1140     2.1730    60.2780 
  170.5000   -26.3700   138.8620   128.0940    90.8360    25.1280     2.1870    59.9020 
  170.6250   -26.5590   139.7480   130.5090    99.1390    25.1220     2.1990    60.6240 
  170.7500   -26.6760   140.0270   133.3380   120.6090    25.1250     2.2130    61.2700 
  170.8750   -26.7300   138.3690   134.1600   136.8160    25.0960     2.2340    62.6370 
  171.0000   -26.7830   133.1530   131.0390   134.5790    25.0490     2.2630    64.8860 
  171.1250   -26.8080   124.2740   123.3020   118.6560    25.0200     2.2910    66.2670 
  171.2500   -26.8370   114.6170   111.9020   101.8540    25.1080     2.3040    65.3320 
  171.3750   -26.8900   101.8650   100.3360    82.6990    25.3760     2.2970    64.6520 
  171.5000   -26.9340    92.2470    90.9260    66.1220    25.8100     2.2720    64.9510 
  171.6250   -26.9720    85.8980    84.5160    55.4330    26.2850     2.2330    64.4460 
  171.7500   -27.0740    81.5990    80.4340    51.5840    26.7450     2.1900    61.4580 
  171.8750   -27.2430    77.0980    76.4410    50.4270    27.1220     2.1490    58.0780 
  172.0000   -27.4210    71.3460    71.2470    49.7490    27.4110     2.1240    56.8160 
  172.1250   -27.6360    64.5110    64.6620    47.2080    27.4980     2.1330    58.4430 
  172.2500   -27.8860    58.4280    58.0790    36.9500    27.0570     2.1620    63.3400 
  172.3750   -28.1630    55.3270    53.7770    29.8860    26.1930     2.1980    68.8460 
  172.5000   -28.4320    56.8710    53.6310    30.7410    25.4830     2.2340    71.4590 
  172.6250   -28.6600    64.1170    59.0340    40.4600    25.2500     2.2590    70.2890 
  172.7500   -28.7970    78.4970    71.7930    64.2920    25.3470     2.2370    68.1700 
  172.8750   -28.8760    98.0090    90.0540    98.1010    25.5160     2.1980    66.6950 
  173.0000   -28.8910   119.7520   110.9620   135.2920    25.7540     2.1610    63.9630 
  173.1250   -28.8480   139.0690   129.8070   169.0120    25.9200     2.1420    59.6840 
  173.2500   -28.7460   148.7750   139.5010   168.8550    25.8610     2.1520    56.4340 
  173.3750   -28.5490   147.4010   138.7420   134.0010    25.6310     2.1820    56.3320 
  173.5000   -28.2230   138.1370   130.3580   102.3760    25.2960     2.2240    59.1680 
  173.6250   -27.8400   127.4200   119.9800    83.0650    24.9040     2.2680    61.9870 
  173.7500   -27.5250   120.4370   112.7540    74.2920    24.5560     2.3070    62.5460 
  173.8750   -27.1950   116.4510   108.8210    74.7840    24.3060     2.3360    63.1590 
  174.0000   -26.8520   112.8430   106.0020    79.0200    24.1760     2.3500    64.8800 
  174.1250   -26.4840   106.8250   101.4640    81.4790    24.1840     2.3560    66.1670 
  174.2500   -26.1220    96.4000    92.7300    78.0910    24.2840     2.3750    65.6560 
  174.3750   -25.8120    83.8160    81.2410    69.3080    24.2760     2.4120    65.0510 
  174.5000   -25.6300    72.4080    69.8080    60.2440    24.2660     2.4390    65.3900 
  174.6250   -25.4570    65.1740    61.4530    49.2470    24.3210     2.4300    67.4040 
  174.7500   -25.1840    64.4800    58.9500    46.1420    24.4860     2.4110    71.0560 
  174.8750   -24.8860    69.2190    61.7140    58.9030    24.5980     2.4240    73.5990 
  175.0000   -24.6020    78.4790    68.9720    82.3390    24.6320     2.4760    72.2540 
  175.1250   -24.3270    90.8430    79.3450   109.6160    24.5800     2.5500    67.1870 
  175.2500   -24.0310   104.4090    90.9180   126.2610    24.4630     2.6170    62.7510 
  175.3750   -23.6850   117.1240   101.6250   116.9920    24.3270     2.6540    62.8480 
  175.5000   -23.2620   128.5130   111.0040    98.8170    24.1980     2.6610    65.0940 
  175.6250   -22.8670   139.8500   120.2710    93.8770    24.0860     2.6590    65.9300 
  175.7500   -22.5250   153.8690   132.1090   108.5210    24.0430     2.6610    65.1620 
  175.8750   -22.2070   169.8100   146.4570   131.8360    24.0510     2.6700    64.5330 
  176.0000   -21.8760   182.7430   159.7220   156.7480    24.0310     2.6850    63.0750 
  176.1250   -21.5720   185.1220   165.4150   174.9940    23.9620     2.7030    60.4200 
  176.2500   -21.2690   166.4440   153.9520   173.9030    23.8340     2.7160    59.1850 
  176.3750   -20.9610   130.0810   126.2890   158.6980    23.6510     2.7130    59.9160 
  176.5000   -20.5840    87.9130    89.7340   127.9000    23.4480     2.6890    60.9730 
  176.6250   -20.0630    53.5930    55.8630    80.9380    23.3120     2.6510    61.6010 
  176.7500   -19.3550    33.2570    33.6860    40.1430    23.3020     2.5940    62.4170 
  176.8750   -18.5490    21.5110    20.7180    19.8460    23.4010     2.5110    63.9540 
  177.0000   -17.7110    14.9300    13.7010    11.7640    23.6670     2.4130    64.2610 
  177.1250   -16.7840    11.2060     9.9810     9.0890    24.0670     2.3370    61.9620 
  177.2500   -15.8230     9.1620     8.1030     7.7810    24.2740     2.3030    58.7830 
  177.3750   -14.9130     7.8800     6.9930     6.6750    24.2460     2.2880    57.7710 
  177.5000   -14.1450     7.3490     6.3460     5.8020    24.0300     2.2840    58.3930 
  177.6250   -13.5240     7.0380     5.9900     5.3480    23.6540     2.2930    59.8520 
  177.7500   -13.0950     6.8340     5.8340     5.2710    23.2230     2.3050    65.3360 
  177.8750   -12.7730     6.6290     5.7570     5.4100    23.0380     2.2970    73.6660 
  178.0000   -12.5460     6.3950     5.7020     5.5630    23.1890     2.2680    79.7860 
  178.1250   -12.4360     6.1490     5.6280     5.5640    23.6750     2.2380    80.5250 
  178.2500   -12.4340     5.9360     5.5260     5.2910    24.2590     2.2300    78.2690 
  178.3750   -12.4880     5.7710     5.4230     5.0390    24.6130     2.2270    76.9040 
  178.5000   -12.5910     5.7510     5.3530     4.8100    24.7980     2.2280    75.3370 
  178.6250   -12.7280     5.8010     5.3420     4.6480    24.9140     2.2350    72.1470 
