~V
VERS. 2.00: Ver 2.00
~W
STRT.M 63.0000:
STOP.M 246.0000:
STEP.M 0.1250:
NULL. -999.2500:
UWI. F11137:
~C
DEPT.M :
DEN.GM/CC :
GR.API :
RML.OHMM :
RI. :
RXO.OHMM :
CALI.CM :
SP.MV :
~A
# ...
  108.0000     2.1800    73.1070     8.6570     7.1760     9.0930    23.0650    -8.2710 
  108.1250     2.1860    72.0830     8.6700     7.1590     9.1350    23.0720    -7.7880 
  108.2500     2.1940    72.0300     8.6780     7.1370     9.1740    23.2240    -7.4130 
  108.3750     2.2010    70.7530     8.6960     7.1210     9.3380    23.6160    -7.0970 
  108.5000     2.2080    68.6580     8.7400     7.1240     9.3910    24.0420    -6.8420 
  108.6250     2.2110    68.3920     8.8190     7.1600     9.1370    24.2340    -6.6360 
  108.7500     2.2110    69.7510     8.9110     7.2200     9.1100    24.2060    -6.5520 
  108.8750     2.2080    71.6090     8.9860     7.2850     9.5140    24.0530    -6.6330 
  109.0000     2.2050    73.4750     9.0160     7.3340     9.7890    23.9310    -6.8180 
  109.1250     2.2050    73.3900     8.9790     7.3510     9.9500    23.8780    -7.0010 
  109.2500     2.2070    71.1590     8.8960     7.3450    10.0700    23.8200    -7.1350 
  109.3750     2.2100    69.5020     8.8000     7.3290    10.2740    23.7210    -7.2050 
  109.5000     2.2110    69.2520     8.7250     7.3210    10.3260    23.6340    -7.2330 
  109.6250     2.2100    69.5600     8.7090     7.3410    10.3080    23.6300    -7.2410 
  109.7500     2.2080    69.7570     8.7520     7.3920    10.3640    23.6560    -7.1900 
  109.8750     2.2090    69.7240     8.8440     7.4750    10.3890    23.6360    -7.0250 
  110.0000     2.2150    69.0850     8.9650     7.5880    10.4140    23.5330    -6.7260 
  110.1250     2.2260    69.0990     9.0580     7.7030    10.3120    23.3900    -6.2900 
  110.2500     2.2390    71.1830     9.0330     7.7490    10.1360    23.2370    -5.7710 
  110.3750     2.2510    74.8190     8.7860     7.6260    10.0560    23.0850    -5.1790 
  110.5000     2.2620    80.8150     8.2450     7.2380     9.8320    22.9610    -4.4620 
  110.6250     2.2740    91.8630     7.4040     6.5260     8.7690    22.9900    -3.7340 
  110.7500     2.2890   104.4120     6.4800     5.6790     7.1470    23.1880    -3.0980 
  110.8750     2.3080   112.0090     5.6830     4.8850     5.7900    23.3930    -2.6540 
  111.0000     2.3260   112.3910     5.1920     4.2970     4.9570    23.4360    -2.4900 
  111.1250     2.3380   108.4280     5.1720     4.0540     4.4930    23.2780    -2.7710 
  111.2500     2.3360   102.4730     5.5480     4.1320     4.8360    23.0380    -3.3850 
  111.3750     2.3210    93.0370     6.2330     4.5120     6.1770    22.8290    -4.3090 
  111.5000     2.2940    80.7950     7.0850     5.1370     7.8250    22.6840    -5.4990 
  111.6250     2.2630    70.9590     7.9050     5.9060     9.3360    22.7510    -6.7480 
  111.7500     2.2340    66.1940     8.5470     6.6370    10.5800    23.1210    -7.8590 
  111.8750     2.2120    65.3680     8.9690     7.2160    11.1380    23.7830    -8.7630 
  112.0000     2.1960    66.0890     9.2210     7.6150    11.1020    24.4500    -9.4060 
  112.1250     2.1800    66.5390     9.3900     7.8830    11.0680    24.8560    -9.6330 
  112.2500     2.1580    67.7200     9.5410     8.1100    11.3030    25.0790    -9.4330 
  112.3750     2.1350    70.4420     9.6360     8.2930    11.7310    25.2010    -8.7760 
  112.5000     2.1230    73.7010     9.5800     8.3600    12.1390    25.2570    -7.7030 
  112.6250     2.1400    79.2290     9.2310     8.1530    12.4050    25.3010    -6.3560 
  112.7500     2.1840    88.2140     8.6270     7.6490    12.0680    25.2500    -4.9260 
  112.8750     2.2430    96.6890     7.8740     6.9320    10.3560    25.1010    -3.4960 
  113.0000     2.3010   101.5570     7.1350     6.1790     7.3510    24.9930    -2.1120 
  113.1250     2.3410   104.4260     6.5880     5.5910     6.1500    24.9480    -0.8910 
  113.2500     2.3630   107.4430     6.2620     5.2180     5.8540    24.9240     0.0850 
  113.3750     2.3670   108.0540     6.1240     5.0550     5.9070    24.9010     0.7640 
  113.5000     2.3560   107.8980     6.1260     5.0360     5.9130    24.8960     1.1660 
  113.6250     2.3370   103.4090     6.2630     5.1110     5.9070    24.8540     1.3530 
  113.7500     2.3250    98.4930     6.5070     5.3250     5.8360    24.7890     1.4100 
  113.8750     2.3330    96.5860     6.8160     5.6380     5.9050    24.6640     1.3970 
  114.0000     2.3620    97.8120     7.1030     5.9950     5.9050    24.5600     1.3300 
  114.1250     2.4010    98.6360     7.2280     6.2710     6.4050    24.4900     1.2400 
  114.2500     2.4280    96.9340     7.1510     6.3630     8.0590    24.4180     1.1930 
  114.3750     2.4320    96.0710     6.9120     6.2550    11.0430    24.3450     1.1690 
  114.5000     2.4100    96.4040     6.6250     6.0290    11.0030    24.2780     1.1470 
  114.6250     2.3720    95.9390     6.4360     5.8140     8.0680    24.2930     1.0460 
  114.7500     2.3320    93.4110     6.3870     5.6960     6.9000    24.3960     0.9370 
  114.8750     2.2990    91.0420     6.4430     5.6850     6.6600    24.5630     0.8540 
  115.0000     2.2790    90.2710     6.5240     5.7400     6.7900    24.7190     0.8910 
  115.1250     2.2790    91.5930     6.5510     5.7780     7.3540    24.7570     1.0540 
  115.2500     2.2950    93.5880     6.5200     5.7600     7.5860    24.6850     1.2480 
  115.3750     2.3170    96.4300     6.4640     5.7070     7.2430    24.5590     1.4050 
  115.5000     2.3350   101.6630     6.4190     5.6540     6.9620    24.4200     1.5380 
  115.6250     2.3390   105.1650     6.3960     5.6220     6.8230    24.3890     1.7010 
  115.7500     2.3360   101.7150     6.3670     5.5950     6.7110    24.4130     1.8980 
  115.8750     2.3330    94.0840     6.3140     5.5500     6.7430    24.4070     2.0310 
  116.0000     2.3350    89.7450     6.2450     5.4790     6.7480    24.3970     2.0320 
  116.1250     2.3400    91.8310     6.2280     5.4270     6.8630    24.4330     1.8400 
  116.2500     2.3460    93.9220     6.3270     5.4640     6.5220    24.4920     1.5410 
  116.3750     2.3600    93.9530     6.5630     5.6260     6.1320    24.5460     1.2190 
  116.5000     2.3820    94.2610     6.8890     5.8940     6.1250    24.5590     0.8790 
  116.6250     2.3990    94.3050     7.2100     6.1780     6.4080    24.5500     0.4970 
  116.7500     2.3950    91.5740     7.4900     6.3940     7.1430    24.5020     0.0670 
  116.8750     2.3680    88.0550     7.8250     6.5850     7.8140    24.3990    -0.3180 
  117.0000     2.3420    87.6750     8.3930     6.9090     8.2650    24.3140    -0.6660 
  117.1250     2.3630    89.2640     9.4190     7.6290     8.3800    24.3120    -0.9620 
  117.2500     2.4330    86.8800    10.7800     8.7840     8.4720    24.3840    -1.2640 
  117.3750     2.5180    81.7790    12.1760    10.2480     9.7040    24.5160    -1.6160 
  117.5000     2.5680    78.5670    13.1910    11.6270    14.1330    24.6730    -2.0210 
  117.6250     2.5380    76.7390    13.4210    12.2720    24.5190    24.7750    -2.4510 
  117.7500     2.4530    74.1790    13.1050    12.1960    30.8140    24.7230    -2.9090 
  117.8750     2.3490    72.8430    12.6250    11.7810    26.5570    24.5510    -3.4170 
  118.0000     2.2600    73.0610    12.3190    11.4200    18.1990    24.3540    -3.9550 
  118.1250     2.2050    72.5360    12.2900    11.3080    17.0480    24.2790    -4.4160 
  118.2500     2.1770    70.7830    12.2720    11.2950    19.6950    24.2570    -4.7210 
  118.3750     2.1660    71.0120    12.0260    11.1660    19.1370    24.2220    -4.7790 
  118.5000     2.1660    75.6720    11.4750    10.7710    14.1530    24.2030    -4.6270 
  118.6250     2.1790    81.5780    10.8000    10.1760    11.3820    24.2420    -4.2440 
  118.7500     2.2100    83.4550    10.3860     9.6960    11.4170    24.2870    -3.7230 
  118.8750     2.2690    79.6670    10.5430     9.5990    13.1370    24.3160    -3.0610 
  119.0000     2.3610    75.9060    11.5010    10.0990    14.6760    24.3540    -2.3070 
  119.1250     2.4720    74.6300    13.5560    11.5620    14.1330    24.3900    -1.5170 
