~V
VERS. 2.00: Ver 2.00
~W
STRT.M 50.0000:
STOP.M 242.0000:
STEP.M 0.1250:
NULL. -999.2500:
UWI. F11136:
~C
DEPT.M :
GR.API :
RML.OHMM :
RI. :
RXO.OHMM :
CALI.CM :
SP.MV :
DEN.GM/CC :
~A
# ...
  196.2500    55.7240    65.7430    65.0140    41.0940    23.5980   -33.3880     2.2430 
  196.3750    56.9900    61.3770    59.2110    36.8570    23.9410   -33.2090     2.2630 
  196.5000    55.1270    63.3320    59.4720    38.6940    24.2800   -33.0280     2.2760 
  196.6250    53.3910    70.6120    65.5400    49.6310    24.3610   -32.8380     2.2720 
  196.7500    55.0530    79.9860    74.5180    69.2240    24.4120   -32.6020     2.2570 
  196.8750    56.3790    88.1940    83.3240    83.5180    24.4150   -32.3840     2.2380 
  197.0000    54.6460    91.8430    88.4130    80.2570    24.3900   -32.2050     2.2250 
  197.1250    53.7000    89.3700    87.4130    65.7580    24.3260   -32.0500     2.2240 
  197.2500    54.7600    84.9850    83.7410    53.9280    24.2660   -31.8640     2.2300 
  197.3750    56.1080    82.2970    80.9170    50.3550    24.2180   -31.6690     2.2350 
  197.5000    56.9980    83.3770    81.1810    54.0400    24.1790   -31.4680     2.2360 
  197.6250    58.1450    89.2250    85.4550    63.3180    24.0940   -31.2380     2.2360 
  197.7500    57.0730    97.9310    91.9900    77.3760    24.0240   -31.0380     2.2400 
  197.8750    53.2470   107.3440    99.0650    89.9080    24.0760   -30.8340     2.2550 
  198.0000    50.7670   115.1170   104.9870    96.1490    24.1100   -30.5900     2.2810 
  198.1250    52.7400   119.5530   108.5970    94.5750    23.9250   -30.3220     2.3140 
  198.2500    54.7620   122.3760   110.9990    91.2820    23.8500   -30.0720     2.3450 
  198.3750    53.1320   126.1060   113.8230    94.0930    23.7780   -29.8320     2.3700 
  198.5000    50.4700   133.0450   118.8780   103.0530    23.7260   -29.6330     2.3870 
  198.6250    51.3320   145.4100   128.6400   117.3160    23.6830   -29.4170     2.3970 
  198.7500    54.0200   162.4500   143.3900   130.4780    23.6940   -29.1890     2.4080 
  198.8750    54.1020   181.5850   161.7940   152.5440    23.5570   -28.9780     2.4300 
  199.0000    50.6650   194.3130   177.5970   193.8780    23.4500   -28.7740     2.4720 
  199.1250    48.6230   179.9580   173.1940   234.4880    23.4370   -28.5590     2.5360 
  199.2500    49.2600   138.3030   141.8900   242.4180    23.3930   -28.3480     2.6050 
  199.3750    51.0140    88.7820    95.8650   197.3960    23.4120   -28.1720     2.6600 
  199.5000    51.6250    73.4010    55.6070   115.3020    23.2780   -28.0060     2.6880 
  199.6250    52.2180    35.4400    32.2180    46.1170    22.9570   -27.9120     2.6760 
  199.7500    57.0310    21.7620    19.7840    19.1590    23.3100   -27.8570     2.6330 
  199.8750    67.1590    15.0210    13.6550    10.1910    23.9690   -27.8070     2.5710 
  200.0000    79.9600    11.8210    10.7470     8.1700    23.8590   -27.8240     2.5060 
  200.1250    89.0310    10.5800     9.6180     8.8560    23.6130   -27.9450     2.4610 
  200.2500    91.5960    10.1910     9.2640     9.9450    23.7250   -28.1240     2.4420 
  200.3750    89.8670    10.2370     9.3060    10.2220    23.8070   -28.3210     2.4470 
  200.5000    86.2950    10.4120     9.4660     9.5380    23.8140   -28.5340     2.4650 
  200.6250    82.8770    10.5120     9.5560     9.4700    23.8590   -28.7640     2.4820 
  200.7500    80.3430    10.5420     9.5840    10.8370    23.8500   -29.0010     2.4880 
  200.8750    80.1290    10.6120     9.6470    11.4850    23.8770   -29.2560     2.4800 
  201.0000    81.6040    10.8390     9.8540    11.4740    23.9110   -29.4690     2.4580 
  201.1250    81.8000    11.3510    10.3190    12.4330    23.8780   -29.5850     2.4300 
  201.2500    80.0760    12.0820    10.9830    14.0020    23.8560   -29.6650     2.4080 
  201.3750    77.3700    12.8860    11.7150    15.7140    23.7780   -29.6800     2.3980 
  201.5000    74.4150    13.5010    12.2740    16.9100    23.7090   -29.5920     2.4000 
  201.6250    71.5220    13.5610    12.3280    16.9530    23.7230   -29.4260     2.4090 
  201.7500    70.7720    13.0950    11.9040    15.9600    23.7490   -29.2050     2.4160 
  201.8750    73.8770    12.3170    11.1980    14.5030    23.8760   -28.9160     2.4190 
  202.0000    79.5710    11.5310    10.4830    12.7240    24.0060   -28.6410     2.4220 
  202.1250    84.2480    11.0150    10.0140    11.5870    24.0650   -28.4490     2.4280 
  202.2500    85.0570    10.8060     9.8240    11.8170    24.1850   -28.2630     2.4350 
  202.3750    82.0010    10.8430     9.8580    12.3200    24.3040   -28.1050     2.4400 
  202.5000    77.9380    11.0010    10.0010    12.9170    24.2690   -28.0200     2.4370 
  202.6250    78.3780    11.1170    10.1070    13.5110    24.2580   -27.9700     2.4260 
  202.7500    81.5010    11.1060    10.0970    13.5360    24.2400   -27.9380     2.4120 
  202.8750    82.0420    10.9900     9.9910    13.2320    24.2200   -27.9430     2.4020 
  203.0000    79.5760    10.8510     9.8650    12.8630    24.2240   -27.9230     2.3950 
  203.1250    77.8120    10.7930     9.8120    12.8030    24.0990   -27.8960     2.3900 
  203.2500    78.0710    10.8540     9.8670    13.1860    23.9930   -27.8390     2.3840 
  203.3750    78.1670    11.0530    10.0480    14.0640    23.9480   -27.7630     2.3780 
  203.5000    75.6390    11.4140    10.3760    15.4380    23.9410   -27.6560     2.3710 
  203.6250    72.4980    11.9940    10.9040    16.6540    23.9280   -27.4950     2.3660 
  203.7500    70.9780    12.8110    11.6460    17.5270    23.8150   -27.2660     2.3670 
  203.8750    70.5620    13.9480    12.6800    18.0420    23.4770   -26.9510     2.3760 
  204.0000    68.2410    15.5100    14.1000    19.1450    23.2780   -26.5650     2.3960 
  204.1250    61.9150    17.4850    15.8960    19.6480    23.1470   -26.0450     2.4260 
  204.2500    57.6720    19.2640    17.5130    21.2770    23.0540   -25.4390     2.4600 
  204.3750    57.9420    19.8970    18.0880    24.4460    22.9860   -24.7840     2.4960 
  204.5000    62.7820    18.5990    16.9080    28.0800    23.0060   -24.1000     2.5270 
  204.6250    68.4110    15.5080    14.0980    22.7970    23.0650   -23.4080     2.5430 
  204.7500    73.7230    12.2130    11.1030    13.3500    23.0320   -22.7760     2.5400 
  204.8750    80.0540     9.5780     8.7070     7.7520    23.1330   -22.2460     2.5170 
  205.0000    85.2780     7.8490     7.1350     6.3160    23.3750   -21.8370     2.4810 
  205.1250    86.3510     7.0390     6.3990     6.6950    23.7110   -21.5690     2.4420 
  205.2500    86.1710     6.8010     6.1820     7.3670    23.7950   -21.4470     2.4100 
  205.3750    86.8510     6.9040     6.2760     7.7750    23.7950   -21.4170     2.3870 
  205.5000    87.1540     7.1100     6.4630     7.8250    23.7810   -21.4480     2.3740 
  205.6250    85.9390     7.2250     6.5680     7.7420    23.7840   -21.5660     2.3710 
  205.7500    86.2080     7.2660     6.6050     7.6400    23.7780   -21.7200     2.3730 
  205.8750    89.2010     7.3630     6.6940     7.3180    23.7540   -21.8930     2.3750 
  206.0000    91.3410     7.6860     6.9870     7.4530    23.8120   -22.0900     2.3720 
  206.1250    89.3310     8.4330     7.6660     9.0050    23.8440   -22.3110     2.3590 
  206.2500    85.3870     9.5390     8.6720    11.2320    23.8480   -22.5240     2.3400 
  206.3750    82.8900    10.8420     9.8570    12.9590    23.8260   -22.7500     2.3200 
  206.5000    81.4550    12.0740    10.9760    13.8640    23.7900   -22.9940     2.3030 
  206.6250    78.7410    12.9090    11.7360    13.8890    23.7680   -23.2760     2.2930 
  206.7500    74.9880    13.3660    12.1510    13.8430    23.7590   -23.5870     2.2870 
  206.8750    72.9310    13.6130    12.3760    14.2190    23.7750   -23.9080     2.2810 
  207.0000    73.7040    13.8450    12.5860    14.9470    23.7850   -24.1800     2.2740 
  207.1250    74.9390    14.1880    12.8980    15.5290    23.7770   -24.4060     2.2660 
  207.2500    74.1410    14.6560    13.3240    16.0540    23.7420   -24.6080     2.2610 
  207.3750    71.9680    15.2380    13.8530    16.8030    23.7230   -24.7910     2.2610 
