~V
VERS. 2.00: Ver 2.00
~W
STRT.M 59.0000:
STOP.M 247.0000:
STEP.M 0.1250:
NULL. -999.2500:
UWI. F11130:
~C
DEPT.M :
DEN.GM/CC :
SP.MV :
GR.API :
RML.OHMM :
RI. :
RXO.OHMM :
CALI.CM :
~A
# ...
  171.5000     2.2280   -10.6640    62.9060   159.2010   147.4440    19.4510    27.0970 
  171.6250     2.2270   -11.3310    62.5080   164.2710   150.9420    19.1310    27.1460 
  171.7500     2.2280   -11.9780    60.2250   168.3140   153.7040    30.2560    27.2120 
  171.8750     2.2290   -12.6260    57.7160   175.1390   158.8180    83.8940    27.3260 
  172.0000     2.2280   -13.1530    55.9350   185.6470   167.3620   358.6590    27.4330 
  172.1250     2.2250   -13.5590    54.8200   199.5700   179.7820   357.3010    27.5330 
  172.2500     2.2190   -13.8570    54.8370   214.5730   193.9940   327.5440    27.5990 
  172.3750     2.2090   -14.1700    56.2930   227.7810   207.4690   300.3580    27.6300 
  172.5000     2.1990   -14.4420    58.6800   235.4160   216.9220   255.9030    27.6670 
  172.6250     2.1910   -14.6400    59.5350   232.3530   217.5100   148.3400    27.7470 
  172.7500     2.1870   -14.6830    57.8650   219.4350   209.1650    96.3670    27.8790 
  172.8750     2.1870   -14.6160    56.2750   201.9050   193.9580    82.7210    28.0440 
  173.0000     2.1900   -14.5750    57.3270   186.6020   175.9520    73.1570    28.1770 
  173.1250     2.1950   -14.5550    61.2790   175.9810   159.8400    64.1750    28.2530 
  173.2500     2.2040   -14.6260    65.3860   166.1360   147.6310    60.9980    28.3060 
  173.3750     2.2160   -14.6500    67.0070   155.9870   139.2160    55.2490    28.3500 
  173.5000     2.2280   -14.6900    64.6920   146.9000   133.2510    44.1860    28.3790 
  173.6250     2.2370   -14.7490    60.6910   138.6030   127.6570    31.1290    28.4050 
  173.7500     2.2440   -14.8550    59.5620   129.1060   120.6100    23.9010    28.4250 
  173.8750     2.2510   -14.9810    61.6900   118.5670   111.7220    20.5380    28.4480 
  174.0000     2.2590   -15.0270    63.6120   108.1830   101.9900    19.0860    28.4780 
  174.1250     2.2650   -15.0700    62.7740   100.2500    93.7620    22.0040    28.5910 
  174.2500     2.2670   -14.9600    61.0870    95.9810    88.7390    25.7220    28.7970 
  174.3750     2.2620   -14.8510    59.3790    95.9890    87.8320    31.5840    29.0160 
  174.5000     2.2530   -14.7100    58.9160   100.1800    91.2040    33.9510    29.1340 
  174.6250     2.2420   -14.4890    61.4560   108.1120    98.6440    31.8500    29.0660 
  174.7500     2.2300   -14.1890    65.2880   117.4570   107.8370    30.9220    28.9310 
  174.8750     2.2180   -13.8900    67.4140   126.2700   116.7300    35.6000    28.8900 
  175.0000     2.2080   -13.6370    66.5670   132.9160   123.5190    36.7820    28.8910 
  175.1250     2.2060   -13.3630    64.6590   136.2160   126.9710    35.2390    28.7820 
  175.2500     2.2140   -13.1740    63.0980   137.1420   128.1520    40.9190    28.7080 
  175.3750     2.2270   -12.9280    62.5830   136.5530   127.9840    47.9870    28.7300 
  175.5000     2.2390   -12.6980    62.7660   135.0820   127.0630    52.0240    28.8160 
  175.6250     2.2420   -12.5240    63.0410   132.8500   125.4150    48.9210    28.8750 
  175.7500     2.2370   -12.5140    63.1790   129.9340   123.0410    48.9740    28.9160 
  175.8750     2.2290   -12.5000    63.5720   126.3400   119.9530    45.7810    28.9660 
  176.0000     2.2240   -12.4510    63.1510   122.2100   116.3050    45.6750    29.0210 
  176.1250     2.2240   -12.4020    61.0420   117.8510   112.3170    49.3030    29.0310 
  176.2500     2.2290   -12.3150    59.0220   113.7590   108.4490    50.5640    28.9820 
  176.3750     2.2340   -12.3370    58.6800   110.3530   105.1470    51.0130    28.9230 
  176.5000     2.2390   -12.3120    60.3400   107.9840   102.7180    54.7900    28.8850 
  176.6250     2.2410   -12.2660    62.2080   107.2300   101.5970    59.9340    28.8580 
  176.7500     2.2430   -12.0930    62.0660   108.2010   102.0270    60.7950    28.8230 
  176.8750     2.2460   -11.9250    61.0860   111.1170   104.4450    59.4250    28.7880 
  177.0000     2.2500   -11.8550    62.1610   115.9210   108.9860    55.6530    28.7610 
  177.1250     2.2490   -11.8010    65.1350   122.1300   115.4290    51.4010    28.7140 
  177.2500     2.2420   -11.8050    65.8780   128.1140   122.2440    58.7870    28.5650 
  177.3750     2.2320   -11.7170    64.7250   132.2280   127.6930    81.6310    28.2800 
  177.5000     2.2230   -11.6970    64.8530   133.1210   130.0330   121.7440    28.0530 
  177.6250     2.2210   -11.7140    67.7260   129.9570   127.8710   117.7170    28.0740 
  177.7500     2.2250   -11.8490    70.1480   124.5290   122.8470   132.2180    28.3430 
  177.8750     2.2320   -12.0030    69.4740   118.5290   116.7780   146.5210    28.6860 
  178.0000     2.2380   -12.0970    66.1930   113.3860   111.3830   150.7320    28.9300 
  178.1250     2.2430   -12.1770    62.7270   110.1520   107.9350   133.8280    28.9930 
  178.2500     2.2450   -12.2370    60.6790   108.6350   106.1890   111.0420    28.9530 
  178.3750     2.2460   -12.4400    60.4700   108.7040   105.8850    99.0080    28.8850 
  178.5000     2.2440   -12.6690    62.2520   110.3330   106.9520    88.7710    28.8150 
  178.6250     2.2400   -12.9290    64.3780   113.9550   109.8700    86.0280    28.7280 
  178.7500     2.2350   -13.0970    64.2450   119.4410   114.6700    93.6390    28.6450 
  178.8750     2.2310   -13.3420    61.8370   126.6950   121.4140   106.9840    28.6260 
  179.0000     2.2280   -13.6280    59.7240   135.1860   129.7260   112.8630    28.6930 
  179.1250     2.2240   -13.9590    59.4200   143.5910   138.4620   117.9920    28.7510 
  179.2500     2.2190   -14.1990    59.1910   150.1100   145.6650   123.4760    28.7580 
  179.3750     2.2140   -14.2440    57.7330   153.3840   149.5860   115.8990    28.7460 
  179.5000     2.2110   -14.2690    55.1730   153.0440   149.3870   101.4540    28.6730 
  179.6250     2.2120   -14.2490    53.9100   149.9430   145.7270   102.3300    28.5960 
  179.7500     2.2160   -14.3740    55.7790   146.6680   141.6570   105.0470    28.5310 
  179.8750     2.2190   -14.4230    59.1900   144.7730   139.1670   107.9560    28.4950 
  180.0000     2.2190   -14.3710    61.5200   144.6390   139.0010   117.5120    28.4940 
  180.1250     2.2150   -14.2580    60.8070   145.1580   140.3210   133.4860    28.5090 
  180.2500     2.2100   -14.1970    59.8390   144.2120   140.5770   150.6710    28.4900 
  180.3750     2.2090   -14.2680    59.3810   140.5070   137.8380   143.2380    28.4960 
  180.5000     2.2140   -14.3330    59.4130   134.0950   131.6050   116.8990    28.4720 
  180.6250     2.2260   -14.4430    60.5560   126.6340   123.3010    92.2160    28.4350 
  180.7500     2.2410   -14.3870    62.1780   120.7670   116.0370    79.7080    28.3330 
  180.8750     2.2530   -14.3560    64.8760   118.1520   111.8290    74.4210    28.1860 
  181.0000     2.2580   -14.4420    67.3670   119.4270   111.6390    70.0240    28.0340 
  181.1250     2.2510   -14.5260    66.7990   124.5300   115.8070    77.2700    27.9890 
  181.2500     2.2360   -14.5180    62.8630   131.2500   122.1710   103.6830    27.9510 
  181.3750     2.2160   -14.4050    58.7960   137.6340   128.6570   127.7900    27.8720 
  181.5000     2.1980   -14.2900    57.6160   141.8750   133.2560   139.5390    27.7940 
  181.6250     2.1860   -14.0550    57.2350   142.3630   134.2030   134.3470    27.7280 
  181.7500     2.1790   -13.8960    56.2560   139.8810   132.2840   125.6810    27.6560 
  181.8750     2.1780   -13.6760    56.5390   135.4050   128.6910   120.9950    27.5910 
  182.0000     2.1820   -13.4010    58.2050   129.8450   124.5370   123.9910    27.5310 
  182.1250     2.1910   -13.1480    59.8340   123.3810   119.9420   120.8730    27.4780 
  182.2500     2.2030   -13.0490    60.1480   115.8620   114.2440   111.4370    27.4240 
  182.3750     2.2160   -13.0130    61.4310   107.0910   106.9160   104.0450    27.3730 
  182.5000     2.2280   -12.9320    64.4520    97.3220    98.0660    95.6480    27.3340 
  182.6250     2.2360   -12.9080    66.6020    87.3240    88.4320    83.7500    27.3770 
