~V
VERS. 2.00: Ver 2.00
~W
STRT.M 52.0000:
STOP.M 239.0000:
STEP.M 0.1250:
NULL. -999.2500:
UWI. F11118:
~C
DEPT.M :
DEN.GM/CC :
GR.API :
RML.OHMM :
RI. :
RXO.OHMM :
CALI.CM :
SP.MV :
~A
# ...
  164.5000     2.1900    61.2470   103.3980    95.4910    85.8320    32.9950   -34.2020 
  164.6250     2.1810    63.5320   104.3400    96.5720    92.8730    33.0620   -34.4770 
  164.7500     2.1700    62.4030   104.7550    97.0000    92.6930    33.0600   -34.7480 
  164.8750     2.1590    60.5910   104.5860    96.5330    89.5230    32.9330   -35.0010 
  165.0000     2.1520    60.8470   104.2000    95.4300    86.8240    33.0370   -35.2690 
  165.1250     2.1520    60.2050   104.3390    94.4350    92.7180    33.3200   -35.5360 
  165.2500     2.1550    57.9330   105.4890    94.2810   100.5510    33.7910   -35.7660 
  165.3750     2.1620    55.4370   107.9170    95.3410   105.4500    33.9880   -35.9590 
  165.5000     2.1670    55.0650   111.7150    97.7770   109.1650    33.9600   -36.1350 
  165.6250     2.1690    56.9700   117.0630   101.8520   119.0700    34.0410   -36.2410 
  165.7500     2.1680    58.5420   123.5120   107.1540   130.1660    34.2220   -36.2930 
  165.8750     2.1640    59.0580   130.4960   113.1700   132.7220    34.3150   -36.3170 
  166.0000     2.1590    58.0620   136.8810   118.8800   127.3520    34.3310   -36.2610 
  166.1250     2.1580    57.4250   140.2980   122.0930   138.3950    34.3200   -36.1350 
  166.2500     2.1630    58.9510   139.4500   121.4160   148.8670    34.3560   -35.9500 
  166.3750     2.1760    62.3590   134.2000   116.5700   146.6080    34.3830   -35.7050 
  166.5000     2.1940    66.2210   126.0750   108.8690   125.5600    34.3780   -35.4060 
  166.6250     2.2120    67.6550   117.9340   100.8950    99.4870    34.3690   -35.0850 
  166.7500     2.2210    66.2200   112.2740    94.9790    80.3070    34.4060   -34.7250 
  166.8750     2.2190    64.1030   110.1090    92.0520    73.2390    34.4710   -34.3370 
  167.0000     2.2060    61.5280   111.4300    92.0800    76.4960    34.4570   -33.9210 
  167.1250     2.1850    60.6750   115.9620    94.7840    86.9980    34.5260   -33.4940 
  167.2500     2.1600    60.4460   122.3580    99.0610    91.5150    34.5830   -33.0330 
  167.3750     2.1330    58.4520   129.9840   104.3820    83.1740    34.5340   -32.5530 
  167.5000     2.1070    55.3920   138.2620   110.2340    72.3020    33.9050   -32.0460 
  167.6250     2.0910    53.7030   145.9410   115.6760    80.3210    32.8760   -31.4980 
  167.7500     2.0890    53.9840   150.7740   119.1320   104.1270    32.0990   -30.9190 
  167.8750     2.1020    53.2120   150.1020   118.6740   117.0850    32.2270   -30.2910 
  168.0000     2.1240    52.1300   142.6970   113.1310    86.6240    32.9020   -29.6340 
  168.1250     2.1490    54.5760   130.3620   103.1930    53.5620    33.0860   -28.9330 
  168.2500     2.1710    59.1880   118.5950    92.9400    32.6620    32.4590   -28.2140 
  168.3750     2.1840    61.7540   110.6110    85.2610    25.9610    30.7840   -27.4860 
  168.5000     2.1880    59.8230   107.5190    81.5910    27.8230    29.8960   -26.7280 
  168.6250     2.1840    56.5290   108.6830    82.0110    23.8790    28.8990   -25.9540 
  168.7500     2.1830    55.4910   110.0700    83.4980    19.0290    28.6650   -25.1370 
  168.8750     2.1950    55.7580   107.6620    82.9020    22.4960    30.2820   -24.3110 
  169.0000     2.2220    58.3380    98.6680    77.6390    31.5180    31.6660   -23.4730 
  169.1250     2.2550    64.0000    83.4340    67.0030    37.2530    31.7790   -22.6090 
  169.2500     2.2770    68.3240    67.3380    54.7960    34.1040    31.7870   -21.8140 
  169.3750     2.2780    69.0150    53.7290    43.9220    25.4580    31.7840   -21.3840 
  169.5000     2.2630    68.5280    43.9530    35.8690    18.8490    31.7960   -21.0600 
  169.6250     2.2400    69.1470    38.3160    31.1250    17.0790    31.8610   -20.8280 
  169.7500     2.2190    70.0440    35.2300    28.4770    17.0540    31.8380   -20.6180 
  169.8750     2.2070    71.6750    33.6870    27.1670    17.4580    31.7710   -20.4180 
  170.0000     2.2050    73.0880    32.7110    26.4880    18.0940    31.6670   -20.2540 
  170.1250     2.2170    71.4660    31.4470    25.8010    18.8750    31.4210   -20.0510 
  170.2500     2.2380    69.4890    29.6610    24.7950    18.6930    31.2520   -19.8300 
  170.3750     2.2600    70.2880    27.5890    23.5440    17.1830    31.4060   -19.6270 
  170.5000     2.2760    73.8440    25.6350    22.3030    15.4210    31.8290   -19.5110 
  170.6250     2.2800    77.7250    24.1210    21.3220    15.3140    31.7790   -19.4880 
  170.7500     2.2740    78.9710    22.9030    20.5310    16.6910    31.7750   -19.4890 
  170.8750     2.2680    77.9930    21.7190    19.7290    17.8670    31.7650   -19.5150 
  171.0000     2.2660    76.6770    20.3050    18.6970    17.8780    31.7170   -19.5720 
  171.1250     2.2730    76.8710    18.5020    17.2940    15.4300    31.4850   -19.6780 
  171.2500     2.2830    79.5130    16.5600    15.7540    12.5510    31.2980   -19.8320 
  171.3750     2.2970    83.1480    14.7910    14.3460    10.5060    30.9870   -20.0090 
  171.5000     2.3110    83.9300    13.4270    13.2580     9.9110    30.8450   -20.1800 
  171.6250     2.3250    82.5940    12.6100    12.5950     9.8580    30.2170   -20.4380 
  171.7500     2.3390    83.8990    12.1740    12.2100    10.3120    29.7800   -20.8790 
  171.8750     2.3480    86.9660    11.9860    11.9800    10.4710    29.5480   -21.1510 
  172.0000     2.3500    86.0680    11.9150    11.8070     9.9150    29.2780   -21.4920 
  172.1250     2.3440    82.9050    11.9070    11.6560     9.5260    29.1400   -21.8400 
  172.2500     2.3370    82.4690    11.9850    11.5320     9.3930    28.7640   -22.1490 
  172.3750     2.3340    82.4010    12.1880    11.4570     9.6680    28.2470   -22.7770 
  172.5000     2.3370    80.7470    12.5470    11.4500    10.3360    27.5650   -23.2140 
  172.6250     2.3440    78.5170    13.1620    11.5630    11.0120    27.3430   -23.5720 
  172.7500     2.3500    77.9330    14.1250    11.8550    11.7660    27.4930   -23.9460 
  172.8750     2.3450    78.7770    15.7090    12.4900    12.6500    27.6830   -24.3370 
  173.0000     2.3280    78.5960    18.4170    13.7580    13.8520    27.6630   -24.7690 
  173.1250     2.2960    75.2500    23.4270    16.3660    16.6580    27.1330   -25.2360 
  173.2500     2.2580    71.3150    31.4120    20.8920    22.6770    26.4680   -25.7200 
  173.3750     2.2240    69.6580    43.2320    28.1950    34.5290    26.3330   -26.2190 
  173.5000     2.1990    70.3670    59.4910    39.0250    51.7810    27.1340   -26.7390 
  173.6250     2.1860    69.4160    68.8610    54.0290    69.5730    29.1250   -27.2740 
  173.7500     2.1800    65.3950    88.7650    71.2230    82.4010    30.1360   -27.8160 
  173.8750     2.1760    61.7660   108.2820    88.4710    93.3210    30.3750   -28.3300 
  174.0000     2.1730    61.6170   125.5990   103.9770   106.4140    30.4610   -28.8190 
  174.1250     2.1680    61.7980   139.9760   116.6830   119.1400    30.5440   -29.2720 
  174.2500     2.1620    59.6390   152.5380   127.3300   130.6500    30.6440   -29.7000 
  174.3750     2.1580    58.7220   163.2980   136.1040   137.4550    30.7100   -30.1060 
  174.5000     2.1530    60.9330   171.4320   142.7900   138.7950    30.7510   -30.4720 
  174.6250     2.1500    62.8480   175.6010   146.8570   135.9840    30.7870   -30.7710 
  174.7500     2.1480    63.3910   176.5180   148.9640   132.5410    30.6900   -31.0240 
  174.8750     2.1480    63.2850   175.0620   149.6840   128.9070    30.7010   -31.2170 
  175.0000     2.1500    62.3460   172.3920   149.6190   126.1590    30.6910   -31.3620 
  175.1250     2.1540    61.8770   169.5810   149.2360   118.8220    30.7010   -31.4480 
  175.2500     2.1580    62.0890   167.1170   148.8200   115.3700    30.7170   -31.5110 
  175.3750     2.1610    62.1100   164.8110   148.3280   115.4340    30.7630   -31.5360 
  175.5000     2.1620    62.9950   162.0030   147.4660   113.6000    30.7680   -31.5560 
  175.6250     2.1610    66.9420   157.4960   145.4530   108.2990    30.7450   -31.5660 
