~V
VERS. 2.00: Ver 2.00
~W
STRT.M 50.0000:
STOP.M 245.0000:
STEP.M 0.1250:
NULL. -999.2500:
UWI. F11135:
~C
DEPT.M :
GR.API :
RML.OHMM :
RI. :
RXO.OHMM :
CALI.CM :
SP.MV :
DEN.GM/CC :
~A
# ...
  207.5000    67.5950     7.5140     6.4760     6.2790    24.7970   -21.0280     2.3010 
  207.6250    68.9700     8.3110     7.1090     7.1200    24.7830   -21.2740     2.2800 
  207.7500    66.8610     9.4560     8.0140     8.6440    24.7400   -21.5160     2.2580 
  207.8750    62.6260    10.9440     9.2110    10.1640    24.6690   -21.7760     2.2410 
  208.0000    59.2950    12.6980    10.6700    11.5180    24.6620   -22.0650     2.2320 
  208.1250    59.3150    14.4680    12.2420    13.2070    24.7650   -22.3720     2.2370 
  208.2500    61.4800    15.8350    13.5690    15.0920    24.8570   -22.7020     2.2510 
  208.3750    63.2780    16.4450    14.2990    17.1160    24.8840   -23.0080     2.2710 
  208.5000    61.4210    16.1830    14.2650    18.6070    24.8840   -23.3020     2.2880 
  208.6250    58.9260    15.2760    13.5840    18.0050    24.8590   -23.5710     2.2910 
  208.7500    62.0980    14.3990    12.7970    15.4240    24.8050   -23.8510     2.2880 
  208.8750    69.0640    14.0010    12.2700    12.8620    24.7920   -24.1220     2.2800 
  209.0000    72.8500    14.3140    12.2300    12.4720    24.7890   -24.3810     2.2650 
  209.1250    69.1980    15.4160    12.8390    14.9820    24.7870   -24.6540     2.2520 
  209.2500    62.7650    16.9410    13.9240    17.2380    24.7870   -24.9300     2.2440 
  209.3750    57.9250    18.5390    15.2780    18.2950    24.7930   -25.2150     2.2390 
  209.5000    56.8170    19.8420    16.5920    18.7990    24.7830   -25.4970     2.2360 
  209.6250    57.3740    20.5280    17.5050    19.5150    24.7430   -25.7940     2.2350 
  209.7500    58.5950    20.7530    17.9990    20.0030    24.7350   -26.0700     2.2360 
  209.8750    61.9050    20.7190    18.1890    20.0370    24.7270   -26.3420     2.2380 
  210.0000    65.4550    20.5880    18.2020    19.8520    24.7180   -26.6070     2.2410 
  210.1250    65.7040    20.4210    18.0900    19.6610    24.7260   -26.8730     2.2430 
  210.2500    65.0510    20.2160    17.8890    19.4480    24.7270   -27.1280     2.2430 
  210.3750    65.9230    19.9390    17.5960    19.2230    24.7140   -27.3960     2.2410 
  210.5000    67.7950    19.6230    17.2470    18.9790    24.7240   -27.6860     2.2430 
  210.6250    68.1980    19.5370    17.0400    18.7000    24.7330   -27.9740     2.2500 
  210.7500    67.1370    20.0640    17.2590    18.4890    24.7350   -28.2770     2.2650 
  210.8750    64.7490    21.6170    18.2270    18.5740    24.7350   -28.5810     2.2840 
  211.0000    61.2700    24.5340    20.2730    19.5980    24.7300   -28.9110     2.2990 
  211.1250    57.7720    29.2050    23.9530    23.9980    24.7000   -29.2530     2.2980 
  211.2500    54.2580    35.0190    29.0380    34.0240    24.6510   -29.5970     2.2790 
  211.3750    51.5340    40.9490    34.8450    45.6460    24.6440   -29.9140     2.2470 
  211.5000    50.8080    45.3870    39.9550    49.3900    24.6610   -30.1980     2.2130 
  211.6250    51.1140    46.3740    42.2930    47.1870    24.7710   -30.4450     2.1930 
  211.7500    51.0380    44.4840    41.7790    44.4190    24.8020   -30.6670     2.1890 
  211.8750    51.0370    40.9140    39.2090    40.5640    24.7910   -30.8530     2.2000 
  212.0000    52.8310    36.8490    35.6980    35.5250    24.7900   -30.9840     2.2180 
  212.1250    55.7300    33.0670    32.1330    32.5100    24.7900   -31.0720     2.2380 
  212.2500    55.1530    29.8890    28.9910    29.8110    24.7900   -31.2000     2.2520 
  212.3750    52.1610    27.5990    26.5480    26.6790    24.7900   -31.3780     2.2580 
  212.5000    50.5510    26.4670    25.0400    24.0000    24.7900   -31.5990     2.2540 
  212.6250    53.7690    26.8680    24.8140    22.5330    24.7960   -31.8660     2.2430 
  212.7500    57.7610    28.5700    25.7580    23.5460    24.8290   -32.1480     2.2310 
  212.8750    58.3760    31.3880    27.8370    27.5120    24.8680   -32.4580     2.2240 
  213.0000    56.2950    34.9670    30.8430    32.2960    24.8770   -32.7760     2.2210 
  213.1250    54.9660    38.7600    34.3730    36.2230    24.8770   -33.0780     2.2190 
  213.2500    55.0040    42.1920    37.7910    39.1920    24.8770   -33.2910     2.2120 
  213.3750    53.3980    45.0530    40.7820    42.1110    24.8770   -33.4180     2.1970 
  213.5000    49.8360    47.5110    43.3730    42.8960    24.8760   -33.4520     2.1760 
  213.6250    49.0720    50.2100    46.0310    43.8630    24.8750   -33.4090     2.1550 
  213.7500    50.2360    53.8890    49.4160    48.3630    24.9070   -33.2780     2.1400 
  213.8750    50.2420    59.1410    54.0910    54.1180    25.0750   -33.0640     2.1350 
  214.0000    48.9290    66.3780    60.5610    56.6140    25.1590   -32.7860     2.1500 
  214.1250    49.6590    75.4430    69.1330    60.7470    25.1650   -32.4220     2.1960 
  214.2500    50.9670    83.2280    77.5540    72.8190    25.0440   -32.0100     2.2710 
  214.3750    49.9820    83.9780    81.0280    87.7000    24.7770   -31.5520     2.3640 
  214.5000    46.9390    72.4820    73.8340   100.8330    24.5620   -31.0880     2.4500 
  214.6250    45.1740    51.6340    55.4310    96.0530    24.6160   -30.6280     2.4930 
  214.7500    43.9410    32.8570    36.4670    62.3930    24.5890   -30.2140     2.4880 
  214.8750    41.2320    20.1240    22.5340    28.4500    24.5770   -29.8510     2.4480 
  215.0000    38.2330    12.8620    14.1900    12.1210    24.5710   -29.5670     2.3970 
  215.1250    38.3710     9.5840    10.1880     8.5220    24.5620   -29.4060     2.3530 
  215.2500    40.2880     8.1450     8.1980     7.8360    24.5620   -29.3400     2.3200 
  215.3750    41.0850     7.7380     7.3740     7.7680    24.5670   -29.3610     2.3000 
  215.5000    40.0780     7.8810     7.2700     7.5320    24.5620   -29.4500     2.2890 
  215.6250    38.4440     8.2680     7.6290     7.4750    24.5600   -29.6100     2.2900 
  215.7500    37.1290     8.6610     8.1220     7.5820    24.5510   -29.8310     2.3000 
  215.8750    36.9000     8.9850     8.5890     7.7890    24.5000   -30.0700     2.3160 
  216.0000    40.2440     9.2100     8.9370     8.1700    24.4190   -30.2540     2.3320 
  216.1250    45.4740     9.2700     9.0780     8.7920    24.3150   -30.3680     2.3410 
  216.2500    47.2610     9.1670     9.0270     9.1260    24.0900   -30.4240     2.3400 
  216.3750    44.6680     8.9460     8.8250     8.7710    23.8390   -30.4300     2.3300 
  216.5000    42.8910     8.6900     8.5450     8.4280    23.6650   -30.3870     2.3150 
  216.6250    45.1960     8.4860     8.2540     8.2140    23.6450   -30.2590     2.3020 
  216.7500    46.7790     8.3460     7.9870     8.1240    23.6930   -30.0420     2.2960 
  216.8750    45.4890     8.2420     7.7450     8.2150    23.9650   -29.7700     2.2980 
  217.0000    43.6220     8.1440     7.5220     8.4700    24.3520   -29.4890     2.3050 
  217.1250    43.9090     8.0610     7.3310     8.3290    24.5910   -29.2050     2.3130 
  217.2500    45.4370     8.0370     7.1980     7.8660    24.6310   -28.9330     2.3210 
  217.3750    45.3550     8.1100     7.1510     7.4940    24.6370   -28.6750     2.3270 
  217.5000    42.0750     8.2870     7.1990     7.3930    24.6370   -28.4380     2.3310 
  217.6250    38.0460     8.5200     7.3230     7.7080    24.6460   -28.2390     2.3330 
  217.7500    37.2870     8.6920     7.4440     8.2840    24.6930   -28.0770     2.3330 
  217.8750    38.4470     8.7390     7.4960     8.4060    24.7720   -27.9290     2.3350 
  218.0000    39.0940     8.6650     7.4430     7.8300    24.7980   -27.8200     2.3440 
  218.1250    38.5170     8.5240     7.2870     7.4450    24.7930   -27.7430     2.3590 
  218.2500    38.1880     8.3870     7.1080     7.2740    24.7440   -27.7190     2.3760 
  218.3750    36.9490     8.2800     6.9600     7.2830    24.5860   -27.7400     2.3870 
  218.5000    34.7860     8.1790     6.8630     7.6600    24.4820   -27.7880     2.3910 
  218.6250    33.9410     8.0370     6.7950     8.1260    24.4250   -27.8430     2.3860 
