~V
VERS. 2.00: Ver 2.00
~W
STRT.M 53.0000:
STOP.M 202.0000:
STEP.M 0.1250:
NULL. -999.2500:
UWI. F11113:
~C
DEPT.M :
DEN.GM/CC :
SP.MV :
GR.API :
RML.OHMM :
RI. :
RXO.OHMM :
CALI.CM :
~A
# ...
   86.7500     2.3020   -13.9160    95.0130     5.0580     4.0970     4.3600    27.6370 
   86.8750     2.3170   -13.2730    93.1690     5.0800     4.0770     4.2670    27.6300 
   87.0000     2.3290   -12.8130   100.2580     5.1750     4.1250     4.2690    27.6090 
   87.1250     2.3380   -12.5950   108.8020     5.3350     4.2340     4.4670    27.6050 
   87.2500     2.3500   -12.5120   107.0890     5.5530     4.3990     4.6740    27.6180 
   87.3750     2.3640   -12.4980    98.9850     5.8170     4.6120     4.8720    27.6300 
   87.5000     2.3740   -12.4930    94.0590     6.0870     4.8460     5.2310    27.6260 
   87.6250     2.3680   -12.5090    96.1470     6.2700     5.0350     5.9200    27.6090 
   87.7500     2.3420   -12.5730    99.1300     6.3150     5.1300     6.3690    27.6280 
   87.8750     2.3130   -12.6980    99.0840     6.2230     5.1210     5.8840    27.6970 
   88.0000     2.2970   -12.8500    96.9830     6.0530     5.0380     5.2690    27.7580 
   88.1250     2.2980   -12.9540    95.0870     5.8990     4.9380     5.0110    27.7800 
   88.2500     2.3010   -13.0040    94.7160     5.8260     4.8690     5.0360    27.7730 
   88.3750     2.3030   -13.0170    94.0080     5.8440     4.8510     5.0740    27.7660 
   88.5000     2.3040   -13.0110    92.1060     5.9210     4.8820     5.0830    27.7620 
   88.6250     2.3080   -13.0020    92.1050     5.9980     4.9410     5.0700    27.7560 
   88.7500     2.3140   -12.9730    95.4560     6.0380     4.9960     5.0950    27.7310 
   88.8750     2.3180   -12.9310    98.3360     6.0340     5.0310     5.1500    27.6740 
   89.0000     2.3180   -12.8740    97.2040     6.0060     5.0410     5.0990    27.6310 
   89.1250     2.3160   -12.8050    94.2240     5.9990     5.0300     4.9970    27.6530 
   89.2500     2.3140   -12.7630    92.8440     6.0430     5.0190     5.0090    27.6930 
   89.3750     2.3080   -12.7300    93.6720     6.1340     5.0190     5.1560    27.7080 
   89.5000     2.2990   -12.7250    96.9620     6.2220     5.0320     5.2990    27.7040 
   89.6250     2.2900   -12.7500    98.2910     6.2140     5.0430     5.3690    27.6990 
   89.7500     2.2860   -12.7900    94.9160     6.1030     5.0410     5.3930    27.6920 
   89.8750     2.2830   -12.8580    91.2620     5.9520     5.0220     5.4060    27.6860 
   90.0000     2.2820   -12.9540    92.3260     5.8650     4.9960     5.3830    27.6920 
   90.1250     2.2800   -13.0990    92.9770     5.9250     4.9860     5.3730    27.6970 
   90.2500     2.2770   -13.2480    91.1090     6.0600     5.0010     5.4610    27.7000 
   90.3750     2.2710   -13.4060    92.0070     6.1800     5.0360     5.6300    27.7000 
   90.5000     2.2650   -13.5670    95.9150     6.2300     5.0750     5.6340    27.7000 
   90.6250     2.2590   -13.7560    95.0920     6.2080     5.0960     5.5840    27.7000 
   90.7500     2.2540   -13.9590    91.3070     6.1680     5.0920     5.6560    27.7000 
   90.8750     2.2480   -14.1450    90.7500     6.1290     5.0630     5.7520    27.6990 
   91.0000     2.2420   -14.3150    92.5670     6.0780     5.0150     5.7650    27.6920 
   91.1250     2.2340   -14.5020    88.9810     5.9890     4.9600     5.7560    27.6730 
   91.2500     2.2260   -14.7650    81.7570     5.9050     4.9190     5.7590    27.6500 
   91.3750     2.2200   -15.1250    78.3230     5.9130     4.9290     5.7530    27.6400 
   91.5000     2.2160   -15.5450    82.1420     6.1000     5.0380     6.0540    27.6300 
   91.6250     2.2190   -15.9740    87.0150     6.5700     5.3320     6.7240    27.5980 
   91.7500     2.2290   -16.4250    86.6560     7.2780     5.8160     7.8460    27.5380 
   91.8750     2.2420   -16.9360    83.4640     8.1410     6.4720     9.7370    27.4540 
   92.0000     2.2480   -17.5380    82.0860     9.0060     7.2250    13.2270    27.2680 
   92.1250     2.2350   -18.2370    81.3460     9.6110     7.8960    15.5850    26.9240 
   92.2500     2.2030   -18.9400    78.4360     9.8140     8.3060    16.2090    26.4530 
   92.3750     2.1600   -19.6020    74.1050     9.5950     8.3610    14.0730    26.1630 
   92.5000     2.1170   -20.2260    69.8350     9.0890     8.0970    11.1610    26.1220 
   92.6250     2.0860   -20.7720    66.2710     8.5110     7.6430     9.2240    26.2140 
   92.7500     2.0750   -21.2440    64.0930     8.0320     7.1930     8.2080    26.2200 
   92.8750     2.0840   -21.6480    63.7240     7.7030     6.8330     7.6050    25.9870 
   93.0000     2.1060   -21.9690    64.6420     7.5090     6.5860     7.4400    25.6360 
   93.1250     2.1300   -22.1510    64.5940     7.4120     6.4340     7.4900    25.3990 
   93.2500     2.1500   -22.2420    63.8260     7.3410     6.3140     7.5270    25.2900 
   93.3750     2.1670   -22.2550    64.4030     7.2540     6.1930     7.5410    25.3190 
   93.5000     2.1850   -22.2160    68.2110     7.1470     6.0700     7.4870    25.4810 
   93.6250     2.2080   -22.2310    72.2800     7.1050     6.0090     7.2920    25.7470 
   93.7500     2.2320   -22.3340    74.4310     7.2190     6.0760     7.0500    26.0430 
   93.8750     2.2560   -22.5330    75.4530     7.5310     6.3030     7.0000    26.2680 
   94.0000     2.2790   -22.8120    74.8240     8.0240     6.6740     7.3450    26.3450 
   94.1250     2.2940   -23.1650    71.8310     8.6130     7.1530     9.3140    26.2050 
   94.2500     2.2940   -23.5730    68.7830     9.1340     7.6410    12.6100    25.9660 
   94.3750     2.2850   -24.0360    66.2400     9.4670     8.0460    13.3050    25.8430 
   94.5000     2.2890   -24.5540    62.4240     9.5640     8.3000    11.8260    25.8010 
   94.6250     2.3030   -25.0920    58.9280     9.4230     8.3460    13.5140    25.4950 
   94.7500     2.2930   -25.5780    58.6800     9.1440     8.2310    18.1700    25.1890 
   94.8750     2.2500   -25.9540    60.6020     8.8030     8.0030    18.4870    25.1270 
   95.0000     2.2030   -26.2110    61.8720     8.4830     7.7370    13.3730    25.2570 
   95.1250     2.1810   -26.3560    61.1180     8.2740     7.5180    10.9100    25.3490 
   95.2500     2.1710   -26.4540    59.4820     8.2040     7.3950    10.5090    25.3660 
   95.3750     2.1660   -26.5300    60.0940     8.2830     7.4000    10.6220    25.3670 
   95.5000     2.1620   -26.5440    62.3670     8.4720     7.5340    10.6610    25.3590 
   95.6250     2.1590   -26.4320    62.2540     8.6800     7.7400    11.2730    25.3210 
   95.7500     2.1550   -26.2530    61.3770     8.8140     7.9080    11.8170    25.2730 
   95.8750     2.1510   -26.0320    61.7250     8.8380     7.9740    11.5730    25.2660 
   96.0000     2.1520   -25.7720    62.6770     8.7430     7.9110    10.9530    25.2720 
   96.1250     2.1600   -25.4830    62.5510     8.5250     7.7080    10.2760    25.2520 
   96.2500     2.1710   -25.1390    63.5150     8.2460     7.4300     9.4340    25.2190 
   96.3750     2.1830   -24.7310    66.3910     7.9770     7.1420     8.8700    25.1860 
   96.5000     2.1940   -24.3100    68.7930     7.7750     6.9040     8.6770    25.1580 
   96.6250     2.2050   -23.9240    69.5850     7.6980     6.7750     8.4950    25.1410 
   96.7500     2.2150   -23.5370    68.8590     7.7500     6.7630     8.5160    25.1380 
   96.8750     2.2190   -23.1500    66.7200     7.9550     6.8850     9.1850    25.1170 
   97.0000     2.2120   -22.8120    64.5780     8.3350     7.1530    10.1700    25.0590 
   97.1250     2.1970   -22.5700    63.7910     8.9030     7.5910    10.5040    25.0000 
   97.2500     2.1840   -22.4290    64.4630     9.5470     8.1480    11.0160    24.9580 
   97.3750     2.1750   -22.3520    65.6890    10.1320     8.7480    12.1900    24.9190 
   97.5000     2.1720   -22.2780    66.6250    10.5150     9.2710    13.9670    24.8820 
   97.6250     2.1760   -22.2040    67.3530    10.5470     9.5320    14.3080    24.8570 
   97.7500     2.1830   -22.1510    67.1200    10.3130     9.5040    13.3120    24.8330 
   97.8750     2.1950   -22.1490    66.3330     9.9420     9.2430    12.2360    24.8130 
