~V
VERS. 2.00: Ver 2.00
~W
STRT.M 14.0000:
STOP.M 209.0000:
STEP.M 0.1250:
NULL. -999.2500:
UWI. F11100:
~C
DEPT.M :
GR.API :
RML.OHMM :
RI. :
RXO.OHMM :
CALI.CM :
SP.MV :
DEN.GM/CC :
~A
# ...
  171.5000    62.0220    56.3260    49.2400    51.0580    25.2030    -8.3860     2.1800 
  171.6250    62.6420    55.9480    48.9110    57.5640    26.0250    -8.2360     2.1790 
  171.7500    62.2200    57.3140    50.0990    60.6090    26.8340    -8.0540     2.1660 
  171.8750    59.8010    59.9460    52.3880    59.0480    27.4970    -7.8890     2.1210 
  172.0000    55.9340    63.5790    55.5470    68.1750    28.1070    -7.7780     2.0490 
  172.1250    53.0930    67.8060    59.2230    65.1490    28.2950    -7.7110     1.9750 
  172.2500    53.1660    72.5380    63.3370    52.8710    27.5080    -7.6600     1.9310 
  172.3750    56.5020    77.7280    67.8500    50.2200    25.7640    -7.6030     1.9670 
  172.5000    59.5350    83.3360    72.7270    73.3230    23.9270    -7.5550     2.0860 
  172.6250    60.3170    89.1820    77.8110    99.0330    22.7880    -7.5370     2.2550 
  172.7500    61.9530    95.1250    82.9780   123.0620    22.3580    -7.5400     2.4120 
  172.8750    65.7960   100.9510    88.0440   142.7950    22.2840    -7.5260     2.5080 
  173.0000    66.6130   106.3330    92.7250   157.4870    22.2830    -7.4980     2.5590 
  173.1250    62.8210   111.0650    96.8390   170.0120    22.2670    -7.4880     2.5910 
  173.2500    58.9060   114.3940    99.7340   178.7050    22.2430    -7.5340     2.6200 
  173.3750    58.9790   114.3160    99.6660   173.9240    22.2140    -7.6240     2.6320 
  173.5000    62.2770   105.9910    92.4270   175.2670    22.2290    -7.7220     2.6150 
  173.6250    64.3570    88.8630    77.5330   177.4250    22.3190    -7.8190     2.5730 
  173.7500    62.8070    66.5790    58.1560   151.6020    22.4630    -7.9340     2.5240 
  173.8750    58.8920    49.8540    39.8490    92.7610    22.5910    -8.0730     2.4760 
  174.0000    54.6170    30.8260    27.1560    42.1620    22.6510    -8.2080     2.4250 
  174.1250    51.3260    20.3170    19.2610    19.0490    22.7110    -8.2820     2.3720 
  174.2500    49.3070    14.8750    14.7720    11.8950    22.8990    -8.3160     2.3240 
  174.3750    48.0730    12.2840    12.4010    12.4390    23.2520    -8.3530     2.2840 
  174.5000    48.6050    11.3980    11.4050    14.5950    23.6150    -8.4330     2.2430 
  174.6250    50.8420    11.2160    11.0460    14.8230    23.9390    -8.5310     2.1910 
  174.7500    53.7070    11.3370    11.0180    13.3710    24.3270    -8.6150     2.1240 
  174.8750    55.4080    11.4920    11.0920    11.2850    24.6700    -8.6990     2.0590 
  175.0000    55.5700    11.4980    11.0880    10.6350    24.5320    -8.7990     2.0240 
  175.1250    55.2650    11.3200    10.9380    11.0170    23.9990    -8.9000     2.0370 
  175.2500    53.9030    10.9770    10.6460    10.3180    23.5050    -8.9880     2.0980 
  175.3750    51.4830    10.5400    10.2700     9.4310    23.3240    -9.0660     2.1800 
  175.5000    49.3790    10.1540     9.9160     8.6110    23.3780    -9.1520     2.2510 
  175.6250    49.1230     9.9650     9.6890     8.8110    23.4480    -9.2990     2.3050 
  175.7500    50.4980    10.0580     9.6430    10.1180    23.4730    -9.5020     2.3460 
  175.8750    51.0660    10.4260     9.7880    11.0630    23.4600    -9.7370     2.3670 
  176.0000    48.2220    10.9550    10.0720    10.7790    23.6520    -9.9810     2.3570 
  176.1250    44.5140    11.3980    10.3360    10.7130    24.2510   -10.2240     2.3150 
  176.2500    43.4130    11.5590    10.4290    11.2040    25.0940   -10.4650     2.2510 
  176.3750    44.1120    11.3220    10.2460    11.3670    25.7230   -10.6890     2.1870 
  176.5000    45.6250    10.6710     9.7400     9.8980    25.5930   -10.8620     2.1390 
  176.6250    48.9880     9.8430     9.0700     8.0170    24.8000   -10.9120     2.1150 
  176.7500    52.7150     9.0170     8.3710     6.9270    23.6710   -10.8700     2.1180 
  176.8750    54.2420     8.3330     7.7550     6.5520    22.6720   -10.8000     2.1520 
  177.0000    54.6160     7.9050     7.3150     6.4860    22.2110   -10.7400     2.2040 
  177.1250    55.9460     7.7090     7.0510     6.3220    22.1160   -10.7270     2.2560 
  177.2500    56.4400     7.7210     6.9570     6.1080    22.1860   -10.7600     2.2890 
  177.3750    54.4540     7.9170     7.0280     6.0720    22.3030   -10.8480     2.2890 
  177.5000    52.1870     8.3000     7.2720     6.4570    22.3970   -10.9970     2.2710 
  177.6250    50.8530     8.8060     7.6320     7.6130    22.4360   -11.2090     2.2530 
  177.7500    50.2300     9.3580     8.0460     9.4550    22.4090   -11.4100     2.2440 
  177.8750    50.7990     9.8290     8.4180    10.2660    22.3040   -11.5490     2.2500 
  178.0000    53.9350    10.0110     8.5950     9.5970    22.1380   -11.6330     2.2620 
  178.1250    55.4660     9.8510     8.5230     8.8520    22.0150   -11.6800     2.2720 
  178.2500    53.7020     9.4030     8.2200     8.0680    21.9750   -11.6960     2.2750 
  178.3750    50.1670     8.8190     7.7770     7.0870    21.9760   -11.6750     2.2710 
  178.5000    49.4980     8.3030     7.3360     6.3650    21.9780   -11.6290     2.2650 
  178.6250    52.3460     7.9670     6.9990     5.8470    21.9970   -11.5670     2.2620 
  178.7500    55.4780     7.8380     6.8060     5.7830    22.0310   -11.5210     2.2660 
  178.8750    55.9250     7.8770     6.7490     6.1560    22.0580   -11.5050     2.2780 
  179.0000    53.1570     8.0030     6.7910     6.6500    22.0540   -11.5170     2.2920 
  179.1250    52.9500     8.0980     6.8510     7.0330    22.0460   -11.5740     2.3070 
  179.2500    58.6660     8.1000     6.8760     7.3250    22.0500   -11.7050     2.3210 
  179.3750    69.0480     8.0010     6.8440     7.3650    22.0390   -11.9260     2.3320 
  179.5000    78.2400     7.8460     6.7630     6.5170    21.9560   -12.2440     2.3410 
  179.6250    81.6720     7.7120     6.6790     5.6850    21.7860   -12.6770     2.3470 
  179.7500    81.2810     7.6380     6.6210     5.2980    21.5400   -13.2370     2.3490 
  179.8750    82.6980     7.6300     6.6020     5.4190    21.2560   -13.9300     2.3540 
  180.0000    88.5820     7.6720     6.6180     5.9760    21.0590   -14.7300     2.3570 
  180.1250    92.5190     7.7240     6.6450     6.5430    21.1020   -15.6120     2.3380 
  180.2500    90.4010     7.7780     6.6750     6.8930    21.4790   -16.5370     2.2800 
  180.3750    84.1460     7.8480     6.7220     6.9620    22.2330   -17.4770     2.1960 
  180.5000    81.6950     7.9650     6.8080     7.0050    23.3370   -18.3960     2.1250 
  180.6250    83.5260     8.1370     6.9370     7.1120    24.3840   -19.2430     2.0930 
  180.7500    83.5340     8.3560     7.1020     7.4440    25.0360   -19.9940     2.1150 
  180.8750    81.0140     8.5970     7.2860     8.0860    25.2440   -20.6280     2.1800 
  181.0000    80.4540     8.8530     7.4740     9.0580    25.2450   -21.1300     2.2430 
  181.1250    81.8290     9.1400     7.6710     9.0840    25.2470   -21.4320     2.2830 
  181.2500    82.5010     9.4860     7.8950     8.8960    25.2300   -21.5420     2.3070 
  181.3750    82.9420     9.9000     8.1600     8.6990    25.2440   -21.4440     2.3310 
  181.5000    85.1610    10.3720     8.4840     9.3850    25.3500   -21.1310     2.3530 
  181.6250    85.7920    10.8620     8.8460    10.6410    25.3670   -20.5850     2.3620 
  181.7500    83.7410    11.3530     9.2200    11.6370    25.1510   -19.8690     2.3570 
  181.8750    81.7880    11.8470     9.5820    11.3980    24.8030   -19.0200     2.3470 
  182.0000    80.3920    12.2760     9.8690    11.8120    24.6050   -18.0770     2.3520 
  182.1250    79.1980    12.4730     9.9870    12.7110    24.5740   -17.0870     2.3780 
  182.2500    78.9810    12.2480     9.8320    13.2020    24.5550   -16.1020     2.4160 
  182.3750    81.9770    11.5480     9.3780    13.8840    24.4460   -15.1500     2.4450 
  182.5000    87.0400    10.5570     8.7300    13.2140    24.2460   -14.2550     2.4470 
  182.6250    90.4660     9.7200     8.1490    10.8510    24.0440   -13.4440     2.4270 
