~V
VERS. 2.00: Ver 2.00
~W
STRT.M 50.0000:
STOP.M 242.0000:
STEP.M 0.1250:
NULL. -999.2500:
UWI. F11136:
~C
DEPT.M :
GR.API :
RML.OHMM :
RI. :
RXO.OHMM :
CALI.CM :
SP.MV :
DEN.GM/CC :
~A
# ...
  230.0000    60.5760     8.3030     7.1890     6.8140    24.1260   -15.4050     2.2580 
  230.1250    61.1940     7.7680     6.7260     7.4280    24.0400   -15.3550     2.2800 
  230.2500    63.5960     7.3280     6.3440     7.7190    24.0290   -15.2990     2.3170 
  230.3750    65.2110     7.2130     6.2450     8.3640    23.9920   -15.2020     2.3570 
  230.5000    64.3690     7.5240     6.5150     9.5260    24.0930   -15.0770     2.3890 
  230.6250    61.2130     8.1920     7.0920     9.0740    24.5980   -14.9250     2.4020 
  230.7500    59.5010     8.8110     7.6280     7.7790    24.7650   -14.7870     2.4010 
  230.8750    60.0080     9.0870     7.8670     6.5570    25.9870   -14.7100     2.3950 
  231.0000    60.8600     8.9790     7.7740     6.1870    27.7400   -14.6320     2.3930 
  231.1250    61.8990     8.6860     7.5210     6.0990    27.6830   -14.5630     2.3970 
  231.2500    63.1160     8.4320     7.3000     5.9620    25.7650   -14.5080     2.3970 
  231.3750    63.3780     8.2290     7.1250     5.7170    24.6310   -14.4630     2.3810 
  231.5000    61.1000     8.0490     6.9690     5.3350    24.9010   -14.4450     2.3410 
  231.6250    58.0090     7.8760     6.8190     5.0070    25.1010   -14.4690     2.2790 
  231.7500    56.8690     7.7370     6.6980     4.8060    24.9230   -14.5180     2.2150 
  231.8750    56.8690     7.6940     6.6610     4.7830    24.9690   -14.5350     2.1660 
  232.0000    56.8690     7.8240     6.7740     5.0240    24.5200   -14.5370     2.1490 
  232.1250    56.8690     8.1990     7.0990     5.6620    24.3700   -14.5450     2.1740 
  232.2500    56.8690     8.7350     7.5630     6.3180    24.3650   -14.5600     2.2260 
  232.3750    56.8690     9.3110     8.0620     6.7530    24.3660   -14.5510     2.2870 
  232.5000    56.8690     9.7350     8.4280     7.0830    24.0210   -14.5300     2.3400 
  232.6250    56.8690     9.7440     8.4360     7.4960    24.8950   -14.4910     2.3670 
  232.7500    56.8690     9.3530     8.0980     7.5620    26.8270   -14.4270     2.3850 
  232.8750    56.8690     8.7070     7.5390     7.2030    28.0610   -14.3770     2.3730 
  233.0000    56.8690     8.0450     6.9650     6.6250    28.2670   -14.2900     2.3440 
  233.1250    56.8690     7.5960     6.5770     6.2230    27.2330   -14.1850     2.2990 
  233.2500    56.8690     7.3940     6.4020     5.8200    26.4610   -14.0930     2.2440 
  233.3750    56.8690     7.4000     6.4070     5.3290    25.4690   -13.9750     2.1870 
  233.5000    56.8690     7.5230     6.5140     4.8340    24.9710   -13.8460     2.1420 
  233.6250    56.8690     7.7350     6.6970     4.5940    25.7160   -13.7350     2.1210 
  233.7500    56.8690     7.9750     6.9050     4.7230    26.5260   -13.6360     2.1330 
  233.8750    56.8690     8.1260     7.0360     5.1420    26.3790   -13.5390     2.1760 
  234.0000    56.8690     8.0890     7.0030     5.7010    25.7360   -13.4900     2.2270 
  234.1250    56.8690     7.8820     6.8240     5.9970    23.5710   -13.4690     2.2660 
  234.2500    56.8690     7.7250     6.6890     6.0260    23.2520   -13.4480     2.2880 
  234.3750    56.8690     7.7370     6.6980     6.0670    23.7170   -13.5050     2.2980 
  234.5000    56.8690     7.8520     6.7990     6.0620    24.1380   -13.5830     2.3120 
  234.6250    56.8690     7.8780     6.8210     6.0130    24.2740   -13.6340     2.3360 
  234.7500    56.8690     7.6910     6.6590     6.0730    24.3210   -13.7060     2.3640 
  234.8750    56.8690     7.3590     6.3710     6.0860    24.3620   -13.7910     2.3880 
  235.0000    56.8690     7.0750     6.1260     5.9580    24.4570   -13.8770     2.4000 
  235.1250    56.8690     7.0110     6.0700     5.8960    24.4980   -13.9670     2.3990 
  235.2500    56.8690     7.1070     6.1540     5.8210    24.4220   -14.0730     2.3850 
  235.3750    56.8690     7.3010     6.3210     5.7180    24.4240   -14.1410     2.3630 
  235.5000    56.8690     7.5380     6.5260     5.4560    24.1430   -14.2050     2.3440 
  235.6250    56.8690     7.7240     6.6880     5.2530    23.4920   -14.2780     2.3360 
  235.7500    56.8690     7.7740     6.7300     5.1570    22.8160   -14.3250     2.3420 
  235.8750    56.8690     7.6530     6.6260     5.2070    24.0490   -14.3970     2.3560 
  236.0000    56.8690     7.3980     6.4060     5.4580    25.9230   -14.4530     2.3660 
  236.1250    56.8690     7.1830     6.2190     5.4370    27.2380   -14.4690     2.3660 
  236.2500    56.8690     7.0420     6.0970     5.3490    27.1810   -14.4720     2.3540 
  236.3750    56.8690     7.0540     6.1080     5.1730    26.4570   -14.4650     2.3300 
  236.5000    56.8690     7.2470     6.2750     5.0350    27.5120   -14.4580     2.3040 
  236.6250    56.8690     7.5160     6.5070     4.9280    27.6840   -14.4730     2.2820 
  236.7500    56.8690     7.7440     6.7050     4.8490    27.6460   -14.5040     2.2720 
  236.8750    56.8690     7.8270     6.7770     4.6500    26.8360   -14.5090     2.2810 
  237.0000    56.8690     7.8000     6.7530     4.6930    24.9150   -14.5050     2.3010 
  237.1250    56.8690     7.7450     6.7050     5.1740    24.3370   -14.5190     2.3230 
  237.2500    56.8690     7.7140     6.6790     5.8370    24.1270   -14.5300     2.3410 
  237.3750    56.8690     7.7210     6.6850     6.0810    24.0390   -14.5730     2.3490 
  237.5000    56.8690     7.7450     6.7050     5.8280    24.2530   -14.6220     2.3530 
  237.6250    56.8690     7.7570     6.7160     5.4190    24.7110   -14.6480     2.3560 
  237.7500    56.8690     7.7580     6.7170     5.1880    25.4510   -14.6650     2.3600 
  237.8750    56.8690     7.7580     6.7170     5.1130    25.3240  -999.2500     2.3670 
  238.0000    56.8690     7.7580     6.7170     5.1610    25.1930  -999.2500     2.3750 
  238.1250    56.8690     7.7580     6.7170     5.4690    25.7430  -999.2500     2.3830 
  238.2500    56.8690     7.7580     6.7170     5.9500    25.5630  -999.2500     2.3840 
  238.3750    56.8690     7.7580     6.7170     6.2160    25.1770  -999.2500     2.3720 
  238.5000    56.8690     7.7580     6.7170     6.2610    24.6340  -999.2500     2.3500 
  238.6250    56.8690     7.7580     6.7170     6.4050    24.6290  -999.2500     2.3250 
  238.7500    56.8690     7.7580     6.7170     6.8820    25.1440  -999.2500     2.3060 
  238.8750    56.8690     7.7580     6.7170     7.4350    24.2120  -999.2500     2.2990 
  239.0000    56.8690     7.7580     6.7170     7.4270    22.3030  -999.2500     2.2980 
  239.1250    56.8690     7.7580     6.7170     7.5900    20.6030  -999.2500     2.2940 
  239.2500    56.8690     7.7580     6.7170     7.2330    17.9070  -999.2500     2.2760 
  239.3750    56.8690     7.7580     6.7170     6.9350    15.0770  -999.2500     2.2420 
  239.5000    56.8690     7.7580     6.7170     6.9090    13.7840  -999.2500     2.2020 
  239.6250    56.8690     7.7580     6.7170     6.9820    13.5700  -999.2500     2.1660 
  239.7500    56.8690     7.7580     6.7170     6.9960    13.5490  -999.2500     2.1410 
  239.8750    56.8690     7.7580     6.7170     6.9970    13.5420  -999.2500     2.1300 
  240.0000    56.8690     7.7580     6.7170     6.9970    13.5200  -999.2500     2.1260 
  240.1250    56.8690     7.7580     6.7170     6.9950    13.4900  -999.2500     2.1250 
  240.2500    56.8690     7.7580     6.7170     6.9950    13.4670  -999.2500     2.1260 
  240.3750    56.8690     7.7580     6.7170     6.9940    13.4710  -999.2500     2.1290 
  240.5000    56.8690     7.7580     6.7170     6.9930    13.4710  -999.2500     2.1330 
  240.6250    56.8690     7.7580     6.7170     6.9920    13.4660  -999.2500     2.1400 
  240.7500    56.8690     7.7580     6.7170     6.9930    13.4710  -999.2500     2.1470 
  240.8750    56.8690     7.7580     6.7170     6.9930    13.4710  -999.2500     2.1520 
  241.0000    56.8690     7.7580     6.7170     6.9910    13.4680  -999.2500     2.1540 
  241.1250    56.8690     7.7580     6.7170     6.9880    13.4690  -999.2500     2.1540 
