~V
VERS. 2.00: Ver 2.00
~W
STRT.M 63.0000:
STOP.M 246.0000:
STEP.M 0.1250:
NULL. -999.2500:
UWI. F11137:
~C
DEPT.M :
DEN.GM/CC :
GR.API :
RML.OHMM :
RI. :
RXO.OHMM :
CALI.CM :
SP.MV :
~A
# ...
   96.7500     2.3020    78.5670     7.6150     6.3560     8.9670    24.6220    -6.6810 
   96.8750     2.2740    82.9160     7.4190     6.1120     8.3480    24.5230    -6.8850 
   97.0000     2.2420    85.4420     7.3850     6.0110     8.4420    24.3760    -7.3550 
   97.1250     2.2090    84.6890     7.4990     6.0670     9.0560    24.2670    -7.9390 
   97.2500     2.1830    82.9600     7.6620     6.2010     9.6820    24.1940    -8.4990 
   97.3750     2.1690    80.5740     7.8070     6.3470    10.0730    24.1560    -9.0410 
   97.5000     2.1650    77.7620     7.9010     6.4580    10.2730    24.1380    -9.5460 
   97.6250     2.1700    77.1600     7.9630     6.5170    10.2450    24.1380    -9.8530 
   97.7500     2.1770    78.0380     8.0540     6.5650    10.1540    24.1740    -9.9860 
   97.8750     2.1830    77.8840     8.2010     6.6400     9.9710    24.2600    -9.8530 
   98.0000     2.1830    76.8840     8.3690     6.7490     9.9450    24.4000    -9.5100 
   98.1250     2.1730    77.6690     8.4270     6.8150    10.1540    24.5020    -8.9450 
   98.2500     2.1610    79.2090     8.2860     6.7340    10.8840    24.5440    -8.1910 
   98.3750     2.1590    79.4580     7.9720     6.4930    11.2540    24.5960    -7.2220 
   98.5000     2.1870    77.7040     7.6490     6.1940    11.2330    24.6930    -6.0550 
   98.6250     2.2580    75.9150     7.6560     6.0580    10.1690    24.8320    -4.7560 
   98.7500     2.3560    77.6340     8.1820     6.2710     8.9270    24.9160    -3.4400 
   98.8750     2.4600    82.5330     9.2440     6.9600    10.1670    24.8670    -2.2100 
   99.0000     2.5490    85.7040    10.5940     8.1130    14.3040    24.7100    -1.1540 
   99.1250     2.6010    83.6030    11.6090     9.4060    18.3350    24.6370    -0.4470 
   99.2500     2.6150    79.9980    11.7770    10.1460    18.2540    24.6170    -0.0550 
   99.3750     2.5880    77.7960    10.9910     9.8830    22.1500    24.6170     0.0760 
   99.5000     2.5240    77.0380     9.6070     8.7960    19.0450    24.5840    -0.0490 
   99.6250     2.4370    78.7850     8.2880     7.5680    10.3720    24.5610    -0.4020 
   99.7500     2.3610    81.8250     7.4510     6.6980     7.4600    24.5860    -0.8030 
   99.8750     2.3210    82.3820     7.1050     6.2430     7.2250    24.5600    -1.0900 
  100.0000     2.3250    79.8060     7.0510     6.0960     8.1090    24.4390    -1.2210 
  100.1250     2.3600    79.4880     7.0170     6.0760     8.9410    24.3900    -1.1770 
  100.2500     2.3950    82.9910     6.8370     5.9660     8.2310    24.3630    -1.0590 
  100.3750     2.4110    87.0470     6.5360     5.7180     6.6620    24.3300    -0.9830 
  100.5000     2.4020    89.4380     6.2560     5.4380     5.8230    24.3540    -0.9160 
  100.6250     2.3780    91.4290     6.2030     5.3270     5.9390    24.3630    -0.8360 
  100.7500     2.3510    92.5910     6.3970     5.4500     6.3140    24.2010    -0.8060 
  100.8750     2.3300    91.4510     6.7490     5.7800     7.1200    23.9390    -0.8810 
  101.0000     2.3170    86.7550     7.1010     6.1970     8.5570    23.6880    -1.0070 
  101.1250     2.3160    81.2850     7.2560     6.4750    10.1530    23.5460    -1.1280 
  101.2500     2.3250    80.2230     7.1830     6.4930     9.1190    23.4750    -1.2150 
  101.3750     2.3370    83.6530     6.9520     6.2850     7.1580    23.4790    -1.2380 
  101.5000     2.3470    85.4560     6.6920     5.9790     6.1930    23.5470    -1.2090 
  101.6250     2.3480    82.5850     6.5460     5.7260     6.0590    23.5860    -1.1430 
  101.7500     2.3420    80.9280     6.5450     5.5990     6.3770    23.5780    -1.1080 
  101.8750     2.3300    82.0960     6.6580     5.6020     6.6800    23.4780    -1.1460 
  102.0000     2.3120    84.3700     6.8270     5.6920     7.1040    23.3020    -1.3130 
  102.1250     2.2870    83.9030     7.0460     5.8170     7.6640    23.1780    -1.6180 
  102.2500     2.2640    81.2880     7.4310     5.9980     8.1280    23.1170    -1.9630 
  102.3750     2.2600    77.5330     8.2000     6.3740     8.5890    23.1040    -2.3210 
  102.5000     2.3000    75.0000     9.5790     7.1460     9.1630    23.1190    -2.6740 
  102.6250     2.3970    73.2700    11.7350     8.6200    10.8040    23.2060    -3.0120 
  102.7500     2.5100    69.8020    14.1940    10.6930    15.7220    23.3940    -3.3720 
  102.8750     2.5910    66.0110    16.2300    12.9190    28.4140    23.6130    -3.7370 
  103.0000     2.6020    64.7730    17.0760    14.3660    44.7090    23.7640    -4.0770 
  103.1250     2.5410    66.7860    16.3100    14.0710    43.9630    23.8120    -4.4100 
  103.2500     2.4690    68.7290    14.9090    12.8780    28.8820    23.7280    -4.7700 
  103.3750     2.4370    70.0570    13.8650    11.7980    17.0120    23.5130    -5.1580 
  103.5000     2.4570    69.4900    13.8360    11.4520    13.7330    23.3660    -5.6220 
  103.6250     2.4920    67.1890    14.9800    12.1660    16.9950    23.5720    -6.2000 
  103.7500     2.4870    66.5320    16.4470    13.5350    24.4270    24.0470    -6.8060 
  103.8750     2.4230    67.7800    17.3560    14.8620    37.4240    24.4730    -7.4300 
  104.0000     2.3170    69.3590    17.0350    15.2110    56.7290    24.6590    -8.0630 
  104.1250     2.2170    67.1960    15.3120    14.0060    58.0680    24.6000    -8.6780 
  104.2500     2.1570    62.0180    13.1250    12.1580    39.1390    24.4090    -9.2680 
  104.3750     2.1400    58.9390    11.1930    10.3990    22.0170    24.1390    -9.8270 
  104.5000     2.1480    60.8770     9.8850     9.0870    13.2840    23.8270   -10.3030 
  104.6250     2.1640    66.6060     9.2750     8.3430    10.9570    23.6180   -10.5580 
  104.7500     2.1780    69.3210     9.0440     7.9650    10.3230    23.5130   -10.5590 
  104.8750     2.1890    67.6950     9.0010     7.8170    10.0910    23.4700   -10.3500 
  105.0000     2.2000    63.7310     9.0150     7.7790     9.8960    23.4640   -10.0040 
  105.1250     2.2080    60.7280     9.0140     7.7650     9.7140    23.4960    -9.5840 
  105.2500     2.2120    62.6290     8.9920     7.7450     9.5280    23.5410    -9.1160 
  105.3750     2.2080    67.1050     8.9570     7.7210     9.3060    23.5930    -8.6060 
  105.5000     2.1990    69.4270     8.9060     7.6970     9.1280    23.6180    -8.0630 
  105.6250     2.1920    70.1670     8.8060     7.6450     9.1510    23.5940    -7.5750 
  105.7500     2.1970    71.8710     8.6380     7.5340     9.2540    23.5500    -7.2180 
  105.8750     2.2140    73.5410     8.4080     7.3500     9.1720    23.5300    -6.9980 
  106.0000     2.2390    74.3350     8.1550     7.1140     8.9670    23.5340    -6.9220 
  106.1250     2.2580    77.0790     7.9490     6.8830     8.3670    23.4560    -6.9370 
  106.2500     2.2650    79.5650     7.8350     6.7210     7.8670    23.2980    -7.0500 
  106.3750     2.2570    76.8270     7.8300     6.6610     7.9110    23.1510    -7.2630 
  106.5000     2.2410    70.2080     7.9230     6.7080     8.1410    23.0680    -7.6360 
  106.6250     2.2220    67.0640     8.0970     6.8480     8.3700    23.0090    -8.2080 
  106.7500     2.2050    69.7130     8.2950     7.0210     8.4650    22.9930    -8.8470 
  106.8750     2.1910    73.8600     8.4780     7.1820     8.6030    23.0140    -9.4410 
  107.0000     2.1800    74.1590     8.6120     7.3000     8.7240    23.0410    -9.9000 
  107.1250     2.1740    72.3170     8.6710     7.3550     9.0570    23.0800   -10.1750 
  107.2500     2.1710    71.5320     8.6770     7.3640     9.2570    23.1440   -10.2880 
  107.3750     2.1700    72.5250     8.6540     7.3370     9.2200    23.2070   -10.3040 
  107.5000     2.1700    73.3760     8.6250     7.2920     9.0540    23.2380   -10.1930 
  107.6250     2.1720    74.3280     8.6110     7.2470     8.9550    23.2310    -9.8910 
  107.7500     2.1730    75.5780     8.6170     7.2110     8.9230    23.1860    -9.4240 
  107.8750     2.1760    74.9560     8.6360     7.1890     8.9670    23.1150    -8.8520 
