~V
VERS. 2.00: Ver 2.00
~W
STRT.M 62.0000:
STOP.M 277.0000:
STEP.M 0.1250:
NULL. -999.2500:
UWI. F11155:
~C
DEPT.M :
SP.MV :
DEN.GM/CC :
GR.API :
RML.OHMM :
RI. :
RXO.OHMM :
CALI.CM :
~A
   62.0000    44.4700     2.3550    54.9340     0.0500     0.1370     1.2830    22.3690 
   62.1250    39.5570     2.4050    54.8440     0.0640     0.1110     1.3680    22.2800 
   62.2500    33.6680     2.4610    54.5860     0.0850     0.0980     1.4750    22.1500 
   62.3750    27.0630     2.5000    55.1590     0.1140     0.1030     1.5830    22.0590 
   62.5000    19.9680     2.4960    58.3300     0.1680     0.1450     1.8360    22.0660 
   62.6250    12.7750     2.4190    64.0470     0.2840     0.2590     2.5380    22.2370 
   62.7500     6.1190     2.2560    69.4480     0.5500     0.5340     4.1460    22.7640 
   62.8750     0.2590     2.0820    74.2560     1.0340     1.0470     5.4790    23.5560 
   63.0000    -4.6890     1.9710    81.5150     1.8040     1.8740     6.1540    24.2190 
   63.1250    -8.6300     1.9560    89.6780     2.7270     2.9540     6.7250    24.0870 
   63.2500   -11.3160     2.0350    93.6940     3.3790     3.9840     7.1260    23.7740 
   63.3750   -12.9360     2.1390    94.2230     3.7040     4.7500     6.9300    23.6760 
   63.5000   -13.6830     2.2150    94.9570     3.8970     5.2810     6.5150    23.7330 
   63.6250   -13.8980     2.2500    96.5660     4.0870     5.6780     6.4300    23.7610 
   63.7500   -14.0060     2.2610    96.5920     4.2590     5.9710     6.4550    23.7810 
   63.8750   -14.2060     2.2660    95.8740     4.3650     6.1570     6.4630    23.9010 
   64.0000   -14.4520     2.2670    95.5580     4.3730     6.2060     6.3410    24.1150 
   64.1250   -14.6970     2.2640    95.1130     4.2720     6.1000     6.1390    24.3090 
   64.2500   -14.9640     2.2660    93.4360     4.0650     5.8270     5.9650    24.4320 
   64.3750   -15.2800     2.2790    93.0820     3.7790     5.4660     5.6440    24.4930 
   64.5000   -15.6550     2.3040    96.7570     3.4730     5.0750     5.3020    24.5160 
   64.6250   -16.1130     2.3320   102.2450     3.2510     4.7280     5.1960    24.5030 
   64.7500   -16.7020     2.3520   104.4210     3.2460     4.5830     5.2930    24.4870 
   64.8750   -17.4410     2.3670   103.8200     3.5330     4.7860     5.5760    24.5230 
   65.0000   -18.3390     2.3850   101.8780     4.2510     5.5060     6.0780    24.5780 
   65.1250   -19.4270     2.4090    97.6350     5.5560     6.9050     7.4750    24.6090 
   65.2500   -20.7000     2.4390    90.5160     7.5990     9.1740    12.8630    24.6100 
   65.3750   -22.0860     2.4680    81.8690     9.8530    11.8160    27.0390    24.5850 
   65.5000   -23.5080     2.4820    73.9850    11.4560    13.8330    40.9630    24.5230 
   65.6250   -24.8720     2.4610    69.3440    11.5790    14.1290    31.1870    24.4740 
   65.7500   -26.0560     2.3840    67.9380    10.1860    12.5780    16.3390    24.5510 
   65.8750   -27.0110     2.2770    67.3710     8.6050    10.6270    11.7220    24.6770 
   66.0000   -27.7190     2.1810    67.1800     7.4310     9.0070    10.4520    24.7510 
   66.1250   -28.1740     2.1190    69.6960     6.7320     7.9150     9.8190    24.7750 
   66.2500   -28.3810     2.0940    75.5280     6.4410     7.3390     8.9510    24.6030 
   66.3750   -28.4360     2.0940    79.4170     6.3970     7.0780     8.1330    24.2350 
   66.5000   -28.4180     2.1190    80.2150     6.5720     7.0770     7.6460    23.8970 
   66.6250   -28.3930     2.1630    79.9690     6.9530     7.3180     7.5660    23.7360 
   66.7500   -28.4480     2.2090    79.5770     7.4980     7.7850     8.1220    23.7610 
   66.8750   -28.6010     2.2490    75.4770     8.0390     8.3110     8.9670    23.8470 
   67.0000   -28.8270     2.2960    68.6460     8.3810     8.7090     9.6110    23.9030 
   67.1250   -29.1010     2.3510    64.9750     8.4070     8.8190     9.8650    23.9200 
   67.2500   -29.3990     2.3680    65.9980     8.1810     8.6000     9.6950    23.9200 
   67.3750   -29.6970     2.3220    67.7200     8.0090     8.3120     9.6360    23.9650 
   67.5000   -29.9900     2.2570    70.5830     8.0940     8.1780     9.6660    24.0970 
   67.6250   -30.2790     2.2190    74.6310     8.5010     8.3280     9.7450    24.3320 
   67.7500   -30.5800     2.2140    75.2380     9.1620     8.7880     9.7860    24.4560 
   67.8750   -30.9050     2.2220    72.7960     9.7790     9.3270     9.8000    24.3610 
   68.0000   -31.2710     2.2350    71.2970    10.0720     9.6880    10.0360    24.0170 
   68.1250   -31.6770     2.2390    71.9830     9.9160     9.6780    10.9690    23.4870 
   68.2500   -32.1400     2.2170    72.4410     9.4300     9.2820    11.2850    23.0790 
   68.3750   -32.6110     2.1780    71.0450     8.9530     8.7770    11.6130    22.9390 
   68.5000   -33.0460     2.1480    70.4520     8.6550     8.3450    11.8250    23.0590 
   68.6250   -33.4410     2.1380    72.7050     8.5640     8.0740    11.8960    23.3330 
   68.7500   -33.7970     2.1440    75.5560     8.6270     7.9790    11.9330    23.6440 
   68.8750   -34.1430     2.1550    76.9870     8.7250     7.9670    11.9390    23.9230 
   69.0000   -34.5170     2.1690    77.5120     8.8240     7.9900    11.8730    24.1430 
   69.1250   -34.9180     2.1790    76.0040     8.9470     8.0410    11.7680    24.2850 
   69.2500   -35.2980     2.1780    71.0090     9.1290     8.1450    11.8680    24.3680 
   69.3750   -35.6600     2.1650    66.6600     9.3490     8.2960    11.8890    24.5200 
   69.5000   -35.9800     2.1380    66.1920     9.5570     8.4630    12.1040    24.8940 
   69.6250   -36.2300     2.0990    67.8520     9.6790     8.5920    13.0890    25.3950 
   69.7500   -36.3660     2.0560    67.9610     9.6310     8.5970    14.2310    25.5910 
   69.8750   -36.3950     2.0340    67.7640     9.4370     8.4650    13.5470    25.3050 
   70.0000   -36.3010     2.0460    69.9000     9.1560     8.2260    11.8960    24.7520 
   70.1250   -36.0960     2.0820    75.0270     8.8770     7.9400    10.8140    24.3880 
   70.2500   -35.8020     2.1110    77.4110     8.6950     7.6900    10.3580    24.2810 
   70.3750   -35.4460     2.1220    73.8820     8.6290     7.5210    10.1680    24.2590 
   70.5000   -35.0680     2.1230    69.6230     8.6460     7.4420    10.2130    24.2650 
   70.6250   -34.6860     2.1190    70.2100     8.6860     7.4200    10.3580    24.2630 
   70.7500   -34.3310     2.1120    74.7750     8.6760     7.3950    10.4680    24.2170 
   70.8750   -33.9870     2.1010    75.9360     8.6040     7.3190    10.3120    24.1560 
   71.0000   -33.6390     2.0920    73.9930     8.5450     7.2260    10.1520    24.0740 
   71.1250   -33.2760     2.0870    71.5770     8.6360     7.2180    10.1290    24.0190 
   71.2500   -32.9210     2.0910    68.7660     9.0180     7.4370    10.1840    24.0190 
   71.3750   -32.5870     2.1110    66.5050     9.6110     7.8560    10.2120    24.0580 
   71.5000   -32.2750     2.1580    66.4230    10.2460     8.3720    10.4520    24.2170 
   71.6250   -31.9950     2.2370    69.7320    10.6770     8.8120    11.7180    24.3430 
   71.7500   -31.7460     2.3280    74.4510    10.5980     8.9170    13.5020    24.2310 
   71.8750   -31.5250     2.3690    76.6970    10.0950     8.6700    12.7470    23.8100 
   72.0000   -31.3720     2.3350    76.3040     9.4350     8.2060    10.3930    23.4080 
   72.1250   -31.3350     2.2630    73.9120     8.9080     7.7210     9.6730    23.2920 
   72.2500   -31.4100     2.2110    70.5590     8.7230     7.3950    10.7540    23.5140 
   72.3750   -31.5640     2.1790    67.4600     8.8100     7.2650    11.2450    23.8650 
   72.5000   -31.7730     2.1560    65.1850     9.0350     7.2970    11.5160    24.1860 
   72.6250   -32.0070     2.1410    65.2780     9.2380     7.4010    11.8820    24.4610 
   72.7500   -32.2420     2.1330    65.3490     9.2960     7.4780    12.1960    24.7100 
   72.8750   -32.4710     2.1290    63.1840     9.2580     7.5080    12.4450    24.8550 
   73.0000   -32.6770     2.1260    61.5490     9.1900     7.5100    12.5510    24.9150 
   73.1250   -32.8120     2.1260    62.1670     9.1320     7.5010    12.5840    24.9580 
