~V
VERS. 2.00: Ver 2.00
~W
STRT.M 53.0000:
STOP.M 252.0000:
STEP.M 0.1250:
NULL. -999.2500:
UWI. F11141:
~C
DEPT.M :
SP.MV :
DEN.GM/CC :
GR.API :
RML.OHMM :
RI. :
RXO.OHMM :
CALI.CM :
~A
# ...
  131.7500    -9.0090     2.5460    53.5750    19.5830    18.7670    16.4040    23.8940 
  131.8750    -8.9890     2.5300    57.1090    19.2370    18.3780    16.3970    24.0020 
  132.0000    -8.9420     2.5140    58.8350    19.4250    18.4290    17.8760    24.0810 
  132.1250    -8.9950     2.5020    58.2110    20.1180    18.9580    19.5210    24.2050 
  132.2500    -9.1060     2.4950    56.2550    20.9570    19.6900    19.8210    24.2290 
  132.3750    -9.1580     2.4890    53.0240    21.6140    20.3390    20.6430    24.1740 
  132.5000    -9.1000     2.4840    50.7790    21.8160    20.6330    22.0280    24.1210 
  132.6250    -9.0590     2.4830    51.5020    21.3970    20.3700    22.2470    24.2020 
  132.7500    -9.1370     2.4890    51.8080    20.6350    19.7550    20.1280    24.2180 
  132.8750    -9.3020     2.5020    49.9830    19.8230    19.0280    17.2890    24.2000 
  133.0000    -9.4540     2.5160    48.7930    19.2230    18.4190    16.2360    24.2170 
  133.1250    -9.5080     2.5240    49.9930    19.0370    18.1290    17.2890    24.2240 
  133.2500    -9.5550     2.5240    50.0750    19.1460    18.1100    17.6510    24.2020 
  133.3750    -9.6890     2.5170    48.3580    19.3700    18.2450    16.9150    24.1600 
  133.5000    -9.8570     2.5080    46.9750    19.5240    18.3850    16.7820    24.1120 
  133.6250    -9.9300     2.5010    46.1300    19.4570    18.3910    17.7380    24.0460 
  133.7500    -9.9580     2.4960    45.0500    19.2150    18.2720    17.8300    24.0420 
  133.8750    -9.9810     2.4940    46.4010    18.9000    18.1020    17.3890    24.0810 
  134.0000   -10.0100     2.4910    50.3020    18.6360    17.9770    17.2690    24.0210 
  134.1250   -10.0170     2.4850    51.5040    18.5490    17.9940    16.8580    23.9840 
  134.2500    -9.9760     2.4770    48.9150    18.6420    18.1490    16.6980    23.9970 
  134.3750    -9.8890     2.4680    46.8350    18.8370    18.3780    17.0010    23.9580 
  134.5000    -9.7900     2.4600    46.9310    18.9470    18.5260    16.6570    23.8880 
  134.6250    -9.6740     2.4560    48.8300    18.6690    18.3230    16.7560    23.9020 
  134.7500    -9.5150     2.4520    53.0570    17.9360    17.6980    16.3640    23.9500 
  134.8750    -9.3750     2.4500    58.9030    16.8220    16.7070    15.4230    23.9460 
  135.0000    -9.2900     2.4490    65.1990    15.5280    15.5250    14.0090    23.9170 
  135.1250    -9.2190     2.4520    69.9050    14.3470    14.4130    13.0810    23.9740 
  135.2500    -9.1490     2.4560    71.4630    13.4870    13.5660    12.8050    24.0510 
  135.3750    -9.1380     2.4610    70.5210    13.0530    13.0900    12.3340    24.0720 
  135.5000    -9.2650     2.4680    68.9190    13.0730    13.0270    11.5390    24.0680 
  135.6250    -9.4990     2.4800    68.3830    13.5760    13.4310    11.8930    24.0990 
  135.7500    -9.6890     2.4940    65.6670    14.4090    14.1800    13.0640    24.0330 
  135.8750    -9.8020     2.5080    61.5460    15.4500    15.1700    14.5810    23.8780 
  136.0000    -9.8880     2.5150    58.5750    16.5330    16.2490    15.5200    23.7930 
  136.1250   -10.0590     2.5150    57.8980    17.4350    17.1860    16.1480    23.7930 
  136.2500   -10.3120     2.5130    59.3840    18.0270    17.8270    17.1710    23.8740 
  136.3750   -10.5330     2.5170    61.9040    18.2570    18.0990    17.8090    23.9810 
  136.5000   -10.6570     2.5240    62.8000    18.1510    18.0140    17.3260    24.0550 
  136.6250   -10.8490     2.5270    61.3420    17.7580    17.6100    16.1770    24.0470 
  136.7500   -11.2150     2.5190    62.2460    17.2350    17.0450    16.3550    24.0290 
  136.8750   -11.6450     2.5030    66.6540    16.7150    16.4480    15.6200    23.9830 
  137.0000   -12.0670     2.4860    70.9240    16.3710    15.9770    14.7700    23.9170 
  137.1250   -12.5120     2.4760    74.4420    16.4340    15.8370    14.6770    23.7800 
  137.2500   -12.9210     2.4710    80.1100    16.9560    16.0810    14.4420    23.7160 
  137.3750   -13.2930     2.4690    85.6880    17.9650    16.7540    15.8630    23.7460 
  137.5000   -13.6290     2.4650    85.4080    19.4000    17.8410    18.8260    23.7700 
  137.6250   -13.8660     2.4600    80.2400    21.1090    19.2730    20.2090    23.7010 
  137.7500   -14.0200     2.4570    80.3690    22.8340    20.8190    21.1840    23.6130 
  137.8750   -14.1230     2.4590    86.1670    24.4280    22.3280    22.2250    23.5400 
  138.0000   -14.1540     2.4640    88.4200    25.7610    23.6570    24.3910    23.5560 
  138.1250   -14.1010     2.4710    81.2180    26.6240    24.5830    25.5920    23.5760 
  138.2500   -14.1050     2.4770    74.3320    27.0160    25.0650    27.1960    23.6450 
  138.3750   -14.1460     2.4810    74.4520    27.0070    25.1390    29.1570    23.6400 
  138.5000   -14.1540     2.4820    78.8990    26.7930    24.9610    30.8020    23.6290 
  138.6250   -14.0950     2.4790    83.1070    26.6990    24.7980    26.9030    23.7740 
  138.7500   -14.0290     2.4720    84.7420    26.9130    24.8510    26.1290    23.9960 
  138.8750   -14.0460     2.4610    84.7320    27.3920    25.1290    28.2060    24.0340 
  139.0000   -14.1780     2.4490    85.4450    27.9120    25.4910    30.8670    23.8880 
  139.1250   -14.3570     2.4420    88.0720    28.0980    25.6660    31.3650    23.8290 
  139.2500   -14.4620     2.4420    90.2700    27.7790    25.4840    27.3730    23.8590 
  139.3750   -14.5630     2.4470    90.2690    26.9950    24.9240    24.7670    23.9290 
  139.5000   -14.7700     2.4560    88.6660    26.0050    24.1370    23.6630    23.9480 
  139.6250   -15.0370     2.4620    88.8860    25.2390    23.4320    23.8120    24.0600 
  139.7500   -15.2340     2.4620    90.9020    24.9250    23.0400    24.0750    24.1710 
  139.8750   -15.3300     2.4560    90.7520    25.1080    23.0370    23.3160    24.1730 
  140.0000   -15.4050     2.4460    85.1820    25.6990    23.3900    23.1690    24.0980 
  140.1250   -15.4490     2.4400    80.9080    26.4520    23.9390    24.9800    24.0340 
  140.2500   -15.3930     2.4410    81.6650    26.9530    24.3400    28.0150    24.0430 
  140.3750   -15.2630     2.4520    82.3220    26.9260    24.3410    30.8000    24.1050 
  140.5000   -15.0940     2.4690    80.1140    26.3220    23.8660    27.9200    24.1430 
  140.6250   -14.8800     2.4850    80.6850    25.3430    23.0350    25.8020    24.1850 
  140.7500   -14.6240     2.4940    85.2070    24.4070    22.1740    22.0090    24.1750 
  140.8750   -14.3260     2.4930    87.5630    23.6960    21.4460    20.1260    24.1230 
  141.0000   -13.9590     2.4830    86.1930    23.1470    20.8440    20.6440    24.0690 
  141.1250   -13.5850     2.4690    87.1100    22.4730    20.2000    22.4780    24.0590 
  141.2500   -13.2960     2.4560    89.4290    21.4980    19.3830    23.8120    24.0440 
  141.3750   -13.0170     2.4480    88.8880    20.2660    18.4110    22.4990    23.9710 
  141.5000   -12.6770     2.4480    86.2190    18.9890    17.4120    17.7990    23.8490 
  141.6250   -12.3920     2.4540    88.3340    18.0080    16.6100    15.3010    23.7970 
  141.7500   -12.2100     2.4640    92.5010    17.4570    16.1040    14.6430    23.7500 
  141.8750   -12.0560     2.4750    91.1090    17.2400    15.8550    15.2720    23.7260 
  142.0000   -11.8530     2.4860    84.9520    17.0090    15.6150    16.0940    23.7350 
  142.1250   -11.5950     2.4860    81.9880    16.1530    14.8720    15.6410    23.8220 
  142.2500   -11.3710     2.4680    84.3030    14.4720    13.4220    15.4290    23.8810 
  142.3750   -11.2330     2.4310    88.1490    12.1560    11.4200    14.3790    23.9500 
  142.5000   -11.1450     2.3810    91.7610     9.6990     9.2920    12.0680    24.0300 
  142.6250   -10.9910     2.3330    94.1260     7.3520     7.5380     8.3780    24.1000 
  142.7500   -10.8180     2.2970    93.5340     6.1000     6.2950     6.2430    24.1880 
  142.8750   -10.7380     2.2740    90.7050     5.4530     5.5500     5.5420    24.2510 
