~V
VERS. 2.00: Ver 2.00
~W
STRT.M 50.0000:
STOP.M 240.0000:
STEP.M 0.1250:
NULL. -999.2500:
UWI. F11117:
~C
DEPT.M :
DEN.GM/CC :
GR.API :
RML.OHMM :
RI. :
RXO.OHMM :
CALI.CM :
SP.MV :
~A
# ...
   95.0000     2.2670    55.9090     9.6980     8.6590    10.8830    27.6130   -30.3630 
   95.1250     2.2500    53.8800     9.6890     8.6510    11.4880    27.6330   -30.9500 
   95.2500     2.2140    54.7180     9.3800     8.3750     9.8270    27.6060   -31.4940 
   95.3750     2.1770    56.7690     8.9210     7.9650     8.2930    27.6300   -31.9560 
   95.5000     2.1520    55.5290     8.4880     7.5790     7.5250    27.6830   -32.3620 
   95.6250     2.1470    51.9450     8.2280     7.3460     7.5030    27.6490   -32.7110 
   95.7500     2.1540    51.2040     8.1310     7.2600     7.8640    27.5460   -32.9900 
   95.8750     2.1640    52.2990     8.1290     7.2580     8.3620    27.4360   -33.2180 
   96.0000     2.1720    52.5550     8.1250     7.2540     8.9740    27.3550   -33.3540 
   96.1250     2.1740    52.6000     8.0400     7.1780     9.1610    27.3110   -33.4090 
   96.2500     2.1740    54.6400     7.8920     7.0470     8.7390    27.2730   -33.4350 
   96.3750     2.1740    58.2700     7.7280     6.9000     8.2760    27.2670   -33.4210 
   96.5000     2.1750    60.0580     7.5970     6.7830     7.8730    27.2480   -33.4000 
   96.6250     2.1760    59.4910     7.5420     6.7340     7.7080    27.1770   -33.3660 
   96.7500     2.1730    58.9840     7.5500     6.7410     7.7560    27.1270   -33.3440 
   96.8750     2.1680    58.4820     7.5960     6.7820     8.0460    27.0420   -33.3310 
   97.0000     2.1630    57.2580     7.6470     6.8280     8.2650    27.0110   -33.2690 
   97.1250     2.1600    56.4090     7.6810     6.8580     8.2530    27.0070   -33.1900 
   97.2500     2.1580    57.6590     7.6980     6.8730     8.1400    27.0070   -33.0540 
   97.3750     2.1560    57.7670     7.7090     6.8830     8.1140    27.0070   -32.8350 
   97.5000     2.1510    55.2240     7.7240     6.8960     8.2240    27.0050   -32.5460 
   97.6250     2.1470    52.8670     7.7460     6.9160     8.3560    26.9850   -32.0900 
   97.7500     2.1450    52.1600     7.7590     6.9280     8.3390    26.9060   -31.4490 
   97.8750     2.1470    53.0310     7.7480     6.9170     8.2790    26.8380   -30.6330 
   98.0000     2.1520    55.0000     7.7110     6.8850     8.1250    26.8070   -29.6990 
   98.1250     2.1560    56.8740     7.6700     6.8480     7.9090    26.6840   -28.7460 
   98.2500     2.1610    58.1190     7.6490     6.8290     7.8610    26.5430   -27.7870 
   98.3750     2.1650    59.7150     7.6550     6.8350     8.0640    26.4660   -26.8740 
   98.5000     2.1700    61.0120     7.6740     6.8520     8.4520    26.3680   -25.9910 
   98.6250     2.1780    58.6880     7.6730     6.8510     8.7070    26.2290   -25.2000 
   98.7500     2.1880    55.2540     7.6350     6.8170     8.8270    26.3420   -24.5640 
   98.8750     2.1960    53.6910     7.5650     6.7540     8.7020    27.0070   -24.0710 
   99.0000     2.1990    55.3890     7.4860     6.6840     8.4350    28.1430   -23.7720 
   99.1250     2.1950    58.3900     7.4390     6.6420     8.4300    28.7240   -23.6130 
   99.2500     2.1860    59.6680     7.4470     6.6490     8.3150    27.9730   -23.5420 
   99.3750     2.1760    59.4670     7.5110     6.7070     8.1580    26.8880   -23.5810 
   99.5000     2.1690    60.5750     7.6130     6.7980     7.9830    26.3950   -23.7270 
   99.6250     2.1670    65.0180     7.7170     6.8900     8.0390    26.1740   -24.0070 
   99.7500     2.1690    67.5700     7.7900     6.9560     8.1380    25.9800   -24.3720 
   99.8750     2.1700    66.2400     7.8240     6.9860     8.2390    25.9100   -24.7510 
  100.0000     2.1700    64.0860     7.8290     6.9900     8.2610    25.8760   -25.0910 
  100.1250     2.1680    63.0070     7.8270     6.9880     8.2110    25.8640   -25.3750 
  100.2500     2.1670    61.4210     7.8360     6.9970     8.2230    25.8120   -25.6050 
  100.3750     2.1700    59.7950     7.8600     7.0180     8.3010    25.7170   -25.7710 
  100.5000     2.1770    61.6910     7.8940     7.0480     8.4250    25.6750   -25.8510 
  100.6250     2.1860    65.4020     7.9350     7.0850     8.5880    25.6110   -25.8360 
  100.7500     2.1920    66.2410     7.9850     7.1300     8.6140    25.6110   -25.7610 
  100.8750     2.1950    63.7300     8.0560     7.1930     8.4920    25.6330   -25.6580 
  101.0000     2.1930    59.0330     8.1630     7.2880     8.5060    25.7740   -25.5850 
  101.1250     2.1900    53.1470     8.3230     7.4310     8.8820    26.0900   -25.5180 
  101.2500     2.1890    49.0750     8.5190     7.6070     9.3110    26.2600   -25.4440 
  101.3750     2.1900    50.2460     8.7190     7.7850     9.5290    26.0730   -25.3740 
  101.5000     2.1920    53.8640     8.8580     7.9090     9.5900    25.8720   -25.2830 
  101.6250     2.1940    55.2690     8.8390     7.8920     9.5720    25.7240   -25.1970 
  101.7500     2.1930    56.3980     8.6610     7.7330     9.4320    25.6150   -25.0740 
  101.8750     2.1930    58.0430     8.3680     7.4710     9.3170    25.5980   -24.9470 
  102.0000     2.1930    58.7950     8.0400     7.1790     9.1440    25.5960   -24.7980 
  102.1250     2.1960    58.5120     7.7760     6.9430     8.8920    25.5960   -24.6190 
  102.2500     2.1970    60.1820     7.6140     6.7980     8.7470    25.5960   -24.4610 
  102.3750     2.1940    63.1850     7.5480     6.7390     8.7240    25.5960   -24.2530 
  102.5000     2.1860    64.3070     7.5380     6.7300     8.5620    25.5960   -24.0140 
  102.6250     2.1750    63.2900     7.5140     6.7090     8.1930    25.6000   -23.7450 
  102.7500     2.1680    61.0810     7.4190     6.6250     8.0570    25.6150   -23.4570 
  102.8750     2.1670    59.1820     7.2450     6.4690     7.9960    25.6920   -23.1790 
  103.0000     2.1740    60.3880     7.0320     6.2780     7.9350    25.7700   -22.8700 
  103.1250     2.1820    66.0640     6.8650     6.1300     7.7450    25.8280   -22.5450 
  103.2500     2.1880    72.0860     6.8060     6.0770     7.7790    26.0210   -22.2730 
  103.3750     2.1880    73.6290     6.8810     6.1440     7.7980    26.1920   -22.0970 
  103.5000     2.1820    69.9330     7.0800     6.3220     7.9980    26.2270   -22.0790 
  103.6250     2.1740    65.3780     7.3660     6.5770     8.4510    26.2270   -22.1750 
  103.7500     2.1670    64.5050     7.6530     6.8330     8.7500    26.1430   -22.3190 
  103.8750     2.1620    66.6260     7.8810     7.0360     8.7920    26.0990   -22.5140 
  104.0000     2.1590    67.7100     8.0110     7.1530     8.6230    25.9720   -22.7480 
  104.1250     2.1570    65.1800     8.0340     7.1730     8.5150    25.8960   -23.0310 
  104.2500     2.1600    62.9510     7.9980     7.1410     8.4400    25.8000   -23.2800 
  104.3750     2.1670    63.6070     7.9300     7.0800     8.4610    25.7850   -23.4890 
  104.5000     2.1750    64.8930     7.8390     6.9990     8.4490    25.8160   -23.6480 
  104.6250     2.1770    64.8890     7.7560     6.9250     8.3900    25.8380   -23.7310 
  104.7500     2.1700    64.2280     7.7750     6.9420     8.3510    25.7660   -23.8210 
  104.8750     2.1610    62.3030     8.0470     7.1850     8.4000    25.7200   -23.8550 
  105.0000     2.1680    59.0480     8.7720     7.8320     8.4770    25.7960   -23.8590 
  105.1250     2.2120    57.4510    10.2930     9.1900     9.3440    25.9780   -23.8520 
  105.2500     2.2870    57.8080    12.6150    11.2640    12.5340    26.3780   -23.8480 
  105.3750     2.3720    56.9620    15.4360    13.8680    20.4760    27.0970   -23.8860 
  105.5000     2.4360    54.0150    18.3550    16.3340    34.0060    27.7480   -23.9530 
  105.6250     2.4480    53.8390    19.7420    17.2290    38.2130    27.8730   -24.0820 
  105.7500     2.4210    55.8560    18.8290    16.2280    26.6050    27.1520   -24.2660 
  105.8750     2.3740    56.9760    16.1440    14.0400    14.9050    26.6110   -24.4640 
  106.0000     2.3250    56.8680    13.0410    11.7100     9.7430    26.4370   -24.6460 
  106.1250     2.2820    58.7900    10.7140     9.9700     8.5570    26.4870   -24.8000 
