~V
VERS. 2.00: Ver 2.00
~W
STRT.M 45.0000:
STOP.M 268.0000:
STEP.M 0.1250:
NULL. -999.2500:
UWI. F11184:
~C
DEPT.M :
SP.MV :
GR.API :
RI. :
RML.OHMM :
RXO.OHMM :
DEN.GM/CC :
~A
# ...
  199.5000   -19.0030    53.7080    67.8800    71.4740    92.2820     2.1440 
  199.6250   -18.7450    55.6480    62.9970    66.3470    89.6540     2.1450 
  199.7500   -18.4840    57.9650    59.1010    62.2560    81.3630     2.1520 
  199.8750   -18.2270    57.8440    56.1680    59.1770    74.9840     2.1570 
  200.0000   -17.9810    57.3530    54.1210    57.0270    69.4380     2.1550 
  200.1250   -17.7500    58.3640    52.9180    55.7630    71.5130     2.1500 
  200.2500   -17.5310    59.2710    52.8030    55.6430    78.7870     2.1450 
  200.3750   -17.3180    58.2720    53.4860    56.3600    81.0160     2.1460 
  200.5000   -17.1020    57.3290    54.4060    57.3260    78.5530     2.1510 
  200.6250   -16.8730    57.2960    54.9080    57.8530    78.4440     2.1550 
  200.7500   -16.6270    57.6690    54.6740    57.6080    83.0220     2.1540 
  200.8750   -16.3610    57.4550    53.8590    56.7520    86.0140     2.1500 
  201.0000   -16.0760    56.5060    52.8530    55.6960    82.3990     2.1500 
  201.1250   -15.7730    57.1730    52.2190    55.0300    76.0430     2.1520 
  201.2500   -15.4560    58.9810    52.2850    55.1000    73.9550     2.1500 
  201.3750   -15.1280    58.8090    53.2830    56.1470    76.9410     2.1440 
  201.5000   -14.7920    57.5300    55.2140    58.1750    88.4090     2.1400 
  201.6250   -14.4490    58.2260    57.1320    60.1890   102.0570     2.1370 
  201.7500   -14.0970    59.3350    57.8820    60.9760   101.7160     2.1410 
  201.8750   -13.7360    58.8810    55.6620    58.6450    91.0230     2.1630 
  202.0000   -13.3690    58.3820    51.2330    53.9940    78.1330     2.1990 
  202.1250   -13.0030    59.3110    45.8700    48.3640    65.8420     2.2240 
  202.2500   -12.6470    60.2840    40.8250    43.0670    57.8410     2.2290 
  202.3750   -12.3110    61.9190    36.9400    38.9870    55.1980     2.2210 
  202.5000   -11.9920    64.0890    33.0360    34.8880    61.0190     2.2160 
  202.6250   -11.6850    63.7630    28.8430    30.4850    65.9410     2.2220 
  202.7500   -11.3790    61.2760    24.4960    25.9210    60.1210     2.2420 
  202.8750   -11.0710    60.1630    21.0630    22.3160    50.0840     2.2650 
  203.0000   -10.7690    61.1200    18.7710    19.9090    19.4810     2.2870 
  203.1250   -10.4940    61.6930    16.9490    17.9960    16.2330     2.3270 
  203.2500   -10.2620    60.3480    15.1340    16.0910    18.3900     2.3940 
  203.3750   -10.0930    59.6820    13.3180    14.1830    32.4830     2.4490 
  203.5000    -9.9790    60.8080    11.4590    12.2320    40.6540     2.4640 
  203.6250    -9.9120    63.5710    10.0110    10.7120    25.7170     2.4580 
  203.7500    -9.8650    68.1350     8.8590     9.5020    15.7600     2.4460 
  203.8750    -9.8140    73.2850     7.7640     8.3520    15.2800     2.4140 
  204.0000    -9.7330    76.8360     6.9430     7.4900    11.5440     2.3720 
  204.1250    -9.5960    77.5360     6.3480     6.8650     8.8490     2.3510 
  204.2500    -9.3880    77.9570     5.8930     6.3880     8.1720     2.3470 
  204.3750    -9.0850    77.4340     5.5910     6.0710     8.1790     2.3380 
  204.5000    -8.6880    73.4110     5.4180     5.8880     7.7820     2.3280 
  204.6250    -8.1880    68.0260     5.3930     5.8620     7.5450     2.3340 
  204.7500    -7.6020    66.9820     5.5520     6.0290     7.6630     2.3560 
  204.8750    -6.9370    71.8440     5.8910     6.3850     7.8390     2.3920 
  205.0000    -6.2210    75.3390     6.3710     6.8900     8.7750     2.4340 
  205.1250    -5.4780    72.5000     6.8810     7.4250    10.7660     2.4610 
  205.2500    -4.7330    68.1160     7.3810     7.9500    11.5240     2.4660 
  205.3750    -4.0030    67.5560     7.8770     8.4710    10.6230     2.4740 
  205.5000    -3.2940    70.3980     8.1600     8.7680    10.1960     2.5000 
  205.6250    -2.6090    70.1120     7.9290     8.5260    13.5480     2.5280 
  205.7500    -1.9480    65.6440     6.9680     7.5160    17.6340     2.5360 
  205.8750    -1.3150    59.5340     5.5860     6.0660    14.1960     2.5170 
  206.0000    -0.7150    55.6710     4.1490     4.5570     7.6380     2.4940 
  206.1250    -0.1590    55.7880     3.1580     3.5160     4.4270     2.4770 
  206.2500     0.3480    56.7950     2.5120     2.8370     3.0410     2.4540 
  206.3750     0.7980    56.2970     2.1720     2.4810     2.7020     2.4310 
  206.5000     1.1960    54.5910     2.0160     2.3170     2.7810     2.4290 
  206.6250     1.5540    52.9910     1.9700     2.2680     2.5990     2.4550 
  206.7500     1.8930    51.8830     1.9850     2.2850     2.4410     2.4650 
  206.8750     2.2260    50.9410     2.0240     2.3250     2.4540     2.4370 
  207.0000     2.5500    50.2450     2.0700     2.3740     2.4500     2.3930 
  207.1250     2.8330    48.8170     2.1270     2.4340     2.4620     2.3670 
  207.2500     3.0390    45.7780     2.1720     2.4800     2.5690     2.3580 
  207.3750     3.1200    45.3350     2.1620     2.4700     2.6580     2.3430 
  207.5000     3.0620    47.9410     2.0990     2.4040     2.6440     2.3200 
  207.6250     2.8540    50.2840     1.9590     2.2570     2.5340     2.3160 
  207.7500     2.5270    51.4350     1.7890     2.0790     2.3130     2.3310 
  207.8750     2.1090    53.8450     1.6320     1.9140     2.0720     2.3410 
  208.0000     1.6530    57.8080     1.5270     1.8040     2.0540     2.3380 
  208.1250     1.2000    63.0190     1.5270     1.8030     2.2080     2.3350 
  208.2500     0.7760    68.6930     1.6350     1.9170     2.3660     2.3490 
  208.3750     0.3870    72.9810     1.8110     2.1010     2.7890     2.3680 
  208.5000     0.0060    73.9720     2.0400     2.3420     3.4070     2.3680 
  208.6250    -0.4000    75.1890     2.2770     2.5910     3.7400     2.3500 
  208.7500    -0.8590    79.8780     2.5000     2.8250     3.7640     2.3450 
  208.8750    -1.3860    86.0200     2.7090     3.0440     3.9680     2.3610 
  209.0000    -1.9640    90.3110     2.9030     3.2480     4.4660     2.3740 
  209.1250    -2.5710    90.6980     3.0900     3.4450     4.7900     2.3690 
  209.2500    -3.1780    89.2420     3.2100     3.5700     5.1640     2.3440 
  209.3750    -3.7630    86.2400     3.2180     3.5790     5.4600     2.3080 
  209.5000    -4.3200    82.2530     3.1450     3.5020     5.1650     2.2800 
  209.6250    -4.8380    79.6290     3.0280     3.3790     4.6200     2.2690 
  209.7500    -5.3190    81.1340     2.9670     3.3160     4.2750     2.2690 
  209.8750    -5.7590    84.5060     2.9970     3.3460     4.3600     2.2740 
  210.0000    -6.1620    85.4970     3.0950     3.4490     4.6540     2.2820 
  210.1250    -6.5240    83.7080     3.2430     3.6050     5.0770     2.2880 
  210.2500    -6.8390    80.6000     3.4090     3.7800     5.5810     2.2930 
  210.3750    -7.0900    77.9570     3.5280     3.9050     5.8080     2.3000 
  210.5000    -7.2720    75.1520     3.6120     3.9920     5.8660     2.3040 
  210.6250    -7.3740    72.8170     3.6980     4.0830     5.9190     2.2990 
  210.7500    -7.4050    71.7370     3.8390     4.2310     5.9450     2.2880 
  210.8750    -7.3390    72.6530     4.0450     4.4470     6.3300     2.2750 
  211.0000    -7.1870    73.3110     4.1970     4.6070     7.5630     2.2630 
  211.1250    -6.9920    72.9260     4.0790     4.4830     7.8560     2.2550 
  211.2500    -6.7590    73.0740     3.7760     4.1650     6.9550     2.2520 
  211.3750    -6.5150    73.7060     3.3550     3.7220     5.9050     2.2560 
  211.5000    -6.3010    75.4950     2.9600     3.3070     4.7280     2.2720 
  211.6250    -6.1660    78.1640     2.7840     3.1240     3.7530     2.2950 
  211.7500    -6.1440    78.7330     2.8010     3.1410     3.7980     2.3050 
  211.8750    -6.2520    76.9820     3.0410     3.3930     4.6690     2.2890 
  212.0000    -6.4520    74.4830     3.4460     3.8190     5.7250     2.2660 
  212.1250    -6.6870    72.2980     3.9730     4.3720     6.5820     2.2590 
  212.2500    -6.8890    70.7100     4.5980     5.0280     6.8970     2.2840 
