~V
VERS. 2.00: Ver 2.00
~W
STRT.M 63.0000:
STOP.M 219.0000:
STEP.M 0.1250:
NULL. -999.2500:
UWI. F11123:
~C
DEPT.M :
GR.API :
RML.OHMM :
RI. :
RXO.OHMM :
CALI.CM :
SP.MV :
DEN.GM/CC :
~A
# ...
  164.2500    56.3750   213.1350   170.4490   163.3100    24.8850   -12.8970     2.1830 
  164.3750    58.2700   217.3450   174.3360   172.4930    24.9070   -12.9530     2.1590 
  164.5000    62.2460   216.9450   175.1780   184.2010    25.0330   -13.0120     2.1430 
  164.6250    63.0250   209.4280   170.7730   177.1230    25.1140   -13.0640     2.1380 
  164.7500    61.0380   197.4150   162.6160   158.9730    25.1560   -13.1090     2.1410 
  164.8750    59.5730   183.7810   152.6590   137.3550    25.1880   -13.1430     2.1510 
  165.0000    60.6890   171.0790   142.9070   126.5450    25.1820   -13.1500     2.1630 
  165.1250    61.9170   161.3890   135.1520   122.7540    25.1850   -13.1430     2.1740 
  165.2500    60.1320   154.7810   129.7280   123.9630    25.1730   -13.1120     2.1820 
  165.3750    57.3140   151.0150   126.5770   118.1270    25.1840   -13.0600     2.1870 
  165.5000    56.0770   149.5710   125.3330   110.6480    25.2380   -12.9970     2.1880 
  165.6250    57.1610   150.1540   125.7320   110.2250    25.2530   -12.9560     2.1880 
  165.7500    57.3050   152.1280   127.1930   117.5960    25.2520   -12.9320     2.1890 
  165.8750    56.5200   155.4570   129.6860   124.6680    25.2480   -12.9220     2.1920 
  166.0000    56.6710   160.3210   133.4150   126.5780    25.2480   -12.9270     2.1960 
  166.1250    55.8380   167.3250   138.9740   130.2640    25.2490   -12.9220     2.2010 
  166.2500    53.6580   176.1130   146.1130   140.0270    25.2480   -12.8980     2.2020 
  166.3750    52.2240   185.7410   154.0860   157.1650    25.2440   -12.8290     2.1990 
  166.5000    52.0680   194.0290   161.1680   169.7580    25.2440   -12.7110     2.1920 
  166.6250    52.5590   196.5940   163.9520   191.9850    25.1900   -12.5150     2.1830 
  166.7500    52.9550   191.8800   161.0480   187.8360    25.1240   -12.2890     2.1770 
  166.8750    55.2230   180.8780   152.8820   156.6740    25.0370   -12.0380     2.1770 
  167.0000    58.2400   166.9520   141.7850   119.8390    24.8910   -11.7890     2.1860 
  167.1250    59.1200   154.2550   131.0120   100.0940    24.8250   -11.5550     2.2020 
  167.2500    57.9530   144.7410   122.5750    88.3330    24.8090   -11.3600     2.2220 
  167.3750    56.3810   138.5280   116.8750    84.7330    24.8110   -11.2140     2.2380 
  167.5000    55.5590   134.8550   113.4370    88.3370    24.7560   -11.1150     2.2470 
  167.6250    55.1590   132.9880   111.6710    98.1130    24.7540   -11.0860     2.2460 
  167.7500    54.9280   132.2020   110.8570   111.9350    24.7550   -11.1030     2.2400 
  167.8750    55.2670   132.6290   111.0380   123.0520    24.7870   -11.1670     2.2310 
  168.0000    56.8550   134.6460   112.5290   127.0350    24.8090   -11.2500     2.2200 
  168.1250    59.0340   138.8420   115.9240   124.3370    24.8030   -11.3530     2.2080 
  168.2500    59.2400   144.5400   120.7540   121.2240    24.7630   -11.4350     2.1970 
  168.3750    58.6570   150.6360   126.1270   115.3200    24.6670   -11.4700     2.1880 
  168.5000    59.3030   155.5890   130.6690   111.6330    24.6360   -11.4440     2.1860 
  168.6250    60.1720   157.5420   132.6060   108.5900    24.6320   -11.3610     2.1940 
  168.7500    59.1950   156.7250   131.9360   103.1170    24.6480   -11.2450     2.2090 
  168.8750    59.7140   154.1520   129.4380    94.7860    24.6800   -11.1000     2.2220 
  169.0000    64.0420   151.1400   126.2890    82.2030    24.7100   -10.9310     2.2260 
  169.1250    68.6670   148.2570   123.1620    74.9540    24.8150   -10.7420     2.2140 
  169.2500    69.4760   144.6630   119.5680    80.4200    24.8750   -10.5440     2.1960 
  169.3750    67.8200   139.2720   114.6810    91.9600    24.9640   -10.3570     2.1810 
  169.5000    66.1980   131.7800   108.2080    92.8210    25.0520   -10.1670     2.1790 
  169.6250    63.2530   123.3390   100.9080    72.9850    25.0820    -9.9870     2.1900 
  169.7500    58.2540   116.4740    94.6510    59.0530    25.1220    -9.8030     2.2020 
  169.8750    53.7280   113.1890    91.0180    61.4670    25.1310    -9.6530     2.2070 
  170.0000    53.9200   114.5600    90.9860    70.2020    25.1190    -9.5290     2.2070 
  170.1250    58.8680   120.7620    94.9340    79.8250    25.0990    -9.4560     2.2090 
  170.2500    63.4230   128.7120   100.6360    91.9770    25.0310    -9.3780     2.2170 
  170.3750    64.8440   135.0520   105.6230   107.7680    24.9690    -9.3020     2.2260 
  170.5000    64.8050   136.4730   107.3600   112.0820    24.9640    -9.2020     2.2290 
  170.6250    63.2770   130.5050   103.7640    99.3630    25.0550    -9.0970     2.2220 
  170.7500    60.2530   119.9280    96.5370    77.3720    25.1170    -8.9580     2.2120 
  170.8750    58.7380   107.4990    87.5730    68.8960    25.1730    -8.7970     2.2050 
  171.0000    61.4500    95.4250    78.5100    71.6430    25.1750    -8.5930     2.2070 
  171.1250    65.5850    85.0510    70.4260    69.3090    25.0910    -8.3710     2.2160 
  171.2500    66.0850    76.0500    63.3040    59.7530    24.9590    -8.1220     2.2300 
  171.3750    64.7050    67.7660    56.8040    51.6630    24.7650    -7.8670     2.2430 
  171.5000    65.1870    59.4760    50.4470    49.1030    24.5880    -7.6040     2.2540 
  171.6250    66.3850    50.7740    43.8490    46.6820    24.5270    -7.3070     2.2590 
  171.7500    66.9220    42.0550    37.1520    41.6910    24.4230    -6.9870     2.2660 
  171.8750    67.7850    33.9550    30.7680    34.1000    24.3810    -6.6490     2.2810 
  172.0000    70.9010    27.0480    25.1650    25.2570    24.5410    -6.3140     2.3090 
  172.1250    75.3770    21.9560    20.8830    18.0100    24.6980    -6.0050     2.3500 
  172.2500    79.9010    18.4880    17.8320    13.8630    24.6580    -5.7490     2.3890 
  172.3750    84.4550    16.4830    15.9150    11.8220    24.6200    -5.5540     2.4140 
  172.5000    88.3770    15.6550    14.9470    10.8940    24.6280    -5.4510     2.4180 
  172.6250    89.5360    15.7160    14.7690    10.7810    24.6470    -5.4300     2.4050 
  172.7500    87.0970    16.0560    14.9350    11.9660    24.5950    -5.4740     2.3900 
  172.8750    84.0760    16.2670    15.1270    13.6690    24.5370    -5.5470     2.3850 
  173.0000    82.2140    16.1580    15.1550    13.2640    24.6360    -5.6470     2.3960 
  173.1250    81.2070    16.0080    15.1570    12.2790    24.7590    -5.7350     2.4160 
  173.2500    79.7650    16.5160    15.5930    11.7000    24.8180    -5.8340     2.4300 
  173.3750    78.5280    18.3720    16.9550    12.7980    24.7890    -5.9290     2.4310 
  173.5000    76.9350    22.1160    19.7110    17.5870    24.6750    -6.0360     2.4190 
  173.6250    73.1590    27.9730    24.3150    32.2490    24.5340    -6.1370     2.3980 
  173.7500    69.1940    34.2110    29.6530    45.3080    24.5240    -6.2530     2.3740 
  173.8750    67.5420    38.2990    33.5750    40.8820    24.5840    -6.3560     2.3490 
  174.0000    67.3040    37.8950    33.6880    30.1080    24.6690    -6.4710     2.3230 
  174.1250    68.5340    32.5440    29.2750    23.3410    24.7270    -6.5790     2.3020 
  174.2500    72.8590    25.8420    23.5310    17.5350    24.8050    -6.6950     2.2920 
  174.3750    78.8600    20.0880    18.4770    12.7760    24.7410    -6.8190     2.3000 
  174.5000    83.2750    16.2130    14.9030    10.4100    24.7010    -6.9670     2.3260 
  174.6250    86.5860    14.5130    13.0380     9.6270    24.7310    -7.1260     2.3660 
  174.7500    91.0760    14.5210    12.4710     9.6370    24.8030    -7.3160     2.4010 
  174.8750    92.9370    16.3140    13.1980    11.8550    24.8160    -7.5200     2.4140 
  175.0000    87.5770    20.1340    15.3750    18.1420    24.8290    -7.7390     2.4030 
  175.1250    77.1830    26.6150    19.5900    32.5240    24.8770    -7.9630     2.3730 
  175.2500    70.2350    35.1450    25.6420    39.8440    24.9270    -8.1890     2.3380 
  175.3750    69.7820    44.7650    33.0100    44.1310    24.9340    -8.3920     2.3090 
