~V
VERS. 2.00: Ver 2.00
~W
STRT.M 50.0000:
STOP.M 242.0000:
STEP.M 0.1250:
NULL. -999.2500:
UWI. F11136:
~C
DEPT.M :
GR.API :
RML.OHMM :
RI. :
RXO.OHMM :
CALI.CM :
SP.MV :
DEN.GM/CC :
~A
# ...
   95.0000    65.6160     8.2330     6.9300     9.1030    20.9420   -27.2950     2.1880 
   95.1250    67.4410     8.3220     7.0050     9.0420    20.6790   -27.2340     2.1770 
   95.2500    66.5310     8.5070     7.1600     9.1050    20.3760   -27.1100     2.1630 
   95.3750    63.4410     8.7670     7.3800     9.4680    20.3570   -26.9070     2.1470 
   95.5000    60.8510     9.0090     7.5830     9.6820    20.8090   -26.6490     2.1360 
   95.6250    63.1160     9.0600     7.6260    10.1030    21.3860   -26.3840     2.1380 
   95.7500    69.2900     8.8490     7.4480    10.4710    21.8490   -26.1740     2.1510 
   95.8750    74.3950     8.4060     7.0760     9.9270    21.8760   -26.0230     2.1660 
   96.0000    74.2270     7.8670     6.6220     8.3180    21.5620   -25.9060     2.1770 
   96.1250    68.8150     7.4150     6.2420     7.7340    21.4420   -25.8530     2.1820 
   96.2500    64.4510     7.1400     6.0100     7.6040    21.4180   -25.9310     2.1900 
   96.3750    62.8670     7.0530     5.9370     7.7650    21.4130   -26.1140     2.2050 
   96.5000    63.2000     7.1250     5.9970     8.0020    21.3990   -26.3470     2.2240 
   96.6250    66.2210     7.3420     6.1800     8.1910    21.3540   -26.6060     2.2370 
   96.7500    70.2280     7.6970     6.4790     8.4330    21.5030   -26.9060     2.2450 
   96.8750    73.8880     8.2150     6.9150     8.9610    21.8360   -27.2550     2.2560 
   97.0000    76.1460     8.8690     7.4650     9.7710    22.1590   -27.6480     2.2810 
   97.1250    77.8440     9.5100     8.0050    10.5960    22.5960   -28.0170     2.3230 
   97.2500    78.3330     9.9450     8.3720    10.7750    22.6500   -28.3630     2.3650 
   97.3750    75.1850    10.0640     8.4710    10.3670    22.1630   -28.7310     2.3900 
   97.5000    67.2510     9.8940     8.3280    10.0050    21.4200   -29.1200     2.3830 
   97.6250    57.0270     9.5790     8.0630     9.9420    21.2940   -29.4580     2.3400 
   97.7500    50.2810     9.3040     7.8320     9.7890    21.2610   -29.7520     2.2810 
   97.8750    48.6130     9.1470     7.6990     9.6650    21.2230   -30.0060     2.2270 
   98.0000    50.2750     9.1200     7.6770     9.7190    21.0770   -30.2260     2.1910 
   98.1250    50.6050     9.2030     7.7470    10.0690    20.8270   -30.4110     2.1780 
   98.2500    49.7740     9.3170     7.8420    10.3790    20.5910   -30.4980     2.1780 
   98.3750    48.8080     9.4080     7.9190    10.3660    20.5010   -30.4990     2.1820 
   98.5000    50.3390     9.4450     7.9510    10.1750    20.4870   -30.4710     2.1840 
   98.6250    53.7850     9.4170     7.9270     9.9870    20.4860   -30.4600     2.1810 
   98.7500    55.2920     9.3570     7.8760     9.9440    20.4800   -30.4020     2.1780 
   98.8750    54.7720     9.2810     7.8130     9.9340    20.4880   -30.3120     2.1770 
   99.0000    54.7390     9.1840     7.7310     9.9170    20.5260   -30.2290     2.1780 
   99.1250    56.4760     9.0500     7.6180     9.7790    20.5480   -30.1510     2.1760 
   99.2500    58.0830     8.8870     7.4810     9.6150    20.5520   -30.0980     2.1700 
   99.3750    57.7790     8.7180     7.3380     9.4590    20.5530   -30.0490     2.1600 
   99.5000    57.2920     8.5790     7.2210     9.2840    20.5520   -30.0040     2.1490 
   99.6250    57.4330     8.5140     7.1670     9.2200    20.5400   -29.9840     2.1410 
   99.7500    56.4490     8.5200     7.1720     9.3000    20.4950   -29.9650     2.1360 
   99.8750    54.1540     8.5740     7.2170     9.5120    20.4110   -29.9000     2.1350 
  100.0000    52.5260     8.6310     7.2660     9.6610    20.2900   -29.7920     2.1380 
  100.1250    53.5960     8.6440     7.2760     9.6500    20.2540   -29.6850     2.1430 
  100.2500    55.2300     8.6080     7.2460     9.5390    20.2420   -29.5630     2.1480 
  100.3750    54.4840     8.5480     7.1950     9.3290    20.2410   -29.3730     2.1550 
  100.5000    51.0930     8.4920     7.1480     9.0690    20.2600   -29.0600     2.1640 
  100.6250    47.6920     8.4470     7.1100     8.9010    20.3800   -28.6460     2.1730 
  100.7500    47.6410     8.4050     7.0750     8.8350    20.4980   -28.2070     2.1770 
  100.8750    51.6880     8.3520     7.0300     8.7870    20.5420   -27.7220     2.1720 
  101.0000    57.0570     8.2610     6.9540     8.6390    20.5340   -27.1390     2.1600 
  101.1250    60.9000     8.0820     6.8030     8.3240    20.4410   -26.4530     2.1450 
  101.2500    62.7730     7.8260     6.5870     8.1080    20.3580   -25.7150     2.1370 
  101.3750    63.2470     7.5530     6.3580     8.0520    20.3380   -24.9400     2.1410 
  101.5000    64.1110     7.3610     6.1970     7.9350    20.3920   -24.1130     2.1540 
  101.6250    65.7840     7.3500     6.1870     7.4680    20.6100   -23.1890     2.1700 
  101.7500    65.5970     7.4680     6.2870     7.2240    20.8900   -22.2090     2.1830 
  101.8750    60.9920     7.5990     6.3960     7.9140    21.0820   -21.2070     2.1900 
  102.0000    56.0830     7.5910     6.3890     8.6150    21.4090   -20.1770     2.1920 
  102.1250    57.7380     7.3170     6.1590     8.0500    22.1190   -19.1220     2.1900 
  102.2500    63.8900     6.8790     5.7900     6.4780    23.2100   -18.0940     2.1820 
  102.3750    70.2270     6.4190     5.4030     5.2140    25.2730   -17.1530     2.1690 
  102.5000    74.4920     6.0460     5.0890     4.7210    26.7170   -16.3760     2.1540 
  102.6250    78.5360     5.8080     4.8890     4.7210    25.7280   -15.7750     2.1480 
  102.7500    81.2760     5.6380     4.7460     4.6450    25.1140   -15.2660     2.1560 
  102.8750    81.2130     5.4820     4.6140     4.4950    24.9520   -14.8890     2.1810 
  103.0000    79.5000     5.3170     4.4750     4.4040    24.6900   -14.7170     2.2180 
  103.1250    78.4440     5.1730     4.3540     4.4450    24.4140   -14.7600     2.2580 
  103.2500    80.0210     5.1020     4.2950     4.6910    24.2390   -14.9130     2.2940 
  103.3750    82.4020     5.1440     4.3300     5.2190    24.1370   -15.1810     2.3230 
  103.5000    83.4450     5.3200     4.4780     5.6710    24.0090   -15.5610     2.3440 
  103.6250    82.4080     5.6660     4.7690     5.9390    23.8900   -16.1040     2.3480 
  103.7500    79.4570     6.1490     5.1760     6.2900    23.5340   -16.7790     2.3340 
  103.8750    75.5270     6.7500     5.6820     6.8250    22.9400   -17.5450     2.3010 
  104.0000    71.4640     7.4400     6.2620     6.8180    22.5940   -18.3700     2.2530 
  104.1250    67.8460     8.2000     6.9020     6.8690    22.1570   -19.2960     2.2010 
  104.2500    64.5260     8.9810     7.5600     7.8580    21.6180   -20.2440     2.1620 
  104.3750    60.5360     9.7190     8.1810     9.4150    21.3000   -21.1140     2.1420 
  104.5000    55.3830    10.3160     8.6830    10.4390    21.2590   -21.8620     2.1390 
  104.6250    49.9980    10.6310     8.9480    10.5010    21.3490   -22.4740     2.1430 
  104.7500    47.0890    10.6870     8.9960    10.2180    21.4470   -22.9890     2.1460 
  104.8750    49.3120    10.5540     8.8840    10.0490    21.5670   -23.3800     2.1480 
  105.0000    53.4230    10.3500     8.7120    10.0540    21.7340   -23.6460     2.1520 
  105.1250    54.1340    10.1930     8.5800    10.0860    21.8550   -23.7830     2.1580 
  105.2500    52.5410    10.1280     8.5250    10.1800    21.8980   -23.8780     2.1550 
  105.3750    51.0680    10.1420     8.5370    10.8330    21.9930   -23.9590     2.1400 
  105.5000    50.1940    10.1870     8.5750    11.8550    22.0870   -24.0500     2.1150 
  105.6250    49.9940    10.1840     8.5720    12.3490    22.0880   -24.1520     2.0920 
  105.7500    51.4860    10.0860     8.4900    10.8560    21.9730   -24.2610     2.0800 
  105.8750    53.4930     9.8930     8.3270     9.8010    21.7980   -24.3560     2.0830 
  106.0000    52.7280     9.6460     8.1200     9.3200    21.5890   -24.4050     2.1000 
  106.1250    51.0550     9.4020     7.9140     9.1430    21.3040   -24.3980     2.1290 
