~V
VERS. 2.00: Ver 2.00
~W
STRT.M 50.0000:
STOP.M 253.0000:
STEP.M 0.1250:
NULL. -999.2500:
UWI. F11132:
~C
DEPT.M :
DEN.GM/CC :
GR.API :
RML.OHMM :
RI. :
RXO.OHMM :
CALI.CM :
SP.MV :
~A
# ...
  230.0000     2.4000    49.4170     7.4670     6.2650    12.5960    24.9630   -21.7350 
  230.1250     2.3910    48.4900     7.6920     6.4850    15.3710    24.9110   -21.7530 
  230.2500     2.3920    49.2490     7.9070     6.7040    14.6350    24.9000   -21.7800 
  230.3750     2.4030    50.5110     8.1110     6.9110    12.1910    24.9310   -21.7670 
  230.5000     2.4180    50.2210     8.3080     7.0950    10.4960    24.9360   -21.6980 
  230.6250     2.4280    48.3470     8.4800     7.2330    10.1100    24.9810   -21.6120 
  230.7500     2.4300    47.8600     8.5990     7.3100     9.1730    25.0120   -21.5120 
  230.8750     2.4250    50.4690     8.6330     7.3100     8.8360    25.0250   -21.3880 
  231.0000     2.4250    53.7190     8.5700     7.2280     9.6510    25.0190   -21.2580 
  231.1250     2.4300    52.1130     8.4140     7.0740    10.6940    24.9870   -21.1230 
  231.2500     2.4280    47.6460     8.2230     6.8940     9.6770    24.9090   -20.9620 
  231.3750     2.4150    45.6870     8.0390     6.7200     8.0030    24.8300   -20.8210 
  231.5000     2.4020    47.8270     7.8920     6.5760     6.8520    24.7860   -20.6910 
  231.6250     2.4000    49.4420     7.7990     6.4780     6.4160    24.7980   -20.5790 
  231.7500     2.4090    48.2080     7.7360     6.4110     6.3610    24.7940   -20.4890 
  231.8750     2.4210    45.9860     7.6830     6.3620     6.4270    24.7740   -20.4090 
  232.0000     2.4270    44.7550     7.6280     6.3170     6.5610    24.7740   -20.3430 
  232.1250     2.4250    44.8240     7.5770     6.2750     6.6640    24.8080   -20.3000 
  232.2500     2.4210    45.4240     7.5400     6.2400     6.2200    24.8360   -20.2700 
  232.3750     2.4180    45.4120     7.5190     6.2150     5.9470    24.8540   -20.2390 
  232.5000     2.4180    44.2080     7.5110     6.2020     5.8530    24.8700   -20.2270 
  232.6250     2.4210    42.7830     7.4990     6.1920     5.8310    24.8790   -20.2150 
  232.7500     2.4290    42.7360     7.4720     6.1720     5.8910    24.8820   -20.2120 
  232.8750     2.4460    43.9690     7.4310     6.1380     5.9830    24.8820   -20.2180 
  233.0000     2.4590    44.4010     7.3810     6.0960     6.1520    24.8840   -20.2330 
  233.1250     2.4600    42.7660     7.3460     6.0630     6.5270    24.8830   -20.2540 
  233.2500     2.4540    41.6710     7.3510     6.0590     6.8950    24.8840   -20.2730 
  233.3750     2.4520    42.0840     7.4100     6.0910     7.1110    24.8840   -20.3050 
  233.5000     2.4550    42.4890     7.5100     6.1530     6.7060    24.8890   -20.3370 
  233.6250     2.4530    40.6940     7.6070     6.2130     6.4020    24.9060   -20.3630 
  233.7500     2.4440    37.7770     7.6420     6.2310     6.2460    24.9440   -20.3800 
  233.8750     2.4240    36.1130     7.5800     6.1820     6.0270    24.9880   -20.4150 
  234.0000     2.4030    37.5870     7.4260     6.0630     5.9380    25.0100   -20.4410 
  234.1250     2.3920    41.5980     7.2130     5.8910     5.9530    24.9580   -20.4670 
  234.2500     2.3940    44.4330     7.0080     5.7130     5.9520    24.8070   -20.5020 
  234.3750     2.4040    44.4330     6.8450     5.5620     5.8950    24.5890   -20.5280 
  234.5000     2.4140    42.9970     6.7530     5.4630     5.7810    24.4230   -20.5570 
  234.6250     2.4190    41.9610     6.7600     5.4440     5.7120    24.4280   -20.5960 
  234.7500     2.4210    42.3050     6.8550     5.4950     5.7600    24.4700   -20.6300 
  234.8750     2.4240    43.4340     7.0230     5.6050     5.8320    24.4920   -20.6270 
  235.0000     2.4260    44.9010     7.2310     5.7510     5.8850    24.4620   -20.6240 
  235.1250     2.4220    46.2300     7.4200     5.9010     5.9670    24.4200   -20.6130 
  235.2500     2.4080    46.6020     7.5480     6.0240     6.2790    24.5200   -20.5870 
  235.3750     2.3850    45.4220     7.6040     6.1060     6.8560    24.7570   -20.5570 
  235.5000     2.3620    42.6310     7.6070     6.1470     7.3360    24.9480   -20.5200 
  235.6250     2.3460    40.1290     7.5860     6.1490     7.1890    25.0480   -20.4740 
  235.7500     2.3410    39.5970     7.5670     6.1310     7.3790    25.3190   -20.4310 
  235.8750     2.3490    40.8810     7.5590     6.1040     7.3160    25.9760   -20.4070 
  236.0000     2.3620    42.8500     7.5570     6.0710     6.4500    26.7760   -20.3920 
  236.1250     2.3660    44.0920     7.5490     6.0350     5.9600    27.1160   -20.3870 
  236.2500     2.3620    44.1480     7.5270     5.9970     5.9640    26.9260   -20.4040 
  236.3750     2.3600    42.7990     7.4910     5.9570     6.2040    26.4230   -20.4350 
  236.5000     2.3570    40.4990     7.4510     5.9180     6.2320    26.0330   -20.4650 
  236.6250     2.3400    39.6910     7.4250     5.8880     6.0350    26.1870   -20.4960 
  236.7500     2.3160    41.1380     7.4160     5.8690     5.8480    26.1630   -20.5290 
  236.8750     2.3200    43.0190     7.4210     5.8600     5.8160    25.9310   -20.5630 
  237.0000     2.3530    43.5170     7.4310     5.8580     5.9400    25.6310   -20.5930 
  237.1250     2.3790    42.5270     7.4480     5.8620     6.1830    25.4320   -20.6240 
  237.2500     2.3650    41.7310     7.4780     5.8730     6.2480    25.3840   -20.6510 
  237.3750     2.3040    41.7670     7.5260     5.8920     6.1700    25.7020   -20.6790 
  237.5000     2.2310    42.0490     7.5830     5.9190     6.1300    26.4050   -20.7090 
  237.6250     2.1730    42.4560     7.6310     5.9470     6.1920    27.0000   -20.7500 
  237.7500     2.1510    42.7640     7.6490     5.9660     6.3180    27.6540   -20.7980 
  237.8750     2.1610    42.9220     7.6240     5.9680     6.4410    28.6580   -20.8360 
  238.0000     2.1710    43.1870     7.5610     5.9500     6.4710    29.6470   -20.8740 
  238.1250     2.1740    43.3700     7.4870     5.9220     6.5050    30.0020   -20.9080 
  238.2500     2.1910    43.1510     7.4450     5.9050     6.3570    29.8780   -20.9560 
  238.3750     2.2430    42.2870     7.4600     5.9160     6.1980    29.3060   -21.0100 
  238.5000     2.3130    41.3640     7.5280     5.9610     6.1930    28.5990   -21.0690 
  238.6250     2.3790    41.5210     7.6190     6.0340     6.5750    27.6390   -21.1230 
  238.7500     2.4240    42.9110     7.6880     6.1060     7.3590    26.4110   -21.1850 
  238.8750     2.4320    44.8150     7.7130     6.1550     7.9300    25.7500   -21.2660 
  239.0000     2.4070    45.9930     7.6930     6.1700     7.5340    26.1730   -21.3380 
  239.1250     2.3670    44.8530     7.6500     6.1540     6.8360    27.0670   -21.3940 
  239.2500     2.3460    43.2500     7.6140     6.1350     6.3570    27.4340   -21.4260 
  239.3750     2.3770    43.4260     7.6070     6.1330     6.1380    26.7520   -21.4450 
  239.5000     2.4120    44.9280     7.6400     6.1610     6.0520    25.5420   -21.4480 
  239.6250     2.4100    45.7380     7.7130     6.2210     6.0720    24.9030   -21.4540 
  239.7500     2.3810    45.6880     7.8020     6.2930     6.2570    25.2050   -21.4480 
  239.8750     2.3660    44.8670     7.8850     6.3630     6.3520    26.1100   -21.4320 
  240.0000     2.3700    43.0320     7.9480     6.4250     6.4100    26.8530   -21.4290 
  240.1250     2.3740    41.5030     7.9900     6.4800     6.3180    27.3030   -21.4350 
  240.2500     2.3690    41.3850     8.0300     6.5340     6.1990    27.4310   -21.4350 
  240.3750     2.3530    41.8310     8.0870     6.5920     6.1340    27.3150   -21.4310 
  240.5000     2.3250    42.2060     8.1660     6.6550     6.1500    26.8110   -21.4230 
  240.6250     2.2780    42.9660     8.2570     6.7180     6.2550    26.7090   -21.3810 
  240.7500     2.2170    43.9550     8.3350     6.7750     6.3020    26.7630   -21.3130 
  240.8750     2.1710    43.8770     8.3800     6.8180     6.3590    26.5190   -21.2050 
  241.0000     2.1680    42.5890     8.3870     6.8440     6.4400    25.9930   -21.0510 
  241.1250     2.2140    41.2400     8.3610     6.8540     6.3570    26.0220   -20.8400 
