~V
VERS. 2.00: Ver 2.00
~W
STRT.M 53.0000:
STOP.M 202.0000:
STEP.M 0.1250:
NULL. -999.2500:
UWI. F11113:
~C
DEPT.M :
DEN.GM/CC :
SP.MV :
GR.API :
RML.OHMM :
RI. :
RXO.OHMM :
CALI.CM :
~A
# ...
  131.7500     2.4780    -8.5700    75.6200    20.1610    17.0080    21.2290    24.9210 
  131.8750     2.4700    -8.5360    72.1940    19.6440    16.8910    20.1950    24.9860 
  132.0000     2.4500    -8.4990    71.8250    18.3070    16.1130    19.3840    25.1100 
  132.1250     2.4200    -8.4700    73.4520    16.5950    14.9000    16.7270    25.2390 
  132.2500     2.3790    -8.4450    73.7890    15.0400    13.6590    13.3240    25.3960 
  132.3750     2.3280    -8.4160    71.2140    13.7930    12.5490    11.0210    25.4880 
  132.5000     2.2770    -8.3980    67.5160    12.7810    11.5750    10.1890    25.5300 
  132.6250     2.2450    -8.4000    66.9410    11.8290    10.6630    10.0150    25.5690 
  132.7500     2.2380    -8.4000    69.8260    10.8280     9.7470     9.7510    25.4940 
  132.8750     2.2500    -8.3710    73.3740     9.8300     8.8470     9.0290    25.1740 
  133.0000     2.2660    -8.3520    76.3510     8.9710     8.0320     7.9540    24.8430 
  133.1250     2.2720    -8.4170    79.7660     8.4270     7.4230     6.9670    24.7390 
  133.2500     2.2700    -8.5310    82.2010     8.1740     7.0410     6.5110    24.7630 
  133.3750     2.2660    -8.6450    81.2550     8.1450     6.8770     6.5440    24.7950 
  133.5000     2.2650    -8.7090    77.2440     8.2360     6.8760     6.9630    24.7630 
  133.6250     2.2610    -8.7290    73.3450     8.3410     6.9630     7.0840    24.6630 
  133.7500     2.2530    -8.7810    72.1720     8.4120     7.0500     6.9750    24.5290 
  133.8750     2.2440    -8.8980    72.7230     8.4690     7.1130     6.8230    24.3340 
  134.0000     2.2360    -9.0420    72.9280     8.5580     7.1700     6.9080    24.0530 
  134.1250     2.2320    -9.1350    71.7500     8.7260     7.2680     7.1020    23.9910 
  134.2500     2.2330    -9.1780    70.9350     8.9940     7.4350     7.2860    24.2200 
  134.3750     2.2380    -9.1800    72.1620     9.4050     7.6940     7.7780    24.4860 
  134.5000     2.2450    -9.1980    76.2770     9.9840     8.0590     8.4790    24.7110 
  134.6250     2.2520    -9.2290    80.7640    10.6960     8.5250     9.3010    24.8630 
  134.7500     2.2610    -9.2600    81.8280    11.3430     8.9920     9.8890    24.9430 
  134.8750     2.2700    -9.2690    80.3560    11.6960     9.3180    10.3020    24.9830 
  135.0000     2.2750    -9.2190    78.5480    11.5730     9.3530    10.8760    24.9910 
  135.1250     2.2680    -9.1270    75.9340    10.9410     8.9920    10.7460    24.9870 
  135.2500     2.2570    -9.0410    72.9320    10.1850     8.4430     9.6910    24.9890 
  135.3750     2.2500    -8.9910    72.4120     9.6550     7.9370     8.4810    25.0070 
  135.5000     2.2530    -8.9720    74.7160     9.5910     7.6720     7.9550    25.0200 
  135.6250     2.2630    -8.9990    74.6350    10.1630     7.8250     8.3570    25.0140 
  135.7500     2.2730    -9.0380    72.1740    11.1660     8.3450     9.8980    24.9790 
  135.8750     2.2770    -9.0720    69.0410    12.3460     9.1320    11.6270    24.9130 
  136.0000     2.2750    -9.1040    65.8230    13.3600     9.9890    12.4620    24.8350 
  136.1250     2.2650    -9.1330    64.4770    13.8010    10.5990    12.3700    24.8010 
  136.2500     2.2550    -9.1630    68.6650    13.7080    10.8350    11.9110    24.8320 
  136.3750     2.2530    -9.2160    76.5490    13.3270    10.7700    11.4620    24.8980 
  136.5000     2.2560    -9.2710    80.8510    12.9610    10.5920    11.2100    24.9500 
  136.6250     2.2540    -9.2660    79.6930    12.8430    10.4990    10.7890    24.9050 
  136.7500     2.2430    -9.1910    78.4290    12.9280    10.5360    10.4820    24.7770 
  136.8750     2.2270    -9.1110    77.2920    13.0960    10.6540    10.8980    24.6730 
  137.0000     2.2150    -9.0850    74.2370    13.2120    10.7580    11.8950    24.6630 
  137.1250     2.2150    -9.1200    69.8720    13.1840    10.7400    11.9490    24.6430 
  137.2500     2.2210    -9.1540    68.1490    13.0680    10.6040    11.1870    24.4830 
  137.3750     2.2260    -9.1430    70.1010    12.9450    10.4140    10.5120    24.3360 
  137.5000     2.2210    -9.1010    73.6340    12.8830    10.2600    10.2420    24.3010 
  137.6250     2.2080    -9.0880    74.0160    12.9400    10.2390    10.4190    24.4150 
  137.7500     2.1980    -9.1240    71.4370    13.0840    10.3440    10.9160    24.4620 
  137.8750     2.1960    -9.1550    69.6630    13.2470    10.5230    11.5290    24.4190 
  138.0000     2.1990    -9.1280    68.8390    13.3570    10.7010    12.0280    24.3750 
  138.1250     2.2010    -9.0300    67.9030    13.3890    10.8310    12.1890    24.4850 
  138.2500     2.2020    -8.8950    67.2400    13.4090    10.9430    11.9370    24.6040 
  138.3750     2.2070    -8.7370    67.3500    13.4810    11.0750    11.4190    24.6620 
  138.5000     2.2190    -8.5520    69.1200    13.6230    11.2400    11.0830    24.6340 
  138.6250     2.2300    -8.3340    72.7980    13.7570    11.3830    11.5750    24.4060 
  138.7500     2.2370    -8.0860    76.3160    13.7310    11.3940    12.3740    24.2420 
  138.8750     2.2420    -7.8110    77.3130    13.4360    11.1870    12.4090    24.3740 
  139.0000     2.2450    -7.5290    74.8870    12.8780    10.7510    11.4340    24.5430 
  139.1250     2.2450    -7.2920    71.4820    12.1840    10.1680    10.1610    24.6530 
  139.2500     2.2430    -7.1490    70.3490    11.5560     9.6050     9.5890    24.6170 
  139.3750     2.2440    -7.1300    71.6650    11.1410     9.1810     9.4770    24.5050 
  139.5000     2.2510    -7.1910    73.9240    11.0610     9.0020     9.7920    24.5030 
  139.6250     2.2650    -7.2740    74.9130    11.5090     9.2280    10.9620    24.5980 
  139.7500     2.2810    -7.4000    75.3640    12.4990     9.8800    11.5370    24.6150 
  139.8750     2.2950    -7.5900    74.8420    14.0490    10.9970    12.1810    24.5940 
  140.0000     2.3010    -7.8710    71.7420    16.0740    12.5590    14.7650    24.5930 
  140.1250     2.2900    -8.2180    67.3280    18.2960    14.4040    19.0100    24.6230 
  140.2500     2.2680    -8.5170    64.9170    20.1630    16.0590    20.4190    24.6830 
  140.3750     2.2480    -8.7140    66.1940    21.1510    17.0510    19.9300    24.8100 
  140.5000     2.2370    -8.8390    68.5830    20.9280    17.0680    18.9690    24.9880 
  140.6250     2.2370    -8.9520    68.4100    19.4430    16.0350    17.4480    25.0940 
  140.7500     2.2420    -9.0540    67.8080    17.4280    14.5320    15.6330    25.1540 
  140.8750     2.2470    -9.1140    70.8420    15.4170    12.9740    13.6120    25.1160 
  141.0000     2.2490    -9.0740    75.5220    13.7630    11.6340    11.4830    24.9930 
  141.1250     2.2500    -8.9480    74.2930    12.7070    10.6970    10.4280    24.9300 
  141.2500     2.2540    -8.8070    69.0100    12.1650    10.1240    10.0600    24.9950 
  141.3750     2.2600    -8.6980    65.6590    12.0880     9.8990    10.2690    25.1200 
  141.5000     2.2650    -8.6310    67.4680    12.4290    10.0030    10.9310    25.2000 
  141.6250     2.2720    -8.5650    70.4080    13.2150    10.4700    11.1190    25.0700 
  141.7500     2.2790    -8.4620    71.8120    14.3360    11.2260    11.2450    24.9690 
  141.8750     2.2840    -8.3540    71.9460    15.6860    12.2130    12.3590    24.9880 
  142.0000     2.2810    -8.2930    70.7000    17.0570    13.2980    14.2560    25.1090 
  142.1250     2.2720    -8.2390    68.0180    18.0520    14.2140    15.4960    25.2540 
  142.2500     2.2630    -8.1750    64.6420    18.4290    14.7420    15.6600    25.3540 
  142.3750     2.2570    -8.0980    62.1330    18.1420    14.7880    14.7450    25.4100 
  142.5000     2.2580    -8.0270    62.3490    17.4050    14.4220    13.3740    25.4290 
  142.6250     2.2650    -7.9650    63.0660    16.5890    13.8400    12.8880    25.4070 
  142.7500     2.2750    -7.8980    62.6900    15.9830    13.2940    12.8830    25.4030 
  142.8750     2.2840    -7.8340    63.0050    15.6400    12.8880    13.1220    25.4500 
