~V
VERS. 2.00: Ver 2.00
~W
STRT.M 63.0000:
STOP.M 208.0000:
STEP.M 0.1250:
NULL. -999.2500:
UWI. F11108:
~C
DEPT.M :
GR.API :
RML.OHMM :
RI. :
RXO.OHMM :
CALI.CM :
SP.MV :
DEN.GM/CC :
~A
# ...
  153.0000    83.2820    30.0610    26.8670    26.6580    24.5290   -13.9620     2.3190 
  153.1250    78.8200    40.8760    37.7820    45.3590    25.0250   -14.5810     2.3160 
  153.2500    75.4390    53.5300    51.1170    63.2310    25.3360   -15.2220     2.2960 
  153.3750    74.5380    66.8340    65.2720    77.2360    25.5930   -15.9090     2.2580 
  153.5000    73.7950    79.3570    78.2260    85.3300    25.9030   -16.5980     2.2140 
  153.6250    71.2610    89.7310    88.0180    94.1970    25.8160   -17.1630     2.1900 
  153.7500    68.9470    98.3770    95.1930   109.9250    25.4580   -17.5960     2.1960 
  153.8750    67.1930   106.3170   100.9830   121.2000    25.1530   -17.9330     2.2300 
  154.0000    67.7840   114.9550   107.0230   122.7570    25.0100   -18.2770     2.2730 
  154.1250    72.0630   126.4520   115.6640   113.8760    24.9890   -18.6870     2.2990 
  154.2500    75.4090   142.1710   128.5110   110.8770    25.0620   -19.0670     2.2980 
  154.3750    74.8220   163.2420   146.8260   140.8370    25.2310   -19.3600     2.2760 
  154.5000    72.1750   189.3870   170.4290   199.5870    25.3450   -19.5830     2.2470 
  154.6250    69.7140   217.0270   196.2650   219.7300    25.2940   -19.8420     2.2320 
  154.7500    66.8970   238.5870   217.6360   192.8500    25.1990   -20.1440     2.2350 
  154.8750    64.9860   247.2910   228.5850   183.1520    25.1280   -20.4690     2.2490 
  155.0000    64.8170   240.0560   225.8820   173.6860    25.0000   -20.7060     2.2570 
  155.1250    66.5280   218.0900   209.2780   129.2220    24.7980   -20.7620     2.2450 
  155.2500    71.2830   190.8100   186.2720   107.6350    24.6590   -20.7760     2.2190 
  155.3750    75.2850   164.1350   162.0630   117.2590    24.6200   -20.8310     2.1980 
  155.5000    73.6810   141.7050   140.4440   125.6590    24.5850   -20.9440     2.1960 
  155.6250    70.0280   126.0550   124.4560   109.2750    24.5870   -21.0200     2.2160 
  155.7500    71.6060   116.1480   113.8570   101.3550    24.7250   -21.0050     2.2450 
  155.8750    75.5750   111.1790   108.1600   106.3460    24.9280   -20.9350     2.2690 
  156.0000    74.6030   110.0980   106.4570   107.4310    25.0380   -20.9380     2.2840 
  156.1250    70.2440   111.9760   107.9260   107.3130    25.0610   -21.0540     2.2910 
  156.2500    68.5580   114.8500   110.6230   125.7860    25.2060   -21.1390     2.2960 
  156.3750    70.0180   117.3100   113.1370   145.2030    25.4290   -21.1100     2.3020 
  156.5000    73.6850   118.2110   114.2660   140.4490    25.4140   -21.0290     2.3050 
  156.6250    76.0240   116.7530   113.0510   135.1740    25.2970   -20.9940     2.3050 
  156.7500    76.0640   113.8420   110.1890   136.0900    25.1760   -21.0080     2.2990 
  156.8750    77.3940   110.6410   106.6930   125.3580    25.0400   -20.9940     2.2910 
  157.0000    80.7960   108.4120   103.7760   105.6580    24.8230   -20.8830     2.2840 
  157.1250    82.1880   108.4400   102.7490   103.7290    24.6160   -20.7330     2.2800 
  157.2500    80.9960   110.5460   103.6570   114.6030    24.3290   -20.6630     2.2790 
  157.3750    80.2240   114.0420   106.0130   124.5620    23.9940   -20.6620     2.2790 
  157.5000    78.9730   117.6080   108.7150   127.8730    23.7650   -20.6020     2.2760 
  157.6250    75.3070   119.2260   110.0080   126.2830    23.6450   -20.4280     2.2700 
  157.7500    73.3230   118.1070   109.0440   121.3880    23.5530   -20.2450     2.2660 
  157.8750    73.5070   114.4760   105.8610   112.0290    23.4730   -20.1310     2.2660 
  158.0000    71.4410   109.5050   101.3370    99.1390    23.4090   -20.0770     2.2690 
  158.1250    67.7590   105.0670    97.0190    86.3210    23.3230   -19.9750     2.2740 
  158.2500    68.1800   102.5900    94.3000    79.7420    23.3370   -19.7720     2.2760 
  158.3750    72.7320   102.7170    93.9770    78.0570    23.4730   -19.5190     2.2730 
  158.5000    75.1980   105.1350    96.1200    77.7460    23.6580   -19.2780     2.2670 
  158.6250    74.3830   107.4640    99.1710    78.9880    23.7470   -19.1510     2.2610 
  158.7500    74.1990   105.3340    99.0940    90.3860    23.7620   -19.0950     2.2580 
  158.8750    73.6970    95.3840    92.1630   109.4200    23.7280   -18.9920     2.2560 
  159.0000    72.7120    77.7760    77.4370   121.2380    23.6330   -18.8020     2.2560 
  159.1250    74.5050    57.2170    58.2790   103.0420    23.5060   -18.5900     2.2640 
  159.2500    80.7350    40.0840    41.2020    64.8390    23.4390   -18.4260     2.2850 
  159.3750    88.7950    28.7040    29.1620    32.1970    23.4180   -18.2770     2.3180 
  159.5000    93.5450    22.6020    22.2640    16.2300    23.3650   -18.1000     2.3550 
  159.6250    94.8580    20.4290    19.4650    14.8940    23.3200   -17.8450     2.3810 
  159.7500    94.4650    19.8550    18.5030    19.0430    23.3670   -17.5690     2.3900 
  159.8750    94.4050    19.7960    18.3340    24.8150    23.4640   -17.3800     2.3860 
  160.0000    95.2550    19.6000    18.2730    24.9230    23.5050   -17.2700     2.3790 
  160.1250    97.0750    18.9950    17.9260    20.4710    23.5120   -17.2120     2.3810 
  160.2500   101.0050    18.2590    17.3770    16.8890    23.5970   -17.1750     2.3920 
  160.3750   105.1230    17.7200    16.8740    15.0040    23.7250   -17.1980     2.4060 
  160.5000   105.1350    17.5950    16.6520    15.0190    23.8220   -17.3250     2.4170 
  160.6250    98.7050    17.9220    16.8360    15.5810    23.8390   -17.5150     2.4170 
  160.7500    92.4130    18.4020    17.2180    16.7770    23.8120   -17.6700     2.4090 
  160.8750    91.5510    18.7890    17.5680    17.7390    23.8630   -17.7050     2.3980 
  161.0000    94.7080    18.9100    17.6770    17.4430    24.0190   -17.6910     2.3890 
  161.1250    96.0750    18.6990    17.4100    17.5400    24.2690   -17.7110     2.3860 
  161.2500    96.3350    18.3650    16.9350    16.9700    24.5220   -17.7520     2.3870 
  161.3750    97.3030    18.1510    16.4740    16.4590    24.7090   -17.7890     2.3880 
  161.5000    99.2660    18.3070    16.2690    16.1870    24.7810   -17.7700     2.3860 
  161.6250   100.7280    19.1180    16.6060    16.2170    24.7530   -17.6540     2.3800 
  161.7500    98.4480    20.5150    17.4880    18.4820    24.7350   -17.5140     2.3720 
  161.8750    93.0710    22.3420    18.8430    21.7620    24.7300   -17.4560     2.3670 
  162.0000    89.2920    24.3050    20.4720    24.1000    24.7410   -17.4890     2.3650 
  162.1250    91.1430    25.9430    22.0180    24.5220    24.7570   -17.4880     2.3680 
  162.2500    94.4620    26.9500    23.1350    24.8930    24.7790   -17.4440     2.3710 
  162.3750    95.6490    27.1940    23.6200    24.9610    24.7740   -17.3860     2.3700 
  162.5000    94.1710    26.7460    23.4490    24.6950    24.7310   -17.3610     2.3660 
  162.6250    89.1950    25.8220    22.7400    25.6240    24.6950   -17.4220     2.3630 
  162.7500    85.7130    24.8500    21.8740    25.7680    24.6920   -17.4590     2.3650 
  162.8750    88.2110    24.0870    21.1030    23.2880    24.6830   -17.4220     2.3750 
  163.0000    94.8540    23.6650    20.5850    20.9420    24.5880   -17.3490     2.3870 
  163.1250    97.5650    23.5920    20.3940    21.4310    24.4480   -17.3340     2.3960 
  163.2500    94.6000    23.6190    20.3690    23.7850    24.3990   -17.3520     2.3990 
  163.3750    91.2220    23.5250    20.3380    24.6500    24.4550   -17.3750     2.3990 
  163.5000    90.0260    23.1410    20.1380    23.6160    24.4850   -17.3800     2.3970 
  163.6250    91.5780    22.3850    19.6500    20.6190    24.3650   -17.3830     2.3960 
  163.7500    93.1110    21.4580    18.9870    18.6630    24.2060   -17.4530     2.3950 
  163.8750    93.7320    20.5740    18.3090    17.7800    24.0930   -17.5600     2.3950 
  164.0000    94.5130    19.9240    17.7950    17.5190    23.9760   -17.6540     2.3970 
  164.1250    95.9300    19.6600    17.6200    16.9010    23.8610   -17.7230     2.4020 
