~V
VERS. 2.00: Ver 2.00
~W
STRT.M 50.0000:
STOP.M 248.0000:
STEP.M 0.1250:
NULL. -999.2500:
UWI. F11129:
~C
DEPT.M :
SP.MV :
DEN.GM/CC :
GR.API :
RML.OHMM :
RI. :
RXO.OHMM :
CALI.CM :
~A
# ...
  218.7500   -20.7520     2.3470    60.3490     5.4680     5.1740     5.8450    23.8330 
  218.8750   -21.3330     2.3400    61.5320     5.5850     5.0990     5.8150    23.8010 
  219.0000   -22.0160     2.3380    63.8950     5.9170     5.2200     5.9780    23.7240 
  219.1250   -22.7790     2.3450    67.5310     6.2800     5.5080     6.4350    23.5410 
  219.2500   -23.6010     2.3490    71.0900     6.6300     5.8950     7.1250    23.1840 
  219.3750   -24.4630     2.3430    74.6020     7.0660     6.2840     7.7580    22.8070 
  219.5000   -25.3360     2.3320    78.6410     7.4430     6.5860     8.1380    22.6390 
  219.6250   -26.1820     2.3230    82.4940     7.6450     6.7680     8.3750    22.6920 
  219.7500   -26.9440     2.3100    85.5820     7.7350     6.8550     8.5810    23.0340 
  219.8750   -27.6120     2.2940    88.7230     7.8200     6.9170     8.8290    23.5920 
  220.0000   -28.2160     2.2880    93.3080     8.0000     7.0350     9.1710    24.0680 
  220.1250   -28.7670     2.3000    96.8040     8.3200     7.2520     9.5840    24.3000 
  220.2500   -29.2760     2.3230    95.2250     8.7910     7.5880    10.0280    24.3510 
  220.3750   -29.7140     2.3460    88.1740     9.3640     8.0190    10.6070    24.3000 
  220.5000   -30.0610     2.3600    79.0240     9.9360     8.4740    11.4080    24.2290 
  220.6250   -30.3190     2.3620    71.6710    10.4070     8.8750    12.1860    24.1930 
  220.7500   -30.4750     2.3570    67.2640    10.6880     9.1400    12.6520    24.1830 
  220.8750   -30.4920     2.3520    66.3440    10.7580     9.2340    12.7180    24.1770 
  221.0000   -30.3570     2.3510    68.9350    10.6890     9.1950    12.4340    24.1800 
  221.1250   -30.0890     2.3540    73.1480    10.5580     9.0760    12.0820    24.2120 
  221.2500   -29.6980     2.3560    76.4890    10.4470     8.9450    11.8210    24.2530 
  221.3750   -29.1980     2.3570    78.3560    10.4270     8.8660    11.6660    24.2400 
  221.5000   -28.5900     2.3570    80.7950    10.5540     8.8870    11.7710    24.1620 
  221.6250   -27.8560     2.3580    84.2840    10.8800     9.0580    12.2930    24.0810 
  221.7500   -27.0120     2.3620    87.7110    11.4570     9.4300    13.2670    24.0550 
  221.8750   -26.1280     2.3690    89.9140    12.2710    10.0120    14.2850    24.0640 
  222.0000   -25.2650     2.3780    90.7820    13.2000    10.7240    15.2150    24.0670 
  222.1250   -24.3940     2.3880    90.4270    14.0700    11.4460    16.8550    24.0710 
  222.2500   -23.4750     2.3960    88.8370    14.5880    11.9570    18.6200    24.0290 
  222.3750   -22.5330     2.3970    86.0110    14.4650    12.0090    18.6150    23.8090 
  222.5000   -21.6390     2.3930    82.5750    13.6820    11.5190    17.1250    23.4210 
  222.6250   -20.8260     2.3840    81.4060    12.4470    10.5900    15.4340    23.1760 
  222.7500   -20.0920     2.3760    84.5210    11.1650     9.5070    13.7910    23.3750 
  222.8750   -19.4370     2.3720    89.7390    10.2220     8.5900    11.4820    23.7640 
  223.0000   -18.8560     2.3770    92.0140     9.7920     8.0400     9.5150    23.9380 
  223.1250   -18.3430     2.3890    89.5850     9.9010     7.9270     9.4890    23.9160 
  223.2500   -17.9160     2.4060    85.1710    10.5300     8.2830    11.6910    23.8530 
  223.3750   -17.5650     2.4270    81.8830    11.6150     9.0850    14.5390    23.8460 
  223.5000   -17.2310     2.4500    79.7330    12.9960    10.2150    15.9210    23.8560 
  223.6250   -16.9200     2.4720    76.7730    14.4930    11.5310    16.3660    23.8300 
  223.7500   -16.6720     2.4880    72.7360    15.7800    12.7690    17.6840    23.8080 
  223.8750   -16.4480     2.4920    70.7760    16.4330    13.5740    19.9420    23.8290 
  224.0000   -16.2230     2.4840    72.9230    16.1730    13.6760    21.4090    23.8170 
  224.1250   -16.0370     2.4660    78.5070    14.9990    13.0010    21.0200    23.7660 
  224.2500   -15.8630     2.4460    86.7560    13.2750    11.7470    18.5440    23.7320 
  224.3750   -15.6830     2.4300    96.5640    11.4370    10.3150    15.5560    23.7640 
  224.5000   -15.5270     2.4180   104.0020     9.8210     9.0630    13.2110    23.8060 
  224.6250   -15.3390     2.4110   104.5040     8.7810     8.1140    12.1560    23.8110 
  224.7500   -15.0760     2.4050    98.5350     8.2410     7.4620    11.5070    23.7990 
  224.8750   -14.7750     2.3990    91.4310     7.8450     7.0120    10.1750    23.7990 
  225.0000   -14.4170     2.3870    86.4090     7.4470     6.6400     8.7890    23.8080 
  225.1250   -14.0050     2.3660    83.0570     7.0150     6.2910     7.4740    23.7970 
  225.2500   -13.6290     2.3400    79.1580     6.5870     5.9560     6.6840    23.7630 
  225.3750   -13.2990     2.3210    72.9230     6.2230     5.6550     6.5010    23.6960 
  225.5000   -12.9720     2.3130    66.2390     5.9460     5.4080     6.5090    23.6240 
  225.6250   -12.6970     2.3130    62.5360     5.7550     5.2240     6.3790    23.5990 
  225.7500   -12.4860     2.3160    62.5510     5.6390     5.1020     6.2010    23.6190 
  225.8750   -12.3050     2.3180    63.6530     5.5840     5.0320     6.2730    23.6440 
  226.0000   -12.1730     2.3190    63.7990     5.5620     4.9940     6.5800    23.6530 
  226.1250   -12.1000     2.3190    64.1620     5.5600     4.9750     6.8670    23.6530 
  226.2500   -12.0610     2.3240    64.7890     5.5630     4.9640     6.8530    23.6380 
  226.3750   -12.0410     2.3300    65.5720     5.5680     4.9560     6.5850    23.5910 
  226.5000   -12.0260     2.3320    66.8460     5.5810     4.9490     6.3890    23.5210 
  226.6250   -12.0110     2.3290    67.0920     5.6040     4.9440     6.3450    23.4750 
  226.7500   -12.0310     2.3270    64.8380     5.6290     4.9410     6.3650    23.4810 
  226.8750   -12.1050     2.3270    62.3100     5.6380     4.9320     6.3920    23.5040 
  227.0000   -12.1970     2.3300    62.5570     5.6240     4.9090     6.4300    23.5180 
  227.1250   -12.3040     2.3350    63.6640     5.5900     4.8650     6.5330    23.5480 
  227.2500   -12.4440     2.3430    63.1040     5.5450     4.7990     6.7120    23.5890 
  227.3750   -12.6110     2.3530    61.1860     5.4930     4.7200     6.6610    23.6170 
  227.5000   -12.7970     2.3620    58.6120     5.4410     4.6470     6.1410    23.6120 
  227.6250   -13.0040     2.3660    55.7590     5.3960     4.5930     5.6710    23.5840 
  227.7500   -13.2380     2.3620    54.9690     5.3750     4.5650     5.4830    23.5460 
  227.8750   -13.4950     2.3490    57.7880     5.3870     4.5600     5.5150    23.4860 
  228.0000   -13.7490     2.3330    61.4700     5.4170     4.5670     5.5740    23.3680 
  228.1250   -13.9580     2.3190    62.4740     5.4430     4.5780     5.5350    23.2000 
  228.2500   -14.1020     2.3150    61.1630     5.4440     4.5860     5.4010    23.1140 
  228.3750   -14.1870     2.3190    61.3620     5.4220     4.5920     5.2960    23.1830 
  228.5000   -14.2360     2.3260    63.8690     5.4010     4.6020     5.3440    23.2890 
  228.6250   -14.2540     2.3330    65.4060     5.4030     4.6230     5.5550    23.3930 
  228.7500   -14.2370     2.3350    63.6000     5.4380     4.6590     5.7620    23.4610 
  228.8750   -14.1770     2.3370    60.4690     5.4980     4.7110     5.7820    23.5130 
  229.0000   -14.0750     2.3400    59.3360     5.5640     4.7710     5.6130    23.5550 
  229.1250   -13.9360     2.3440    60.4060     5.6280     4.8320     5.3710    23.5800 
  229.2500   -13.7500     2.3480    62.5100     5.6930     4.8870     5.2550    23.5920 
  229.3750   -13.5550     2.3490    64.6780     5.7670     4.9370     5.3580    23.6060 
  229.5000   -13.3990     2.3470    65.8690     5.8440     4.9840     5.5310    23.6230 
  229.6250   -13.2650     2.3430    64.8700     5.9150     5.0270     5.7690    23.6320 
  229.7500   -13.0960     2.3390    61.3360     5.9790     5.0660     6.3790    23.6240 
  229.8750   -12.9300     2.3370    57.5350     6.0420     5.0990     7.5170    23.6060 
