~V
VERS. 2.00: Ver 2.00
~W
STRT.M 62.0000:
STOP.M 277.0000:
STEP.M 0.1250:
NULL. -999.2500:
UWI. F11155:
~C
DEPT.M :
SP.MV :
DEN.GM/CC :
GR.API :
RML.OHMM :
RI. :
RXO.OHMM :
CALI.CM :
~A
# ...
  219.5000   -25.2620     2.1460    61.1020   119.9780   112.9670   118.6170    25.1590 
  219.6250   -25.4150     2.1430    61.7820   118.8780   113.0190   118.8330    25.1330 
  219.7500   -25.5570     2.1430    61.2240   117.8920   113.1440   118.0010    25.1360 
  219.8750   -25.6870     2.1450    59.4570   116.9900   113.3100   114.9740    25.1620 
  220.0000   -25.8160     2.1440    57.9670   115.9040   113.3680   108.9410    25.1960 
  220.1250   -25.9400     2.1370    57.6420   113.6540   112.5460   103.5170    25.2410 
  220.2500   -26.0790     2.1280    59.0710   107.8910   108.5840   102.1490    25.2790 
  220.3750   -26.2240     2.1210    60.2210    98.0190   100.4050   101.7190    25.3180 
  220.5000   -26.3820     2.1210    59.3700    85.0510    88.4410   101.0650    25.3410 
  220.6250   -26.5620     2.1290    59.1550    71.6460    75.0140    96.9810    25.3120 
  220.7500   -26.7440     2.1500    61.2290    61.4320    63.7970    78.1490    25.1730 
  220.8750   -26.9160     2.1850    62.4640    55.7250    56.6810    57.9090    24.9820 
  221.0000   -27.0890     2.2290    63.3260    54.9270    54.3180    48.3140    24.8220 
  221.1250   -27.2700     2.2680    65.2920    58.9590    56.8100    47.9690    24.7920 
  221.2500   -27.4440     2.2700    66.3740    68.0860    64.8050    55.8110    24.9090 
  221.3750   -27.6090     2.2370    64.6900    80.3370    76.7070    71.5800    25.0580 
  221.5000   -27.7560     2.1950    60.9170    93.3180    90.4180    92.3170    25.1380 
  221.6250   -27.8810     2.1660    56.4910   103.5720   102.4720   109.3380    25.1460 
  221.7500   -27.9940     2.1560    54.6100   106.7220   108.0430   112.4200    25.0630 
  221.8750   -28.1040     2.1500    57.0490   103.3710   106.7230   106.8890    24.9610 
  222.0000   -28.2230     2.1450    60.8040    95.8140   100.1760    93.3080    24.9290 
  222.1250   -28.3630     2.1410    61.0740    86.9320    91.2130    79.9260    25.0310 
  222.2500   -28.5260     2.1400    58.9430    79.2000    82.5710    70.4580    25.1110 
  222.3750   -28.7200     2.1410    58.2600    73.5100    75.6520    67.2500    25.1430 
  222.5000   -28.9600     2.1460    58.6280    70.0340    70.8640    66.8550    25.1520 
  222.6250   -29.2170     2.1520    58.9350    68.5990    68.1760    67.5360    25.1650 
  222.7500   -29.4720     2.1570    60.1950    69.0100    67.5070    67.9770    25.1770 
  222.8750   -29.6810     2.1630    62.3630    70.4970    68.0700    68.5340    25.1890 
  223.0000   -29.8170     2.1710    64.8420    72.7020    69.4790    70.0570    25.2070 
  223.1250   -29.9010     2.1800    65.5350    75.3830    71.4580    72.2020    25.2230 
  223.2500   -29.9130     2.1840    63.3560    78.4950    73.9030    72.0070    25.2330 
  223.3750   -29.8580     2.1830    60.3040    81.9470    76.6750    73.4290    25.2410 
  223.5000   -29.7300     2.1820    60.3530    85.7000    79.7170    79.0280    25.2560 
  223.6250   -29.5530     2.1800    64.7620    89.6480    82.9110    82.8910    25.2740 
  223.7500   -29.3430     2.1780    68.7030    93.5770    86.0500    84.1520    25.2730 
  223.8750   -29.1140     2.1760    68.3090    97.2550    88.9190    85.7130    25.2820 
  224.0000   -28.8710     2.1760    67.1170   100.4690    91.3230    89.4280    25.3010 
  224.1250   -28.5950     2.1730    67.9320   103.0450    93.1250    95.8040    25.3130 
  224.2500   -28.3030     2.1680    68.4140   104.7960    94.1830   101.0960    25.3040 
  224.3750   -27.9970     2.1620    67.3060   105.8620    94.6660   103.7100    25.2690 
  224.5000   -27.6670     2.1590    64.8740   106.3840    94.6870   101.7920    25.2400 
  224.6250   -27.3130     2.1590    63.0400   106.6290    94.4400    95.8210    25.2240 
  224.7500   -26.9210     2.1600    61.3050   106.9130    94.1830    91.7070    25.2260 
  224.8750   -26.5140     2.1620    59.2700   107.3530    94.0530    93.8940    25.2320 
  225.0000   -26.1060     2.1630    57.4710   107.8260    93.9890    98.3650    25.2350 
  225.1250   -25.7080     2.1600    56.7350   108.1210    93.8380   100.8760    25.2350 
  225.2500   -25.3130     2.1560    58.1650   107.9700    93.4010    99.4820    25.2330 
  225.3750   -24.9270     2.1570    60.4280   107.3780    92.6500    98.0790    25.2330 
  225.5000   -24.5450     2.1620    64.0580   106.5820    91.6990    95.7240    25.2370 
  225.6250   -24.1700     2.1670    69.2750   106.1120    90.9160    93.9710    25.2530 
  225.7500   -23.8140     2.1680    70.9610   106.9140    91.0620    93.6640    25.3010 
  225.8750   -23.4740     2.1680    66.8620   109.3630    92.5320    92.6680    25.3650 
  226.0000   -23.1200     2.1680    60.4280   113.4170    95.4160    91.7800    25.4150 
  226.1250   -22.7230     2.1670    58.0420   118.3370    99.2750    96.3970    25.4480 
  226.2500   -22.2780     2.1640    62.0660   122.0030   102.6730   112.3040    25.4140 
  226.3750   -21.7800     2.1640    65.5270   121.9780   103.6600   126.1510    25.2910 
  226.5000   -21.2740     2.1740    64.3910   116.7220   100.7590   121.8970    25.1060 
  226.6250   -20.7820     2.1950    60.3400   106.9020    93.9170   105.5920    24.9640 
  226.7500   -20.3110     2.2210    58.8850    95.9720    85.1610    83.5470    24.8740 
  226.8750   -19.8520     2.2390    60.1810    88.1770    78.1390    64.0530    24.9050 
  227.0000   -19.4200     2.2480    61.3420    85.6580    75.1780    45.0340    24.9360 
  227.1250   -19.0120     2.2600    59.9350    89.0890    77.5370    34.9750    24.8210 
  227.2500   -18.6400     2.3100    56.6000    98.3960    86.0720    40.1960    24.4900 
  227.3750   -18.3070     2.3980    54.5180   109.2770    97.6060    65.3480    24.2260 
  227.5000   -17.9790     2.5080    53.4560   114.8630   106.6400   115.4570    24.0940 
  227.6250   -17.6330     2.6020    53.8410   106.2580   104.5070   150.2190    24.0240 
  227.7500   -17.2590     2.6490    57.2230    80.2100    83.7970   110.4760    23.9750 
  227.8750   -16.8760     2.6590    60.5210    51.7570    56.5580    62.9910    23.9600 
  228.0000   -16.4750     2.6440    61.6050    31.6140    33.9660    33.4640    23.9820 
  228.1250   -16.0890     2.6020    61.1270    18.3310    19.6150    17.4920    23.9760 
  228.2500   -15.7260     2.5300    60.3510    11.5900    12.4510     9.5800    23.8980 
  228.3750   -15.3900     2.4530    58.5520     8.2300     8.6800     6.5780    23.7450 
  228.5000   -15.1050     2.3960    56.3490     6.7040     6.7910     5.5460    23.6440 
  228.6250   -14.9050     2.3680    56.5910     6.1440     5.9670     5.2850    23.6330 
  228.7500   -14.8440     2.3630    57.5760     6.0920     5.8100     5.2810    23.6730 
  228.8750   -14.8830     2.3600    56.2300     6.1480     5.8880     5.3870    23.8110 
  229.0000   -15.0470     2.3520    56.1320     6.1520     5.9960     5.5040    24.1200 
  229.1250   -15.3260     2.3400    59.1300     6.0830     6.0410     5.5250    24.4090 
  229.2500   -15.7300     2.3290    62.8250     6.0380     6.0580     5.2250    24.5540 
  229.3750   -16.2140     2.3240    65.7120     6.1170     6.1370     5.3010    24.6140 
  229.5000   -16.7300     2.3290    69.6270     6.3630     6.3350     5.8350    24.6470 
  229.6250   -17.2420     2.3470    75.2140     6.7680     6.6680     6.7190    24.6850 
  229.7500   -17.7090     2.3690    76.4060     7.2880     7.1080     7.5790    24.7350 
  229.8750   -18.1400     2.3810    76.6500     7.7970     7.5500     8.1430    24.7710 
  230.0000   -18.5200     2.3740    81.2320     8.2030     7.9080     8.1900    24.7680 
  230.1250   -18.8230     2.3610    87.2060     8.4560     8.1260     8.1460    24.7380 
  230.2500   -19.0260     2.3570    87.0320     8.5450     8.1830     8.2700    24.7230 
  230.3750   -19.1740     2.3620    86.5800     8.5610     8.1410     8.4320    24.7140 
  230.5000   -19.2990     2.3670    92.6470     8.5620     8.0440     8.5010    24.6830 
  230.6250   -19.4030     2.3700   101.1510     8.5830     7.9260     8.3560    24.6000 
