~V
VERS. 2.00: Ver 2.00
~W
STRT.M 50.0000:
STOP.M 243.0000:
STEP.M 0.1250:
NULL. -999.2500:
UWI. F11115:
~C
DEPT.M :
DEN.GM/CC :
GR.API :
RML.OHMM :
RI. :
RXO.OHMM :
CALI.CM :
SP.MV :
~A
# ...
  230.0000     2.4260    69.3430    12.7510    12.0180     9.5250    23.4510   -16.7460 
  230.1250     2.4620    71.6030    12.4550    11.7180     9.1800    23.4010   -16.7720 
  230.2500     2.4720    73.9670    12.0190    11.3270     9.0920    23.4130   -16.8380 
  230.3750     2.4610    75.4040    11.5240    10.8980     9.6210    23.6740   -16.9420 
  230.5000     2.4420    76.5040    11.0690    10.4880    10.9470    24.1740   -17.0500 
  230.6250     2.4220    75.9650    10.7390    10.1600    11.7070    24.6390   -17.1380 
  230.7500     2.3910    73.7060    10.5290     9.9240    10.7720    24.8260   -17.2240 
  230.8750     2.3440    72.2250    10.4190     9.7780     9.3870    24.7640   -17.3000 
  231.0000     2.2920    72.7400    10.3760     9.7070     8.9060    24.6210   -17.3740 
  231.1250     2.2570    73.3770    10.3830     9.6920     9.1840    24.5170   -17.4650 
  231.2500     2.2570    73.7220    10.4330     9.7060     9.2560    24.4310   -17.5460 
  231.3750     2.2960    72.9800    10.5380     9.7520     9.0020    24.3090   -17.6090 
  231.5000     2.3630    70.8330    10.6970     9.8390     8.6170    24.1780   -17.6460 
  231.6250     2.4130    68.7940    10.8990     9.9630     9.1950    24.0640   -17.6540 
  231.7500     2.4180    68.5860    11.1210    10.0860    10.7430    23.9520   -17.6520 
  231.8750     2.3870    68.8430    11.3140    10.1720    11.4760    23.8430   -17.6640 
  232.0000     2.3460    68.8430    11.4190    10.1980    10.7140    23.8060   -17.6840 
  232.1250     2.3240    68.8430    11.3560    10.1530     9.2130    23.9090   -17.7160 
  232.2500     2.3330    68.8430    11.1230    10.0620     9.0620    24.0440   -17.7750 
  232.3750     2.3670    68.8430    10.7670     9.9400     9.6110    24.0990   -17.8300 
  232.5000     2.4050    68.8430    10.4020     9.8020    10.1010    24.0420   -17.8610 
  232.6250     2.4260    68.8430    10.2040     9.6740    10.2930    23.9310   -17.8620 
  232.7500     2.4340    68.8430    10.2120     9.5800    10.1130    23.8260   -17.8180 
  232.8750     2.4350    68.8430    10.3630     9.5290    10.2220    23.7570   -17.7520 
  233.0000     2.4320    68.8430    10.5560     9.5180    10.5220    23.7210   -17.6990 
  233.1250     2.4270    68.8430    10.6780     9.5420    10.9250    23.6570   -17.6390 
  233.2500     2.4260    68.8430    10.7010     9.5740    11.7810    23.5610   -17.5900 
  233.3750     2.4300    68.8430    10.6740     9.6050    12.2150    23.4870   -17.5610 
  233.5000     2.4430    68.8430    10.6650     9.6370     9.7930    23.4620   -17.5400 
  233.6250     2.4580    68.8430    10.7160     9.6670     7.5100    23.4660   -17.5060 
  233.7500     2.4540    68.8430    10.7720     9.6830     8.1490    23.4650   -17.4780 
  233.8750     2.4230    68.8430    10.7470     9.6750     9.8540    23.4740   -17.4490 
  234.0000     2.3740    68.8430    10.6220     9.6410    10.6770    23.5120   -17.4400 
  234.1250     2.3270    68.8430    10.4760     9.5830    10.1930    23.5540   -17.4900 
  234.2500     2.2970    68.8430    10.4490     9.5250     8.7120    23.6450   -17.5830 
  234.3750     2.2910    68.8430    10.5830     9.4880     7.2680    24.2410   -17.6940 
  234.5000     2.3040    68.8430    10.7960     9.4800     6.6600    24.3780   -17.8000 
  234.6250     2.3260    68.8430    10.9280     9.4900     6.8380    24.3460   -17.8650 
  234.7500     2.3500    68.8430    10.8660     9.5020     7.4990    24.3430   -17.8770 
  234.8750     2.3730    68.8430    10.6110     9.5030     8.2830    24.3440   -17.8590 
  235.0000     2.3910    68.8430    10.2750     9.4860     8.7720    24.3460   -17.8050 
  235.1250     2.3960    68.8430     9.9960     9.4670     7.8880    24.3460   -17.7190 
  235.2500     2.3940    68.8430     9.8390     9.4570     6.9370    24.3450   -17.6330 
  235.3750     2.3930    68.8430     9.8240     9.4490     6.6260    24.3450   -17.5730 
  235.5000     2.3960    68.8430     9.9360     9.4470     8.1530    24.3460   -17.5440 
  235.6250     2.4030    68.8430    10.0830     9.4680    12.6370    24.3440   -17.5300 
  235.7500     2.4120    68.8430    10.0990     9.5020    16.0050    24.3400   -17.4970 
  235.8750     2.4230    68.8430     9.9010     9.5260    13.8470    24.3390   -17.4550 
  236.0000     2.4340    68.8430     9.5110     9.5100    11.1690    24.3400   -17.4050 
  236.1250     2.4450    68.8430     9.0900     9.4460    10.1410    24.3450   -17.3810 
  236.2500     2.4500    68.8430     8.8680     9.3580     9.8790    24.3360   -17.3780 
  236.3750     2.4450    68.8430     8.9510     9.2750     9.5490    24.2870   -17.3800 
  236.5000     2.4310    68.8430     9.2970     9.2210     9.1430    24.2110   -17.3900 
  236.6250     2.4160    68.8430     9.7370     9.1910     9.3890    24.1590   -17.3880 
  236.7500     2.4120    68.8430    10.0850     9.1700     9.8830    24.1260   -17.3900 
  236.8750     2.4230    68.8430    10.2800     9.1680    10.6060    24.0850   -17.3830 
  237.0000     2.4460    68.8430    10.3310     9.1980    11.1050    24.0390   -17.3460 
  237.1250     2.4690    68.8430    10.2880     9.2690    10.9110    24.0340   -17.3030 
  237.2500     2.4820    68.8430    10.2290     9.3540    10.4110    24.0690   -17.2380 
  237.3750     2.4780    68.8430    10.1980     9.4370     9.4670    24.0950   -17.1950 
  237.5000     2.4630    68.8430    10.2000     9.5000     9.3810    24.0820   -17.1710 
  237.6250     2.4520    68.8430    10.2070     9.5270     9.4980    24.0440   -17.1480 
  237.7500     2.4560    68.8430    10.2070     9.5340     9.8790    24.0260   -17.1110 
  237.8750     2.4740    68.8430    10.2070     9.5340    10.1630    24.0290   -17.0880 
  238.0000     2.4840    68.8430    10.2070     9.5340    10.6590    24.0280   -17.1040 
  238.1250     2.4580    68.8430    10.2070     9.5340    11.8720    24.0260   -17.1430 
  238.2500     2.4010    68.8430    10.2070     9.5340    13.2060    24.0360   -17.1640 
  238.3750     2.3370    68.8430    10.2070     9.5340    12.2540    24.0590   -17.1650 
  238.5000     2.3010    68.8430    10.2070     9.5340    11.5950    24.0660   -17.1460 
  238.6250     2.3090    68.8430    10.2070     9.5340    11.6860    24.0210   -17.1010 
  238.7500     2.2900    68.8430    10.2070     9.5340    12.1960    23.9510   -17.0330 
  238.8750     2.1790    68.8430    10.2070     9.5340    12.4890    23.9030   -16.9340 
  239.0000     2.0070    68.8430    10.2070     9.5340    13.6150    23.8800   -16.8260 
  239.1250     1.8420    68.8430    10.2070     9.5340    16.8090    23.7420   -16.7660 
  239.2500     1.7190    68.8430    10.2070     9.5340    19.4470    23.4490   -16.7660 
  239.3750     1.6410    68.8430    10.2070     9.5340    18.3310    23.1270   -16.7660 
  239.5000     1.6030    68.8430    10.2070     9.5340    16.9840    22.9380   -16.7660 
  239.6250     1.5950    68.8430    10.2070     9.5340    17.0000    22.9140  -999.2500 
  239.7500     1.5940    68.8430    10.2070     9.5340    16.9990    22.9220  -999.2500 
  239.8750     1.5930    68.8430    10.2070     9.5340    17.0010    22.9250  -999.2500 
  240.0000     1.5920    68.8430    10.2070     9.5340    17.0020    22.9260  -999.2500 
  240.1250     1.5910    68.8430    10.2070     9.5340    17.0020    22.9260  -999.2500 
  240.2500     1.5900    68.8430    10.2070     9.5340    17.0030    22.9270  -999.2500 
  240.3750     1.5900    68.8430    10.2070     9.5340    17.0060    22.9260  -999.2500 
  240.5000     1.5900    68.8430    10.2070     9.5340    17.0050    22.9230  -999.2500 
  240.6250     1.5890    68.8430    10.2070     9.5340    17.0060    22.9230  -999.2500 
  240.7500     1.5880    68.8430    10.2070     9.5340    17.0090    22.9250  -999.2500 
  240.8750     1.5880    68.8430    10.2070     9.5340    17.0100    22.9270  -999.2500 
  241.0000     1.5890    68.8430    10.2070     9.5340    17.0030    22.9260  -999.2500 
  241.1250     1.5900    68.8430    10.2070     9.5340    17.0010    22.9270  -999.2500 
