~V
VERS. 2.00: Ver 2.00
~W
STRT.M 51.0000:
STOP.M 249.0000:
STEP.M 0.1250:
NULL. -999.2500:
UWI. F11143:
~C
DEPT.M :
GR.API :
RML.OHMM :
RI. :
RXO.OHMM :
CALI.CM :
SP.MV :
DEN.GM/CC :
~A
# ...
   62.2500    61.1830     6.8150     7.5230    10.2040    22.6120   -13.9050     2.1500 
   62.3750    62.5980     7.3270     8.2000    10.7810    22.6100   -15.8320     2.1380 
   62.5000    65.9130     7.6890     8.6470    11.4220    22.5670   -17.4020     2.1310 
   62.6250    67.2110     7.7870     8.7960    11.9890    22.4870   -18.6380     2.1270 
   62.7500    66.2370     7.7010     8.7310    12.1540    22.4320   -19.6110     2.1190 
   62.8750    64.1540     7.5300     8.5370    11.8940    22.4040   -20.4420     2.1070 
   63.0000    62.7130     7.3750     8.3050    11.6270    22.4150   -21.1430     2.0980 
   63.1250    63.2050     7.3270     8.1220    11.5570    22.4110   -21.7130     2.0960 
   63.2500    64.5930     7.4140     8.0250    11.3970    22.3930   -22.1980     2.1000 
   63.3750    66.8450     7.6330     8.0170    11.2250    22.3930   -22.5920     2.1050 
   63.5000    68.2260     7.9150     8.0680    11.0080    22.3900   -22.9060     2.1080 
   63.6250    67.2160     8.1220     8.1090    10.9590    22.3720   -23.1350     2.1100 
   63.7500    66.3120     8.1590     8.0730    10.6190    22.3640   -23.2780     2.1090 
   63.8750    67.9660     8.0040     7.9250    10.2210    22.3670   -23.3250     2.1070 
   64.0000    72.1400     7.7120     7.6680     9.8040    22.3490   -23.3260     2.1060 
   64.1250    74.1490     7.4020     7.3470     9.4150    22.2620   -23.3490     2.1120 
   64.2500    74.1520     7.1820     7.0470     8.9590    22.1450   -23.4300     2.1210 
   64.3750    74.9490     7.0950     6.8310     8.5730    22.0650   -23.5520     2.1290 
   64.5000    76.5870     7.1550     6.7440     8.2940    22.0800   -23.7160     2.1310 
   64.6250    74.5820     7.3790     6.8310     8.6070    22.2170   -23.9310     2.1250 
   64.7500    69.4960     7.7070     7.0510     9.0540    22.3710   -24.1830     2.1160 
   64.8750    65.7550     8.0770     7.3540     9.4460    22.5170   -24.4800     2.1140 
   65.0000    64.1940     8.4120     7.6650     9.7140    22.6580   -24.7720     2.1220 
   65.1250    62.8100     8.6050     7.8770     9.9240    22.7970   -24.9970     2.1420 
   65.2500    63.5780     8.6450     7.9520    10.0400    22.8410   -25.1770     2.1660 
   65.3750    67.1560     8.5730     7.9020     9.9550    22.8120   -25.3110     2.1850 
   65.5000    69.2970     8.4600     7.7770     9.7820    22.7650   -25.3870     2.1900 
   65.6250    66.6380     8.3710     7.6380    10.0830    22.7920   -25.3800     2.1770 
   65.7500    65.6920     8.3150     7.5240    11.5130    22.8990   -25.3440     2.1570 
   65.8750    68.6930     8.2650     7.4320    14.2480    22.9080   -25.2910     2.1390 
   66.0000    73.8330     8.1890     7.3390    16.6250    22.8360   -25.2710     2.1290 
   66.1250    76.9150     8.0860     7.2310    13.4130    22.8210   -25.3470     2.1280 
   66.2500    77.1020     8.0080     7.1290    11.0940    22.8590   -25.4930     2.1310 
   66.3750    74.9660     8.0080     7.0650    10.0610    22.8820   -25.7310     2.1360 
   66.5000    71.4090     8.1210     7.0710     9.7370    22.8670   -26.0760     2.1380 
   66.6250    66.7200     8.3600     7.1710    10.3550    22.8380   -26.5060     2.1310 
   66.7500    60.3090     8.6390     7.3340    10.7410    22.8830   -26.9120     2.1180 
   66.8750    55.4970     8.8680     7.5280    10.9400    22.9710   -27.2300     2.1000 
   67.0000    55.7830     8.9950     7.7250    11.0680    23.0390   -27.3870     2.0800 
   67.1250    59.8990     9.0340     7.9100    11.2180    22.9580   -27.2770     2.0660 
   67.2500    62.5410     9.0860     8.0880    11.1580    22.7570   -26.8930     2.0660 
   67.3750    62.4670     9.2110     8.2710    11.0110    22.6190   -26.2330     2.0770 
   67.5000    63.0580     9.4040     8.4600    10.9140    22.6320   -25.2930     2.0920 
   67.6250    64.8100     9.5580     8.6170    10.9460    22.7720   -24.0600     2.1070 
   67.7500    65.4030     9.5470     8.6690    11.1020    22.9160   -22.6500     2.1250 
   67.8750    66.6720     9.3030     8.5440    11.2020    22.9940   -21.1300     2.1460 
   68.0000    71.9430     8.8410     8.2060    11.1100    22.9830   -19.5980     2.1720 
   68.1250    80.2290     8.2320     7.6710    10.1100    23.0600   -18.1640     2.2080 
   68.2500    85.4010     7.6230     7.0710     8.5860    23.3750   -16.8880     2.2460 
   68.3750    87.6090     7.1020     6.5050     7.2830    23.7850   -15.7770     2.2740 
   68.5000    90.4530     6.7160     6.0380     6.6920    23.9840   -14.8550     2.2900 
   68.6250    93.9240     6.5040     5.7250     6.6350    23.8800   -14.1990     2.2990 
   68.7500    95.7190     6.4290     5.5450     6.6320    23.7890   -13.7930     2.3090 
   68.8750    95.7630     6.4580     5.4770     6.4440    23.8130   -13.6380     2.3200 
   69.0000    95.9900     6.5170     5.4700     6.2540    23.8740   -13.7070     2.3300 
   69.1250    95.5320     6.4980     5.4390     6.4410    23.8470   -13.9590     2.3280 
   69.2500    94.0640     6.3480     5.3190     6.9260    23.8030   -14.3750     2.3200 
   69.3750    92.0930     6.0900     5.1120     6.9590    23.8270   -14.9700     2.3150 
   69.5000    89.6570     5.8630     4.9020     6.5640    23.9050   -15.7330     2.3220 
   69.6250    88.1710     6.0030     4.9010     6.0210    23.9120   -16.6660     2.3380 
   69.7500    88.3290     6.7480     5.2790     5.9920    23.7900   -17.7190     2.3520 
   69.8750    86.6390     8.2160     6.1600     7.0280    23.5370   -18.8500     2.3550 
   70.0000    79.5420    10.2970     7.5810     9.9960    23.2970   -20.0350     2.3530 
   70.1250    67.9410    12.4550     9.3610    17.0050    23.3330   -21.3300     2.3590 
   70.2500    61.6070    13.7280    10.7570    31.5290    23.5060   -22.6650     2.3460 
   70.3750    62.3530    13.4610    11.0550    39.7970    23.6050   -23.9960     2.2800 
   70.5000    64.6440    11.8600    10.1820    26.1570    23.5230   -25.2650     2.1780 
   70.6250    63.8340     9.9670     8.8170    14.6610    23.2640   -26.4350     2.1090 
   70.7500    62.6490     8.6780     7.7110    11.1890    22.9870   -27.4860     2.0880 
   70.8750    63.9320     8.1640     7.0700    10.7300    22.8300   -28.3860     2.0970 
   71.0000    64.6300     8.2660     6.8890    10.8880    22.6730   -29.1400     2.1100 
   71.1250    62.1150     8.6960     7.0790    10.9810    22.4990   -29.6850     2.1170 
   71.2500    58.8550     9.0910     7.3800    11.2840    22.4020   -30.0460     2.1160 
   71.3750    55.8710     9.3000     7.6260    11.4970    22.3610   -30.2520     2.1080 
   71.5000    55.7030     9.3190     7.7340    11.1890    22.2750   -30.3420     2.1000 
   71.6250    57.8620     9.2220     7.7040    10.7950    22.0170   -30.3340     2.0990 
   71.7500    60.0040     9.1200     7.6230    10.8930    21.7060   -30.2870     2.1080 
   71.8750    61.3130     9.0510     7.5430    11.6480    21.5810   -30.2710     2.1190 
   72.0000    61.5900     9.0240     7.4930    12.2440    21.8680   -30.2680     2.1210 
   72.1250    59.1190     9.0380     7.4830    12.0790    22.4280   -30.2750     2.1110 
   72.2500    56.1060     9.0830     7.4960    11.8350    22.7910   -30.2860     2.1020 
   72.3750    58.0700     9.1560     7.5220    11.7250    22.8020   -30.2640     2.1070 
   72.5000    63.1950     9.2510     7.5530    11.7500    22.6350   -30.2120     2.1250 
   72.6250    63.5760     9.3630     7.5850    11.8740    22.5150   -30.1450     2.1470 
   72.7500    60.0270     9.4740     7.6120    12.0200    22.4590   -30.0500     2.1640 
   72.8750    57.1460     9.5610     7.6240    12.1490    22.4310   -29.9230     2.1700 
   73.0000    54.8840     9.5970     7.6070    12.2080    22.3570   -29.7720     2.1640 
   73.1250    52.7650     9.5460     7.5420    12.0610    22.2750   -29.5840     2.1480 
   73.2500    53.2780     9.4210     7.4310    11.8210    22.2310   -29.4000     2.1310 
   73.3750    57.2720     9.2430     7.2860    11.4880    22.2260   -29.2420     2.1190 
