~V
VERS. 2.00: Ver 2.00
~W
STRT.M 52.0000:
STOP.M 240.0000:
STEP.M 0.1250:
NULL. -999.2500:
UWI. F11139:
~C
DEPT.M :
GR.API :
RML.OHMM :
RI. :
RXO.OHMM :
CALI.CM :
SP.MV :
DEN.GM/CC :
~A
# ...
  119.5000    74.0090    11.5020    10.6100     9.6850    24.5570    -0.6230     2.3110 
  119.6250    76.8080    12.5820    11.0060    10.1740    24.3970    -0.4200     2.3420 
  119.7500    76.3890    15.2860    12.8100    13.3960    24.2980    -0.1460     2.3990 
  119.8750    71.9530    19.7020    16.2650    19.3870    24.2700     0.2090     2.4730 
  120.0000    64.1520    25.6500    21.3870    27.5470    24.2340     0.6160     2.5500 
  120.1250    56.2860    32.4970    27.8130    35.8780    24.1940     0.9990     2.6040 
  120.2500    52.0690    38.8330    34.1790    40.6930    24.1700     1.3240     2.6290 
  120.3750    51.4100    43.4480    39.2260    41.8720    24.1440     1.5490     2.6310 
  120.5000    51.0770    45.6930    42.1410    41.6090    24.0660     1.6660     2.6240 
  120.6250    50.1510    45.8840    42.9230    41.9440    23.8770     1.6920     2.6200 
  120.7500    49.8540    45.6780    42.9710    41.9340    23.6960     1.7000     2.6230 
  120.8750    49.7100    45.8650    43.0700    41.4950    23.5720     1.6800     2.6300 
  121.0000    49.5790    46.5470    43.4780    41.7860    23.4760     1.6050     2.6400 
  121.1250    49.9650    47.3040    44.0180    43.5400    23.5320     1.4760     2.6500 
  121.2500    50.3550    47.5310    44.2650    46.5200    23.7520     1.3180     2.6580 
  121.3750    50.0340    46.8210    43.8860    48.3770    24.0200     1.1380     2.6610 
  121.5000    50.2250    45.1770    42.7070    46.8630    24.2370     0.9280     2.6540 
  121.6250    52.1390    42.6310    40.6970    42.9580    24.3370     0.7350     2.6390 
  121.7500    52.3690    39.8500    38.2690    38.2680    24.3760     0.5310     2.6260 
  121.8750    49.5050    37.2550    35.7060    34.6900    24.3590     0.3220     2.6170 
  122.0000    46.1870    34.4230    33.2020    31.2820    24.3190     0.1220     2.6090 
  122.1250    46.1770    31.7640    30.8750    29.2680    24.3230    -0.0370     2.5970 
  122.2500    48.0660    29.3740    28.7210    27.7870    24.3790    -0.1620     2.5810 
  122.3750    49.8720    27.2700    26.7660    25.3290    24.4730    -0.2690     2.5560 
  122.5000    50.9410    25.5070    25.0730    22.5450    24.5510    -0.3050     2.5250 
  122.6250    50.0760    24.2150    23.7810    20.7650    24.5980    -0.2550     2.4980 
  122.7500    48.5180    23.3410    22.8710    19.7950    24.6220    -0.1430     2.4730 
  122.8750    48.6550    22.8410    22.3200    19.5570    24.6420     0.0050     2.4460 
  123.0000    50.7480    22.6300    22.0620    19.8330    24.6240     0.2010     2.4310 
  123.1250    50.9710    22.6100    22.0090    20.5430    24.5360     0.4290     2.4510 
  123.2500    48.3510    22.6440    22.0180    21.1960    24.4680     0.6440     2.4910 
  123.3750    46.6110    22.6770    22.0250    21.4280    24.5740     0.8450     2.5200 
  123.5000    47.7840    22.6950    22.0060    21.6140    24.8050     0.9950     2.5260 
  123.6250    50.1430    22.7100    21.9720    21.4410    24.9890     1.0240     2.5290 
  123.7500    51.7610    22.7490    21.9540    21.0370    25.0940     0.9640     2.5400 
  123.8750    52.2850    22.8220    21.9690    20.9930    25.1110     0.8680     2.5540 
  124.0000    51.8200    22.9130    22.0120    21.1830    25.0580     0.7570     2.5560 
  124.1250    51.0170    22.9690    22.0390    21.3100    24.8890     0.6180     2.5350 
  124.2500    51.8660    22.9330    21.9900    21.0520    24.5850     0.4790     2.5080 
  124.3750    54.2200    22.7680    21.8250    20.6690    24.1610     0.3270     2.4940 
  124.5000    56.1470    22.4680    21.5280    20.2050    23.7500     0.1650     2.4930 
  124.6250    56.1730    22.0480    21.1010    19.5400    23.6960     0.0530     2.4740 
  124.7500    55.6960    21.5760    20.6100    18.5290    23.8370    -0.0310     2.4330 
  124.8750    55.0810    21.1070    20.1110    17.9200    24.0000    -0.1100     2.4000 
  125.0000    54.8550    20.6970    19.6650    17.7220    24.1280    -0.2260     2.3960 
  125.1250    55.5430    20.4190    19.3510    17.4270    24.2580    -0.3330     2.4210 
  125.2500    56.0290    20.2770    19.1820    16.5660    24.7140    -0.4460     2.4500 
  125.3750    56.0080    20.2480    19.1430    15.9300    25.2760    -0.5720     2.4740 
  125.5000    55.1560    20.2800    19.1860    16.0160    24.3680    -0.7260     2.4950 
  125.6250    54.5030    20.2840    19.2300    16.7950    23.8940    -0.9120     2.5240 
  125.7500    55.1100    20.1850    19.1960    17.6250    23.7910    -1.0770     2.5580 
  125.8750    56.7300    19.9450    19.0360    18.1140    23.9430    -1.2010     2.5830 
  126.0000    59.1420    19.5640    18.7360    18.3430    23.9640    -1.2270     2.5910 
  126.1250    61.0840    19.0810    18.3080    18.1790    23.9010    -1.2100     2.5830 
  126.2500    62.8010    18.5900    17.8380    17.4670    23.8010    -1.1690     2.5760 
  126.3750    62.6390    18.1560    17.3950    16.5800    23.6760    -1.0770     2.5750 
  126.5000    58.9310    17.8150    17.0280    15.8460    23.5680    -0.9340     2.5770 
  126.6250    53.9410    17.5810    16.7630    15.0760    23.5360    -0.7600     2.5680 
  126.7500    51.6930    17.4140    16.5710    14.6200    23.5080    -0.6440     2.5490 
  126.8750    53.2270    17.2850    16.4280    14.5560    23.4260    -0.6330     2.5300 
  127.0000    56.0200    17.1700    16.3150    14.7310    23.3200    -0.7510     2.5210 
  127.1250    58.0010    17.0650    16.2280    14.8810    23.2090    -0.9060     2.5230 
  127.2500    59.8720    16.9800    16.1750    15.1400    23.1380    -1.0530     2.5290 
  127.3750    60.3130    16.9250    16.1630    15.7400    23.1750    -1.1630     2.5380 
  127.5000    58.5490    16.8940    16.1840    16.4770    23.2820    -1.2820     2.5460 
  127.6250    56.4820    16.8540    16.2060    16.7220    23.3860    -1.3370     2.5450 
  127.7500    56.7570    16.7740    16.1940    16.4790    23.2940    -1.3820     2.5370 
  127.8750    58.3220    16.6410    16.1280    15.9750    23.0240    -1.3690     2.5290 
  128.0000    58.8380    16.4730    16.0130    15.4560    22.8840    -1.3310     2.5290 
  128.1250    57.7750    16.3120    15.8790    15.3100    23.0710    -1.2440     2.5270 
  128.2500    55.8120    16.1860    15.7660    15.5230    23.4150    -1.1930     2.5140 
  128.3750    53.6840    16.0900    15.6840    15.6080    23.6950    -1.1750     2.4900 
  128.5000    51.9830    15.9950    15.6190    15.1770    23.8590    -1.1840     2.4630 
  128.6250    50.3730    15.8590    15.5320    14.4540    23.9510    -1.2570     2.4490 
  128.7500    49.1240    15.6730    15.4020    14.1650    23.9880    -1.3490     2.4510 
  128.8750    49.4680    15.4520    15.2340    14.2200    23.9670    -1.4400     2.4650 
  129.0000    52.1570    15.2100    15.0400    14.3590    23.9440    -1.5260     2.4810 
  129.1250    56.0920    14.9460    14.8110    14.2640    23.8870    -1.6010     2.4800 
  129.2500    58.6430    14.6540    14.5350    14.0630    23.7800    -1.6200     2.4700 
  129.3750    58.2790    14.3530    14.2160    13.9880    23.6680    -1.6040     2.4680 
  129.5000    57.2650    14.1040    13.8990    14.1000    23.6000    -1.5750     2.4790 
  129.6250    59.2110    14.0540    13.7160    13.6760    23.5340    -1.5150     2.4950 
  129.7500    62.4980    14.2990    13.7810    13.3280    23.4700    -1.4370     2.5060 
  129.8750    64.8890    14.8890    14.1650    13.7230    23.3750    -1.3820     2.5120 
  130.0000    66.1820    15.7820    14.8610    14.9160    23.2370    -1.3430     2.5140 
  130.1250    67.1810    16.8280    15.7750    16.4020    23.2320    -1.3670     2.5160 
  130.2500    68.0370    17.7620    16.6560    17.5770    23.3810    -1.4500     2.5160 
  130.3750    68.6720    18.4050    17.3060    18.0580    23.5460    -1.5910     2.5090 
  130.5000    68.7800    18.7070    17.6210    17.8890    23.8100    -1.7460     2.4930 
  130.6250    69.4750    18.8050    17.6490    17.2850    23.9930    -1.9010     2.4770 
