~V
VERS. 2.00: Ver 2.00
~W
STRT.M 50.0000:
STOP.M 264.0000:
STEP.M 0.1250:
NULL. -999.2500:
UWI. F11182:
~C
DEPT.M :
SP.MV :
GR.API :
RI. :
RML.OHMM :
RXO.OHMM :
DEN.GM/CC :
~A
# ...
  243.1250     4.3000    58.9940    91.0260    95.8770   133.3990     2.2130 
  243.2500     4.5560    60.0980    88.8260    93.5670   124.6550     2.1940 
  243.3750     4.8740    59.2460    84.7040    89.2400    99.3940     2.1640 
  243.5000     5.0170    57.2330    83.2070    87.6680    92.4930     2.1560 
  243.6250     5.1150    55.3180    82.9270    87.3740   102.1830     2.1670 
  243.7500     5.1170    56.4910    82.0940    86.4990   112.8320     2.1860 
  243.8750     5.0770    58.2680    76.7630    80.9010   120.1330     2.2070 
  244.0000     5.0470    58.2410    70.7920    74.6320   110.8950     2.2030 
  244.1250     5.0230    57.9060    60.3000    63.6140    79.4760     2.1860 
  244.2500     5.0260    57.4420    54.2380    57.2500    61.2760     2.1960 
  244.3750     5.0600    57.1340    45.7290    48.3150    51.0160     2.2700 
  244.5000     5.0970    57.6030    40.2470    42.5600    57.9350     2.3230 
  244.6250     5.1540    59.4160    32.8150    34.7560    60.0610     2.3430 
  244.7500     5.1830    61.1230    29.4700    31.2440    42.0810     2.3160 
  244.8750     5.2020    64.8290    26.2380    27.8500    21.8750     2.2380 
  245.0000     5.2030    67.0340    24.9420    26.4890    24.5900     2.2020 
  245.1250     5.2020    67.3060    23.5160    24.9910    34.3660     2.1740 
  245.2500     5.2060    66.1610    22.5100    23.9360    33.1890     2.1660 
  245.3750     5.2220    64.8700    21.1550    22.5130    24.7660     2.1690 
  245.5000     5.2300    65.5070    20.0540    21.3570    22.4330     2.1770 
  245.6250     5.2290    66.5510    18.4190    19.6400    20.6930     2.1780 
  245.7500     5.2280    67.5190    17.7180    18.9040    19.3640     2.1780 
  245.8750     5.2640    68.4250    17.5160    18.6920    18.2740     2.1820 
  246.0000     5.3360    68.4750    18.3740    19.5930    18.6080     2.1860 
  246.1250     5.5270    66.9790    21.6290    23.0100    25.8170     2.2120 
  246.2500     5.7010    64.8980    25.0500    26.6030    39.7340     2.2610 
  246.3750     6.0050    62.6250    30.9510    32.7980    62.8660     2.3730 
  246.5000     6.2130    62.0500    33.8380    35.8290    66.2930     2.4340 
  246.6250     6.4780    61.4510    34.9210    36.9670    55.7980     2.4430 
  246.7500     6.5890    60.0730    33.0720    35.0260    46.5370     2.3900 
  246.8750     6.6270    58.3180    28.4380    30.1600    33.0320     2.2830 
  247.0000     6.5800    58.7840    25.3150    26.8810    26.2600     2.2340 
  247.1250     6.4700    60.6170    22.2250    23.6360    22.7550     2.2010 
  247.2500     6.4090    61.4230    21.3960    22.7660    23.4140     2.1860 
  247.3750     6.3710    61.8340    21.5030    22.8780    25.2510     2.1620 
  247.5000     6.3870    61.8470    22.0980    23.5030    26.8150     2.1540 
  247.6250     6.4580    61.6690    23.1730    24.6310    28.3920     2.1680 
  247.7500     6.5220    61.5660    23.6260    25.1070    28.7470     2.2010 
  247.8750     6.6030    61.3370    24.1410    25.6480    28.0260     2.2780 
  248.0000     6.6320    61.3190    24.6620    26.1950    26.6610     2.3260 
  248.1250     6.6570    61.1220    25.9720    27.5700    28.2490     2.3520 
  248.2500     6.6810    61.6100    27.3080    28.9740    33.4580     2.3260 
  248.3750     6.7310    61.9950    29.4850    31.2590    40.9820     2.2610 
  248.5000     6.7440    62.6980    31.1260    32.9820    40.8090     2.2390 
  248.6250     6.6870    64.8850    34.4920    36.5160    40.2260     2.2880 
  248.7500     6.6100    66.7040    37.5780    39.7570    59.7810     2.3620 
  248.8750     6.5000    66.4280    42.7290    45.1650   102.4550     2.4720 
  249.0000     6.4600    62.7520    41.5420    43.9200    94.2330     2.5290 
  249.1250     6.4490    53.8640    32.5370    34.4630    40.1960     2.5710 
  249.2500     6.4560    48.1200    23.9660    25.4640    16.9460     2.5300 
  249.3750     6.4650    42.3480    11.1650    12.0230     6.2830     2.3550 
  249.5000     6.4670    40.2790     7.3920     8.0620     4.3910     2.2420 
  249.6250     6.4670    39.9120     4.8960     5.4400     3.4830     2.1900 
  249.7500     6.4670    40.7990     4.1600     4.6680     3.4950     2.1830 
  249.8750     6.4670    41.4270     3.7870     4.2760     4.2190     2.1270 
  250.0000     6.4670    41.2450     3.8050     4.2960     4.5360     2.0970 
  250.1250     6.4670    41.6550     3.9440     4.4420     4.3720     2.1360 
  250.2500     6.4670    42.3300     4.0400     4.5420     4.3310     2.1810 
  250.3750     6.4670    41.8480     4.1510     4.6590     4.5050     2.2020 
  250.5000     6.4670    40.8980     4.1840     4.6930     4.5070     2.1880 
  250.6250     6.4670    40.1870     4.2090     4.7190     4.3350     2.1860 
  250.7500     6.4670    40.7050     4.1820     4.6910     4.2830     2.2130 
  250.8750     6.4670    41.3660     4.1580     4.6660     4.3170     2.2460 
  251.0000     6.4670    41.0330     4.1170     4.6230     4.3720     2.2310 
  251.1250     6.4670    40.3000     4.0700     4.5740     4.3130     2.1780 
  251.2500     6.4670    40.6110     4.0130     4.5140     4.1450     2.1640 
  251.3750     6.4670    41.0710     3.9370     4.4340     4.1430     2.1980 
  251.5000     6.4670    41.0900     3.8860     4.3800     4.3250     2.2280 
  251.6250     6.4670    40.5690     3.8420     4.3340     4.5670     2.2410 
  251.7500     6.4670    40.3010     3.8450     4.3370     4.6040     2.2370 
  251.8750     6.4670    40.0380     3.8570     4.3500     5.0750     2.2370 
  252.0000     6.4670    40.2100     3.8680     4.3610     5.4480     2.2320 
  252.1250     6.4670    41.6180     3.8720     4.3650     5.1030     2.2160 
  252.2500     6.4670    42.4160     3.8720     4.3650     4.8260     2.2200 
  252.3750     6.4670    42.4880     3.8710     4.3650     4.6610     2.2410 
  252.5000     6.4670    42.1960     3.8710     4.3650     4.5880     2.2420 
  252.6250     6.4670    41.8930     3.8740     4.3680     4.6320     2.2260 
  252.7500     6.4670    41.7430     3.8740     4.3680     4.5530     2.2330 
  252.8750     6.4670    41.4090     3.8740     4.3680     4.3860     2.2720 
  253.0000     6.4670    41.4510     3.8740     4.3680     4.3980     2.2790 
  253.1250     6.4670    41.7340     3.8710     4.3640     4.5330     2.2480 
  253.2500     6.4670    41.3220     3.8710     4.3640     4.5790     2.2300 
  253.3750     6.4670    40.4710     3.8710     4.3640     4.4750     2.2210 
  253.5000     6.4670    40.4890     3.8700     4.3640     4.3650     2.2060 
  253.6250     6.4670    40.9160     3.8670     4.3600     4.3180     2.1720 
  253.7500     6.4670    40.6960     3.8730     4.3660     4.3720     2.1740 
  253.8750     6.4670    40.5290     3.8730     4.3670     4.4490     2.2170 
  254.0000     6.4670    41.4880     3.8690     4.3620     4.4560     2.2380 
  254.1250     6.4670    42.2790     3.8760     4.3700     4.4960     2.2300 
  254.2500     6.4670    42.6030     3.8850     4.3790     4.5320     2.2100 
  254.3750     6.4670    47.1920     3.8940     4.3890     4.4380     2.1940 
  254.5000     6.4670    50.0430     3.8930     4.3870     4.3360     2.2020 
  254.6250     6.4670    47.9920     3.8810     4.3750     4.6850     2.2250 
  254.7500     6.4670    43.2390     3.8680     4.3620     5.1580     2.2370 
  254.8750     6.4670    39.9370     3.8660     4.3590     5.1730     2.2570 
  255.0000     6.4670    40.1460     3.8650     4.3580     5.0480     2.2720 
  255.1250     6.4670    40.3220     3.8700     4.3640     5.4230     2.2770 
  255.2500     6.4670    40.3220     3.8680     4.3620     5.6780     2.2730 
  255.3750     6.4670    40.3220     3.8750     4.3690     6.0390     2.2640 
  255.5000     6.4670    40.3220     3.8770     4.3710     6.1700     2.2570 
  255.6250     6.4670    40.3220     3.8880     4.3820     6.0770     2.2470 
  255.7500     6.4670    40.3220     3.8960     4.3910     5.9270     2.2460 
  255.8750     6.4670    40.3220     3.8950     4.3900     5.5270     2.2620 
