~V
VERS. 2.00: Ver 2.00
~W
STRT.M 54.0000:
STOP.M 273.0000:
STEP.M 0.1250:
NULL. -999.2500:
UWI. F11158:
~C
DEPT.M :
SP.MV :
DEN.GM/CC :
GR.API :
RML.OHMM :
RI. :
RXO.OHMM :
CALI.CM :
~A
# ...
  189.0000   -29.7220     2.2250    68.8860    70.6510    67.4250    59.3400    24.5820 
  189.1250   -29.7140     2.2140    68.3900    72.7020    69.4160    67.3080    24.5640 
  189.2500   -29.7010     2.2090    66.8690    72.0370    69.1370    71.1430    24.5360 
  189.3750   -29.6760     2.2130    66.8830    67.8300    65.5160    68.4070    24.4650 
  189.5000   -29.6540     2.2250    67.8940    60.8880    59.1160    62.7160    24.2860 
  189.6250   -29.6260     2.2430    69.5160    53.5200    52.0410    57.2800    23.9440 
  189.7500   -29.5760     2.2640    72.0980    48.4510    46.7530    49.7890    23.4690 
  189.8750   -29.5530     2.2800    74.2530    46.9190    44.3890    41.5860    23.1310 
  190.0000   -29.5880     2.2850    73.5520    49.2150    45.3530    37.0640    23.0400 
  190.1250   -29.6750     2.2770    69.1000    55.0030    49.7250    43.8740    23.1500 
  190.2500   -29.8090     2.2600    64.7660    63.3610    57.2350    63.5910    23.2650 
  190.3750   -29.9680     2.2430    63.8580    72.1250    66.0580    81.7900    23.2090 
  190.5000   -30.1250     2.2330    65.0680    79.4880    74.2220    89.7390    23.0220 
  190.6250   -30.2820     2.2380    66.3950    84.4160    80.1250    87.0770    22.7980 
  190.7500   -30.4560     2.2510    66.5520    87.3950    83.6790    79.7950    22.6120 
  190.8750   -30.6120     2.2600    65.9730    90.2580    86.6390    77.9730    22.4990 
  191.0000   -30.7380     2.2610    64.6260    93.6390    89.8680    83.3280    22.4760 
  191.1250   -30.8320     2.2560    64.1330    96.3520    92.5740    87.2580    22.5130 
  191.2500   -30.8840     2.2540    65.6880    95.2050    91.8490    84.9280    22.5480 
  191.3750   -30.9190     2.2520    67.9360    88.1230    85.3950    80.3270    22.5510 
  191.5000   -30.9530     2.2540    68.9150    75.9660    73.8080    71.5230    22.5290 
  191.6250   -31.0070     2.2620    69.0970    62.6390    60.8630    52.0200    22.5110 
  191.7500   -31.0830     2.2740    70.2100    52.6220    50.8640    28.8000    22.4850 
  191.8750   -31.1580     2.2830    72.0850    47.4730    45.1820    16.0300    22.4400 
  192.0000   -31.2270     2.2830    72.5720    47.1530    43.7240    14.3710    22.3860 
  192.1250   -31.2860     2.2710    69.1870    50.9100    46.0280    21.8840    22.3530 
  192.2500   -31.3520     2.2540    62.8550    57.5150    51.4720    39.2530    22.3400 
  192.3750   -31.4310     2.2390    59.1600    64.5730    58.1210    54.2230    22.3490 
  192.5000   -31.5230     2.2320    60.6560    70.2200    64.0350    57.5450    22.3890 
  192.6250   -31.6170     2.2280    64.4810    73.5670    67.7480    53.9690    22.4460 
  192.7500   -31.6940     2.2230    66.3280    75.5640    69.5430    52.8410    22.4890 
  192.8750   -31.7660     2.2160    64.9580    78.6080    71.6500    52.3020    22.4960 
  193.0000   -31.8390     2.2090    61.7400    84.1050    75.6120    54.3410    22.4680 
  193.1250   -31.9380     2.2060    58.2230    92.2070    81.8880    66.5890    22.4160 
  193.2500   -32.0620     2.2070    57.9140   101.6860    89.6440    89.6700    22.3790 
  193.3750   -32.2040     2.2100    61.7640   110.0650    96.7900   108.3320    22.3660 
  193.5000   -32.3410     2.2120    64.9530   115.3900   101.6610   112.6550    22.3640 
  193.6250   -32.4760     2.2140    63.6160   116.5660   103.2670   105.8280    22.3670 
  193.7500   -32.6350     2.2140    60.6850   113.6260   101.5050    98.8930    22.3970 
  193.8750   -32.8130     2.2130    61.2820   108.1300    97.5610    99.0230    22.4530 
  194.0000   -33.0110     2.2120    63.2280   100.6130    91.8100   101.1260    22.4870 
  194.1250   -33.2060     2.2150    62.6900    91.2550    84.2610    98.2380    22.4660 
  194.2500   -33.3760     2.2220    61.7790    80.6560    75.2700    85.7130    22.4600 
  194.3750   -33.5120     2.2300    62.9680    70.3430    66.2250    68.5860    22.4920 
  194.5000   -33.6340     2.2390    65.7590    61.5030    58.2870    53.4750    22.5530 
  194.6250   -33.7550     2.2480    67.9870    54.8510    52.2180    43.8710    22.6060 
  194.7500   -33.8670     2.2500    68.3480    50.5900    48.3180    39.7530    22.6440 
  194.8750   -33.9760     2.2470    67.0730    47.9560    45.9820    38.8020    22.6590 
  195.0000   -34.0740     2.2400    65.9130    46.4340    44.7700    38.5580    22.6630 
  195.1250   -34.1380     2.2370    67.2160    45.6530    44.3220    37.7160    22.6620 
  195.2500   -34.1840     2.2400    69.2450    45.4470    44.4260    37.1060    22.6530 
  195.3750   -34.2290     2.2460    68.6360    45.6650    44.8820    37.3340    22.6390 
  195.5000   -34.2680     2.2530    67.0870    46.2300    45.6060    37.7480    22.6150 
  195.6250   -34.2960     2.2600    67.6390    46.9450    46.4240    37.9550    22.5870 
  195.7500   -34.2980     2.2690    69.8860    47.3970    46.9520    38.7940    22.5890 
  195.8750   -34.2640     2.2830    71.3350    47.1160    46.7150    39.9340    22.6410 
  196.0000   -34.2050     2.3000    72.2610    45.7870    45.3460    40.3270    22.7290 
  196.1250   -34.1610     2.3120    73.6470    43.5050    42.8970    38.9200    22.8810 
  196.2500   -34.1760     2.3110    74.6490    40.9560    40.0270    35.6300    23.1520 
  196.3750   -34.2210     2.2960    74.2490    39.2360    37.7830    31.8840    23.5780 
  196.5000   -34.2640     2.2730    73.2690    39.2680    36.9450    29.6860    24.1040 
  196.6250   -34.2820     2.2510    71.8160    41.8780    38.2160    30.5230    24.5710 
  196.7500   -34.2840     2.2360    70.1620    47.7720    42.3410    36.9120    24.7310 
  196.8750   -34.2870     2.2260    68.4040    56.4650    49.1850    48.9370    24.7870 
  197.0000   -34.2780     2.2210    65.4160    67.2270    58.3360    59.7430    24.8200 
  197.1250   -34.2350     2.2180    61.1560    78.5410    68.4890    67.6050    24.8710 
  197.2500   -34.1180     2.2150    56.7430    88.2080    77.4560    72.7640    24.8880 
  197.3750   -33.9600     2.2130    54.2420    94.9570    83.7150    78.5220    24.8490 
  197.5000   -33.7850     2.2110    55.3630    98.8940    87.1860    77.9750    24.7530 
  197.6250   -33.5930     2.2130    61.1010   101.0530    88.7390    75.2240    24.6450 
  197.7500   -33.3840     2.2180    68.2850   102.6250    89.4460    76.6660    24.5550 
  197.8750   -33.1730     2.2240    71.0810   104.5670    90.2760    82.0760    24.4980 
  198.0000   -32.9690     2.2300    69.5310   107.4250    91.7830    82.8050    24.4480 
  198.1250   -32.7720     2.2350    67.5690   111.6620    94.4600    80.8880    24.3890 
  198.2500   -32.5770     2.2390    68.2070   117.6320    98.7470    81.8720    24.3180 
  198.3750   -32.3710     2.2460    69.2670   124.9060   104.4260    86.3120    24.2410 
  198.5000   -32.1620     2.2560    67.6020   132.7500   111.0130    94.0200    24.1890 
  198.6250   -31.9770     2.2750    62.7000   139.9670   117.6020   103.9460    24.1490 
  198.7500   -31.8070     2.3080    58.3270   145.3550   123.2040   111.9420    24.0610 
  198.8750   -31.6270     2.3490    58.4360   148.9780   127.6520   115.3100    23.9300 
  199.0000   -31.4280     2.3810    60.6330   151.1380   131.0660   111.3400    23.8450 
  199.1250   -31.1970     2.3910    60.3280   151.0660   132.8680    98.0710    23.8790 
  199.2500   -30.9420     2.4010    57.5830   145.5420   130.5650    91.9430    23.9380 
  199.3750   -30.6940     2.4380    56.1760   131.5300   121.1910   100.8250    23.9040 
  199.5000   -30.4710     2.4890    57.0490   108.9240   103.3710   108.0790    23.7700 
  199.6250   -30.2440     2.5190    58.3790    82.6300    80.2180    90.6450    23.6420 
  199.7500   -30.0180     2.5020    58.1020    59.6220    58.3520    59.4060    23.5330 
  199.8750   -29.8270     2.4580    56.5790    42.8530    42.0110    38.7100    23.4350 
  200.0000   -29.6920     2.4080    55.2700    32.0850    31.4470    23.5460    23.2470 
  200.1250   -29.6440     2.3730    56.3720    26.2120    25.5460    15.3200    23.1200 
