~V
VERS. 2.00: Ver 2.00
~W
STRT.M 56.0000:
STOP.M 269.0000:
STEP.M 0.1250:
NULL. -999.2500:
UWI. F11148:
~C
DEPT.M :
GR.API :
RML.OHMM :
RI. :
RXO.OHMM :
SP.MV :
DEN.GM/CC :
CALI.CM :
~A
# ...
  112.2500   100.4630     5.4860     4.5920     5.0810    -6.7910     2.3800    23.8700 
  112.3750   103.6250     5.2710     4.3640     4.7830    -6.7470     2.3920    23.5730 
  112.5000   105.6160     5.1110     4.1910     4.6480    -6.6880     2.4030    23.3350 
  112.6250   103.9520     5.0220     4.0850     4.6330    -6.6060     2.4110    23.3050 
  112.7500   101.1760     5.0160     4.0580     4.6980    -6.5440     2.4140    23.5640 
  112.8750   102.4710     5.0750     4.0950     4.7360    -6.5260     2.4150    24.0170 
  113.0000   106.2110     5.1990     4.1960     4.7560    -6.4800     2.4170    24.4510 
  113.1250   107.7180     5.3940     4.3610     4.8740    -6.3790     2.4200    24.6440 
  113.2500   105.5980     5.6550     4.5890     5.1070    -6.3430     2.4260    24.6220 
  113.3750   103.1320     5.9350     4.8440     5.3270    -6.2990     2.4360    24.5140 
  113.5000   102.0500     6.1790     5.0840     5.7750    -6.2090     2.4460    24.2890 
  113.6250   103.5450     6.3280     5.2630     6.5650    -6.1820     2.4480    23.9470 
  113.7500   107.3520     6.3190     5.3220     6.7710    -6.1880     2.4380    23.8410 
  113.8750   109.0790     6.1810     5.2650     6.0880    -6.1210     2.4220    24.1000 
  114.0000   106.6520     5.9540     5.1150     5.4930    -6.0850     2.4100    24.3390 
  114.1250   102.9570     5.6860     4.9030     5.2250    -6.1380     2.4090    24.4410 
  114.2500   100.9970     5.4210     4.6710     5.2210    -6.1380     2.4160    24.4670 
  114.3750    99.7870     5.1840     4.4590     5.1520    -6.1440     2.4210    24.4920 
  114.5000    99.2540     4.9870     4.2860     5.0000    -6.2090     2.4200    24.5000 
  114.6250   102.4850     4.8440     4.1640     4.8290    -6.2230     2.4130    24.4950 
  114.7500   106.7420     4.7920     4.1140     4.7480    -6.2450     2.4060    24.4850 
  114.8750   106.1090     4.8330     4.1320     4.7670    -6.3440     2.4020    24.4840 
  115.0000   102.1010     4.9530     4.2070     4.7400    -6.4430     2.4000    24.4630 
  115.1250    99.3060     5.1100     4.3130     4.7030    -6.5020     2.4010    24.4350 
  115.2500   101.2600     5.2470     4.4070     4.7910    -6.6040     2.4010    24.3980 
  115.3750   106.0940     5.3200     4.4520     4.9620    -6.7670     2.3960    24.3390 
  115.5000   108.0690     5.3130     4.4330     5.0390    -6.9710     2.3880    24.2730 
  115.6250   104.9750     5.2340     4.3540     4.9480    -7.2280     2.3810    24.1920 
  115.7500   103.0450     5.1110     4.2400     4.9220    -7.5540     2.3780    24.1150 
  115.8750   107.0160     5.0060     4.1420     4.9120    -7.9650     2.3750    23.9730 
  116.0000   110.9920     5.0000     4.1210     4.9370    -8.4180     2.3710    23.8180 
  116.1250   108.1650     5.2100     4.2560     5.1080    -8.9290     2.3670    23.7350 
  116.2500   100.4480     5.9170     4.7150     5.8040    -9.5670     2.3710    23.7600 
  116.3750    92.1650     7.3120     5.6180     7.4530   -10.2710     2.3880    23.8700 
  116.5000    83.9430     9.5740     7.1380    10.5340   -11.0170     2.4240    24.0750 
  116.6250    75.6410    12.6740     9.4000    14.4710   -11.8520     2.4740    24.1820 
  116.7500    70.0620    16.0440    12.2700    18.6450   -12.8250     2.5150    24.0880 
  116.8750    68.6370    18.3630    14.6970    23.8030   -13.8680     2.5210    23.8700 
  117.0000    71.0160    18.5310    15.5010    28.1030   -14.9670     2.4790    23.7160 
  117.1250    74.5080    16.5350    14.3800    25.5720   -16.1230     2.3980    23.5750 
  117.2500    73.9220    13.6140    12.2410    17.9540   -17.2870     2.3100    23.4710 
  117.3750    72.3620    11.2020    10.3110    12.5950   -18.3780     2.2450    23.3850 
  117.5000    74.1600     9.6860     8.9570    10.5140   -19.3490     2.2100    23.3880 
  117.6250    78.5790     8.9900     8.2060    10.0100   -20.1990     2.1950    23.5000 
  117.7500    78.8770     8.9150     8.0130    10.0350   -20.8240     2.1860    23.6580 
  117.8750    76.0520     9.0900     8.1280    10.1170   -21.1570     2.1760    23.7830 
  118.0000    76.0660     9.3590     8.4150    10.2100   -21.2740     2.1680    23.8200 
  118.1250    78.1420     9.6830     8.7960    10.3300   -21.2050     2.1660    23.7890 
  118.2500    76.5900    10.0930     9.2560    10.6560   -20.8480     2.1720    23.7630 
  118.3750    73.6470    10.5180     9.7210    11.2490   -20.2490     2.1820    23.7480 
  118.5000    72.4330    10.7950    10.0480    12.0040   -19.4310     2.1940    23.7170 
  118.6250    73.9580    10.7320    10.0490    12.5830   -18.3600     2.2070    23.6750 
  118.7500    76.1570    10.1600     9.5370    12.1550   -16.9940     2.2250    23.6910 
  118.8750    78.5410     9.2500     8.6760    10.2540   -15.5240     2.2530    23.8150 
  119.0000    81.5130     8.2300     7.6850     7.8180   -14.0130     2.2870    23.9880 
  119.1250    82.5990     7.3680     6.8090     6.7000   -12.5230     2.3170    24.0580 
  119.2500    78.8580     7.0180     6.3220     6.5910   -11.1330     2.3390    24.0330 
  119.3750    71.8270     7.3660     6.3370     6.7540    -9.8560     2.3590    23.9620 
  119.5000    64.3980     8.6240     6.9960     7.3390    -8.7890     2.3860    23.9070 
  119.6250    59.2030    10.9490     8.4540     8.6870    -8.0000     2.4290    23.8650 
  119.7500    55.2640    14.7590    11.0320    12.5340    -7.4930     2.4940    23.8460 
  119.8750    51.1770    19.8500    14.5370    18.2170    -7.1570     2.5600    23.8080 
  120.0000    47.8180    24.2110    18.5030    23.8280    -6.9760     2.6050    23.7870 
  120.1250    46.7250    27.4780    22.0440    25.4640    -6.8880     2.6190    23.7940 
  120.2500    47.9780    28.9910    24.2100    23.1990    -6.8370     2.6150    23.8210 
  120.3750    47.4070    29.6400    25.3740    22.6630    -6.8110     2.6110    23.8430 
  120.5000    44.2860    30.2280    26.1380    24.5140    -6.8030     2.6090    23.8890 
  120.6250    41.5640    31.1600    26.9310    26.5760    -6.8070     2.6040    24.0000 
  120.7500    41.6170    32.3420    27.8420    29.3670    -6.8070     2.5970    24.1210 
  120.8750    42.8390    33.3110    28.6180    30.4510    -6.8130     2.5920    24.1880 
  121.0000    44.5020    33.8420    29.0780    29.0370    -6.8090     2.5890    24.2090 
  121.1250    46.4180    34.0490    29.2760    27.2030    -6.8000     2.5890    24.2210 
  121.2500    47.1850    34.2760    29.4670    28.2380    -6.8060     2.5940    24.2520 
  121.3750    46.9070    34.6930    29.8220    29.0070    -6.8390     2.6050    24.2750 
  121.5000    46.1790    35.2340    30.3270    27.9810    -6.8400     2.6150    24.2810 
  121.6250    45.5560    35.7400    30.8780    27.9050    -6.8230     2.6220    24.2650 
  121.7500    44.2220    35.9490    31.2760    29.3950    -6.8780     2.6270    24.1810 
  121.8750    42.5770    35.7420    31.3790    29.3170    -6.9750     2.6310    24.0210 
  122.0000    42.7250    35.1230    31.1490    25.9710    -7.0500     2.6290    23.8420 
  122.1250    43.3440    34.1930    30.6410    24.2180    -7.0840     2.6200    23.6600 
  122.2500    43.4280    33.0600    29.9160    24.4290    -7.1530     2.6020    23.4850 
  122.3750    43.4460    31.8790    29.0960    24.1810    -7.2850     2.5760    23.3760 
  122.5000    44.6120    30.7320    28.2460    22.5990    -7.4680     2.5470    23.3290 
  122.6250    47.5760    29.6530    27.4080    20.7740    -7.6020     2.5260    23.3150 
  122.7500    49.7670    28.6600    26.6040    20.6830    -7.6700     2.5200    23.3150 
  122.8750    49.0110    27.7640    25.8620    20.7090    -7.7600     2.5260    23.3590 
  123.0000    46.2090    26.9930    25.2220    20.5140    -7.8870     2.5410    23.5160 
  123.1250    44.8370    26.3440    24.7010    21.2680    -7.9980     2.5550    23.7920 
  123.2500    46.4890    25.7810    24.2720    21.3150    -8.0640     2.5590    24.0750 
  123.3750    47.2690    25.2280    23.8600    20.9700    -8.1280     2.5570    24.2170 
