~V
VERS. 2.00: Ver 2.00
~W
STRT.M 54.0000:
STOP.M 273.0000:
STEP.M 0.1250:
NULL. -999.2500:
UWI. F11158:
~C
DEPT.M :
SP.MV :
DEN.GM/CC :
GR.API :
RML.OHMM :
RI. :
RXO.OHMM :
CALI.CM :
~A
   54.0000  -999.2500     2.0100    39.5000     1.9230     0.5220     1.1530    25.3090 
   54.1250  -999.2500     2.0230    41.7280     2.0700     0.4920     1.2310    25.3090 
   54.2500  -999.2500     2.0390    41.7820     2.0370     0.4740     1.2430    25.3090 
   54.3750  -999.2500     2.0550    40.2460     1.9350     0.4730     1.0920    25.3090 
   54.5000  -999.2500     2.0650    38.6890     1.9000     0.4880     0.8790    25.3090 
   54.6250  -999.2500     2.0650    38.7410     1.9810     0.5140     0.8140    25.3090 
   54.7500  -999.2500     2.0570    41.4460     2.1070     0.5420     0.7780    25.3090 
   54.8750  -999.2500     2.0470    44.6730     2.1360     0.5600     0.6810    25.3090 
   55.0000  -999.2500     2.0320    44.9870     2.0330     0.5650     0.6780    25.3090 
   55.1250  -999.2500     2.0150    42.1250     1.8710     0.5560     0.9120    25.3090 
   55.2500     0.0000     2.0020    39.7240     1.7440     0.5440     1.1530    25.3090 
   55.3750     0.0000     1.9970    40.2020     1.6860     0.5360     1.2320    25.3090 
   55.5000    11.5490     2.0000    41.8130     1.6970     0.5340     1.1570    25.3090 
   55.6250    57.8560     2.0100    42.8070     1.7650     0.5330     1.0770    25.3090 
   55.7500    58.3910     2.0300    43.6420     1.8720     0.5300     0.9920    25.3090 
   55.8750    58.7280     2.0570    45.1690     1.9870     0.5250     0.9410    25.3090 
   56.0000    58.8780     2.0820    46.7960     2.0920     0.5160     0.9300    25.3090 
   56.1250    58.7990     2.0960    47.1550     2.1890     0.5030     0.9200    25.3090 
   56.2500    58.4300     2.0960    46.3140     2.3150     0.4890     0.8710    25.3090 
   56.3750    57.8360     2.0840    45.9600     2.4970     0.4800     0.8000    25.3090 
   56.5000    57.0030     2.0640    45.9190     2.7270     0.4850     0.7780    25.3090 
   56.6250    55.8580     2.0430    44.4050     2.9720     0.4990     0.8410    25.3090 
   56.7500    54.3530     2.0290    41.7120     3.1880     0.5090     0.8950    25.3090 
   56.8750    52.5940     2.0230    42.4730     3.3170     0.5080     0.8720    25.3090 
   57.0000    50.6670     2.0250    48.4270     3.3350     0.4960     0.7770    25.3090 
   57.1250    48.7200     2.0320    55.6070     3.2930     0.4820     0.7080    25.3090 
   57.2500    46.8970     2.0450    58.4140     3.2220     0.4760     0.7730    25.3090 
   57.3750    45.2620     2.0600    57.9570     3.0280     0.4840     0.9760    25.3090 
   57.5000    43.8890     2.0750    57.1110     2.6060     0.5090     1.1240    25.3090 
   57.6250    42.8260     2.0840    55.8720     2.0240     0.5490     1.2730    25.3090 
   57.7500    42.0990     2.0880    52.8000     1.5100     0.5960     1.3920    25.3090 
   57.8750    41.6610     2.0920    51.4970     1.1810     0.6370     1.3610    25.3090 
   58.0000    41.4790     2.0960    53.8670     1.0090     0.6640     1.2860    25.3090 
   58.1250    41.4470     2.0930    56.4000     0.9220     0.6720     1.3320    25.3090 
   58.2500    41.5100     2.0800    55.8560     0.8610     0.6620     1.4430    25.3090 
   58.3750    41.6490     2.0670    53.9900     0.8120     0.6380     1.4120    25.3090 
   58.5000    41.8420     2.0550    51.4900     0.7990     0.6070     1.2800    25.3090 
   58.6250    42.0780     2.0430    48.5680     0.8320     0.5760     1.2500    25.3090 
   58.7500    42.3050     2.0330    47.3770     0.8940     0.5550     1.3610    25.3080 
   58.8750    42.4760     2.0320    48.3700     0.9500     0.5460     1.4740    25.3060 
   59.0000    42.5720     2.0360    48.5360     0.9920     0.5460     1.4260    25.3060 
   59.1250    42.6380     2.0420    47.4930     1.0430     0.5500     1.3220    25.3080 
   59.2500    42.6770     2.0470    48.0140     1.1450     0.5560     1.3340    25.3090 
   59.3750    42.6700     2.0530    50.7900     1.3090     0.5630     1.4070    25.3090 
   59.5000    42.5860     2.0620    52.8280     1.5250     0.5640     1.3740    25.3090 
   59.6250    42.4020     2.0720    51.7310     1.7370     0.5600     1.2540    25.3090 
   59.7500    42.1060     2.0750    48.4670     1.8660     0.5530     1.1000    25.3090 
   59.8750    41.7430     2.0710    47.3420     1.9080     0.5480     0.9940    25.3090 
   60.0000    41.3500     2.0620    49.8630     1.9110     0.5480     0.9620    25.3090 
   60.1250    40.8400     2.0520    53.1880     1.8990     0.5480     0.9120    25.3090 
   60.2500    40.1840     2.0460    53.8180     1.8250     0.5450     0.8770    25.3090 
   60.3750    39.4540     2.0420    53.1120     1.6470     0.5410     0.9000    25.3090 
   60.5000    38.6670     2.0340    52.6300     1.3890     0.5410     0.9990    25.3080 
   60.6250    37.7700     2.0260    51.9890     1.1450     0.5470     1.0980    25.3050 
   60.7500    36.7440     2.0230    50.3570     0.9920     0.5580     1.0850    25.3030 
   60.8750    35.6190     2.0220    49.7480     0.9210     0.5730     1.0160    25.3050 
   61.0000    34.3460     2.0210    51.6740     0.9010     0.5940     0.9840    25.3070 
   61.1250    32.9490     2.0210    54.8370     0.9060     0.6180     0.9430    25.3090 
   61.2500    31.3940     2.0280    55.9180     0.9320     0.6390     0.8160    25.3080 
   61.3750    29.6750     2.0380    54.1120     0.9900     0.6510     0.6890    25.3070 
   61.5000    27.7800     2.0480    51.6920     1.1070     0.6550     0.6520    25.3050 
   61.6250    25.6500     2.0640    51.2950     1.2860     0.6500     0.6900    25.3070 
   61.7500    23.1620     2.1000    53.0130     1.4180     0.6140     0.7170    25.3070 
   61.8750    20.2450     2.1590    53.9510     1.2640     0.5290     0.7580    25.3060 
   62.0000    16.8770     2.2390    52.1350     0.7740     0.3990     0.9100    25.3060 
   62.1250    13.0400     2.3360    49.0270     0.3150     0.2640     1.1700    25.3040 
   62.2500     8.7230     2.4460    46.6490     0.1310     0.1730     1.5500    25.2950 
   62.3750     4.0300     2.5350    45.7290     0.0960     0.1450     1.9900    25.2590 
   62.5000    -0.8860     2.5620    46.7760     0.1490     0.1960     2.5590    25.1490 
   62.6250    -5.7360     2.5130    50.1900     0.2960     0.3680     3.5090    24.9840 
   62.7500   -10.1750     2.4130    55.2010     0.6270     0.7510     5.1960    24.9590 
   62.8750   -14.0520     2.3150    61.0610     1.2970     1.4170     6.5260    25.1490 
   63.0000   -17.3420     2.2460    68.3970     2.4650     2.4040     6.8610    25.3950 
   63.1250   -20.0400     2.2100    75.1710     3.9330     3.5870     6.8230    25.5630 
   63.2500   -22.0790     2.1980    77.0150     5.0030     4.6610     7.4730    25.7070 
   63.3750   -23.5350     2.1940    74.9020     5.4290     5.4360     7.9590    25.9710 
   63.5000   -24.4940     2.1910    72.1320     5.5630     5.9460     8.0860    26.3330 
   63.6250   -25.1320     2.1830    72.0290     5.6830     6.2750     7.9780    26.6890 
   63.7500   -25.6440     2.1760    74.7060     5.7660     6.4320     8.0260    26.8480 
   63.8750   -26.1550     2.1790    76.1490     5.7210     6.4260     8.1040    26.7610 
   64.0000   -26.6880     2.1950    75.8110     5.5790     6.3050     7.8760    26.5200 
   64.1250   -27.2230     2.2250    75.9540     5.4980     6.2100     7.5640    26.3190 
   64.2500   -27.7660     2.2660    78.7760     5.6800     6.3480     7.3290    26.2100 
   64.3750   -28.3730     2.3170    80.9850     6.2170     6.8290     7.7170    26.0790 
   64.5000   -29.0960     2.3820    79.8160     7.1480     7.6770    10.3430    25.7500 
   64.6250   -29.9390     2.4550    75.4260     8.3570     8.7750    18.4790    25.2160 
   64.7500   -30.8760     2.5140    70.2090     9.4240     9.7960    34.6600    24.9390 
   64.8750   -31.8340     2.5120    65.9840     9.8510    10.3310    43.0870    25.2270 
   65.0000   -32.7080     2.4300    63.1730     9.5390    10.1940    31.0530    26.1960 
   65.1250   -33.4560     2.3140    61.5310     8.8090     9.5280    16.1670    27.3890 
