~V
VERS. 2.00: Ver 2.00
~W
STRT.M 50.0000:
STOP.M 265.0000:
STEP.M 0.1250:
NULL. -999.2500:
UWI. F11185:
~C
DEPT.M :
SP.MV :
GR.API :
RI. :
RML.OHMM :
RXO.OHMM :
DEN.GM/CC :
~A
# ...
  178.7500  -123.9050    59.2420    88.8340    92.6880    88.2760     2.1880 
  178.8750  -123.8950    58.9860    87.0840    90.8670    89.3600     2.1870 
  179.0000  -123.9270    58.7930    84.4500    88.1280    91.3900     2.1920 
  179.1250  -124.0530    55.7460    82.4910    86.0900    93.6810     2.1970 
  179.2500  -124.2370    52.3500    82.1680    85.7550    93.8930     2.1950 
  179.3750  -124.3760    52.5060    84.3570    88.0320    91.6850     2.1900 
  179.5000  -124.4440    53.9710    87.3860    91.1810    89.3390     2.1870 
  179.6250  -124.4100    53.7830    88.4200    92.2560    88.0470     2.1820 
  179.7500  -124.2340    51.7130    87.0630    90.8460    87.4550     2.1810 
  179.8750  -123.9830    49.8990    82.5530    86.1560    87.3540     2.1950 
  180.0000  -123.7140    49.5480    77.5320    80.9330    87.1420     2.2120 
  180.1250  -123.4070    51.2980    74.4520    77.7300    85.6280     2.2120 
  180.2500  -123.0790    53.2800    75.1200    78.4250    83.8750     2.2010 
  180.3750  -122.7540    53.7560    79.5560    83.0380    85.4130     2.1900 
  180.5000  -122.4870    52.9030    88.5740    92.4170    92.3590     2.1790 
  180.6250  -122.2900    52.9860   100.7080   105.0360   108.9530     2.1660 
  180.7500  -122.1260    53.5470   113.9780   118.8370   125.2200     2.1530 
  180.8750  -122.0320    52.7070   125.9670   131.3060   139.7380     2.1440 
  181.0000  -122.0180    51.2000   133.7570   139.4080   150.7880     2.1450 
  181.1250  -122.0370    50.7140   134.3240   139.9970   155.0660     2.1520 
  181.2500  -122.0670    50.5110   127.5360   132.9370   153.0030     2.1560 
  181.3750  -122.0230    50.0670   113.5790   118.4230   138.5120     2.1570 
  181.5000  -121.9110    51.5310    95.0910    99.1950   113.6180     2.1610 
  181.6250  -121.6940    55.1310    75.8250    79.1580    87.0590     2.1720 
  181.7500  -121.3860    57.9440    59.4840    62.1640    60.6420     2.1870 
  181.8750  -121.0560    58.6760    46.2040    48.3520    46.0990     2.1910 
  182.0000  -120.7670    60.0400    37.8740    39.6890    36.0740     2.1860 
  182.1250  -120.5210    63.4690    33.3800    35.0160    27.8610     2.1930 
  182.2500  -120.3430    68.0820    31.9050    33.4810    25.4820     2.2150 
  182.3750  -120.2160    70.9180    33.7700    35.4210    29.5950     2.2260 
  182.5000  -120.1520    68.2000    38.0900    39.9140    37.5670     2.2190 
  182.6250  -120.1390    62.7110    43.0150    45.0360    43.9800     2.2110 
  182.7500  -120.1330    59.5810    46.9080    49.0850    46.5310     2.2100 
  182.8750  -120.1290    60.0020    47.8220    50.0350    45.9640     2.2100 
  183.0000  -120.1200    59.8010    46.0570    48.1990    43.9120     2.2050 
  183.1250  -120.0920    57.1140    43.8860    45.9420    41.2770     2.2020 
  183.2500  -120.0670    53.9730    42.9300    44.9470    39.1630     2.2010 
  183.3750  -120.0300    53.8860    43.9720    46.0310    41.9620     2.1950 
  183.5000  -119.9070    56.2980    46.6160    48.7810    50.7790     2.1810 
  183.6250  -119.7020    58.5030    51.1870    53.5340    59.2460     2.1670 
  183.7500  -119.5130    58.8840    55.8050    58.3380    62.5770     2.1630 
  183.8750  -119.3470    58.3950    58.7380    61.3880    62.2360     2.1710 
  184.0000  -119.2070    58.0290    58.5610    61.2040    60.6400     2.1870 
  184.1250  -119.1530    57.6760    54.9170    57.4140    57.2010     2.2030 
  184.2500  -119.1470    57.7340    49.8360    52.1290    51.9580     2.2130 
  184.3750  -119.1380    57.4130    44.9160    47.0130    47.3080     2.2180 
  184.5000  -119.1680    58.1160    41.6180    43.5830    44.2050     2.2230 
  184.6250  -119.2060    60.1220    41.2060    43.1540    41.0540     2.2220 
  184.7500  -119.1260    61.7430    44.3890    46.4650    38.4670     2.2070 
  184.8750  -119.0390    59.4050    52.1680    54.5550    40.0920     2.1780 
  185.0000  -119.0690    54.3860    62.1490    64.9350    46.8900     2.1450 
  185.1250  -119.1050    49.5990    71.1730    74.3190    55.6480     2.1190 
  185.2500  -119.1240    48.3290    74.2560    77.5270    60.7980     2.1170 
  185.3750  -119.1120    50.9150    70.7600    73.8910    58.8480     2.1500 
  185.5000  -119.1010    54.5680    63.9350    66.7920    52.9730     2.1920 
  185.6250  -119.1030    57.8880    58.5280    61.1690    49.5250     2.2100 
  185.7500  -119.0600    59.8830    57.4200    60.0170    51.2730     2.1990 
  185.8750  -119.0060    59.6420    59.9350    62.6320    55.8810     2.1780 
  186.0000  -118.9560    57.9610    64.2560    67.1260    59.1730     2.1610 
  186.1250  -118.9050    56.4170    67.5980    70.6020    59.6870     2.1610 
  186.2500  -118.8470    57.4460    68.7360    71.7860    58.9340     2.1750 
  186.3750  -118.7300    59.0540    67.6350    70.6400    58.5190     2.1970 
  186.5000  -118.5610    60.4560    65.9300    68.8680    59.2800     2.2100 
  186.6250  -118.3500    60.5910    65.3410    68.2540    61.1830     2.2080 
  186.7500  -118.1490    60.3590    66.5320    69.4930    63.5200     2.2010 
  186.8750  -118.0400    59.2070    69.1870    72.2540    66.1390     2.1970 
  187.0000  -118.0650    56.6460    72.5270    75.7280    68.5620     2.1940 
  187.1250  -118.1900    54.0280    76.3050    79.6570    69.5730     2.1920 
  187.2500  -118.3260    53.1530    80.2710    83.7820    69.8860     2.1880 
  187.3750  -118.4020    54.2620    84.0850    87.7490    71.9120     2.1860 
  187.5000  -118.3910    55.6910    88.4930    92.3330    76.0860     2.1880 
  187.6250  -118.2890    56.4380    92.0740    96.0570    80.8660     2.1980 
  187.7500  -118.1550    55.8640    94.0350    98.0960    84.8990     2.2090 
  187.8750  -118.0360    54.8570    93.5690    97.6120    88.4320     2.2130 
  188.0000  -117.9650    55.4070    91.6410    95.6060    90.9450     2.2170 
  188.1250  -117.9310    58.1960    89.9100    93.8070    89.4400     2.2190 
  188.2500  -117.9280    60.5250    90.1040    94.0090    84.9520     2.2140 
  188.3750  -117.9060    61.3330    92.8330    96.8460    81.9780     2.1970 
  188.5000  -117.7480    61.1410    96.6530   100.8190    80.7130     2.1740 
  188.6250  -117.4790    58.4630    96.2410   100.3900    77.2060     2.1590 
  188.7500  -117.2750    54.5380    89.5330    93.4150    67.0640     2.1580 
  188.8750  -117.1820    52.1440    76.8520    80.2260    54.3010     2.1730 
  189.0000  -117.0630    51.7550    62.4980    65.2980    46.6690     2.1940 
  189.1250  -116.8420    53.6330    53.1820    55.6090    42.0800     2.2220 
  189.2500  -116.5280    56.7970    48.3660    50.6000    39.2890     2.2430 
  189.3750  -116.1480    59.3760    47.9270    50.1440    42.8380     2.2440 
  189.5000  -115.7380    59.7390    50.5620    52.8840    53.2100     2.2250 
  189.6250  -115.3370    60.0850    54.7530    57.2440    61.8950     2.2070 
  189.7500  -114.9700    62.2210    57.9250    60.5420    64.1610     2.2010 
  189.8750  -114.6410    64.4910    57.8480    60.4610    62.0470     2.1990 
  190.0000  -114.2830    64.7880    54.4280    56.9050    58.7530     2.1960 
  190.1250  -113.9470    63.2630    49.2080    51.4760    53.9060     2.1940 
  190.2500  -113.6250    61.2230    44.0870    46.1500    47.7310     2.2030 
  190.3750  -113.3140    59.7150    40.5360    42.4570    41.9800     2.2220 
  190.5000  -113.0810    59.0280    38.5590    40.4010    38.2160     2.2400 
  190.6250  -112.9730    61.0670    38.6310    40.4760    38.3730     2.2460 
  190.7500  -113.0690    64.4960    40.7360    42.6660    43.0910     2.2330 
  190.8750  -113.2660    65.2380    44.4720    46.5510    49.5640     2.2080 
  191.0000  -113.3840    62.4240    48.2530    50.4840    53.6540     2.1940 
  191.1250  -113.4150    60.2280    50.2750    52.5860    55.0300     2.1990 
  191.2500  -113.4310    60.3410    49.9750    52.2740    54.1920     2.2080 
  191.3750  -113.5010    60.6890    47.7400    49.9500    50.9460     2.2020 
  191.5000  -113.6240    60.3130    44.8200    46.9130    47.5460     2.1930 
