~V
VERS. 2.00: Ver 2.00
~W
STRT.M 62.0000:
STOP.M 277.0000:
STEP.M 0.1250:
NULL. -999.2500:
UWI. F11155:
~C
DEPT.M :
SP.MV :
DEN.GM/CC :
GR.API :
RML.OHMM :
RI. :
RXO.OHMM :
CALI.CM :
~A
# ...
  185.7500   -26.3050     2.2530    67.5880    96.7940    84.9020    68.9690    24.0040 
  185.8750   -26.2850     2.2530    64.0850    99.1280    86.0150    67.9950    24.0470 
  186.0000   -26.2190     2.2500    62.1080   103.5620    88.9300    65.8260    24.0300 
  186.1250   -26.1170     2.2490    61.9460   109.7680    93.4320    70.9400    23.9020 
  186.2500   -25.9930     2.2540    61.6100   117.1760    99.0660    74.7520    23.7980 
  186.3750   -25.8640     2.2600    62.1080   124.5760   104.8010    78.7520    23.8600 
  186.5000   -25.7290     2.2560    64.4900   130.9520   109.7890    79.2010    23.9900 
  186.6250   -25.5920     2.2420    67.1090   135.4860   113.3310    78.5030    24.0460 
  186.7500   -25.4710     2.2260    67.2510   137.5940   114.9260    81.6520    24.1080 
  186.8750   -25.3600     2.2190    65.2150   138.2280   115.3320    89.5580    24.1860 
  187.0000   -25.2760     2.2200    64.6220   138.2580   115.2850   100.3320    24.2950 
  187.1250   -25.2320     2.2230    65.7860   138.4230   115.4370   113.4640    24.4420 
  187.2500   -25.1890     2.2230    66.2580   139.2870   116.3650   124.2590    24.6290 
  187.3750   -25.1190     2.2190    65.1180   140.4980   117.9490   129.1330    24.7290 
  187.5000   -25.0210     2.2130    64.2680   140.6990   119.3500   131.0560    24.7740 
  187.6250   -24.8960     2.2080    64.0540   137.0820   118.4660   132.9640    24.8320 
  187.7500   -24.7570     2.2080    64.5560   124.7900   110.9700   132.6820    24.9130 
  187.8750   -24.6090     2.2190    65.8270   104.6070    96.1330   122.0410    24.9270 
  188.0000   -24.4430     2.2410    67.5420    80.6450    76.3770    92.0030    24.8590 
  188.1250   -24.2490     2.2690    68.7920    58.4110    56.5350    52.9040    24.8030 
  188.2500   -24.0840     2.2940    69.5630    42.1680    41.2860    31.1410    24.7940 
  188.3750   -23.9320     2.3120    71.7970    31.1780    30.8150    22.2760    24.6990 
  188.5000   -23.7980     2.3270    75.6770    24.2660    24.1670    19.6810    24.4220 
  188.6250   -23.7000     2.3410    79.6560    20.2060    20.1570    17.3050    24.1050 
  188.7500   -23.6450     2.3480    83.6730    18.2530    18.0950    15.0960    24.0010 
  188.8750   -23.6270     2.3480    89.0660    17.3800    17.0900    13.6300    24.1680 
  189.0000   -23.6540     2.3450    94.5110    17.1180    16.7500    13.3080    24.4840 
  189.1250   -23.7300     2.3400    97.2130    17.0730    16.7090    14.2460    24.7710 
  189.2500   -23.8100     2.3380    96.9280    16.8310    16.5570    15.4460    24.8920 
  189.3750   -23.9230     2.3450    96.7960    16.1980    16.0390    15.7240    24.8650 
  189.5000   -24.0860     2.3600    95.7020    15.1960    15.1190    14.7340    24.7900 
  189.6250   -24.2610     2.3770    93.6550    14.0660    13.9810    13.0740    24.7800 
  189.7500   -24.4110     2.3810    92.4180    13.3040    13.0420    12.5240    24.8650 
  189.8750   -24.5450     2.3730    93.7480    13.2870    12.6410    12.9980    24.9810 
  190.0000   -24.6610     2.3570    94.4280    14.3430    13.0420    13.1760    25.0690 
  190.1250   -24.7500     2.3360    90.2250    16.7990    14.5140    14.4660    25.1120 
  190.2500   -24.8430     2.3030    83.3570    21.2450    17.6570    19.4330    25.0880 
  190.3750   -24.9330     2.2630    79.0720    27.4600    22.5370    29.1310    24.9990 
  190.5000   -24.9950     2.2250    76.8330    34.9780    29.0680    39.1080    24.9350 
  190.6250   -25.0550     2.1980    73.9660    42.5470    36.4000    44.7710    24.9210 
  190.7500   -25.1490     2.1870    71.3740    47.3740    42.0270    50.3630    24.8460 
  190.8750   -25.2560     2.1910    71.9710    47.6180    43.6160    50.8230    24.7600 
  191.0000   -25.3630     2.2080    72.7080    43.1070    40.4620    48.3540    24.6670 
  191.1250   -25.4700     2.2290    72.7510    35.5930    33.9420    42.5100    24.5120 
  191.2500   -25.5580     2.2510    76.3000    27.8340    26.6890    29.8700    24.1790 
  191.3750   -25.6320     2.2750    83.6510    21.8040    20.8210    18.3540    23.7170 
  191.5000   -25.6960     2.3000    89.8720    18.0120    16.8970    12.2390    23.3530 
  191.6250   -25.7450     2.3160    91.4830    16.3010    14.8010    10.8370    23.2560 
  191.7500   -25.7660     2.3110    89.3250    16.5490    14.4480    12.1770    23.4960 
  191.8750   -25.7810     2.2940    86.5380    18.0750    15.3290    15.6900    23.8810 
  192.0000   -25.7960     2.2790    83.6220    20.4940    17.2360    20.7010    24.3620 
  192.1250   -25.8060     2.2720    79.2480    23.3010    19.8390    24.9990    24.7950 
  192.2500   -25.8060     2.2760    75.7520    25.8300    22.5980    26.5390    24.9610 
  192.3750   -25.7990     2.2830    76.3840    27.6630    24.9260    26.9930    25.0020 
  192.5000   -25.7840     2.2900    82.1670    28.6430    26.5200    28.5880    25.0010 
  192.6250   -25.7810     2.2970    87.9510    28.7550    27.2510    29.4810    24.9720 
  192.7500   -25.8100     2.3060    87.1500    27.8300    26.8710    27.0330    24.9360 
  192.8750   -25.8760     2.3120    83.7160    26.0160    25.4800    25.6660    24.9050 
  193.0000   -25.9780     2.3100    82.7190    23.5840    23.2760    25.6300    24.8970 
  193.1250   -26.1290     2.2990    83.9180    21.1560    20.8290    25.0490    24.9060 
  193.2500   -26.3400     2.2900    83.9620    19.6860    19.0200    21.6210    24.8750 
  193.3750   -26.5900     2.2920    84.5920    19.4360    18.2110    16.5640    24.7380 
  193.5000   -26.8860     2.3030    85.8120    20.2880    18.4290    14.7520    24.4610 
  193.6250   -27.1910     2.3130    85.9010    21.8130    19.4470    18.1700    24.1480 
  193.7500   -27.5130     2.3090    84.8380    23.2690    20.7640    30.2190    24.0360 
  193.8750   -27.8410     2.3010    85.7000    24.1050    21.7040    37.7420    24.1750 
  194.0000   -28.1600     2.2990    88.8060    24.4950    22.1080    29.5060    24.4020 
  194.1250   -28.4420     2.3100    91.0060    25.3510    22.4790    18.6340    24.5430 
  194.2500   -28.6830     2.3200    87.5990    28.4660    24.1140    18.0790    24.5450 
  194.3750   -28.8970     2.3180    79.4730    35.0000    28.2050    23.8530    24.5860 
  194.5000   -29.0790     2.3040    74.1480    46.3500    36.3030    35.4160    24.7150 
  194.6250   -29.2360     2.2850    77.2470    64.1060    50.2350    56.8420    24.9050 
  194.7500   -29.3170     2.2670    80.7650    91.3370    72.9510    84.2200    25.0410 
  194.8750   -29.3430     2.2500    76.3420   127.3430   103.2020   114.8490    25.0970 
  195.0000   -29.3360     2.2290    67.3460   170.4820   138.7040   154.5710    25.1100 
  195.1250   -29.3150     2.1990    60.5970   216.3530   175.4510   215.9320    25.1110 
  195.2500   -29.2820     2.1720    58.4730   255.8900   206.9710   273.2150    25.1140 
  195.3750   -29.2360     2.1600    58.8370   281.6200   228.8270   284.8750    25.1210 
  195.5000   -29.1760     2.1630    60.7890   288.8670   238.1620   272.9060    25.1290 
  195.6250   -29.1010     2.1740    61.7690   276.2380   233.7540   281.7350    25.1390 
  195.7500   -29.0420     2.1830    60.4670   245.3190   215.2420   277.7670    25.1560 
  195.8750   -28.9890     2.1880    58.7070   206.8730   188.9130   257.1390    25.1690 
  196.0000   -28.9350     2.1920    57.7520   168.1560   159.3990   223.5260    25.1710 
  196.1250   -28.8570     2.1990    58.0380   134.5060   131.1010   182.1970    25.1740 
  196.2500   -28.7380     2.2090    59.9310   109.7620   108.2490   132.4370    25.1790 
  196.3750   -28.5800     2.2200    63.8560    92.0820    91.1110    90.4520    25.1900 
  196.5000   -28.3750     2.2290    67.9520    79.2780    78.6010    63.7060    25.2080 
  196.6250   -28.1310     2.2360    70.1080    68.5850    68.4790    49.8450    25.2040 
  196.7500   -27.8090     2.2450    70.8650    57.3970    58.0200    49.4550    25.2100 
  196.8750   -27.4410     2.2570    71.2120    45.2220    46.2650    50.3960    25.1880 
