~V
VERS. 2.00: Ver 2.00
~W
STRT.M 50.0000:
STOP.M 265.0000:
STEP.M 0.1250:
NULL. -999.2500:
UWI. F11185:
~C
DEPT.M :
SP.MV :
GR.API :
RI. :
RML.OHMM :
RXO.OHMM :
DEN.GM/CC :
~A
# ...
  165.8750  -111.2240    69.0310     6.8450     7.4190     8.1740     2.3840 
  166.0000  -111.3730    72.9510     6.1270     6.6720     7.1590     2.3860 
  166.1250  -111.6070    75.4060     5.5540     6.0760     6.0230     2.3810 
  166.2500  -111.9240    76.2350     5.3050     5.8170     5.4660     2.3660 
  166.3750  -112.2920    77.2840     5.4230     5.9400     5.7800     2.3440 
  166.5000  -112.7040    78.3850     5.7430     6.2730     6.5290     2.3240 
  166.6250  -113.1610    80.4520     6.1920     6.7400     7.2090     2.3130 
  166.7500  -113.6370    82.0080     6.6240     7.1890     7.4360     2.3140 
  166.8750  -114.1060    82.3880     7.1360     7.7210     7.3900     2.3180 
  167.0000  -114.5040    80.9310     7.9370     8.5540     7.9430     2.3160 
  167.1250  -114.7720    79.8240     9.2520     9.9220    10.4400     2.3060 
  167.2500  -114.9580    77.9690    10.7580    11.4890    13.9260     2.2930 
  167.3750  -115.1380    73.0780    12.0330    12.8140    17.1750     2.2950 
  167.5000  -115.3310    67.9510    12.9330    13.7510    18.1450     2.3220 
  167.6250  -115.4990    68.1680    13.4250    14.2620    16.6540     2.3570 
  167.7500  -115.6330    71.1370    13.7790    14.6300    15.3770     2.3710 
  167.8750  -115.8190    71.8070    14.3870    15.2620    16.5520     2.3530 
  168.0000  -116.0950    69.6420    15.7520    16.6820    18.4540     2.3220 
  168.1250  -116.4140    66.7880    18.2050    19.2330    18.0640     2.3030 
  168.2500  -116.7070    66.7600    20.7660    21.8970    17.0060     2.2980 
  168.3750  -116.8950    68.9500    23.2220    24.4510    18.6420     2.2960 
  168.5000  -117.0370    69.1970    24.9890    26.2890    21.9620     2.2860 
  168.6250  -117.1820    66.7890    25.9580    27.2970    23.9160     2.2720 
  168.7500  -117.3670    65.7590    26.4330    27.7900    23.4550     2.2660 
  168.8750  -117.5630    67.1260    26.0480    27.3900    21.4280     2.2740 
  169.0000  -117.7500    67.5320    25.0170    26.3180    19.9200     2.2880 
  169.1250  -117.9740    69.6980    24.6100    25.8950    20.4530     2.2970 
  169.2500  -118.2600    73.4500    25.6430    26.9690    23.5200     2.2970 
  169.3750  -118.6300    74.1600    27.9090    29.3250    29.5170     2.2870 
  169.5000  -118.9860    71.4180    31.3540    32.9080    35.6870     2.2690 
  169.6250  -119.2810    68.2280    35.2920    37.0040    42.3890     2.2450 
  169.7500  -119.5440    66.4970    39.3520    41.2260    46.3930     2.2250 
  169.8750  -119.8730    64.1770    43.1840    45.2110    47.9580     2.2130 
  170.0000  -120.2440    61.9770    46.1040    48.2480    49.3560     2.2060 
  170.1250  -120.5740    61.2460    47.7390    49.9480    50.3270     2.2000 
  170.2500  -120.7990    60.5590    48.7140    50.9620    50.9640     2.1970 
  170.3750  -120.9440    59.6050    49.8680    52.1630    51.8520     2.1970 
  170.5000  -121.1090    60.7540    50.7430    53.0720    52.7960     2.1960 
  170.6250  -121.3450    63.8850    51.1190    53.4640    52.7350     2.1910 
  170.7500  -121.5910    64.3700    50.9870    53.3260    51.5310     2.1870 
  170.8750  -121.7230    62.0940    50.4390    52.7570    50.4390     2.1910 
  171.0000  -121.7790    63.4160    49.9580    52.2560    50.7710     2.1980 
  171.1250  -121.8220    68.6960    49.4550    51.7330    52.6360     2.1990 
  171.2500  -121.8770    70.9090    49.1080    51.3720    54.3560     2.1940 
  171.3750  -121.9600    68.3580    48.9740    51.2330    55.0090     2.1930 
  171.5000  -122.0500    66.5980    49.2010    51.4700    55.4740     2.1910 
  171.6250  -122.1220    65.7150    49.4480    51.7260    56.0990     2.1870 
  171.7500  -122.2170    64.0870    49.0320    51.2930    56.0240     2.1850 
  171.8750  -122.3990    64.5920    47.7770    49.9880    53.4740     2.1920 
  172.0000  -122.5770    68.1000    45.8860    48.0210    49.7130     2.2010 
  172.1250  -122.6170    70.9740    44.0020    46.0630    46.2690     2.2110 
  172.2500  -122.5570    71.2350    43.2870    45.3180    43.6200     2.2160 
  172.3750  -122.4880    71.1220    44.5880    46.6710    42.4020     2.2080 
  172.5000  -122.4880    70.9580    48.8430    51.0970    44.4750     2.1920 
  172.6250  -122.5500    67.7600    56.6500    59.2160    51.9330     2.1810 
  172.7500  -122.6510    61.7230    65.9440    68.8820    61.5760     2.1790 
  172.8750  -122.7950    55.5710    73.2280    76.4580    69.1520     2.1780 
  173.0000  -123.0150    52.6840    75.6040    78.9280    73.0020     2.1750 
  173.1250  -123.3040    53.9030    72.7680    75.9780    72.2040     2.1770 
  173.2500  -123.6060    56.5620    67.7300    70.7390    69.5890     2.1830 
  173.3750  -123.7600    58.5420    63.2100    66.0380    65.9200     2.1880 
  173.5000  -123.7560    61.7390    60.7300    63.4590    60.6460     2.1890 
  173.6250  -123.7560    64.7960    60.5880    63.3120    57.3360     2.1860 
  173.7500  -123.8680    65.1860    62.8020    65.6140    59.1790     2.1820 
  173.8750  -124.1320    62.5000    67.5750    70.5780    66.8790     2.1780 
  174.0000  -124.4570    60.1480    73.7720    77.0230    74.0010     2.1780 
  174.1250  -124.8510    58.2810    80.6450    84.1710    78.0320     2.1770 
  174.2500  -125.2620    55.7430    86.2400    89.9890    80.8870     2.1770 
  174.3750  -125.5810    54.3130    90.2280    94.1370    82.4550     2.1750 
  174.5000  -125.7990    56.1160    92.4870    96.4860    82.7670     2.1720 
  174.6250  -125.9380    58.6150    93.0610    97.0830    82.2960     2.1710 
  174.7500  -125.9950    59.8100    92.7000    96.7080    82.2380     2.1700 
  174.8750  -125.9950    58.8460    91.4960    95.4560    82.9600     2.1650 
  175.0000  -125.9760    56.6400    89.3320    93.2060    83.0900     2.1620 
  175.1250  -125.9120    55.4100    86.6850    90.4530    81.9690     2.1660 
  175.2500  -125.7150    55.3160    84.0040    87.6640    80.5730     2.1720 
  175.3750  -125.2300    56.7560    82.1820    85.7690    79.4690     2.1740 
  175.5000  -124.4530    57.5990    81.7650    85.3350    78.6340     2.1720 
  175.6250  -123.7690    58.6900    82.7330    86.3420    79.0280     2.1650 
  175.7500  -123.4030    61.8650    84.5690    88.2520    81.2390     2.1560 
  175.8750  -123.1030    65.3310    85.7040    89.4330    83.2730     2.1550 
  176.0000  -122.7620    66.1470    84.7290    88.4180    82.6910     2.1620 
  176.1250  -122.4820    61.9160    81.9940    85.5740    79.7550     2.1700 
  176.2500  -122.3780    57.3020    78.5400    81.9820    76.4700     2.1740 
  176.3750  -122.5050    56.4990    76.1960    79.5430    73.8270     2.1750 
  176.5000  -122.7620    56.7650    75.0430    78.3450    72.9240     2.1750 
  176.6250  -123.0720    55.6120    74.0610    77.3230    74.5140     2.1690 
  176.7500  -123.3880    54.4760    72.8700    76.0840    75.2070     2.1640 
  176.8750  -123.6910    56.7050    71.9900    75.1700    71.4590     2.1710 
  177.0000  -124.0160    59.5820    72.0360    75.2180    67.1790     2.1860 
  177.1250  -124.2550    59.4080    72.9990    76.2190    69.3670     2.1880 
  177.2500  -124.3810    58.4640    74.7240    78.0130    77.9270     2.1700 
  177.3750  -124.4200    59.0020    76.0810    79.4240    86.6970     2.1510 
  177.5000  -124.4020    59.2160    76.0720    79.4150    89.2560     2.1520 
  177.6250  -124.3730    58.1580    73.8330    77.0860    83.6810     2.1740 
  177.7500  -124.2980    58.0770    69.8320    72.9250    75.6450     2.1960 
  177.8750  -124.1980    60.5700    66.3240    69.2770    73.5230     2.2070 
  178.0000  -124.1230    63.1550    65.3160    68.2290    79.9600     2.2090 
  178.1250  -124.1180    63.2620    67.2560    70.2460    88.6090     2.2060 
  178.2500  -124.1820    61.3120    71.9870    75.1670    92.0770     2.1980 
  178.3750  -124.1950    60.1180    78.1950    81.6230    91.7240     2.1910 
  178.5000  -124.1120    60.4940    84.0930    87.7570    90.8100     2.1900 
  178.6250  -123.9820    60.2810    87.8710    91.6860    89.0950     2.1920 
