~V
VERS. 2.00: Ver 2.00
~W
STRT.M 50.0000:
STOP.M 265.0000:
STEP.M 0.1250:
NULL. -999.2500:
UWI. F11185:
~C
DEPT.M :
SP.MV :
GR.API :
RI. :
RML.OHMM :
RXO.OHMM :
DEN.GM/CC :
~A
# ...
  204.5000  -104.9130    51.3130    34.7500    36.4400    37.8560     2.4160 
  204.6250  -104.2740    51.0440    34.5430    36.2250    63.5750     2.5260 
  204.7500  -103.5440    50.5600    32.0880    33.6720    81.2290     2.6050 
  204.8750  -102.7700    49.9460    26.7050    28.0730    67.1020     2.6410 
  205.0000  -102.0260    50.4730    20.2620    21.3720    38.9270     2.6570 
  205.1250  -101.2800    52.2380    14.5180    15.3990    22.6160     2.6680 
  205.2500  -100.5230    53.5600     9.5120    10.1920    16.6560     2.6690 
  205.3750   -99.8470    54.3810     6.1620     6.7080    12.1550     2.6470 
  205.5000   -99.2680    54.3000     3.9960     4.4550     7.4670     2.6050 
  205.6250   -98.7870    53.2070     2.6890     3.0970     4.1280     2.5600 
  205.7500   -98.3140    50.9580     2.0350     2.4170     2.6190     2.5290 
  205.8750   -97.8560    48.3920     1.8250     2.1980     2.3580     2.5150 
  206.0000   -97.4700    46.0280     1.8790     2.2540     2.4150     2.4960 
  206.1250   -97.2470    44.9940     2.0500     2.4320     2.5120     2.4690 
  206.2500   -97.1400    45.5750     2.2440     2.6330     2.5960     2.4620 
  206.3750   -97.0490    46.1180     2.3850     2.7800     2.6450     2.4550 
  206.5000   -96.9840    45.7230     2.4480     2.8460     2.6760     2.4200 
  206.6250   -96.9790    45.9540     2.4220     2.8180     2.7040     2.3730 
  206.7500   -97.0230    46.8230     2.3190     2.7120     2.7200     2.3460 
  206.8750   -97.0880    47.9590     2.1820     2.5690     2.6360     2.3350 
  207.0000   -97.0930    49.2930     2.0550     2.4380     2.4130     2.3290 
  207.1250   -96.9560    51.6720     1.9670     2.3460     2.1950     2.3360 
  207.2500   -96.7690    52.9840     1.9290     2.3060     2.1390     2.3450 
  207.3750   -96.6010    52.5050     1.9350     2.3130     2.2220     2.3410 
  207.5000   -96.4620    52.3520     1.9670     2.3450     2.3560     2.3310 
  207.6250   -96.3230    53.5270     1.9990     2.3790     2.5210     2.3200 
  207.7500   -96.1910    53.5810     2.0100     2.3900     2.6190     2.3090 
  207.8750   -96.0850    49.4370     1.9850     2.3640     2.5650     2.3040 
  208.0000   -96.0520    43.3400     1.9420     2.3200     2.4800     2.3040 
  208.1250   -96.1190    39.6130     1.9090     2.2850     2.4510     2.3120 
  208.2500   -96.2570    38.5250     1.9030     2.2790     2.4330     2.3290 
  208.3750   -96.4240    38.1880     1.9470     2.3250     2.4390     2.3430 
  208.5000   -96.6470    39.3590     2.0900     2.4730     2.5810     2.3470 
  208.6250   -97.0270    44.2260     2.3430     2.7370     2.9900     2.3500 
  208.7500   -97.5980    50.8510     2.6760     3.0830     3.6030     2.3510 
  208.8750   -98.3400    55.9020     3.0440     3.4660     4.1690     2.3350 
  209.0000   -99.1750    58.6970     3.3440     3.7770     4.5250     2.3100 
  209.1250   -99.9580    58.7290     3.5280     3.9690     4.7350     2.3010 
  209.2500  -100.5950    57.9780     3.5700     4.0130     4.8330     2.3190 
  209.3750  -101.0770    60.2330     3.4570     3.8950     4.7760     2.3600 
  209.5000  -101.3330    67.0950     3.2940     3.7260     4.7310     2.4140 
  209.6250  -101.3550    76.5310     3.1290     3.5540     4.8820     2.4450 
  209.7500  -101.3250    85.3430     3.0120     3.4330     5.0840     2.4220 
  209.8750  -101.4080    93.0020     2.9730     3.3920     4.9330     2.3630 
  210.0000  -101.6270    99.7660     2.9660     3.3840     4.5440     2.3130 
  210.1250  -102.0030   102.0000     2.9800     3.3990     4.4010     2.2840 
  210.2500  -102.5200    98.6440     2.9840     3.4030     4.4440     2.2610 
  210.3750  -103.0760    92.3220     2.9510     3.3690     4.4070     2.2530 
  210.5000  -103.5570    87.7330     2.8960     3.3120     4.3040     2.2600 
  210.6250  -103.9060    85.2080     2.8450     3.2590     4.2430     2.2690 
  210.7500  -104.1540    85.3290     2.8390     3.2530     4.2300     2.2820 
  210.8750  -104.3060    89.7290     2.8830     3.2980     4.2260     2.2980 
  211.0000  -104.3980    94.3430     2.9790     3.3980     4.2790     2.3000 
  211.1250  -104.4590    94.3950     3.0970     3.5210     4.4660     2.2950 
  211.2500  -104.5460    89.3960     3.2110     3.6400     4.7300     2.3050 
  211.3750  -104.6940    84.2560     3.2880     3.7190     4.9130     2.3270 
  211.5000  -104.8600    80.9360     3.3020     3.7340     4.9350     2.3350 
  211.6250  -104.9320    79.7070     3.2440     3.6740     4.8210     2.3270 
  211.7500  -104.8440    80.0050     3.0940     3.5180     4.6580     2.3180 
  211.8750  -104.6660    81.8090     2.9030     3.3190     4.4570     2.3150 
  212.0000  -104.4260    85.1630     2.7170     3.1260     4.1470     2.3090 
  212.1250  -104.1310    87.4700     2.5900     2.9940     3.7050     2.2950 
  212.2500  -103.8040    87.2400     2.5530     2.9560     3.3800     2.2820 
  212.3750  -103.4710    85.9550     2.6470     3.0530     3.5000     2.2770 
  212.5000  -103.1780    84.7850     2.8950     3.3110     3.9280     2.2780 
  212.6250  -103.0750    83.3020     3.2990     3.7310     4.4690     2.2760 
  212.7500  -103.2510    81.7230     3.7900     4.2410     5.2500     2.2760 
  212.8750  -103.5860    80.8100     4.2800     4.7510     6.2300     2.2790 
  213.0000  -103.9140    80.0260     4.7370     5.2270     7.1080     2.2770 
  213.1250  -104.1060    78.2580     5.1960     5.7040     7.9280     2.2710 
  213.2500  -104.0980    76.1000     5.6370     6.1630     8.8940     2.2670 
  213.3750  -103.9830    74.6690     6.1340     6.6800     9.9820     2.2630 
  213.5000  -103.8540    72.6500     6.7990     7.3710    10.8730     2.2610 
  213.6250  -103.6830    71.4290     7.3390     7.9320    11.5450     2.2760 
  213.7500  -103.4900    70.3380     7.2210     7.8090    12.6720     2.3220 
  213.8750  -103.3110    70.6360     6.2070     6.7550    14.0400     2.3770 
  214.0000  -103.1910    71.1880     4.5920     5.0750    13.3440     2.4000 
  214.1250  -103.0950    71.7100     2.9670     3.3860     9.2150     2.3790 
  214.2500  -103.0150    70.1470     1.9140     2.2910     4.6760     2.3540 
  214.3750  -102.9630    68.6930     1.3620     1.7160     2.5250     2.3510 
  214.5000  -102.9060    67.7510     1.1090     1.4540     2.0180     2.3570 
  214.6250  -102.7980    65.0950     1.0500     1.3920     1.9500     2.3590 
  214.7500  -102.6440    62.5710     1.0610     1.4030     1.9450     2.3590 
  214.8750  -102.4940    63.4960     1.0850     1.4280     1.9440     2.3610 
  215.0000  -102.3730    69.5520     1.1090     1.4530     1.8910     2.3630 
  215.1250  -102.2680    78.3630     1.1380     1.4840     1.8200     2.3640 
  215.2500  -102.1820    85.5570     1.1720     1.5190     1.8350     2.3610 
  215.3750  -102.1180    87.6780     1.2100     1.5580     1.9720     2.3520 
  215.5000  -102.1300    84.0490     1.2380     1.5880     2.0950     2.3430 
  215.6250  -102.1890    81.7100     1.2490     1.5990     2.0840     2.3450 
  215.7500  -102.2010    83.5220     1.2300     1.5790     1.9800     2.3600 
  215.8750  -102.1900    87.3260     1.2130     1.5610     1.8660     2.3700 
  216.0000  -102.2010    89.1930     1.2120     1.5600     1.7910     2.3600 
  216.1250  -102.2420    88.0400     1.2550     1.6050     1.8750     2.3350 
  216.2500  -102.3280    84.7090     1.3380     1.6910     2.1900     2.3120 
  216.3750  -102.5120    81.8830     1.4320     1.7890     2.5140     2.3000 
  216.5000  -102.8720    81.4040     1.5210     1.8820     2.6140     2.3010 
  216.6250  -103.3640    80.6660     1.6140     1.9790     2.5530     2.3140 
  216.7500  -103.8690    76.2590     1.7020     2.0700     2.5260     2.3220 
  216.8750  -104.3260    70.8340     1.7680     2.1390     2.7950     2.3180 
  217.0000  -104.7510    68.5150     1.8100     2.1820     3.2040     2.3160 
  217.1250  -105.2340    71.0670     1.8200     2.1930     3.2100     2.3300 
  217.2500  -105.8070    74.7210     1.8120     2.1840     2.8480     2.3500 
