~V
VERS. 2.00: Ver 2.00
~W
STRT.M 50.0000:
STOP.M 240.0000:
STEP.M 0.1250:
NULL. -999.2500:
UWI. F11117:
~C
DEPT.M :
DEN.GM/CC :
GR.API :
RML.OHMM :
RI. :
RXO.OHMM :
CALI.CM :
SP.MV :
~A
# ...
  173.7500     2.2840    76.9680    28.7480    25.7100    27.5240    24.1030   -14.2980 
  173.8750     2.3050    79.1790    24.9080    22.7380    20.0510    24.0200   -14.2810 
  174.0000     2.3210    79.2890    21.1330    19.5640    15.4220    24.0960   -14.3060 
  174.1250     2.3250    78.4410    18.7550    17.3440    13.6840    24.1890   -14.3390 
  174.2500     2.3140    77.4540    17.8120    16.2270    13.3620    24.2360   -14.3140 
  174.3750     2.2930    74.5690    17.9990    16.0630    13.9830    23.8960   -14.2570 
  174.5000     2.2700    70.7820    18.7540    16.5110    15.6270    24.1910   -14.2240 
  174.6250     2.2570    71.2440    19.1970    16.9560    19.5370    24.3000   -14.2020 
  174.7500     2.2600    74.6450    18.6880    16.7670    21.5430    24.1380   -14.2280 
  174.8750     2.2760    75.8800    17.1840    15.7670    19.0090    24.0180   -14.3380 
  175.0000     2.3000    75.5670    15.1720    14.2510    14.2870    24.2460   -14.4770 
  175.1250     2.3230    76.9660    13.3610    12.7560    10.8360    24.3390   -14.6470 
  175.2500     2.3370    78.8030    12.0710    11.6050     9.4260    24.1400   -14.9000 
  175.3750     2.3360    80.3320    11.2990    10.8500     9.0370    23.7220   -15.1940 
  175.5000     2.3150    81.5960    10.8860    10.4150     9.3680    23.6520   -15.4750 
  175.6250     2.2810    82.8830    10.6380    10.1780     9.2850    24.1240   -15.7450 
  175.7500     2.2520    83.6370    10.3920     9.9800     8.9450    24.6320   -16.0110 
  175.8750     2.2400    84.5710    10.1200     9.7740     8.4770    24.8120   -16.2950 
  176.0000     2.2480    86.3010     9.8460     9.5650     8.2420    24.3340   -16.6320 
  176.1250     2.2720    86.0590     9.6360     9.4040     8.0820    23.5100   -16.9910 
  176.2500     2.2940    84.1840     9.5460     9.3420     8.0380    23.3540   -17.2770 
  176.3750     2.3090    81.5740     9.6230     9.4230     8.0930    23.4160   -17.4900 
  176.5000     2.3150    79.7930     9.8760     9.6610     8.2590    23.6410   -17.6480 
  176.6250     2.3200    80.8600    10.2830    10.0440     8.4770    23.7200   -17.7730 
  176.7500     2.3270    82.6260    10.7190    10.4710     9.2230    23.7100   -17.8600 
  176.8750     2.3360    82.3530    11.0860    10.8520    10.3750    23.6220   -17.8570 
  177.0000     2.3440    79.2420    11.3270    11.1200    10.9480    23.4670   -17.7980 
  177.1250     2.3500    76.9750    11.4510    11.2470    10.5940    23.3970   -17.7220 
  177.2500     2.3530    78.4850    11.5570    11.3090    10.0510    23.3570   -17.6740 
  177.3750     2.3550    80.1330    11.7190    11.3730     9.8500    23.2980   -17.6490 
  177.5000     2.3580    81.3250    11.9590    11.4840    10.2820    23.1380   -17.6540 
  177.6250     2.3640    83.9820    12.2410    11.6290    11.1040    22.9850   -17.6280 
  177.7500     2.3720    86.8540    12.4760    11.7330    11.4210    22.8970   -17.6070 
  177.8750     2.3810    87.4000    12.6140    11.7410    11.2910    22.8960   -17.7190 
  178.0000     2.3880    84.7930    12.6550    11.6460    11.2230    22.9550   -17.9440 
  178.1250     2.3920    81.7430    12.6800    11.5030    11.3520    22.9520   -18.2280 
  178.2500     2.3910    81.2760    12.9130    11.4720    11.3500    22.9050   -18.5410 
  178.3750     2.3860    82.9620    13.6870    11.7710    11.5050    22.9480   -18.9000 
  178.5000     2.3760    83.1910    15.4820    12.7020    12.2690    23.0020   -19.2960 
  178.6250     2.3530    78.9490    19.3880    15.0060    13.5540    22.8810   -19.7060 
  178.7500     2.3110    73.7130    26.1720    19.4540    16.2940    22.8200   -20.0340 
  178.8750     2.2530    70.3770    36.9930    27.3880    24.6210    22.8360   -20.1550 
  179.0000     2.1860    68.5940    53.0070    40.2960    54.8900    22.8640   -20.0500 
  179.1250     2.1290    66.2550    75.4780    59.6290   107.9390    24.2410   -19.8270 
  179.2500     2.0980    62.4950   100.7530    81.8030   144.4230    26.1630   -19.6280 
  179.3750     2.0950    58.2570   122.8110   101.4540   148.8870    26.6750   -19.4970 
  179.5000     2.1160    56.2360   136.2180   114.0480   152.7610    26.4160   -19.4610 
  179.6250     2.1460    56.6950   140.8600   119.0430   150.0160    26.2400   -19.5140 
  179.7500     2.1710    56.2990   143.5910   121.7330   137.7790    25.9610   -19.6340 
  179.8750     2.1840    55.6030   147.3830   124.8310   132.1960    25.7630   -19.8130 
  180.0000     2.1860    57.9160   152.6030   129.0820   139.2580    25.5070   -19.9890 
  180.1250     2.1780    61.3700   158.7420   134.3890   141.4910    25.4620   -20.0620 
  180.2500     2.1670    61.1010   165.0260   140.1620   140.4040    25.5800   -20.0430 
  180.3750     2.1570    57.5430   171.1200   146.1180   144.8130    26.0190   -19.8910 
  180.5000     2.1500    56.1120   176.8600   152.1090   148.2320    25.9160   -19.5780 
  180.6250     2.1460    58.6240   181.8240   157.8480   144.1560    25.1940   -19.1910 
  180.7500     2.1440    59.2060   185.4760   162.7990   141.8530    24.7040   -18.8190 
  180.8750     2.1440    57.3350   187.1180   166.2640   152.0080    24.2360   -18.5300 
  181.0000     2.1460    56.1450   186.3790   167.6940   180.3860    23.6330   -18.3290 
  181.1250     2.1530    55.4450   183.5440   166.8850   209.3540    23.6270   -18.1840 
  181.2500     2.1640    53.8890   180.5020   165.2280   196.9150    24.3350   -18.0720 
  181.3750     2.1790    52.9040   179.0470   164.2790   188.7860    24.4050   -18.0420 
  181.5000     2.2000    54.7910   180.8550   165.7530   197.9110    24.1610   -18.0520 
  181.6250     2.2240    57.7730   188.1980   172.0390   216.1300    23.5610   -18.0530 
  181.7500     2.2410    59.8470   200.9950   183.3840   221.4160    22.9010   -18.0530 
  181.8750     2.2410    62.0510   218.6760   199.4610   237.7670    22.7040   -17.9950 
  182.0000     2.2190    62.4810   239.0950   218.5440   320.5110    22.6230   -17.9940 
  182.1250     2.1770    57.8780   257.8610   237.0150   485.7750    22.9190   -18.2110 
  182.2500     2.1300    52.5130   271.9460   251.7400   521.6720    23.5690   -18.4750 
  182.3750     2.0960    50.7770   281.7910   262.4120   405.3040    24.2340   -18.7150 
  182.5000     2.0970    53.4360   289.3470   270.9690   303.8080    24.4530   -18.9800 
  182.6250     2.1570    54.9330   288.6420   275.9440   213.9200    24.3320   -19.2350 
  182.7500     2.2710    53.4510   274.2310   265.1650   185.9670    23.9940   -19.5060 
  182.8750     2.4140    50.8120   233.9990   222.8560   271.1500    23.5910   -19.7770 
  183.0000     2.5480    48.7330   161.7570   154.0540   546.3510    23.4190   -19.9110 
  183.1250     2.6160    49.1100    95.6330    91.0790   334.7730    23.4200   -19.8580 
  183.2500     2.6190    53.6840    52.8620    50.3450   107.4410    23.4810   -19.7500 
  183.3750     2.5790    61.3390    29.7300    28.3150    36.6610    23.6490   -19.5830 
  183.5000     2.5220    68.7420    18.5220    17.6400    16.7890    23.7000   -19.3890 
  183.6250     2.4670    74.3970    13.8050    13.1470    14.5970    23.6580   -19.2510 
  183.7500     2.4190    79.6920    11.3640    10.8230    13.6800    23.9460   -19.0550 
  183.8750     2.3760    83.0240    10.0510     9.5720    11.6610    24.2210   -18.7720 
  184.0000     2.3340    83.3110     9.3680     8.9220     9.7190    24.5690   -18.4460 
  184.1250     2.2900    82.3280     9.0860     8.6540     8.4390    24.8770   -17.9290 
  184.2500     2.2520    80.4920     9.0140     8.5840     7.9680    25.2210   -17.2020 
  184.3750     2.2300    76.0980     9.1090     8.6750     7.7030    25.4270   -16.3610 
  184.5000     2.2340    70.7950     9.3330     8.8880     7.6090    25.4170   -15.4280 
  184.6250     2.2700    65.1740     9.6040     9.1470     7.6660    24.5510   -14.3940 
  184.7500     2.3190    59.7720     9.8120     9.3440     8.0120    23.8060   -13.3970 
  184.8750     2.3610    55.4750     9.8960     9.4250     8.3070    23.6070   -12.5190 
