~V
VERS. 2.00: Ver 2.00
~W
STRT.M 56.0000:
STOP.M 252.0000:
STEP.M 0.1250:
NULL. -999.2500:
UWI. F11142:
~C
DEPT.M :
SP.MV :
DEN.GM/CC :
GR.API :
RML.OHMM :
RI. :
RXO.OHMM :
CALI.CM :
~A
# ...
  179.7500   -21.4390     2.2200    72.5530    93.7690    81.3510    71.8040    24.0360 
  179.8750   -21.4600     2.2240    73.9860    97.9820    84.7690    77.9020    24.0350 
  180.0000   -21.4950     2.2320    74.3700   101.4130    88.6780    87.0840    24.0350 
  180.1250   -21.5480     2.2380    74.2120   102.9890    91.3220    95.7910    24.0350 
  180.2500   -21.6060     2.2420    74.2790   101.7000    91.5450   100.0510    24.0370 
  180.3750   -21.6860     2.2490    73.8540    97.5700    89.0430    95.9710    24.0470 
  180.5000   -21.7880     2.2580    72.4550    91.6970    84.4300    84.3200    24.0620 
  180.6250   -21.8930     2.2630    71.8290    86.2020    79.6290    73.9820    24.0630 
  180.7500   -21.9890     2.2630    72.9120    82.3400    75.9250    68.9930    24.0590 
  180.8750   -22.0580     2.2560    74.6290    80.6850    74.0780    68.3420    24.1000 
  181.0000   -22.0920     2.2360    75.3640    81.5470    74.6340    70.2520    24.3170 
  181.1250   -22.0700     2.2060    74.4920    84.1280    77.0040    72.3060    24.6530 
  181.2500   -22.0350     2.1760    71.1840    87.9080    80.7530    75.4200    24.9350 
  181.3750   -21.9790     2.1590    67.7650    92.3410    85.3490    80.0270    25.0500 
  181.5000   -21.8570     2.1580    67.6500    96.7970    90.1820    87.3280    25.0540 
  181.6250   -21.7320     2.1660    70.0890   100.6210    94.5690    92.7910    25.0500 
  181.7500   -21.5930     2.1760    71.9070   103.2160    97.9240    94.5800    25.0490 
  181.8750   -21.4540     2.1860    71.8900   104.5010    99.6490    95.1820    25.0420 
  182.0000   -21.3360     2.1960    71.3200   103.2110    98.7200    98.4790    25.0260 
  182.1250   -21.2800     2.2070    69.9880    99.8480    95.1700   103.8130    25.0070 
  182.2500   -21.2050     2.2200    67.9920    95.3280    89.4140   107.5190    24.9720 
  182.3750   -21.0450     2.2400    66.4160    88.7930    82.7390   105.0730    24.8520 
  182.5000   -20.9260     2.2660    66.2300    83.9460    77.4260    95.4790    24.5790 
  182.6250   -20.8340     2.2860    66.8500    82.8130    75.1460    84.7200    24.3370 
  182.7500   -20.7930     2.2890    67.5150    86.0590    76.8330    78.7240    24.2300 
  182.8750   -20.8370     2.2700    67.8500    93.4590    82.6130    84.4920    24.2570 
  183.0000   -20.9610     2.2340    66.4710   104.2840    92.1720    96.3480    24.4140 
  183.1250   -21.0910     2.1970    63.8210   116.1580   103.3180   105.2300    24.6300 
  183.2500   -21.2710     2.1720    62.2820   127.1580   114.2060   113.0230    24.7880 
  183.3750   -21.5760     2.1620    63.3280   135.5170   123.0220   122.2050    24.8440 
  183.5000   -21.9390     2.1650    67.2120   139.4140   127.8190   130.5260    24.8460 
  183.6250   -22.2960     2.1700    70.9850   139.5350   128.9240   133.0460    24.8530 
  183.7500   -22.6300     2.1720    71.8340   136.8500   127.0400   128.6010    24.8710 
  183.8750   -22.8820     2.1730    69.6390   132.7350   123.3430   121.4500    24.8690 
  184.0000   -23.0330     2.1760    67.9140   128.7960   119.3140   114.8970    24.8610 
  184.1250   -23.1260     2.1840    67.1820   126.0850   116.2270   111.7730    24.8220 
  184.2500   -23.1730     2.1940    65.6600   124.8810   114.5700   111.5570    24.7930 
  184.3750   -23.1630     2.2020    63.9980   124.9850   114.3180   116.5550    24.7880 
  184.5000   -23.0730     2.2040    64.7650   126.0230   115.2070   122.3980    24.8070 
  184.6250   -22.9860     2.2010    65.9450   127.3110   116.5390   121.9620    24.8320 
  184.7500   -22.9170     2.1970    65.9020   128.3820   117.8520   119.5210    24.8430 
  184.8750   -22.8760     2.1940    65.8480   128.6940   118.6300   119.5630    24.8440 
  185.0000   -22.8650     2.1890    66.8110   127.3550   117.9970   122.5590    24.8540 
  185.1250   -22.8390     2.1840    68.3280   124.2240   115.6540   124.5270    24.8730 
  185.2500   -22.7630     2.1830    70.5770   119.5630   111.6590   122.7620    24.8880 
  185.3750   -22.6620     2.1890    72.7040   114.2630   106.6670   115.6290    24.8740 
  185.5000   -22.6070     2.1980    72.8660   109.9020   102.0240   103.3800    24.8660 
  185.6250   -22.6650     2.2070    72.1670   107.5150    98.9210    92.1910    24.8410 
  185.7500   -22.7600     2.2110    72.4630   107.4550    97.9100    89.6160    24.8080 
  185.8750   -22.8390     2.2120    73.4710   109.5010    98.9750    95.4020    24.7860 
  186.0000   -22.9080     2.2070    72.3150   113.3040   101.9230   100.7390    24.7730 
  186.1250   -23.0190     2.2000    69.8130   118.0430   105.9500   103.6620    24.7460 
  186.2500   -23.1900     2.1920    69.0480   123.3470   110.6770   100.0880    24.6810 
  186.3750   -23.4310     2.1870    71.6520   128.7760   115.6930    96.1670    24.5930 
  186.5000   -23.6710     2.1880    74.7800   133.1730   120.0310    99.1420    24.4630 
  186.6250   -23.8010     2.1940    76.0350   135.0080   122.3340   100.7470    24.2830 
  186.7500   -23.8750     2.2030    75.4870   132.6420   121.0960   102.4680    24.0780 
  186.8750   -23.9870     2.2140    74.1470   125.1040   115.3040   105.0640    23.8960 
  187.0000   -24.1450     2.2220    72.6740   112.4270   104.6610   100.5610    23.7420 
  187.1250   -24.2980     2.2310    71.0700    97.9490    91.9170    87.5930    23.6600 
  187.2500   -24.4640     2.2440    69.6250    84.4040    79.4540    71.3550    23.6210 
  187.3750   -24.5910     2.2610    69.2920    73.7370    69.1490    55.6740    23.5080 
  187.5000   -24.7190     2.2750    71.7550    67.3510    62.4910    44.6370    23.3070 
  187.6250   -24.8350     2.2800    75.7180    64.3780    58.9790    35.9880    23.1460 
  187.7500   -24.9050     2.2730    78.5860    64.0760    58.1480    31.8710    23.0400 
  187.8750   -24.8960     2.2520    80.5530    65.4160    59.2520    32.6580    22.9140 
  188.0000   -24.7890     2.2250    81.4280    66.9420    61.1840    38.5420    23.0090 
  188.1250   -24.6460     2.2100    80.8980    67.0620    62.3210    45.9910    23.4690 
  188.2500   -24.4610     2.2160    79.0100    64.7750    61.4670    50.7920    24.1570 
  188.3750   -24.2490     2.2380    76.4810    59.9090    58.0760    49.2910    24.7940 
  188.5000   -23.9870     2.2610    74.8940    53.3810    52.5870    41.9780    25.1070 
  188.6250   -23.7330     2.2750    73.8830    47.3500    47.0590    33.5970    25.1900 
  188.7500   -23.4800     2.2870    74.4360    43.1530    42.9440    27.5410    25.1260 
  188.8750   -23.2060     2.3040    77.4390    41.2290    40.9210    26.8130    25.0200 
  189.0000   -22.9840     2.3200    80.5780    41.3100    41.0230    33.1850    25.0300 
  189.1250   -22.8300     2.3210    80.9560    41.9770    41.9920    41.4890    25.1000 
  189.2500   -22.7080     2.3120    79.0760    42.2270    42.8030    46.9760    25.1430 
  189.3750   -22.6500     2.3040    77.7990    41.4280    42.6410    46.2270    25.1120 
  189.5000   -22.6500     2.3060    78.2090    39.3990    41.0260    38.0050    25.0690 
  189.6250   -22.6680     2.3100    78.6220    36.8990    38.6130    30.7290    25.0430 
  189.7500   -22.7460     2.3100    78.5430    34.5270    36.0520    26.2810    25.0220 
  189.8750   -22.9130     2.3070    79.4940    32.5860    33.7680    24.7630    25.0020 
  190.0000   -23.1120     2.3040    81.5120    31.1340    31.8830    23.7310    24.9290 
  190.1250   -23.2940     2.3060    82.3720    30.0860    30.2880    22.1270    24.8430 
  190.2500   -23.4660     2.3090    81.3380    29.7300    29.1460    20.7350    24.7690 
  190.3750   -23.6080     2.3170    79.9690    30.6910    28.9270    20.9100    24.6990 
  190.5000   -23.7810     2.3270    80.8070    34.3420    30.7960    22.4140    24.6040 
  190.6250   -23.9870     2.3270    81.5570    41.2890    35.4840    28.0640    24.4690 
  190.7500   -24.2200     2.3040    79.2040    52.1230    43.8150    39.6320    24.3950 
  190.8750   -24.4810     2.2580    73.7460    66.9030    56.2130    56.8400    24.3160 
