~V
VERS. 2.00: Ver 2.00
~W
STRT.M 45.0000:
STOP.M 268.0000:
STEP.M 0.1250:
NULL. -999.2500:
UWI. F11184:
~C
DEPT.M :
SP.MV :
GR.API :
RI. :
RML.OHMM :
RXO.OHMM :
DEN.GM/CC :
~A
# ...
  238.1250    -3.5380   101.3930     2.0930     2.3980     3.7490     2.3430 
  238.2500    -3.7180    98.2200     2.1560     2.4640     3.9130     2.3400 
  238.3750    -3.8560    95.4230     2.2080     2.5180     4.1870     2.3320 
  238.5000    -3.9360    95.4060     2.2290     2.5410     4.2380     2.3220 
  238.6250    -3.9500    97.4750     2.2190     2.5300     4.0400     2.3130 
  238.7500    -3.9190    99.1830     2.1870     2.4960     3.9090     2.3090 
  238.8750    -3.8680   101.3240     2.1730     2.4820     3.8650     2.3100 
  239.0000    -3.8270   104.1390     2.2110     2.5220     3.8060     2.3100 
  239.1250    -3.8190   105.2090     2.3330     2.6490     3.8180     2.3150 
  239.2500    -3.8500   104.6690     2.5210     2.8470     4.0140     2.3320 
  239.3750    -3.9180   104.3620     2.7380     3.0750     4.5610     2.3520 
  239.5000    -4.0070   104.0590     2.9360     3.2830     5.1890     2.3600 
  239.6250    -4.1080   102.9060     3.0210     3.3730     5.3170     2.3520 
  239.7500    -4.2190   101.0770     2.9640     3.3120     4.9710     2.3380 
  239.8750    -4.3470    98.8690     2.7850     3.1240     4.3340     2.3230 
  240.0000    -4.5050    95.5490     2.5480     2.8760     3.7060     2.3140 
  240.1250    -4.7060    91.4530     2.3280     2.6440     3.4610     2.3100 
  240.2500    -4.9560    88.5610     2.1610     2.4690     3.5260     2.3110 
  240.3750    -5.2620    86.5000     2.1120     2.4180     3.5940     2.3080 
  240.5000    -5.6350    84.5370     2.2540     2.5660     3.4780     2.3000 
  240.6250    -6.1140    84.2080     2.6870     3.0210     3.3160     2.2990 
  240.7500    -6.7270    85.2820     3.3460     3.7130     4.0180     2.3180 
  240.8750    -7.4970    83.0860     4.5020     4.9270     6.7820     2.3360 
  241.0000    -8.3850    74.8700     6.3180     6.8340    10.7780     2.3130 
  241.1250    -9.3280    64.5800     8.1430     8.7500    14.2310     2.2500 
  241.2500   -10.2480    58.6510     9.6700    10.3530    15.6580     2.1900 
  241.3750   -11.0870    57.2060    10.3400    11.0570    14.8810     2.1610 
  241.5000   -11.8270    57.5400    10.3670    11.0850    14.2760     2.1530 
  241.6250   -12.4550    58.4960    10.3410    11.0580    14.9190     2.1570 
  241.7500   -12.9860    59.0310    10.4430    11.1650    15.5790     2.1660 
  241.8750   -13.4230    58.2330    10.6270    11.3590    15.4400     2.1710 
  242.0000   -13.7930    55.6440    10.7680    11.5060    15.3600     2.1790 
  242.1250   -14.1210    54.3830    10.6700    11.4040    16.1040     2.1960 
  242.2500   -14.4380    54.9640    10.1970    10.9070    16.3620     2.2180 
  242.3750   -14.7680    56.2580     9.5140    10.1900    15.2560     2.2250 
  242.5000   -15.1110    57.9120     8.7640     9.4020    13.4030     2.2120 
  242.6250   -15.4480    60.5830     8.0720     8.6760    11.4770     2.1970 
  242.7500   -15.7440    63.7290     7.6390     8.2210    10.4020     2.1950 
  242.8750   -15.9560    65.7910     7.4210     7.9920    10.2840     2.2020 
  243.0000   -16.0660    66.8250     7.4490     8.0210    10.3800     2.2040 
  243.1250   -16.0590    66.9410     7.6680     8.2520    11.0930     2.1930 
  243.2500   -15.9590    66.0910     7.9320     8.5290    12.4130     2.1780 
  243.3750   -15.7850    65.1580     8.2000     8.8100    13.0860     2.1710 
  243.5000   -15.5700    64.0140     8.3490     8.9670    13.0400     2.1740 
  243.6250   -15.3380    62.3110     8.3220     8.9380    13.0270     2.1730 
  243.7500   -15.1120    60.8630     8.1350     8.7420    13.0550     2.1660 
  243.8750   -14.9120    62.3010     7.8400     8.4320    12.6940     2.1580 
  244.0000   -14.7450    65.6970     7.5830     8.1620    12.0760     2.1670 
  244.1250   -14.6120    68.2550     7.3870     7.9560    11.6440     2.1840 
  244.2500   -14.4950    68.6500     7.3170     7.8820    11.3500     2.1910 
  244.3750   -14.3790    68.1320     7.4410     8.0130    11.5330     2.1870 
  244.5000   -14.2500    68.4400     7.8050     8.3950    11.9960     2.1810 
  244.6250   -14.1000    68.7880     8.3230     8.9390    11.9320     2.1830 
  244.7500   -13.9270    66.5710     8.8700     9.5130    12.2130     2.1800 
  244.8750   -13.7290    63.4920     9.2570     9.9200    13.6260     2.1730 
  245.0000   -13.5150    63.5480     9.3890    10.0580    14.9210     2.1670 
  245.1250   -13.2960    66.2010     9.2250     9.8860    14.6470     2.1650 
  245.2500   -13.0770    67.1740     8.8810     9.5250    12.9220     2.1600 
  245.3750   -12.8530    66.9370     8.5250     9.1510    11.4740     2.1520 
  245.5000   -12.6090    68.0980     8.3860     9.0060    11.8960     2.1490 
  245.6250   -12.3180    68.1120     8.6330     9.2640    13.4490     2.1530 
  245.7500   -11.9630    65.0010     9.0990     9.7540    14.4490     2.1550 
  245.8750   -11.5160    61.6230     9.6180    10.2990    15.4800     2.1510 
  246.0000   -10.9710    61.2030    10.1500    10.8570    15.9350     2.1530 
  246.1250   -10.3150    63.1020    10.3590    11.0770    14.6430     2.1640 
  246.2500    -9.5740    65.9580    10.3370    11.0540    15.2450     2.1720 
  246.3750    -8.7910    68.1350    10.1250    10.8310    16.4920     2.1730 
  246.5000    -8.0470    70.2670     9.7360    10.4220    14.2370     2.1690 
  246.6250    -7.4430    72.3560     9.4130    10.0840    11.7810     2.1630 
  246.7500    -7.0450    74.4780     9.1980     9.8570    11.1680     2.1540 
  246.8750    -6.9110    75.1450     9.1790     9.8380    11.0660     2.1460 
  247.0000    -7.0130    74.0360     9.3980    10.0680    11.4270     2.1420 
  247.1250    -7.3090    73.0660     9.7590    10.4470    12.4350     2.1410 
  247.2500    -7.6970    72.0610    10.0610    10.7640    13.5960     2.1490 
  247.3750    -8.0780    70.9870    10.2210    10.9330    13.9090     2.1650 
  247.5000    -8.3750    70.1180    10.3180    11.0340    13.1960     2.1800 
  247.6250    -8.5470    70.5460    10.3900    11.1100    12.5430     2.1760 
  247.7500    -8.6270    71.2720    10.4520    11.1740    12.6830     2.1610 
  247.8750    -8.6680    70.0630    10.5390    11.2660    14.0070     2.1480 
  248.0000    -8.7270    68.2630    10.6490    11.3810    15.2660     2.1390 
  248.1250    -8.8240    67.2860    10.7220    11.4580    14.4520     2.1320 
  248.2500    -8.9410    66.0710    10.5630    11.2910    13.2450     2.1350 
  248.3750    -9.0450    64.5750    10.3160    11.0310    13.4730     2.1480 
  248.5000    -9.1220    64.4350    10.2370    10.9490    13.4120     2.1580 
  248.6250    -9.1820    65.5320    10.5910    11.3210    13.2400     2.1610 
  248.7500    -9.2550    65.5420    11.5920    12.3720    15.3140     2.1750 
  248.8750    -9.3610    64.8060    13.1190    13.9750    17.9520     2.2120 
  249.0000    -9.4850    65.1240    14.8280    15.7690    19.6160     2.2420 
  249.1250    -9.5700    66.1160    15.9180    16.9130    20.4780     2.2350 
  249.2500    -9.5630    66.1570    15.9700    16.9680    19.9600     2.2070 
  249.3750    -9.4480    65.9420    14.8210    15.7620    17.3840     2.1860 
  249.5000    -9.2770    66.6350    13.0710    13.9250    13.0130     2.1790 
  249.6250    -9.1100    68.4720    11.5310    12.3080    10.3770     2.1840 
  249.7500    -8.9750    69.8800    10.4000    11.1200    10.4290     2.1980 
  249.8750    -8.8630    70.3860    10.0120    10.7130    11.4690     2.2200 
  250.0000    -8.7540    69.9290    10.3360    11.0530    12.7650     2.2340 
  250.1250    -8.6510    68.4250    11.3890    12.1590    13.1560     2.2250 
  250.2500    -8.5630    65.7250    12.8080    13.6490    14.0570     2.1920 
  250.3750    -8.4890    63.1270    14.2820    15.1960    17.1040     2.1570 
  250.5000    -8.4140    62.1850    15.2190    16.1800    19.1330     2.1440 
  250.6250    -8.3240    62.8310    15.1670    16.1260    18.5340     2.1550 
  250.7500    -8.2240    63.9530    14.3870    15.3060    16.8410     2.1650 
  250.8750    -8.1370    65.0140    13.1290    13.9850    14.7280     2.1630 
