~V
VERS. 2.00: Ver 2.00
~W
STRT.M 55.0000:
STOP.M 207.0000:
STEP.M 0.1250:
NULL. -999.2500:
UWI. F11112:
~C
DEPT.M :
SP.MV :
RML.OHMM :
RI. :
RXO.OHMM :
CALI.CM :
DEN.GM/CC :
GR.API :
~A
# ...
   77.5000   -15.0320     6.9160     4.9340     5.7830    26.7660     2.1280    85.5990 
   77.6250   -13.5360     8.0150     5.4730     7.7780    26.3980     2.1720    90.4440 
   77.7500   -12.2290     9.4940     6.4610    12.7960    26.1220     2.2760    93.1220 
   77.8750   -11.2190    10.7350     7.5320    18.6700    26.0080     2.4020    92.4590 
   78.0000   -10.4790    11.1940     8.2830    23.6640    26.0070     2.5120    89.4700 
   78.1250   -10.0500    10.5370     8.3300    22.7950    26.0640     2.5710    88.2960 
   78.2500    -9.8890     8.8450     7.4490    13.8680    26.1540     2.5460    92.5030 
   78.3750    -9.9640     7.0660     6.2150     7.0170    26.2930     2.4780    99.3530 
   78.5000   -10.3310     5.8650     5.1630     4.5620    26.4770     2.4110   104.5420 
   78.6250   -10.9090     5.5140     4.6070     4.1200    26.6440     2.3740   106.2790 
   78.7500   -11.6610     6.0800     4.7210     4.8420    26.7570     2.3710   105.5470 
   78.8750   -12.5620     7.2060     5.3440     6.9100    26.8270     2.3780   103.6690 
   79.0000   -13.7980     8.6050     6.3230    10.5300    26.8730     2.3880    98.6940 
   79.1250   -15.3450     9.9100     7.4120    14.8950    26.8800     2.4050    89.5270 
   79.2500   -17.2830    10.6190     8.2240    18.6000    26.8390     2.4240    78.8490 
   79.3750   -19.4580    10.5930     8.5130    18.5310    26.7630     2.4170    71.6890 
   79.5000   -21.6750     9.9470     8.2460    13.9280    26.6980     2.3630    68.5640 
   79.6250   -23.8950     9.0320     7.6210    10.2130    26.7340     2.2770    66.7350 
   79.7500   -26.0780     8.2690     6.9560     9.2140    26.8540     2.2060    64.2550 
   79.8750   -28.1120     7.8090     6.4510     9.0840    26.9940     2.1640    62.3260 
   80.0000   -29.8480     7.6090     6.1340     9.0580    27.1240     2.1420    61.7420 
   80.1250   -31.2850     7.5550     5.9560     8.9020    27.2240     2.1240    62.2100 
   80.2500   -32.3350     7.5460     5.8550     8.7620    27.2780     2.1060    62.8980 
   80.3750   -33.0640     7.5330     5.7750     8.6380    27.3360     2.0920    62.8140 
   80.5000   -33.5270     7.5240     5.7110     8.5380    27.4440     2.0860    61.5510 
   80.6250   -33.8110     7.5400     5.6730     8.5100    27.5730     2.0860    61.1540 
   80.7500   -33.9690     7.5980     5.6820     8.6030    27.6910     2.0940    64.0010 
   80.8750   -34.0630     7.6790     5.7270     8.7790    27.8250     2.1050    67.5180 
   81.0000   -34.1350     7.7630     5.7920     9.0180    27.9310     2.1170    68.3960 
   81.1250   -34.1630     7.8240     5.8510     9.2810    27.9990     2.1280    65.9760 
   81.2500   -34.1950     7.8360     5.8790     9.4660    28.0690     2.1330    62.5520 
   81.3750   -34.2850     7.8000     5.8680     9.4920    28.1760     2.1310    59.6580 
   81.5000   -34.4710     7.7170     5.8150     9.4350    28.2960     2.1270    57.4170 
   81.6250   -34.6510     7.5990     5.7280     9.3390    28.3940     2.1250    56.5170 
   81.7500   -34.6810     7.4600     5.6170     9.1900    28.5030     2.1280    57.9420 
   81.8750   -34.5860     7.3260     5.5020     8.9470    28.6510     2.1310    60.7630 
   82.0000   -34.4730     7.2150     5.3970     8.6290    28.8260     2.1260    62.9440 
   82.1250   -34.4300     7.1430     5.3140     8.3500    29.0100     2.1110    64.1390 
   82.2500   -34.4570     7.1230     5.2660     8.2440    29.0950     2.0910    65.0720 
   82.3750   -34.5110     7.1430     5.2490     8.2810    29.1360     2.0750    65.2100 
   82.5000   -34.5570     7.1890     5.2630     8.4140    29.1740     2.0650    64.1800 
   82.6250   -34.6600     7.2400     5.2980     8.5690    29.2310     2.0620    62.7580 
   82.7500   -34.9060     7.2670     5.3370     8.6860    29.3000     2.0620    61.7850 
   82.8750   -35.2610     7.2560     5.3590     8.7340    29.3490     2.0570    60.2270 
   83.0000   -35.5890     7.2060     5.3570     8.7840    29.3640     2.0470    58.5660 
   83.1250   -35.8130     7.1300     5.3290     8.8780    29.3590     2.0380    58.2890 
   83.2500   -35.8960     7.0490     5.2860     9.0470    29.3350     2.0390    60.0960 
   83.3750   -35.8850     6.9860     5.2440     9.2770    29.2890     2.0440    62.5320 
   83.5000   -35.8060     6.9510     5.2140     9.5480    29.2140     2.0470    64.5670 
   83.6250   -35.6650     6.9450     5.2030     9.7330    29.1020     2.0460    64.9090 
   83.7500   -35.4570     6.9640     5.2140     9.8730    29.0470     2.0410    63.2480 
   83.8750   -35.2220     6.9920     5.2410     9.7870    29.0740     2.0310    61.6960 
   84.0000   -34.9410     7.0150     5.2790     9.5380    29.1700     2.0190    61.3370 
   84.1250   -34.6200     7.0290     5.3210     9.3210    29.2980     2.0070    62.0280 
   84.2500   -34.2510     7.0360     5.3610     9.1090    29.3670     1.9880    62.2340 
   84.3750   -33.8080     7.0550     5.4010     9.0370    29.3240     1.9670    61.8800 
   84.5000   -33.2460     7.1060     5.4470     9.0910    29.2050     1.9520    62.4060 
   84.6250   -32.5320     7.1990     5.5140     9.1870    29.1220     1.9420    64.1920 
   84.7500   -31.6490     7.3320     5.6120     9.1650    29.1240     1.9300    65.8650 
   84.8750   -30.5720     7.4580     5.7280     9.1520    29.1450     1.9190    65.2320 
   85.0000   -29.2750     7.5220     5.8290     9.1610    29.1820     1.9150    63.9550 
   85.1250   -27.6900     7.4760     5.8680     9.1370    29.2030     1.9290    64.7890 
   85.2500   -25.8860     7.2760     5.7850     8.8050    29.0130     1.9730    68.3960 
   85.3750   -24.0400     6.9740     5.5980     8.0500    28.5820     2.0400    74.8610 
   85.5000   -22.2570     6.6310     5.3430     6.9360    27.9820     2.1090    84.5900 
   85.6250   -20.5240     6.3170     5.0760     5.8760    27.4140     2.1630    95.1990 
   85.7500   -18.8360     6.1060     4.8610     5.2910    27.1520     2.1940   101.3340 
   85.8750   -17.3000     5.9910     4.7110     5.0800    27.0410     2.2090   102.7040 
   86.0000   -16.0400     5.9460     4.6200     5.0220    26.9900     2.2140   101.3040 
   86.1250   -15.1390     5.9280     4.5660     5.0780    26.9530     2.2170    98.9730 
   86.2500   -14.6060     5.9100     4.5280     5.1550    26.9280     2.2210    95.7390 
   86.3750   -14.2600     5.9280     4.5090     5.2070    26.9150     2.2230    94.4180 
   86.5000   -14.0320     6.0920     4.5610     5.2880    26.9080     2.2210    96.4150 
   86.6250   -13.9720     6.5810     4.7860     5.4860    26.9120     2.2210    99.9760 
   86.7500   -14.1630     7.7220     5.4010     6.4040    26.9370     2.2320   101.1920 
   86.8750   -14.4810     9.5650     6.5040     9.0750    26.9590     2.2590    97.4320 
   87.0000   -14.9050    12.0180     8.1310    14.2550    26.9650     2.3090    91.1950 
   87.1250   -15.4910    14.6920    10.1290    21.4980    26.9560     2.3910    86.4540 
   87.2500   -16.3180    16.7360    12.0140    28.7470    26.9520     2.4940    84.5680 
   87.3750   -17.3880    17.4520    13.1630    32.1020    26.9800     2.5710    83.8690 
   87.5000   -18.7110    16.5450    13.1460    28.0360    27.0520     2.5820    84.1290 
   87.6250   -20.2810    14.3730    11.9860    20.1830    27.1810     2.5270    84.9910 
   87.7500   -22.0280    11.8770    10.2330    14.8960    27.4250     2.4260    83.0530 
   87.8750   -23.8630     9.8970     8.6410    11.8070    27.8610     2.3010    76.8250 
   88.0000   -25.6660     8.6190     7.4630    10.0090    28.5140     2.1690    69.2610 
   88.1250   -27.3780     7.9220     6.7050     9.0570    29.2160     2.0520    64.0870 
   88.2500   -28.8760     7.6330     6.3060     8.7670    29.8260     1.9690    61.7670 
   88.3750   -30.1480     7.5110     6.0950     8.6030    30.3520     1.9170    60.7360 
   88.5000   -31.1600     7.4560     5.9910     8.4300    30.6350     1.8900    61.3110 
   88.6250   -31.9240     7.4150     5.9390     8.4130    30.6110     1.8790    63.4550 
