~V
VERS. 2.00: Ver 2.00
~W
STRT.M 63.0000:
STOP.M 244.0000:
STEP.M 0.1250:
NULL. -999.2500:
UWI. F11131:
~C
DEPT.M :
SP.MV :
DEN.GM/CC :
GR.API :
RML.OHMM :
RI. :
RXO.OHMM :
CALI.CM :
~A
# ...
  175.5000   -29.3210     2.2290    64.3830    54.6310    49.5560    39.5470    24.6420 
  175.6250   -29.1350     2.2340    66.1490    52.2110    47.1210    26.9390    24.4880 
  175.7500   -28.9920     2.2310    67.6010    53.5380    47.6490    34.1690    24.3420 
  175.8750   -28.9120     2.2230    67.6500    57.7650    50.5570    53.7330    24.2090 
  176.0000   -28.8760     2.2140    67.5890    63.4500    54.8100    72.6130    24.1210 
  176.1250   -28.9020     2.2090    67.6250    67.6310    58.2810    68.8840    24.1060 
  176.2500   -28.9730     2.2130    66.7340    67.4490    58.6800    81.6440    24.1110 
  176.3750   -29.0450     2.2280    66.9990    61.8700    54.9160    84.1990    24.0990 
  176.5000   -29.1080     2.2510    68.5800    52.4230    47.7960    64.3230    24.0950 
  176.6250   -29.1730     2.2740    68.7010    42.2530    39.6040    39.0450    24.2040 
  176.7500   -29.2540     2.2890    67.4130    33.8420    32.5640    24.8850    24.4120 
  176.8750   -29.3210     2.2920    68.2980    27.8900    27.4120    20.4460    24.6050 
  177.0000   -29.3640     2.2830    71.9690    24.2460    24.1210    16.6830    24.6870 
  177.1250   -29.3200     2.2750    75.2910    22.4950    22.4330    12.4000    24.6780 
  177.2500   -29.2140     2.2760    77.4370    21.4950    21.4620    10.5070    24.6720 
  177.3750   -29.1050     2.2910    77.7620    20.5150    20.6130    11.0870    24.6730 
  177.5000   -29.0100     2.3180    76.5560    19.0660    19.4400    14.1080    24.6750 
  177.6250   -28.9670     2.3440    77.3090    17.0320    17.7660    15.9480    24.6770 
  177.7500   -28.9240     2.3650    79.9170    14.8710    15.9250    15.1470    24.6800 
  177.8750   -28.8450     2.3790    82.6220    12.9470    14.2170    12.9840    24.6900 
  178.0000   -28.7470     2.3880    85.3790    11.4580    12.8310    10.7850    24.6890 
  178.1250   -28.6770     2.3950    88.9970    10.5030    11.8870     9.1620    24.6460 
  178.2500   -28.6440     2.3970    91.1390     9.9390    11.2920     8.3030    24.5920 
  178.3750   -28.6510     2.3950    89.9260     9.6840    10.9790     7.4990    24.5470 
  178.5000   -28.7110     2.3930    87.9630     9.6480    10.8620     7.0480    24.4090 
  178.6250   -28.7950     2.3940    87.5300     9.7320    10.8440     6.6670    24.0600 
  178.7500   -28.8940     2.3980    87.2210     9.8050    10.8110     5.7890    23.6880 
  178.8750   -29.0440     2.3970    87.2960     9.8140    10.7190     5.5330    23.4820 
  179.0000   -29.2360     2.3860    87.7530     9.7880    10.5900     6.7460    23.4500 
  179.1250   -29.4840     2.3680    85.9870     9.8760    10.5320     8.5370    23.4540 
  179.2500   -29.7360     2.3490    82.4990    10.2550    10.6840     8.7970    23.4100 
  179.3750   -29.9380     2.3340    80.9380    11.1170    11.1980     8.2000    23.3310 
  179.5000   -30.0720     2.3180    82.9230    12.6510    12.2240     8.0200    23.2580 
  179.6250   -30.1190     2.2980    84.0190    15.1680    14.0160     8.6430    23.2370 
  179.7500   -30.1390     2.2750    81.4700    18.5960    16.5430    10.2590    23.2430 
  179.8750   -30.1540     2.2540    77.3990    22.7950    19.7370    13.0100    23.2320 
  180.0000   -30.1570     2.2460    74.7680    27.3190    23.2860    16.6940    23.2350 
  180.1250   -30.0990     2.2490    73.1130    31.2260    26.4410    21.5690    23.4470 
  180.2500   -30.0290     2.2600    70.7410    33.8400    28.5730    27.3680    23.9440 
  180.3750   -29.9680     2.2680    68.5090    35.0690    29.5410    33.8180    24.5670 
  180.5000   -29.9190     2.2700    67.9530    35.4200    29.7000    37.1750    25.0060 
  180.6250   -29.8600     2.2660    68.2480    35.7690    29.6870    36.4870    25.0260 
  180.7500   -29.7730     2.2600    69.2070    36.8660    30.1240    36.1620    24.8330 
  180.8750   -29.6810     2.2510    71.7390    39.1120    31.3780    34.6990    24.6100 
  181.0000   -29.6140     2.2390    73.2390    42.6960    33.6830    33.1340    24.3900 
  181.1250   -29.6000     2.2260    71.0450    47.9410    37.4040    33.7240    24.0760 
  181.2500   -29.5870     2.2160    68.0120    54.6050    42.4210    36.1860    23.7380 
  181.3750   -29.5550     2.2090    66.7050    62.4610    48.6120    36.6810    23.5180 
  181.5000   -29.5040     2.2060    66.2350    70.8600    55.5020    36.2690    23.4570 
  181.6250   -29.5180     2.2050    64.2820    78.0900    61.8530    38.6290    23.4660 
  181.7500   -29.5810     2.2050    62.8240    81.3570    64.9860    43.1000    23.4690 
  181.8750   -29.6020     2.2080    61.8810    82.2350    66.4890    46.7390    23.4680 
  182.0000   -29.5590     2.2170    61.7670    79.3890    65.8540    51.6740    23.4670 
  182.1250   -29.4840     2.2370    64.7140    69.1900    59.3130    56.5900    23.4640 
  182.2500   -29.4370     2.2660    68.8230    55.3420    49.1440    61.6480    23.4610 
  182.3750   -29.4590     2.3000    72.5530    41.3840    38.0610    68.0120    23.4620 
  182.5000   -29.5350     2.3270    76.4760    29.9130    28.4560    64.2860    23.4650 
  182.6250   -29.5850     2.3400    81.9090    22.4370    21.8770    49.7640    23.4670 
  182.7500   -29.5930     2.3360    86.8580    18.0230    17.7700    35.6600    23.4820 
  182.8750   -29.6190     2.3210    88.3050    16.1180    15.7190    23.9060    23.5260 
  183.0000   -29.6870     2.2950    86.1380    16.4640    15.4840    13.5680    23.5810 
  183.1250   -29.8160     2.2650    82.2050    19.7960    17.5970    10.3010    23.5860 
  183.2500   -29.9530     2.2350    77.6050    26.5710    22.4570     9.7780    23.5360 
  183.3750   -30.0350     2.2120    72.7920    37.7960    31.0500    13.0460    23.4770 
  183.5000   -30.0540     2.2020    68.9380    54.0790    44.0740    23.7590    23.4520 
  183.6250   -30.0480     2.2010    66.6260    74.4080    60.7630    55.7610    23.4620 
  183.7500   -30.0930     2.2060    64.8970    92.2670    75.8550    94.7260    23.4870 
  183.8750   -30.1620     2.2150    62.6730   100.0320    83.7900   108.5480    23.5350 
  184.0000   -30.2060     2.2320    61.0530    94.2190    81.7860    97.2620    23.6020 
  184.1250   -30.1360     2.2560    61.0980    78.9210    71.4700    74.1570    23.6550 
  184.2500   -29.9990     2.2810    62.0680    63.4910    59.5250    57.2320    23.6740 
  184.3750   -29.8800     2.2940    62.2000    51.5470    49.3470    45.5480    23.6680 
  184.5000   -29.8160     2.2770    61.3460    43.8060    42.2020    30.8440    23.7010 
  184.6250   -29.7820     2.2370    61.9560    39.7730    38.1320    24.5540    23.8360 
  184.7500   -29.6810     2.1880    63.8360    37.1610    35.4260    22.3150    23.9970 
  184.8750   -29.5390     2.1480    65.5960    34.5240    32.9130    25.5040    24.0850 
  185.0000   -29.4130     2.1370    67.5270    31.1410    29.9630    35.4640    24.1140 
  185.1250   -29.3870     2.1530    70.0560    27.4240    26.8460    39.3200    24.2510 
  185.2500   -29.4590     2.1820    72.1830    24.6060    24.4430    26.5550    24.4920 
  185.3750   -29.5580     2.2070    74.9340    23.6380    23.4380    16.6310    24.6930 
  185.5000   -29.6450     2.2180    77.3980    25.0990    24.3130    14.0010    24.7670 
  185.6250   -29.7180     2.2250    76.2310    29.6390    27.7880    18.7510    24.7570 
  185.7500   -29.8340     2.2310    72.3930    36.5670    33.5430    34.7850    24.7550 
  185.8750   -30.0190     2.2370    68.9610    45.1060    41.0450    55.6490    24.7550 
  186.0000   -30.2430     2.2390    66.3090    53.9620    49.0700    61.6230    24.7510 
  186.1250   -30.4210     2.2360    63.9340    61.3910    55.7780    57.2490    24.7520 
  186.2500   -30.5300     2.2310    64.4680    66.7390    60.4460    60.2880    24.7580 
  186.3750   -30.5880     2.2250    67.4360    69.8340    63.0170    70.3890    24.7590 
  186.5000   -30.6400     2.2220    68.9230    70.6350    63.6010    82.7040    24.7520 
  186.6250   -30.7340     2.2240    67.5400    69.0380    62.1400    87.3000    24.7510 
