~V
VERS. 2.00: Ver 2.00
~W
STRT.M 50.0000:
STOP.M 209.0000:
STEP.M 0.1250:
NULL. -999.2500:
UWI. F11109:
~C
DEPT.M :
GR.API :
RML.OHMM :
RI. :
RXO.OHMM :
CALI.CM :
SP.MV :
DEN.GM/CC :
~A
   50.0000  -999.2500  -999.2500  -999.2500  -999.2500  -999.2500  -999.2500  -999.2500 
   50.1250  -999.2500  -999.2500  -999.2500  -999.2500  -999.2500  -999.2500  -999.2500 
   50.2500  -999.2500  -999.2500  -999.2500  -999.2500  -999.2500  -999.2500  -999.2500 
   50.3750  -999.2500  -999.2500  -999.2500  -999.2500  -999.2500  -999.2500  -999.2500 
   50.5000  -999.2500  -999.2500  -999.2500  -999.2500  -999.2500  -999.2500  -999.2500 
   50.6250  -999.2500  -999.2500  -999.2500  -999.2500  -999.2500  -999.2500  -999.2500 
   50.7500  -999.2500  -999.2500  -999.2500  -999.2500  -999.2500  -999.2500     1.8830 
   50.8750  -999.2500  -999.2500  -999.2500  -999.2500  -999.2500  -999.2500     1.8830 
   51.0000  -999.2500  -999.2500  -999.2500  -999.2500  -999.2500  -999.2500     1.8150 
   51.1250  -999.2500  -999.2500  -999.2500  -999.2500  -999.2500  -999.2500     1.7570 
   51.2500  -999.2500  -999.2500  -999.2500  -999.2500  -999.2500  -999.2500     1.8180 
   51.3750  -999.2500  -999.2500  -999.2500  -999.2500  -999.2500  -999.2500     2.0160 
   51.5000    36.9920     4.6900     1.6910     0.2620    25.7350  -999.2500     2.2200 
   51.6250    36.9920     4.6900     1.6910     0.2620    25.7350  -999.2500     2.2710 
   51.7500    38.3800     4.6790     1.6890     0.2570    25.7370  -999.2500     2.2030 
   51.8750    42.9920     4.6780     1.6850     0.2260    25.7400  -999.2500     2.0870 
   52.0000    47.1040     4.7130     1.6850     0.1540    25.7390  -999.2500     1.9840 
   52.1250    47.3470     4.7540     1.6870     0.1210    25.7360  -999.2500     1.9350 
   52.2500    46.3190     4.7730     1.6890     0.1200    25.7360  -999.2500     1.9260 
   52.3750    45.7190     4.7620     1.6920     0.1530    25.7410  -999.2500     1.9380 
   52.5000    45.1240     4.7260     1.6980     0.1670    25.7430  -999.2500     1.9570 
   52.6250    44.3610     4.6900     1.7050     0.1650    25.7430  -999.2500     1.9790 
   52.7500    44.3870     4.7210     1.7110     0.1560    25.7430  -999.2500     2.0000 
   52.8750    44.5460     4.8740     1.7150     0.1580    25.7420  -999.2500     2.0180 
   53.0000    43.3800     5.1370     1.7170     0.1870    25.7450    44.6420     2.0270 
   53.1250    41.3990     5.4440     1.7160     0.2320    25.7440    44.6420     2.0220 
   53.2500    40.8380     5.7250     1.7140     0.2340    25.7450    44.6580     2.0060 
   53.3750    40.8800     5.9310     1.7100     0.1900    25.7450    44.6870     1.9860 
   53.5000    40.1680     6.0140     1.7040     0.1530    25.7430    44.6750     1.9700 
   53.6250    40.9540     5.9350     1.6960     0.1380    25.7420    44.6100     1.9640 
   53.7500    44.8220     5.7290     1.6860     0.1320    25.7410    44.5060     1.9640 
   53.8750    49.1630     5.4370     1.6760     0.1440    25.7410    44.3540     1.9660 
   54.0000    50.1800     5.1370     1.6640     0.1660    25.7410    44.1310     1.9670 
   54.1250    48.7210     4.8760     1.6490     0.1650    25.7420    43.8210     1.9730 
   54.2500    47.4410     4.6370     1.6330     0.1560    25.7430    43.4610     1.9840 
   54.3750    46.1280     4.4540     1.6180     0.1580    25.7440    43.0300     1.9980 
   54.5000    44.1870     4.4410     1.6110     0.1690    25.7420    42.5070     2.0120 
   54.6250    42.0020     4.7870     1.6130     0.1570    25.7440    41.8720     2.0240 
   54.7500    41.3050     5.4370     1.6200     0.1450    25.7450    41.1450     2.0330 
   54.8750    43.1500     6.1870     1.6260     0.1450    25.7450    40.3420     2.0440 
   55.0000    45.4220     6.6600     1.6280     0.1390    25.7460    39.4820     2.0620 
   55.1250    44.4210     6.4670     1.6250     0.1280    25.7450    38.6050     2.0840 
   55.2500    42.9110     5.8500     1.6170     0.1360    25.7470    37.7480     2.0980 
   55.3750    43.2160     5.1350     1.6060     0.1500    25.7480    36.9470     2.0940 
   55.5000    43.7130     4.5550     1.5930     0.1450    25.7430    36.2520     2.0700 
   55.6250    42.4470     4.2150     1.5820     0.1280    25.7260    35.7180     2.0410 
   55.7500    42.2280     4.0200     1.5750     0.1280    25.7040    35.3270     2.0280 
   55.8750    43.9070     3.9010     1.5700     0.1360    25.6910    35.0640     2.0380 
   56.0000    44.4090     3.8300     1.5660     0.1420    25.6880    34.9140     2.0610 
   56.1250    42.8920     3.8100     1.5590     0.1670    25.6860    34.8880     2.0760 
   56.2500    42.7950     3.8020     1.5490     0.1880    25.6870    34.9310     2.0780 
   56.3750    43.4660     3.7930     1.5390     0.1800    25.6870    35.0310     2.0750 
   56.5000    42.7750     3.7870     1.5300     0.1670    25.6850    35.1910     2.0790 
   56.6250    40.9860     3.7730     1.5260     0.1840    25.6850    35.4220     2.1040 
   56.7500    41.5920     3.7430     1.5250     0.2250    25.6860    35.7140     2.1500 
   56.8750    43.6730     3.6860     1.5240     0.2480    25.6860    36.1110     2.2160 
   57.0000    44.8920     3.5920     1.5220     0.2420    25.6870    36.6200     2.2900 
   57.1250    43.9610     3.4720     1.5180     0.2460    25.6860    37.1870     2.3400 
   57.2500    42.7660     3.3560     1.5120     0.2450    25.6850    37.7780     2.3430 
   57.3750    44.8940     3.2400     1.5070     0.2300    25.6810    38.4050     2.2960 
   57.5000    50.8410     3.1090     1.5050     0.2390    25.6730    39.0600     2.2190 
   57.6250    56.4230     2.9760     1.5060     0.2680    25.6680    39.7440     2.1440 
   57.7500    57.7950     2.8810     1.5100     0.2750    25.6770    40.4530     2.0940 
   57.8750    56.8610     2.8350     1.5160     0.2510    25.6820    41.2180     2.0720 
   58.0000    57.9660     2.8260     1.5210     0.2580    25.6840    42.0960     2.0740 
   58.1250    61.3520     2.8170     1.5230     0.3140    25.6810    43.1700     2.0890 
   58.2500    63.4770     2.7660     1.5210     0.3460    25.6810    44.4250     2.1030 
   58.3750    63.9770     2.6780     1.5170     0.3450    25.6810    45.8840     2.1100 
   58.5000    64.6060     2.5900     1.5100     0.3390    25.6780    47.5760     2.1140 
   58.6250    65.7630     2.5460     1.5010     0.3610    25.6790    49.5930     2.1190 
   58.7500    64.0670     2.5390     1.4890     0.4150    25.6760    51.9570     2.1180 
   58.8750    59.7220     2.5510     1.4720     0.5000    25.6630    54.6640     2.1010 
   59.0000    56.3680     2.5600     1.4500     0.5530    25.6390    57.6530     2.0720 
   59.1250    56.4830     2.5240     1.4270     0.4870    25.6220    60.8590     2.0420 
   59.2500    57.1390     2.4300     1.4060     0.3920    25.6140    64.1160     2.0220 
   59.3750    56.3100     2.3000     1.3900     0.4130    25.6110    67.2700     2.0100 
   59.5000    53.8180     2.1750     1.3790     0.5070    25.6110    70.1690     1.9990 
   59.6250    50.1580     2.0950     1.3680     0.5530    25.6110    72.5880     1.9830 
   59.7500    46.0930     2.0650     1.3540     0.4960    25.6110    74.4900     1.9690 
   59.8750    43.4890     2.0740     1.3370     0.4420    25.6120    75.8180     1.9640 
   60.0000    44.2630     2.1070     1.3200     0.4940    25.6140    76.5930     1.9680 
   60.1250    47.7240     2.1420     1.3060     0.6510    25.6110    76.8310     1.9770 
   60.2500    50.9200     2.1600     1.2970     0.8020    25.6090    76.6650     1.9850 
   60.3750    53.2980     2.1420     1.2930     0.8270    25.6110    76.1860     1.9920 
   60.5000    54.3310     2.0700     1.2970     0.7000    25.6120    75.4990     1.9980 
   60.6250    54.1180     1.9580     1.3070     0.6270    25.6050    74.6820     2.0050 
   60.7500    52.0590     1.8640     1.3200     0.7170    25.5850    73.7980     2.0090 
   60.8750    48.4880     1.8390     1.3310     0.8450    25.5610    72.9000     2.0090 
   61.0000    45.9100     1.9200     1.3380     0.7670    25.5480    72.0370     2.0070 
   61.1250    46.5310     2.1470     1.3430     0.6200    25.5440    71.1950     2.0040 
