~V
VERS. 2.00: Ver 2.00
~W
STRT.M 59.0000:
STOP.M 247.0000:
STEP.M 0.1250:
NULL. -999.2500:
UWI. F11130:
~C
DEPT.M :
DEN.GM/CC :
SP.MV :
GR.API :
RML.OHMM :
RI. :
RXO.OHMM :
CALI.CM :
~A
# ...
  137.7500     2.3820    -6.1070    52.1560    22.5690    22.4320    22.0490    24.7960 
  137.8750     2.3780    -6.3050    50.4770    22.7760    22.6960    22.2980    25.1410 
  138.0000     2.4080    -6.5510    48.3280    22.6770    22.6290    22.2660    25.1020 
  138.1250     2.4580    -6.7620    48.6530    22.2800    22.1400    21.3860    24.6500 
  138.2500     2.5090    -7.0240    50.3830    21.7770    21.4460    20.1160    24.1850 
  138.3750     2.5490    -7.3150    50.2430    21.3370    20.7830    18.9700    23.9670 
  138.5000     2.5730    -7.4850    48.5810    21.0720    20.3630    18.2610    24.0880 
  138.6250     2.5710    -7.5590    49.5060    20.9590    20.2870    18.3370    24.2850 
  138.7500     2.5460    -7.4590    52.5150    20.7650    20.3200    18.3870    24.4500 
  138.8750     2.5040    -7.3410    55.0110    20.2870    20.1670    19.1720    24.5460 
  139.0000     2.4580    -7.2500    56.8860    19.4700    19.6150    21.7070    24.5230 
  139.1250     2.4300    -7.1570    60.9210    18.4680    18.6680    20.2030    24.5320 
  139.2500     2.4300    -7.0440    64.5620    17.5880    17.6670    16.7760    24.6490 
  139.3750     2.4550    -6.8650    63.9130    16.9710    16.8260    15.3240    24.8090 
  139.5000     2.4940    -6.7490    61.3260    16.5900    16.1900    16.2380    25.0090 
  139.6250     2.5270    -6.6760    61.8590    16.3280    15.7110    18.8300    25.2050 
  139.7500     2.5440    -6.7080    62.8710    16.0830    15.3180    18.9300    25.2510 
  139.8750     2.5430    -6.6920    61.4210    15.8830    15.0390    16.9510    25.2610 
  140.0000     2.5290    -6.5720    59.6860    15.7950    14.9180    15.0330    25.3490 
  140.1250     2.5110    -6.5040    60.1570    15.8930    14.9830    14.3130    25.4730 
  140.2500     2.4980    -6.4580    59.0250    16.1240    15.1280    14.6160    25.5460 
  140.3750     2.4940    -6.4880    55.7600    16.4080    15.2500    14.8220    25.6050 
  140.5000     2.4990    -6.5340    54.1980    16.6490    15.2700    14.5670    25.6990 
  140.6250     2.5110    -6.5580    56.2750    16.7490    15.1740    15.4650    25.7610 
  140.7500     2.5270    -6.6010    57.1380    16.7140    15.0500    15.9570    25.7510 
  140.8750     2.5400    -6.6720    56.2870    16.5960    14.9600    16.7390    25.6570 
  141.0000     2.5480    -6.8390    55.0700    16.4800    14.9380    17.2710    25.5900 
  141.1250     2.5460    -6.9960    55.4930    16.4820    15.0020    16.6590    25.5750 
  141.2500     2.5380    -7.1090    56.9620    16.6310    15.1210    16.0230    25.6410 
  141.3750     2.5240    -7.1930    58.7030    16.9060    15.2770    16.3450    25.7600 
  141.5000     2.5090    -7.2010    60.8400    17.2390    15.4580    16.5830    25.8860 
  141.6250     2.4950    -7.2580    64.0210    17.5100    15.6390    16.4610    26.0650 
  141.7500     2.4880    -7.2400    66.2510    17.5900    15.7480    16.6470    26.2780 
  141.8750     2.4960    -7.1870    66.9450    17.3730    15.6850    17.1440    26.4270 
  142.0000     2.5180    -7.0870    66.1730    16.8160    15.3720    17.7440    26.4480 
  142.1250     2.5460    -6.9190    64.6350    15.9330    14.7650    17.9480    26.4150 
  142.2500     2.5660    -6.7610    63.5410    14.9020    13.9860    17.4190    26.3800 
  142.3750     2.5710    -6.5070    64.8330    13.8140    13.0950    16.1630    26.3630 
  142.5000     2.5590    -6.2500    69.9350    12.6840    12.0920    14.7070    26.3780 
  142.6250     2.5320    -5.9330    75.4460    11.4440    10.8930    12.7950    26.4320 
  142.7500     2.4910    -5.6310    78.6860    10.0950     9.5340    11.2440    26.4750 
  142.8750     2.4330    -5.3300    81.8970     8.7270     8.1260    10.2680    26.5950 
  143.0000     2.3660    -5.0000    86.4710     7.4870     6.8340     9.6510    26.7520 
  143.1250     2.3080    -4.7140    89.2400     6.5700     5.8510     8.3560    26.8430 
  143.2500     2.2810    -4.4030    90.8190     5.9800     5.1860     6.4340    26.8030 
  143.3750     2.2900    -4.2110    93.2010     5.6860     4.8100     5.0380    26.4470 
  143.5000     2.3290    -4.1110    94.6040     5.6200     4.6520     4.6100    25.8050 
  143.6250     2.3770    -4.0120    93.0980     5.7160     4.6270     4.7230    25.1320 
  143.7500     2.4160    -3.9530    95.7180     5.8530     4.6360     4.8050    24.6880 
  143.8750     2.4380    -3.9470   104.3240     5.9460     4.6480     4.9030    24.4390 
  144.0000     2.4430    -4.0420   110.8160     5.9440     4.6670     5.0550    24.2530 
  144.1250     2.4350    -4.1740   107.6000     5.8400     4.7110     5.2140    24.1120 
  144.2500     2.4240    -4.3210   101.4680     5.7060     4.7700     5.1940    24.1050 
  144.3750     2.4140    -4.4410    97.0390     5.5990     4.8220     5.1630    24.2320 
  144.5000     2.4060    -4.4990    96.1060     5.5450     4.8470     5.1530    24.3810 
  144.6250     2.4000    -4.6790    99.6110     5.5380     4.8410     5.2570    24.4840 
  144.7500     2.3960    -4.8960   103.9910     5.5390     4.8170     5.4940    24.4960 
  144.8750     2.3980    -5.1380   102.8050     5.5270     4.7890     5.7190    24.4520 
  145.0000     2.4060    -5.3190    98.9250     5.4920     4.7690     5.5630    24.4210 
  145.1250     2.4120    -5.4030   100.9710     5.4300     4.7610     5.1640    24.3870 
  145.2500     2.4060    -5.4680   103.6850     5.3550     4.7550     4.9480    24.3530 
  145.3750     2.3860    -5.4900   100.0190     5.2900     4.7390     4.8570    24.3190 
  145.5000     2.3600    -5.5540    93.8120     5.2630     4.7040     4.6380    24.3250 
  145.6250     2.3450    -5.5110    96.6680     5.3030     4.6540     4.4170    24.4040 
  145.7500     2.3490    -5.4050   105.3960     5.3850     4.6000     4.2470    24.4720 
  145.8750     2.3700    -5.2320   109.9920     5.4710     4.5460     4.1280    24.5380 
  146.0000     2.3990    -5.0400   106.4690     5.5210     4.4900     4.0050    24.6020 
  146.1250     2.4220    -4.9000    96.8250     5.5020     4.4300     3.9980    24.6510 
  146.2500     2.4360    -4.7800    90.5690     5.4350     4.3740     4.0860    24.6980 
  146.3750     2.4340    -4.6880    92.6910     5.3480     4.3260     4.1040    24.7690 
  146.5000     2.4160    -4.5450    98.0010     5.2740     4.2840     3.9750    24.8430 
  146.6250     2.3820    -4.4950   100.0890     5.2380     4.2440     3.8850    24.8930 
  146.7500     2.3440    -4.4980    99.1850     5.2260     4.2010     3.8190    24.8880 
  146.8750     2.3170    -4.5110    98.1600     5.2130     4.1540     3.7850    24.8700 
  147.0000     2.3100    -4.5840    98.2190     5.1800     4.1130     3.7470    24.8680 
  147.1250     2.3250    -4.6490    99.0930     5.1300     4.0890     3.7300    24.8600 
  147.2500     2.3500    -4.7710    99.5970     5.0890     4.0890     3.7080    24.8440 
  147.3750     2.3730    -4.9600   100.5190     5.0690     4.1120     3.7180    24.8380 
  147.5000     2.3870    -5.1490   103.5550     5.0660     4.1470     3.7320    24.8400 
  147.6250     2.3890    -5.3170   107.4710     5.0680     4.1780     3.7240    24.8610 
  147.7500     2.3850    -5.5240   106.6660     5.0790     4.1930     3.7210    24.8790 
  147.8750     2.3800    -5.8590   101.5130     5.1170     4.1920     3.6930    24.8600 
  148.0000     2.3770    -6.1080    96.7150     5.1870     4.1840     3.6020    24.8290 
  148.1250     2.3760    -6.2020    97.0200     5.2640     4.1780     3.4520    24.8180 
  148.2500     2.3750    -6.2220    99.5590     5.3050     4.1720     3.3550    24.8360 
  148.3750     2.3730    -6.1380   101.4320     5.2850     4.1630     3.3730    24.8540 
  148.5000     2.3710    -6.0830   101.9970     5.2090     4.1570     3.4540    24.8530 
  148.6250     2.3690    -5.9430   102.3450     5.1050     4.1710     3.5440    24.8280 
  148.7500     2.3700    -5.6990   101.9120     5.0110     4.2110     3.5910    24.8060 
  148.8750     2.3700    -5.3070    99.4590     4.9450     4.2650     3.5860    24.8180 
