~V
VERS. 2.00: Ver 2.00
~W
STRT.M 50.0000:
STOP.M 265.0000:
STEP.M 0.1250:
NULL. -999.2500:
UWI. F11185:
~C
DEPT.M :
SP.MV :
GR.API :
RI. :
RML.OHMM :
RXO.OHMM :
DEN.GM/CC :
~A
# ...
   62.8750  -120.8220    58.6480     4.9840     5.4830     6.3780     2.2770 
   63.0000  -120.9490    57.3900     5.1950     5.7030     9.6600     2.4260 
   63.1250  -121.0920    58.4450     5.2620     5.7730    11.5460     2.4590 
   63.2500  -121.3490    60.2100     5.1180     5.6230     9.3470     2.3470 
   63.3750  -121.7820    60.1830     4.8470     5.3410     6.0930     2.1930 
   63.5000  -122.3500    59.2350     4.5290     5.0110     4.8600     2.1030 
   63.6250  -122.9690    55.4840     4.2860     4.7570     4.8030     2.0880 
   63.7500  -123.5820    50.1890     4.1920     4.6590     4.4050     2.0960 
   63.8750  -124.1320    47.2070     4.1900     4.6580     4.6660     2.1060 
   64.0000  -124.5910    46.5070     4.2290     4.6980     4.9470     2.1140 
   64.1250  -124.8880    47.1370     4.2590     4.7290     5.1030     2.1150 
   64.2500  -125.0130    49.4460     4.2940     4.7660     5.1610     2.1090 
   64.3750  -125.0530    53.1220     4.3720     4.8470     5.1610     2.0960 
   64.5000  -125.1170    55.0620     4.4860     4.9660     5.0880     2.0890 
   64.6250  -125.2590    52.0790     4.6100     5.0940     4.9690     2.1270 
   64.7500  -125.4180    47.5620     4.6890     5.1770     4.8990     2.2250 
   64.8750  -125.5140    45.1420     4.7010     5.1890     4.9040     2.3180 
   65.0000  -125.4830    46.3700     4.6170     5.1020     4.9110     2.3190 
   65.1250  -125.2330    49.8320     4.4660     4.9440     4.8510     2.2230 
   65.2500  -124.8790    53.0190     4.2360     4.7060     4.7390     2.1320 
   65.3750  -124.5450    55.1670     4.0240     4.4850     4.5870     2.1100 
   65.5000  -124.2480    57.0950     3.8990     4.3550     4.4100     2.1210 
   65.6250  -123.9500    59.5940     3.8820     4.3370     4.3730     2.1230 
   65.7500  -123.5630    61.0980     3.9450     4.4030     4.6020     2.1140 
   65.8750  -123.2010    61.2100     4.0390     4.5000     4.9660     2.1060 
   66.0000  -123.0790    59.3110     4.1410     4.6070     5.1540     2.1020 
   66.1250  -123.1790    55.9800     4.2110     4.6800     5.0310     2.1000 
   66.2500  -123.2870    52.5160     4.2360     4.7050     4.8250     2.1020 
   66.3750  -123.3670    51.5300     4.2050     4.6730     4.7530     2.1070 
   66.5000  -123.4340    54.1760     4.1680     4.6340     4.7740     2.1120 
   66.6250  -123.3640    57.6970     4.1470     4.6130     4.7670     2.1150 
   66.7500  -123.1830    59.9070     4.1380     4.6030     4.7210     2.1190 
   66.8750  -123.0280    61.0380     4.1350     4.6010     4.6690     2.1260 
   67.0000  -122.9870    61.7290     4.1230     4.5880     4.6020     2.1220 
   67.1250  -123.1430    60.2440     4.1060     4.5700     4.5020     2.1030 
   67.2500  -123.3520    57.3380     4.0880     4.5520     4.3910     2.0890 
   67.3750  -123.4540    54.7900     4.0870     4.5510     4.2830     2.0940 
   67.5000  -123.4850    54.0190     4.1300     4.5950     4.1820     2.1040 
   67.6250  -123.4920    55.7830     4.2130     4.6810     4.1360     2.1040 
   67.7500  -123.5060    56.9080     4.3230     4.7960     4.5000     2.0960 
   67.8750  -123.6120    55.5380     4.4200     4.8960     5.2470     2.0820 
   68.0000  -123.8130    52.8840     4.4720     4.9510     5.2210     2.0690 
   68.1250  -124.0250    50.7740     4.4730     4.9520     5.0020     2.0720 
   68.2500  -124.1930    51.2550     4.4240     4.9010     4.8370     2.0940 
   68.3750  -124.3360    52.8970     4.3460     4.8200     4.8980     2.1180 
   68.5000  -124.4680    53.3620     4.2580     4.7280     4.9790     2.1260 
   68.6250  -124.5220    50.8560     4.1620     4.6290     4.8940     2.1160 
   68.7500  -124.4730    48.3210     4.0810     4.5450     4.8250     2.1040 
   68.8750  -124.3050    48.2290     4.0170     4.4770     4.8610     2.1030 
   69.0000  -124.0570    49.2600     3.9600     4.4180     4.8840     2.1090 
   69.1250  -123.7610    50.3120     4.0230     4.4840     4.8550     2.1120 
   69.2500  -123.4480    51.6130     4.3900     4.8660     4.8180     2.1170 
   69.3750  -123.1410    51.0230     5.0380     5.5400     5.9200     2.1510 
   69.5000  -122.8460    48.3580     5.7550     6.2850    12.0540     2.2450 
   69.6250  -122.6490    47.0400     6.2280     6.7770    23.2160     2.3750 
   69.7500  -122.5340    48.4320     6.1620     6.7090    26.9820     2.4290 
   69.8750  -122.3900    49.6130     5.6520     6.1780    17.7630     2.3340 
   70.0000  -122.2440    49.5220     4.9430     5.4410     8.3760     2.1840 
   70.1250  -122.1280    48.7540     4.2900     4.7620     5.5550     2.1030 
   70.2500  -121.9920    50.5780     3.9410     4.3990     5.2410     2.1000 
   70.3750  -121.6840    54.3170     3.8590     4.3140     5.0630     2.1240 
   70.5000  -121.1050    57.4290     3.9720     4.4310     4.8920     2.1380 
   70.6250  -120.3100    58.9250     4.1440     4.6100     4.9910     2.1310 
   70.7500  -119.5110    57.8330     4.3100     4.7820     5.1730     2.1120 
   70.8750  -118.9310    56.7180     4.4510     4.9290     5.2190     2.1030 
   71.0000  -118.6130    54.8350     4.5420     5.0240     5.2410     2.1110 
   71.1250  -118.2290    51.5110     4.5240     5.0050     5.2320     2.1210 
   71.2500  -117.4590    48.8440     4.3900     4.8650     5.0930     2.1230 
   71.3750  -116.2160    50.5890     4.1820     4.6490     4.8240     2.1210 
   71.5000  -114.5620    56.7010     3.9510     4.4090     4.4080     2.1290 
   71.6250  -112.5500    63.5170     3.7630     4.2130     3.9050     2.1640 
   71.7500  -110.3520    70.1530     3.6520     4.0980     3.7630     2.2120 
   71.8750  -108.2450    79.4430     3.6070     4.0520     3.8190     2.2440 
   72.0000  -106.4490    89.0960     3.6260     4.0710     3.9470     2.2550 
   72.1250  -105.1680    96.9970     3.6920     4.1400     3.9740     2.2620 
   72.2500  -104.3750   102.7130     3.7660     4.2170     3.8840     2.2690 
   72.3750  -103.8980   104.0500     3.8340     4.2880     3.9030     2.2630 
   72.5000  -103.5710   100.9510     3.9190     4.3760     4.0870     2.2410 
   72.6250  -103.4170    96.9030     4.0540     4.5170     4.2930     2.2230 
   72.7500  -103.4990    97.7350     4.2270     4.6960     4.4620     2.2150 
   72.8750  -103.8040    99.5580     4.3660     4.8410     4.9400     2.2060 
   73.0000  -104.2000    98.8980     4.4240     4.9010     5.7950     2.1930 
   73.1250  -104.6170    95.5110     4.3950     4.8710     6.0640     2.1880 
   73.2500  -105.0360    94.3470     4.3590     4.8330     5.3690     2.1940 
   73.3750  -105.4160    96.6110     4.3920     4.8670     4.6970     2.2080 
   73.5000  -105.7050    99.3530     4.4950     4.9750     4.8210     2.2200 
   73.6250  -105.9050    99.0600     4.6960     5.1840     5.6380     2.2190 
   73.7500  -106.1370    95.7970     4.9030     5.3990     6.1940     2.2040 
   73.8750  -106.6080    92.5230     5.0070     5.5070     5.8300     2.1850 
   74.0000  -107.2600    90.5770     4.9430     5.4410     5.2780     2.1760 
   74.1250  -107.9080    89.2080     4.6980     5.1860     5.1210     2.1760 
   74.2500  -108.4660    89.3550     4.3560     4.8300     5.0180     2.1850 
   74.3750  -108.8490    91.4930     4.0790     4.5430     4.6730     2.1990 
   74.5000  -109.0020    93.9020     4.1180     4.5820     4.4020     2.2100 
   74.6250  -109.0220    91.7840     4.6360     5.1210     5.3160     2.2290 
   74.7500  -109.0860    85.0950     5.9100     6.4460     9.1180     2.2920 
   74.8750  -109.2570    77.3510     7.9630     8.5820    16.3780     2.4060 
   75.0000  -109.4620    71.6440     9.8030    10.4950    23.3670     2.5030 
   75.1250  -109.7160    67.0680    10.4950    11.2150    24.6950     2.5050 
   75.2500  -110.2180    61.6320     9.7380    10.4270    19.3330     2.4030 
   75.3750  -111.0290    57.6600     7.9910     8.6110    11.6500     2.2570 
   75.5000  -111.9140    57.4340     6.3170     6.8690     6.9690     2.1450 
   75.6250  -112.8420    59.1640     5.4570     5.9750     5.7200     2.1030 
