~V
VERS. 2.00: Ver 2.00
~W
STRT.M 51.0000:
STOP.M 249.0000:
STEP.M 0.1250:
NULL. -999.2500:
UWI. F11143:
~C
DEPT.M :
GR.API :
RML.OHMM :
RI. :
RXO.OHMM :
CALI.CM :
SP.MV :
DEN.GM/CC :
~A
# ...
  163.5000    72.2150    16.7560    15.0840    18.1240    23.7150   -17.4790     2.2900 
  163.6250    71.6650    19.1930    17.5160    23.9030    23.7240   -17.6680     2.2800 
  163.7500    69.8480    20.8400    19.4600    29.9440    23.7290   -17.8480     2.2740 
  163.8750    69.1380    21.2330    20.3070    30.4420    23.7580   -17.9680     2.2750 
  164.0000    70.6460    20.4330    19.9370    26.2480    23.7700   -18.0340     2.2860 
  164.1250    73.1320    19.0030    18.7610    21.3780    23.7470   -18.0380     2.3020 
  164.2500    74.5620    17.7420    17.5570    18.7740    23.6890   -18.0090     2.3160 
  164.3750    74.3030    16.9160    16.6310    19.8200    23.6600   -17.9710     2.3250 
  164.5000    73.9550    16.4820    16.0390    21.6350    23.6890   -17.9410     2.3310 
  164.6250    73.9920    16.3570    15.7840    20.9030    23.7300   -17.9700     2.3390 
  164.7500    73.9850    16.4820    15.8120    18.2720    23.7490   -18.0600     2.3460 
  164.8750    73.1670    16.9350    16.1780    17.7290    23.7530   -18.2230     2.3450 
  165.0000    72.2250    17.8070    16.9500    18.2760    23.7690   -18.4230     2.3290 
  165.1250    74.4090    19.1420    18.2230    20.3890    23.8000   -18.6210     2.3000 
  165.2500    77.0240    20.6340    19.7810    23.2160    23.8470   -18.8410     2.2730 
  165.3750    76.7260    21.9240    21.3040    25.7380    23.8750   -19.0880     2.2600 
  165.5000    73.7220    22.6870    22.4150    26.4870    23.8650   -19.3440     2.2610 
  165.6250    70.4970    22.7010    22.7690    25.8360    23.8500   -19.5940     2.2670 
  165.7500    70.5460    22.2490    22.5680    25.2350    23.8440   -19.8620     2.2680 
  165.8750    73.2050    21.6410    22.0870    24.7660    23.8460   -20.1670     2.2650 
  166.0000    75.5460    21.1630    21.6150    23.9570    23.8490   -20.5030     2.2610 
  166.1250    75.7120    21.0270    21.3960    23.4700    23.8640   -20.8630     2.2610 
  166.2500    75.7960    21.1960    21.4580    23.3410    23.8930   -21.1980     2.2630 
  166.3750    76.2470    21.6020    21.7680    23.7210    23.9290   -21.5060     2.2660 
  166.5000    75.0240    22.1320    22.2350    25.0060    23.9450   -21.8080     2.2710 
  166.6250    71.6450    22.6140    22.7020    25.7760    23.9690   -22.1040     2.2760 
  166.7500    70.7590    22.9380    23.0320    26.3040    23.9850   -22.4090     2.2770 
  166.8750    73.5620    23.1370    23.2240    26.7010    23.9900   -22.7100     2.2740 
  167.0000    76.0940    23.4250    23.4450    27.0850    23.9810   -23.0100     2.2720 
  167.1250    72.7140    24.3690    24.1410    27.6860    23.9670   -23.3610     2.2670 
  167.2500    66.2360    26.5050    25.7560    28.9800    23.9660   -23.7790     2.2560 
  167.3750    62.1980    30.4180    28.8400    32.5150    23.9870   -24.2520     2.2450 
  167.5000    62.6440    43.1730    34.0100    41.0470    24.0170   -24.7550     2.2370 
  167.6250    63.5420    53.8530    42.3060    59.4540    24.0780   -25.2890     2.2340 
  167.7500    63.3490    66.9260    53.2930    84.9690    24.1660   -25.7800     2.2280 
  167.8750    64.5120    80.7720    65.8240   111.7120    24.2480   -26.2070     2.2170 
  168.0000    65.0170    92.5800    77.4350   127.3210    24.2850   -26.5850     2.2050 
  168.1250    62.1020    98.1550    84.2360   117.9240    24.2740   -26.8900     2.2010 
  168.2500    61.7670    97.4380    85.5090   102.5470    24.2190   -27.1250     2.2060 
  168.3750    67.2330    92.3210    82.3110    91.2730    24.0930   -27.3050     2.2160 
  168.5000    73.6310    85.7670    76.9260    82.6350    23.8560   -27.4520     2.2270 
  168.6250    73.8300    80.8840    72.1080    74.5490    23.5120   -27.5670     2.2370 
  168.7500    72.8940    78.9470    69.5180    67.0070    23.3090   -27.6710     2.2480 
  168.8750    74.2250    80.0540    69.5870    63.3560    23.4120   -27.7750     2.2600 
  169.0000    74.4840    83.4760    71.9390    67.9150    23.6330   -27.8840     2.2700 
  169.1250    70.3960    87.8500    75.6160    83.7640    23.7650   -27.9800     2.2760 
  169.2500    65.6210    91.5250    79.0430   101.9760    23.9220   -28.0850     2.2760 
  169.3750    63.5540    94.1190    81.5630   109.3890    24.1440   -28.2040     2.2700 
  169.5000    63.3570    96.7730    83.7440    94.1450    24.2970   -28.3170     2.2600 
  169.6250    63.6840   102.8220    88.1930    80.4080    24.3620   -28.4140     2.2490 
  169.7500    65.3300   115.1820    97.8760    78.9550    24.3790   -28.5270     2.2370 
  169.8750    66.7010   136.9250   115.9300    93.3460    24.3840   -28.6630     2.2230 
  170.0000    66.3330   171.2490   145.1540   136.8600    24.3900   -28.7980     2.2060 
  170.1250    62.4490   223.4590   188.8550   204.9190    24.3920   -28.9280     2.1940 
  170.2500    57.1600   288.9140   241.6670   282.6480    24.3660   -29.0120     2.1930 
  170.3750    53.3010   357.1720   295.3900   327.7500    24.2960   -29.0270     2.2030 
  170.5000    53.7460   412.2980   339.6370   340.7470    24.1490   -28.9990     2.2150 
  170.6250    55.9910   436.3670   362.7950   350.0340    23.8680   -28.9150     2.2240 
  170.7500    55.9400   427.6210   363.1960   342.6860    23.6210   -28.7610     2.2280 
  170.8750    55.9450   385.3270   338.6310   330.3930    23.5550   -28.5610     2.2250 
  171.0000    57.5340   318.8550   291.7650   318.0360    23.6970   -28.3460     2.2160 
  171.1250    56.6970   249.2990   233.6360   307.0800    24.0070   -28.1410     2.2040 
  171.2500    54.4480   196.8680   181.1000   262.2730    24.2970   -27.9640     2.2030 
  171.3750    55.4930   160.8930   141.7730   185.6220    24.4170   -27.8050     2.2220 
  171.5000    59.4140   136.6490   116.9490   119.9860    24.4570   -27.6550     2.2560 
  171.6250    61.3780   126.4670   105.9600    98.5770    24.5330   -27.5440     2.2810 
  171.7500    62.9480   125.0090   103.6160   100.0860    24.6490   -27.4470     2.2850 
  171.8750    65.0050   130.1140   107.9160   110.2820    24.7250   -27.3050     2.2750 
  172.0000    64.8310   140.0050   117.4700   121.3010    24.7280   -27.1300     2.2600 
  172.1250    62.3550   153.4360   131.6260   132.2570    24.6370   -26.9270     2.2500 
  172.2500    61.9770   168.6400   148.5810   144.8090    24.5100   -26.6810     2.2460 
  172.3750    63.2520   184.9910   167.5630   157.5710    24.4470   -26.4260     2.2440 
  172.5000    62.5900   201.1620   187.4030   169.6770    24.4390   -26.1650     2.2380 
  172.6250    60.1520   209.4450   202.0660   182.8920    24.4440   -25.8620     2.2290 
  172.7500    59.4120   197.9220   199.8540   193.9890    24.4520   -25.5300     2.2210 
  172.8750    60.6040   160.9550   170.5990   191.1850    24.4660   -25.2240     2.2190 
  173.0000    61.8260   110.7520   120.8640   168.0110    24.4800   -24.9250     2.2260 
  173.1250    63.5700    68.9950    74.7400   121.1630    24.4630   -24.6580     2.2490 
  173.2500    69.2040    41.5930    44.2620    65.7600    24.4380   -24.4490     2.2900 
  173.3750    78.1080    25.7530    27.2510    30.2210    24.4160   -24.2940     2.3430 
  173.5000    86.3600    17.3680    18.5970    14.9130    24.4000   -24.1980     2.3910 
  173.6250    88.8300    13.7920    14.8090    11.5730    24.3760   -24.1760     2.4140 
  173.7500    87.1270    12.6040    13.2080    10.6160    24.2990   -24.2740     2.4180 
  173.8750    85.5090    13.2560    13.2360    10.9570    24.1890   -24.4770     2.4160 
  174.0000    86.4860    15.7800    14.8220    12.2240    24.1380   -24.7530     2.4130 
  174.1250    86.4830    21.0940    18.6680    14.9970    24.1700   -25.0960     2.4000 
  174.2500    83.0910    29.3960    25.2590    22.4390    24.2270   -25.4970     2.3730 
  174.3750    77.6980    39.6020    35.4260    38.0510    24.2820   -25.9300     2.3350 
  174.5000    71.6510    52.7350    49.3610    59.2340    24.3160   -26.3760     2.2940 
  174.6250    67.3680    66.4730    65.0650    80.8510    24.3160   -26.8070     2.2650 
