~V
VERS. 2.00: Ver 2.00
~W
STRT.M 60.0000:
STOP.M 282.0000:
STEP.M 0.1250:
NULL. -999.2500:
UWI. F11159:
~C
DEPT.M :
GR.API :
RML.OHMM :
RI. :
RXO.OHMM :
CALI.CM :
SP.MV :
DEN.GM/CC :
~A
# ...
  206.2500    87.1700     8.4460     7.1030     8.4920    25.3430   -29.2300     2.2320 
  206.3750    84.8200     8.3990     7.0670     8.2320    25.4640   -30.2660     2.2380 
  206.5000    84.9710     8.3250     6.9920     7.8530    25.5370   -31.4150     2.2490 
  206.6250    90.0640     8.2940     6.9310     7.4740    25.6650   -32.6830     2.2570 
  206.7500    93.5180     8.3300     6.9260     7.6720    25.7650   -33.9540     2.2640 
  206.8750    92.6400     8.4330     6.9930     8.0310    25.8050   -35.1840     2.2740 
  207.0000    90.8820     8.6030     7.1390     8.0890    25.8180   -36.3280     2.2930 
  207.1250    88.3460     8.9120     7.3960     8.1110    26.0040   -37.2980     2.3260 
  207.2500    84.9850     9.4250     7.7910     8.5670    25.7340   -38.0490     2.3680 
  207.3750    82.2430    10.1690     8.3490     9.3900    25.4600   -38.5570     2.4080 
  207.5000    81.3810    11.0610     9.0320    10.3290    25.1220   -38.7630     2.4310 
  207.6250    80.6450    11.8310     9.6790    11.4030    24.9020   -38.6140     2.4200 
  207.7500    83.8450    12.1760    10.0450    12.9910    24.7600   -38.2080     2.3840 
  207.8750    91.2470    11.9000     9.9420    14.7490    24.7460   -37.6010     2.3350 
  208.0000    95.8140    11.0350     9.3450    13.2050    24.9730   -36.8530     2.2900 
  208.1250    94.1060     9.8620     8.4300     9.7670    25.5110   -35.9660     2.2660 
  208.2500    91.5720     8.8040     7.5410     8.1970    25.9230   -34.9850     2.2640 
  208.3750    90.1770     8.0830     6.8700     7.8320    25.8650   -33.9540     2.2840 
  208.5000    89.9990     7.8380     6.5380     7.7020    25.4470   -32.9160     2.3200 
  208.6250    91.5370     8.2840     6.7110     7.6740    24.8360   -31.9380     2.3700 
  208.7500    93.9630     9.4220     7.4040     8.0890    24.0280   -31.0450     2.4250 
  208.8750    93.7830    11.2770     8.6860     9.6780    23.8580   -30.2080     2.4760 
  209.0000    88.2500    13.7020    10.5580    12.6850    23.9320   -29.3940     2.5090 
  209.1250    78.7390    16.0600    12.7340    17.7540    23.9880   -28.6320     2.5040 
  209.2500    73.1830    17.2600    14.3000    23.1730    23.7450   -27.9200     2.4590 
  209.3750    76.4160    16.4870    14.3490    24.3620    23.5580   -27.2690     2.3880 
  209.5000    85.1870    13.8920    12.7090    20.7180    23.3560   -26.6720     2.3110 
  209.6250    91.3230    10.6590    10.1880    14.3960    23.1560   -26.0880     2.2530 
  209.7500    92.1680     8.0220     7.9100     9.4880    23.1400   -25.5370     2.2180 
  209.8750    86.8800     6.2960     6.2400     6.2030    23.3090   -25.0870     2.2010 
  210.0000    77.7450     5.3850     5.2030     4.6890    23.7220   -24.7990     2.1980 
  210.1250    72.8650     5.1310     4.7640     4.5180    24.7950   -24.7540     2.2060 
  210.2500    74.0910     5.2280     4.6970     4.6420    25.8310   -24.8900     2.2250 
  210.3750    77.9570     5.5340     4.8920     4.5580    27.0870   -25.1590     2.2510 
  210.5000    81.5320     5.9360     5.2490     4.5790    27.4910   -25.5430     2.2750 
  210.6250    82.1230     6.3360     5.6770     4.8500    27.1920   -26.0530     2.2760 
  210.7500    78.9780     6.6640     6.0760     5.1670    25.9350   -26.5900     2.2550 
  210.8750    72.9350     6.8720     6.3810     5.4820    24.9480   -27.1000     2.2280 
  211.0000    69.2400     6.9310     6.5420     5.8530    24.6930   -27.5210     2.2150 
  211.1250    71.9420     6.8260     6.5170     5.5840    24.6690   -27.7400     2.2300 
  211.2500    77.8610     6.6530     6.3730     5.5170    24.6660   -27.8140     2.2570 
  211.3750    83.9730     6.4920     6.1820     5.6880    24.6670   -27.7400     2.2710 
  211.5000    86.7080     6.3920     6.0020     6.0030    24.6610   -27.5080     2.2540 
  211.6250    86.6780     6.3410     5.8510     6.3700    24.6570   -27.0570     2.2080 
  211.7500    86.2090     6.2740     5.6950     6.4860    24.6180   -26.4430     2.1590 
  211.8750    85.5190     6.1590     5.5100     6.2910    24.5750   -25.6520     2.1220 
  212.0000    84.2910     6.0230     5.3070     5.8070    24.4910   -24.7440     2.1010 
  212.1250    81.6490     5.9750     5.1600     5.2790    24.0050   -23.8420     2.0980 
  212.2500    78.5030     6.1190     5.1480     5.1780    23.3830   -22.9860     2.1070 
  212.3750    74.6170     6.5300     5.3330     5.5170    23.0930   -22.1940     2.1240 
  212.5000    71.2480     7.2370     5.7470     6.1520    23.0530   -21.4900     2.1480 
  212.6250    72.8110     8.2470     6.4180     6.7940    23.1420   -20.9410     2.1760 
  212.7500    77.2620     9.4170     7.2600     7.9960    23.5100   -20.5410     2.2030 
  212.8750    77.9280    10.6190     8.1900     9.9060    24.1540   -20.3160     2.2260 
  213.0000    71.8420    11.7190     9.1100    11.8300    24.3400   -20.2450     2.2410 
  213.1250    67.0070    12.6060     9.9150    12.4160    24.3170   -20.2670     2.2460 
  213.2500    68.2200    13.3660    10.6130    12.9220    24.2840   -20.3550     2.2450 
  213.3750    70.4580    14.1690    11.2930    13.8340    24.2780   -20.4850     2.2450 
  213.5000    70.0810    15.2240    12.1020    14.8540    24.2770   -20.6480     2.2480 
  213.6250    68.7990    16.7440    13.2320    15.9020    24.2690   -20.8430     2.2500 
  213.7500    67.1230    18.6070    14.6570    17.1690    24.2370   -21.0570     2.2450 
  213.8750    64.0150    20.5740    16.2470    19.7640    24.2160   -21.2840     2.2320 
  214.0000    61.5260    22.3070    17.7650    23.5790    24.2250   -21.4970     2.2140 
  214.1250    63.8830    23.3930    18.8820    26.5740    24.3020   -21.6780     2.1990 
  214.2500    68.5160    23.8520    19.5370    26.1060    24.4300   -21.8200     2.1890 
  214.3750    71.7670    23.8730    19.8230    24.8090    24.5110   -21.9800     2.1860 
  214.5000    71.8250    23.7390    19.9460    24.7720    24.5100   -22.1860     2.1890 
  214.6250    69.0730    23.7310    20.1620    25.3150    24.5090   -22.4400     2.1910 
  214.7500    65.7620    23.9540    20.6120    25.7800    24.5180   -22.7110     2.1890 
  214.8750    63.6670    24.3760    21.3030    26.6440    24.5270   -23.0010     2.1770 
  215.0000    64.1980    24.9080    22.1520    28.7090    24.5280   -23.3030     2.1560 
  215.1250    66.6060    25.5020    23.0600    29.6050    24.5220   -23.6070     2.1310 
  215.2500    68.0880    26.1640    23.9740    29.3850    24.5090   -23.8890     2.1080 
  215.3750    68.2740    26.8930    24.8740    28.8480    24.5070   -24.1030     2.0930 
  215.5000    68.1000    27.5630    25.6750    28.8730    24.5070   -24.2190     2.0850 
  215.6250    68.6160    27.6860    26.0040    28.6750    24.5020   -24.2310     2.0890 
  215.7500    69.7570    26.7400    25.4080    28.3190    24.4720   -24.1850     2.1020 
  215.8750    69.9000    24.3970    23.5190    27.4330    24.4300   -24.0980     2.1230 
  216.0000    68.3250    20.8770    20.4340    25.8820    24.4140   -23.9680     2.1500 
  216.1250    67.6300    17.0380    16.8630    22.2910    24.3380   -23.8050     2.1830 
  216.2500    70.2860    13.9280    13.8010    16.7430    24.2800   -23.6420     2.2220 
  216.3750    74.2740    12.1310    11.7600    11.9140    24.2560   -23.4970     2.2660 
  216.5000    76.6890    11.9750    10.9800    10.1560    24.1750   -23.3830     2.3080 
  216.6250    77.9040    14.1300    11.9940    11.0020    24.0260   -23.3170     2.3260 
  216.7500    76.3780    18.7330    15.1550    14.5270    23.8360   -23.2700     2.3080 
  216.8750    70.8320    26.1490    21.2540    25.8850    23.7870   -23.2360     2.2590 
  217.0000    63.7040    36.1120    30.7280    50.7210    23.7200   -23.2240     2.2010 
  217.1250    59.4930    45.6930    41.7280    70.2630    23.5300   -23.2450     2.1630 
  217.2500    58.6190    49.2480    48.2060    64.1370    23.5330   -23.2880     2.1500 
  217.3750    58.7690    44.2530    46.1200    53.0180    23.6890   -23.3440     2.1590 
