~V
VERS. 2.00: Ver 2.00
~W
STRT.M 50.0000:
STOP.M 209.0000:
STEP.M 0.1250:
NULL. -999.2500:
UWI. F11109:
~C
DEPT.M :
GR.API :
RML.OHMM :
RI. :
RXO.OHMM :
CALI.CM :
SP.MV :
DEN.GM/CC :
~A
# ...
   72.5000    71.0450     8.1320     6.6030     8.0010    22.8350   -29.8540     2.1330 
   72.6250    64.7860     8.0660     6.4990     7.7430    22.7360   -29.8900     2.1180 
   72.7500    58.4540     8.0900     6.4620     7.6710    22.6890   -29.9870     2.1060 
   72.8750    56.9730     8.1590     6.4700     7.7150    22.6750   -30.1510     2.1010 
   73.0000    59.8290     8.2230     6.4910     7.6770    22.6730   -30.3670     2.1040 
   73.1250    63.3890     8.2430     6.4950     7.6710    22.6750   -30.5400     2.1080 
   73.2500    65.8530     8.2220     6.4790     7.5070    22.6780   -30.6150     2.1110 
   73.3750    67.3650     8.1710     6.4480     7.2700    22.6940   -30.5610     2.1120 
   73.5000    68.4170     8.1060     6.4120     7.1110    22.7420   -30.3060     2.1150 
   73.6250    69.3350     8.0600     6.3900     7.0420    22.8190   -29.7880     2.1250 
   73.7500    69.1860     8.0630     6.3890     7.0800    22.9030   -29.1050     2.1420 
   73.8750    68.1260     8.1270     6.4140     7.1170    22.9700   -28.3430     2.1620 
   74.0000    67.3730     8.2460     6.4610     7.0770    23.0120   -27.5690     2.1810 
   74.1250    67.4560     8.3890     6.5150     7.0440    23.0620   -26.8520     2.1960 
   74.2500    67.4310     8.4930     6.5530     7.1570    23.1010   -26.2370     2.2070 
   74.3750    66.5310     8.5150     6.5510     7.2810    23.1150   -25.7350     2.2160 
   74.5000    65.6990     8.4300     6.4970     7.2550    23.1190   -25.3670     2.2220 
   74.6250    65.0390     8.2250     6.3790     7.1350    23.1180   -25.1380     2.2200 
   74.7500    64.3050     7.9560     6.2200     7.1480    23.1180   -24.9520     2.2100 
   74.8750    63.8440     7.7180     6.0630     7.3210    23.1170   -24.7730     2.1930 
   75.0000    64.1380     7.6960     6.0110     7.4640    23.1170   -24.5630     2.1790 
   75.1250    64.9070     8.2480     6.2750     7.4430    23.1570   -24.2750     2.1940 
   75.2500    64.5400     9.4980     6.9710     7.3240    23.2750   -23.8900     2.2530 
   75.3750    64.0600    11.4130     8.1490     7.6420    23.4880   -23.3940     2.3520 
   75.5000    65.7960    13.6020     9.6700     9.5530    23.8010   -22.7840     2.4540 
   75.6250    70.0630    14.9390    10.9110    18.4400    24.2510   -22.0390     2.4930 
   75.7500    75.5200    14.5280    11.1090    29.9500    24.7690   -21.2300     2.4650 
   75.8750    83.3060    12.4150    10.0590    23.1880    25.1930   -20.4160     2.4050 
   76.0000    93.9700     9.6250     8.3020     9.3500    25.3740   -19.6680     2.3540 
   76.1250   102.3110     7.4030     6.6600     5.7950    25.3800   -19.1010     2.3300 
   76.2500   105.0100     6.0800     5.5250     4.6750    25.3660   -18.7480     2.3200 
   76.3750   104.3050     5.5530     4.9450     4.5270    25.3570   -18.6540     2.3120 
   76.5000   103.6440     5.6150     4.8560     4.4840    25.3130   -18.8360     2.3010 
   76.6250   102.7830     6.1330     5.2210     4.7590    25.1900   -19.3250     2.2900 
   76.7500    99.1490     6.9380     5.8880     5.3040    25.0510   -20.0290     2.2880 
   76.8750    91.6420     7.9630     6.7840     5.9350    24.9920   -20.8640     2.2990 
   77.0000    80.7070     9.0890     7.7990     7.0390    24.9910   -21.7730     2.3140 
   77.1250    67.7930    10.0210     8.6790     7.6440    25.0640   -22.7150     2.3170 
   77.2500    58.0150    10.4630     9.1500     7.5700    25.2170   -23.6380     2.2980 
   77.3750    55.5740    10.2760     9.0720     7.1800    25.3730   -24.4950     2.2570 
   77.5000    58.2800     9.5710     8.5190     6.9230    25.4430   -25.2510     2.2070 
   77.6250    59.2950     8.6490     7.7210     6.7700    25.4370   -25.8670     2.1640 
   77.7500    57.4680     7.8400     6.9610     6.7080    25.4300   -26.3450     2.1300 
   77.8750    56.4320     7.2810     6.3650     6.8630    25.4220   -26.6990     2.1050 
   78.0000    56.5510     7.0650     6.0130     6.9750    25.4060   -26.9450     2.0850 
   78.1250    56.2380     7.4420     6.0610     6.9650    25.3710   -27.0770     2.0770 
   78.2500    56.1500     8.5480     6.5820     7.0400    25.3300   -27.1540     2.0850 
   78.3750    55.9240    10.5000     7.6710     7.9720    25.2610   -27.2060     2.1130 
   78.5000    55.0880    13.1520     9.3170    11.3640    25.1280   -27.2370     2.1550 
   78.6250    56.6050    15.6970    11.1690    21.3190    24.9220   -27.2780     2.1930 
   78.7500    60.9750    16.8640    12.3500    33.0500    24.6920   -27.3280     2.2070 
   78.8750    63.1890    16.0150    12.2250    28.3650    24.4020   -27.3890     2.1930 
   79.0000    60.6390    13.7670    10.9820    15.8300    23.9710   -27.4640     2.1630 
   79.1250    58.7390    11.6240     9.5180    10.5350    23.5780   -27.5790     2.1380 
   79.2500    59.6300    10.5060     8.5630     9.1030    23.4480   -27.7500     2.1340 
   79.3750    58.7760    10.5230     8.2960     9.5470    23.3870   -28.0030     2.1540 
   79.5000    55.1310    11.3780     8.6390    12.1530    23.1960   -28.3560     2.1880 
   79.6250    53.9590    12.4040     9.2830    18.1440    22.9330   -28.7890     2.2150 
   79.7500    56.8960    12.7780     9.6600    20.2590    22.8070   -29.2770     2.2170 
   79.8750    59.9790    12.1750     9.4450    15.9860    22.9350   -29.7970     2.1940 
   80.0000    61.1120    10.8790     8.7000    11.1450    23.2850   -30.3110     2.1620 
   80.1250    62.5000     9.5600     7.7830     9.0650    23.5650   -30.7480     2.1370 
   80.2500    63.8400     8.6610     7.0490     8.2890    23.5830   -31.0790     2.1280 
   80.3750    63.0780     8.2390     6.6050     8.1320    23.4800   -31.2850     2.1300 
   80.5000    60.9830     8.1690     6.4320     8.1680    23.4890   -31.3780     2.1350 
   80.6250    61.0260     8.2870     6.4610     8.4380    23.6050   -31.3900     2.1390 
   80.7500    62.4280     8.4460     6.5680     8.7620    23.6520   -31.3670     2.1410 
   80.8750    62.1380     8.6110     6.7030     8.8570    23.6500   -31.3230     2.1490 
   81.0000    61.1650     8.7790     6.8390     8.7170    23.6750   -31.2560     2.1610 
   81.1250    62.1300     8.9410     6.9600     8.5940    23.7510   -31.1530     2.1740 
   81.2500    62.9220     9.0780     7.0530     8.9530    23.7870   -31.0340     2.1780 
   81.3750    61.5390     9.1650     7.1060     9.4940    23.7330   -30.9170     2.1700 
   81.5000    59.4780     9.1840     7.1110     9.6190    23.6150   -30.7880     2.1560 
   81.6250    59.0560     9.1280     7.0680     9.1290    23.5050   -30.6270     2.1430 
   81.7500    58.5110     9.0400     7.0010     8.7260    23.4300   -30.4840     2.1340 
   81.8750    58.6810     8.9660     6.9330     8.5310    23.3720   -30.3830     2.1300 
   82.0000    60.0500     8.9620     6.8950     8.4890    23.3190   -30.3190     2.1280 
   82.1250    60.2160     9.1170     6.9430     8.4760    23.2950   -30.2610     2.1250 
   82.2500    58.6640     9.4340     7.0970     8.4190    23.3210   -30.1970     2.1200 
   82.3750    59.0780     9.8780     7.3500     8.6010    23.3650   -30.1040     2.1110 
   82.5000    63.4270    10.3450     7.6470     8.9280    23.3940   -29.9650     2.1000 
   82.6250    66.2890    10.6300     7.8690     9.5520    23.3600   -29.7690     2.0890 
   82.7500    65.6620    10.6060     7.9170    10.1340    23.3050   -29.5320     2.0800 
   82.8750    64.4220    10.2590     7.7600    10.1770    23.3150   -29.2730     2.0740 
   83.0000    63.7520     9.7130     7.4530     9.7730    23.3830   -29.0180     2.0680 
   83.1250    62.9700     9.1960     7.1260     9.1810    23.3750   -28.8040     2.0620 
   83.2500    62.4070     8.8680     6.8960     8.7150    23.2450   -28.6330     2.0600 
   83.3750    63.7670     8.7590     6.8050     8.1040    23.0210   -28.4810     2.0630 
   83.5000    66.5420     8.8200     6.8380     7.6720    22.8220   -28.2940     2.0740 
   83.6250    69.6300     8.9730     6.9470     7.7430    22.7140   -27.9990     2.0860 
