~V
VERS. 2.00: Ver 2.00
~W
STRT.M 53.0000:
STOP.M 202.0000:
STEP.M 0.1250:
NULL. -999.2500:
UWI. F11113:
~C
DEPT.M :
DEN.GM/CC :
SP.MV :
GR.API :
RML.OHMM :
RI. :
RXO.OHMM :
CALI.CM :
~A
# ...
  154.2500     2.2050    -8.6290    67.9170    19.1730    17.2230    15.9220    26.2550 
  154.3750     2.2010    -8.8000    69.0160    21.5510    19.0550    16.8200    26.0500 
  154.5000     2.2070    -8.9630    70.9830    24.8550    21.6520    17.7950    26.0080 
  154.6250     2.2260    -9.1390    72.2530    29.8030    25.5490    20.8100    26.1050 
  154.7500     2.2450    -9.3120    68.9560    36.6680    31.0610    26.7860    26.2420 
  154.8750     2.2530    -9.4810    63.4770    45.6140    38.4770    38.4300    26.3530 
  155.0000     2.2480    -9.6680    61.4150    56.1640    47.5280    50.1140    26.4740 
  155.1250     2.2370    -9.8660    63.3610    66.6520    56.9150    54.7220    26.5390 
  155.2500     2.2280   -10.0630    62.8650    74.9140    64.6810    58.5210    26.5920 
  155.3750     2.2260   -10.2880    61.2930    79.7730    69.6780    62.2200    26.6270 
  155.5000     2.2310   -10.5260    62.3290    81.3040    71.8310    63.3110    26.6470 
  155.6250     2.2380   -10.7350    65.0740    79.8600    71.4390    67.5380    26.7220 
  155.7500     2.2440   -10.9240    66.2220    76.4070    69.3850    74.3290    26.8960 
  155.8750     2.2470   -11.1030    65.0870    71.4540    65.9700    77.4290    27.0800 
  156.0000     2.2480   -11.2550    63.2110    65.8850    61.6930    72.3360    27.1960 
  156.1250     2.2460   -11.4020    60.5100    60.8310    57.3420    62.2600    27.2670 
  156.2500     2.2470   -11.5440    59.8800    56.8060    53.5950    53.8820    27.3260 
  156.3750     2.2540   -11.6430    62.7550    53.9140    50.7620    50.5630    27.3580 
  156.5000     2.2640   -11.7040    65.3670    52.0700    48.9290    50.3540    27.3590 
  156.6250     2.2740   -11.7580    64.1380    51.2010    48.1060    51.6950    27.3560 
  156.7500     2.2780   -11.8640    61.4300    50.8780    47.8700    49.1950    27.3630 
  156.8750     2.2750   -12.0200    60.7720    50.7950    47.9110    48.6120    27.3490 
  157.0000     2.2710   -12.1890    62.6740    50.6680    47.9430    52.1900    27.3080 
  157.1250     2.2700   -12.3120    65.6320    50.4090    47.8060    52.2000    27.2910 
  157.2500     2.2710   -12.4070    67.8840    50.2600    47.6530    49.7190    27.3120 
  157.3750     2.2690   -12.5210    68.5510    50.4620    47.7100    47.5570    27.2930 
  157.5000     2.2610   -12.6740    68.4300    51.1290    48.1480    42.5610    27.1460 
  157.6250     2.2520   -12.8610    68.3830    52.2790    49.0950    38.0740    26.8460 
  157.7500     2.2500   -13.0150    66.5380    53.6290    50.3560    43.7890    26.7390 
  157.8750     2.2520   -13.1310    62.8420    54.8780    51.6450    53.1050    26.8630 
  158.0000     2.2550   -13.2330    62.4100    55.7480    52.6200    56.6890    27.1080 
  158.1250     2.2550   -13.3220    67.8160    56.0710    52.9970    55.4570    27.2640 
  158.2500     2.2540   -13.3960    72.0670    56.1030    52.9900    55.2800    27.3250 
  158.3750     2.2520   -13.4570    70.7190    56.1100    52.8880    56.7330    27.3460 
  158.5000     2.2510   -13.4980    67.8780    56.2760    52.9470    58.0560    27.3510 
  158.6250     2.2500   -13.5280    68.0500    56.6360    53.3030    58.4020    27.3450 
  158.7500     2.2520   -13.5490    68.1400    57.0360    53.8090    61.0800    27.3390 
  158.8750     2.2560   -13.5510    66.7680    57.3720    54.3160    62.7880    27.3360 
  159.0000     2.2600   -13.5500    64.3600    57.6120    54.7210    60.8540    27.2970 
  159.1250     2.2610   -13.6060    64.7690    57.7300    54.9360    55.7980    27.2050 
  159.2500     2.2590   -13.6990    68.4950    57.6760    54.9190    54.6010    27.1340 
  159.3750     2.2560   -13.7860    72.6880    57.3520    54.6050    52.5270    27.0550 
  159.5000     2.2550   -13.8650    73.5600    56.6650    53.9690    51.7450    26.9560 
  159.6250     2.2580   -13.9400    70.8900    55.4530    52.9220    51.2680    27.0080 
  159.7500     2.2620   -14.0590    68.8900    53.8160    51.5260    50.4430    27.1160 
  159.8750     2.2660   -14.2360    67.2570    51.9840    49.9270    49.9910    27.1870 
  160.0000     2.2670   -14.4600    65.9350    50.4010    48.4520    49.8810    27.2290 
  160.1250     2.2620   -14.6930    66.3300    49.8250    47.7100    48.8550    27.2420 
  160.2500     2.2540   -14.8980    66.7420    50.6210    48.0870    48.2520    27.2320 
  160.3750     2.2440   -15.0800    65.3200    53.0250    49.9070    49.1260    27.2430 
  160.5000     2.2380   -15.2570    63.8590    56.9930    53.2920    52.9900    27.2460 
  160.6250     2.2370   -15.4680    64.9180    62.1540    58.1350    59.2270    27.2470 
  160.7500     2.2410   -15.6880    65.9440    67.2140    63.2730    72.0230    27.2680 
  160.8750     2.2490   -15.8820    65.4260    70.8380    67.3920    82.0940    27.3350 
  161.0000     2.2590   -16.0530    63.1500    71.9600    69.2700    84.0900    27.4270 
  161.1250     2.2660   -16.1990    59.8070    70.1530    68.1170    78.6800    27.5200 
  161.2500     2.2700   -16.3510    56.8680    67.1620    65.3560    71.4850    27.6130 
  161.3750     2.2730   -16.5440    56.5480    64.6500    62.5300    62.9620    27.6280 
  161.5000     2.2770   -16.8130    58.6820    64.0460    61.0860    55.7610    27.4550 
  161.6250     2.2740   -17.1180    60.2510    66.9860    62.6300    53.4310    27.3320 
  161.7500     2.2600   -17.4340    61.0250    73.7350    67.6210    55.0700    27.4160 
  161.8750     2.2390   -17.8240    62.0990    84.5400    76.5920    63.2330    27.5650 
  162.0000     2.2150   -18.2870    62.2600    98.6650    89.2710    81.6790    27.6510 
  162.1250     2.1940   -18.7980    59.0570   112.6640   103.1870   111.9870    27.6820 
  162.2500     2.1780   -19.3480    55.7660   120.3900   112.7690   145.5700    27.7020 
  162.3750     2.1720   -19.9250    54.0690   117.7020   113.4490   169.8090    27.7190 
  162.5000     2.1740   -20.5060    53.9190   106.2570   104.9640   158.4850    27.7190 
  162.6250     2.1780   -21.1290    55.4540    93.0460    92.2820   110.2860    27.6290 
  162.7500     2.1800   -21.8010    58.7500    84.1890    82.2200    69.7210    27.4980 
  162.8750     2.1840   -22.4420    61.1350    81.5420    77.6050    49.9670    27.3330 
  163.0000     2.1930   -23.0540    60.8650    85.2150    79.1850    48.9290    27.0860 
  163.1250     2.1980   -23.7020    60.1400    95.4480    87.5140    66.0670    26.9250 
  163.2500     2.1940   -24.3770    59.4610   109.9800   100.4150    96.4260    26.9650 
  163.3750     2.1870   -25.0520    57.4130   126.7860   115.9840   128.3530    27.1430 
  163.5000     2.1820   -25.6640    54.2050   143.0400   131.6050   146.5130    27.3010 
  163.6250     2.1760   -26.1430    52.9770   155.3410   144.1040   144.6000    27.3790 
  163.7500     2.1660   -26.5350    54.9700   163.4360   152.7980   151.7700    27.4540 
  163.8750     2.1600   -26.8800    58.9070   168.2060   158.0840   169.9980    27.4990 
  164.0000     2.1650   -27.1740    63.2520   171.0810   160.9650   186.4550    27.5010 
  164.1250     2.1740   -27.3750    65.9150   174.1250   163.1180   179.4490    27.3170 
  164.2500     2.1780   -27.4840    65.9280   179.5700   166.9350   152.4410    27.0810 
  164.3750     2.1740   -27.4830    63.0970   189.1290   174.3840   128.8340    26.8930 
  164.5000     2.1690   -27.4090    59.3330   203.7290   186.8770   135.8980    26.6410 
  164.6250     2.1660   -27.2830    56.9910   223.0880   205.1090   177.7670    26.3780 
  164.7500     2.1630   -27.1330    56.1670   242.0370   224.9110   228.3410    26.3260 
  164.8750     2.1580   -26.9550    56.8090   253.2280   239.8890   250.8360    26.4320 
  165.0000     2.1520   -26.7170    59.2150   250.0070   242.8940   224.9090    26.4200 
  165.1250     2.1440   -26.3880    61.6430   232.0550   229.8920   183.5620    26.3070 
  165.2500     2.1310   -26.0220    60.9880   212.1080   210.7270   152.4210    26.3300 
  165.3750     2.1190   -25.6840    58.4880   199.1110   194.8510   132.7920    26.2860 
