~V
VERS. 2.00: Ver 2.00
~W
STRT.M 47.0000:
STOP.M 248.0000:
STEP.M 0.1250:
NULL. -999.2500:
UWI. F11134:
~C
DEPT.M :
GR.API :
RML.OHMM :
RI. :
RXO.OHMM :
CALI.CM :
SP.MV :
DEN.GM/CC :
~A
# ...
   69.5000    74.4540     9.7930     7.4200     6.9080    24.3020   -25.6830     2.2500 
   69.6250    73.4820    10.0050     7.5320     7.3580    24.2590   -25.3100     2.2540 
   69.7500    72.5700    10.0110     7.5460     7.5180    24.2630   -24.9960     2.2670 
   69.8750    71.2070     9.6980     7.3710     7.2770    24.3100   -24.7860     2.2790 
   70.0000    70.8730     9.1640     7.0440     6.8780    24.3680   -24.7070     2.2840 
   70.1250    71.7860     8.6320     6.6880     6.5770    24.4030   -24.7910     2.2810 
   70.2500    72.7240     8.3400     6.4510     6.4540    24.3990   -25.0670     2.2720 
   70.3750    72.0490     8.5710     6.5230     6.5430    24.3660   -25.5190     2.2640 
   70.5000    68.4390     9.4460     7.0130     7.0840    24.3310   -26.1240     2.2670 
   70.6250    61.1510    10.8990     7.9200     7.9380    24.3850   -26.8760     2.2900 
   70.7500    52.2320    12.6730     9.1240     8.3950    24.6370   -27.7410     2.3410 
   70.8750    47.1900    14.1510    10.2580     7.9820    24.9360   -28.6470     2.4070 
   71.0000    47.4370    14.7020    10.8650     7.2790    24.9220   -29.5310     2.4390 
   71.1250    49.1270    14.1560    10.7300     7.1480    24.6100   -30.3280     2.3950 
   71.2500    48.7620    12.9090    10.0210     7.6470    24.2920   -30.9790     2.2900 
   71.3750    47.8040    11.6460     9.1420     8.1110    24.1330   -31.4490     2.1950 
   71.5000    49.1150    10.8150     8.4300     8.3290    24.0960   -31.7620     2.1450 
   71.6250    51.4580    10.4960     8.0180     8.4660    24.1210   -31.9550     2.1310 
   71.7500    52.0220    10.5620     7.8850     8.5750    24.1970   -32.0350     2.1320 
   71.8750    50.3810    10.7910     7.9360     8.6580    24.2910   -32.0090     2.1400 
   72.0000    48.8320    10.9820     8.0400     8.7000    24.3410   -31.9010     2.1630 
   72.1250    48.9940    11.0480     8.1120     8.6840    24.3190   -31.7190     2.1980 
   72.2500    49.7180    10.9850     8.1230     8.6510    24.2270   -31.4720     2.2270 
   72.3750    50.3620    10.8300     8.0700     8.6990    24.1340   -31.2150     2.2220 
   72.5000    51.9540    10.6440     7.9770     8.8520    24.0880   -31.0230     2.1870 
   72.6250    54.6230    10.4780     7.8730     9.0780    24.0800   -30.9440     2.1520 
   72.7500    56.8310    10.3520     7.7750     9.3730    24.0910   -31.0080     2.1290 
   72.8750    56.0860    10.2720     7.6970     9.7080    24.1180   -31.2250     2.1110 
   73.0000    53.2100    10.2290     7.6420     9.8510    24.1410   -31.5850     2.0880 
   73.1250    50.9800    10.2030     7.6050     9.7670    24.1570   -32.0830     2.0620 
   73.2500    50.2800    10.1750     7.5750     9.6130    24.1920   -32.7100     2.0370 
   73.3750    50.8380    10.1190     7.5380     9.3730    24.2550   -33.4040     2.0250 
   73.5000    51.6560    10.0250     7.4830     9.0860    24.3220   -34.0750     2.0370 
   73.6250    51.9070     9.9030     7.4120     8.8780    24.3600   -34.6930     2.0720 
   73.7500    51.3780     9.7830     7.3360     8.8190    24.3710   -35.2690     2.1030 
   73.8750    50.3200     9.7020     7.2750     8.8690    24.3720   -35.7890     2.1020 
   74.0000    49.3610     9.6790     7.2400     8.9710    24.3720   -36.2180     2.0750 
   74.1250    49.1370     9.7070     7.2340     9.0480    24.3720   -36.5400     2.0510 
   74.2500    49.6350     9.7620     7.2490     8.9820    24.3720   -36.7690     2.0490 
   74.3750    49.4380     9.8050     7.2700     8.7350    24.3710   -36.9000     2.0720 
   74.5000    47.4630     9.8090     7.2790     8.4750    24.3640   -36.9340     2.1130 
   74.6250    45.0480     9.7710     7.2690     8.3980    24.3370   -36.8780     2.1590 
   74.7500    44.4310     9.7100     7.2410     8.5170    24.2860   -36.7090     2.1970 
   74.8750    45.1980     9.6630     7.2080     8.6760    24.2440   -36.3890     2.2180 
   75.0000    45.6920     9.6600     7.1890     8.8300    24.2270   -35.9440     2.2310 
   75.1250    46.4330     9.7130     7.1940     8.9940    24.2230   -35.4100     2.2490 
   75.2500    47.9780     9.8110     7.2240     9.1500    24.2230   -34.7860     2.2770 
   75.3750    49.0090     9.9240     7.2710     9.3030    24.2230   -34.1040     2.3090 
   75.5000    49.4540    10.0100     7.3120     9.4100    24.2230   -33.4380     2.3270 
   75.6250    50.1780    10.0260     7.3240     9.4400    24.2190   -32.8230     2.3150 
   75.7500    51.1130     9.9550     7.2910     9.3910    24.1960   -32.2810     2.2720 
   75.8750    51.4200     9.7910     7.2000     9.2120    24.1370   -31.8440     2.2140 
   76.0000    51.6580     9.5700     7.0680     8.9000    24.0640   -31.5120     2.1620 
   76.1250    52.8000     9.3430     6.9240     8.5900    24.0190   -31.2780     2.1200 
   76.2500    54.0030     9.1610     6.8010     8.4310    24.0060   -31.1690     2.0850 
   76.3750    54.3220     9.0760     6.7370     8.4950    24.0050   -31.2080     2.0540 
   76.5000    54.0820     9.0920     6.7420     8.7060    24.0070   -31.3240     2.0350 
   76.6250    53.6590     9.1650     6.7970     8.9510    24.0250   -31.4510     2.0320 
   76.7500    52.8110     9.2360     6.8720     9.0980    24.0770   -31.5750     2.0480 
   76.8750    52.1770     9.2500     6.9310     9.0350    24.1510   -31.6640     2.0800 
   77.0000    52.8320     9.2140     6.9670     8.9270    24.2030   -31.6720     2.1200 
   77.1250    53.7550     9.1850     7.0020     8.8300    24.2210   -31.5680     2.1650 
   77.2500    53.5400     9.2160     7.0580     8.6770    24.2220   -31.3130     2.1990 
   77.3750    52.8520     9.3200     7.1460     8.5970    24.2210   -30.8470     2.2020 
   77.5000    52.9950     9.4400     7.2340     8.7550    24.2190   -30.1700     2.1890 
   77.6250    53.5710     9.4840     7.2700     8.9050    24.2170   -29.3000     2.1930 
   77.7500    53.8810     9.3930     7.2120     8.7490    24.2170   -28.2130     2.2290 
   77.8750    54.9520     9.1640     7.0480     8.3810    24.2140   -26.8970     2.2730 
   78.0000    57.3970     8.8620     6.8160     8.1080    24.2020   -25.4160     2.2900 
   78.1250    60.8590     8.5340     6.5520     8.0700    24.1790   -23.8220     2.2750 
   78.2500    64.6020     8.1830     6.2720     8.2930    24.1590   -22.1210     2.2510 
   78.3750    66.8250     7.8640     6.0270     8.5640    24.1600   -20.3320     2.2460 
   78.5000    67.1110     7.7670     5.9370     8.7660    24.1950   -18.5200     2.2660 
   78.6250    65.9950     8.2430     6.2060     8.7180    24.2920   -16.7420     2.3040 
   78.7500    63.8600     9.7980     7.1470     9.3180    24.4640   -15.0570     2.3620 
   78.8750    61.7130    13.2290     9.3800    14.6650    24.6750   -13.5500     2.4400 
   79.0000    60.3180    18.8250    13.3380    30.0030    24.8180   -12.2360     2.5230 
   79.1250    59.1620    25.6720    18.7110    51.9430    24.8690   -11.1070     2.5870 
   79.2500    58.1180    30.8660    23.5210    68.5070    24.8730   -10.2020     2.6120 
   79.3750    60.3240    30.0450    24.0190    67.9350    24.8390    -9.5660     2.5990 
   79.5000    67.7100    23.8740    20.0220    47.5020    24.7500    -9.1760     2.5560 
   79.6250    77.4450    16.7310    14.6800    22.9190    24.6150    -9.0160     2.4930 
   79.7500    85.2190    11.3520    10.2780     9.3360    24.4700    -9.1130     2.4260 
   79.8750    88.9620     8.2770     7.4650     5.3200    24.3460    -9.4960     2.3770 
   80.0000    89.6630     6.8000     5.8650     4.6270    24.2630   -10.1270     2.3510 
   80.1250    89.8400     6.2240     5.0310     4.5170    24.2280   -10.9590     2.3340 
   80.2500    91.2080     6.2080     4.7430     4.4570    24.2220   -11.9890     2.3100 
   80.3750    91.8780     6.5610     4.8720     4.5120    24.2220   -13.2430     2.2770 
   80.5000    87.6490     7.1370     5.2860     4.9250    24.2030   -14.6490     2.2410 
   80.6250    77.8220     7.8300     5.8810     5.9430    24.1460   -16.0990     2.2100 
