~V
VERS. 2.00: Ver 2.00
~W
STRT.M 50.0000:
STOP.M 245.0000:
STEP.M 0.1250:
NULL. -999.2500:
UWI. F11135:
~C
DEPT.M :
GR.API :
RML.OHMM :
RI. :
RXO.OHMM :
CALI.CM :
SP.MV :
DEN.GM/CC :
~A
# ...
  230.0000    67.7010    13.2880    12.0810    14.3490    24.7470   -17.4450     2.3530 
  230.1250    69.8670    13.0590    11.8660    17.0340    24.5040   -17.6340     2.3620 
  230.2500    68.9130    12.8790    11.6110    21.2350    24.4310   -17.8080     2.3750 
  230.3750    65.9500    12.7870    11.4020    21.9670    24.3800   -17.9170     2.3860 
  230.5000    62.2530    12.7930    11.3000    16.1750    24.3150   -17.9570     2.3920 
  230.6250    59.7430    12.8900    11.3360    12.9720    24.2460   -17.9930     2.3930 
  230.7500    58.9920    13.0200    11.4450    11.6380    24.2930   -17.9930     2.3920 
  230.8750    59.0480    13.1280    11.5630    11.4650    24.3650   -17.9920     2.3920 
  231.0000    59.2740    13.1510    11.6270    11.4910    24.3320   -17.9800     2.3940 
  231.1250    59.8610    13.0340    11.5880    11.8420    24.3230   -17.9350     2.4000 
  231.2500    61.0700    12.8250    11.4820    12.7170    24.3210   -17.8940     2.4060 
  231.3750    62.5760    12.5950    11.3410    13.2350    24.3210   -17.9160     2.4080 
  231.5000    63.1620    12.4090    11.1800    12.6210    24.3210   -17.9910     2.4070 
  231.6250    61.9510    12.3110    11.0090    11.2250    24.3210   -18.0760     2.4020 
  231.7500    61.9970    12.2980    10.8660    10.6190    24.3210   -18.1400     2.3980 
  231.8750    63.4760    12.3760    10.7950    10.5820    24.3210   -18.1900     2.3940 
  232.0000    63.9840    12.5070    10.8180    10.7390    24.3210   -18.2210     2.3940 
  232.1250    62.9020    12.5920    10.9160    10.6540    24.3190   -18.2090     2.3950 
  232.2500    62.5260    12.5660    11.0040    10.2990    24.3100   -18.1870     2.3970 
  232.3750    63.3090    12.4310    11.0190    10.2010    24.3020   -18.1610     2.3980 
  232.5000    63.7120    12.2380    10.9400    10.4060    24.3070   -18.1590     2.3960 
  232.6250    63.6710    12.0520    10.7800    10.8330    24.3550   -18.1670     2.3870 
  232.7500    62.0280    11.8920    10.5980    11.0920    24.4380   -18.2040     2.3720 
  232.8750    58.8080    11.7330    10.4270    11.2500    24.4780   -18.2790     2.3540 
  233.0000    57.3950    11.5470    10.2790    10.5680    24.5410   -18.3780     2.3360 
  233.1250    60.2850    11.3490    10.1410     9.8130    24.5670   -18.4750     2.3280 
  233.2500    62.9740    11.1720     9.9850     9.9340    24.6210   -18.5820     2.3320 
  233.3750    62.7720    11.0130     9.7960    10.5640    24.7370   -18.6880     2.3470 
  233.5000    60.4710    10.8510     9.5910    10.7420    24.8750   -18.8100     2.3670 
  233.6250    59.6290    10.7000     9.4190    10.4320    24.8060   -18.8980     2.3810 
  233.7500    59.9560    10.5970     9.2980    10.0260    24.6010   -18.8980     2.3840 
  233.8750    59.9560    10.5450     9.2130     9.7420    24.2770   -18.8560     2.3770 
  234.0000    59.9560    10.5000     9.1260     9.9270    24.1130   -18.8030     2.3620 
  234.1250    59.9560    10.3720     8.9840    10.3460    24.1050   -18.7270     2.3460 
  234.2500    59.9560    10.1170     8.7750    10.0430    24.1090   -18.6570     2.3310 
  234.3750    59.9560     9.7640     8.5110     9.0010    24.1760   -18.5420     2.3210 
  234.5000    59.9560     9.3910     8.2310     8.3320    24.3700   -18.4000     2.3170 
  234.6250    59.9560     9.0770     7.9840     7.7320    24.6220   -18.2390     2.3230 
  234.7500    59.9560     8.8400     7.8000     7.1510    24.7190   -18.1370     2.3370 
  234.8750    59.9560     8.6860     7.6870     6.8720    24.7090   -18.0530     2.3570 
  235.0000    59.9560     8.6340     7.6390     6.7450    24.7320   -17.9230     2.3810 
  235.1250    59.9560     8.6930     7.6510     6.8510    24.6660   -17.8340     2.3990 
  235.2500    59.9560     8.8010     7.7050     7.2810    24.6700   -17.7880     2.4050 
  235.3750    59.9560     8.8850     7.7790     7.8980    24.5930   -17.7740     2.3940 
  235.5000    59.9560     8.8720     7.8270     8.0270    24.5570   -17.7350     2.3710 
  235.6250    59.9560     8.6970     7.7780     7.8230    24.5520   -17.7100     2.3420 
  235.7500    59.9560     8.4120     7.6140     7.6820    24.5670   -17.7500     2.3180 
  235.8750    59.9560     8.0770     7.3550     7.5200    24.6300   -17.8530     2.3030 
  236.0000    59.9560     7.7710     7.0700     6.8040    24.7530   -17.9480     2.2970 
  236.1250    59.9560     7.6100     6.8700     6.2860    24.7740   -18.0050     2.2990 
  236.2500    59.9560     7.6400     6.8200     6.3370    24.7790   -18.0290     2.3060 
  236.3750    59.9560     7.8650     6.9480     6.8310    24.7790   -18.0370     2.3140 
  236.5000    59.9560     8.2420     7.2370     7.2740    24.7790   -18.0350     2.3210 
  236.6250    59.9560     8.6790     7.6240     7.6370    24.7800   -18.0280     2.3260 
  236.7500    59.9560     9.0560     7.9850     7.4620    24.7850   -17.9670     2.3280 
  236.8750    59.9560     9.3100     8.2420     7.0180    24.8130   -17.8540     2.3300 
  237.0000    59.9560     9.4500     8.3900     6.6430    24.8460   -17.7860     2.3330 
  237.1250    59.9560     9.5500     8.4990     6.5750    24.8000   -17.7690     2.3400 
  237.2500    59.9560     9.6910     8.6530     7.0120    24.7390   -17.7580     2.3480 
  237.3750    59.9560     9.8670     8.8490     7.8430    24.6920   -17.7440     2.3570 
  237.5000    59.9560    10.0040     9.0070     8.5150    24.8140   -17.7450     2.3630 
  237.6250    59.9560     9.9750     8.9900     8.8240    24.8850   -17.7330     2.3610 
  237.7500    59.9560     9.7580     8.7840     9.0780    24.7430   -17.7270     2.3540 
  237.8750    59.9560     9.4350     8.4650     8.7770    24.5680   -17.7700     2.3440 
  238.0000    59.9560     9.1570     8.1640     8.1370    24.4130   -17.7990     2.3360 
  238.1250    59.9560     9.0680     8.0340     9.2060    24.2090   -17.7820     2.3340 
  238.2500    59.9560     9.1300     8.0920    10.5660    24.5520   -17.7380     2.3390 
  238.3750    59.9560     9.2740     8.2870    10.8250    24.7900   -17.6240     2.3530 
  238.5000    59.9560     9.4350     8.5280    11.8910    24.7450   -17.4620     2.3730 
  238.6250    59.9560     9.5850     8.7160    15.6180    24.5640   -17.3090     2.3940 
  238.7500    59.9560     9.7400     8.8180    18.1530    24.3760   -17.1630     2.4110 
  238.8750    59.9560     9.9100     8.8570    15.2040    24.3380   -16.9610     2.4220 
  239.0000    59.9560    10.0700     8.8770    11.7190    24.4420   -16.7620     2.4250 
  239.1250    59.9560    10.1630     8.8950    10.6740    24.4780   -16.5640     2.4240 
  239.2500    59.9560    10.1950     8.9030    10.7420    24.4750   -16.3620     2.4190 
  239.3750    59.9560    10.1910     8.8970    11.5960    24.3350   -16.1970     2.4090 
  239.5000    59.9560    10.1750     8.8870    13.0400    24.1230   -16.0650     2.3980 
  239.6250    59.9560    10.1640     8.8810    13.5520    24.1470   -15.9430     2.3880 
  239.7500    59.9560    10.1640     8.8810    12.8790    24.3300   -15.7870     2.3820 
  239.8750    59.9560    10.1640     8.8810    12.1070    24.5250   -15.6320     2.3830 
  240.0000    59.9560    10.1640     8.8810    12.0160    24.6770   -15.4720     2.3880 
  240.1250    59.9560    10.1640     8.8810    12.0080    25.0060   -15.2880     2.3950 
  240.2500    59.9560    10.1640     8.8810    11.7560    24.9990   -15.1080     2.4000 
  240.3750    59.9560    10.1640     8.8810    11.9020    24.7820   -15.1350     2.4040 
  240.5000    59.9560    10.1640     8.8810    11.9590    24.7660  -999.2500     2.4100 
  240.6250    59.9560    10.1640     8.8810    11.5390    24.7260  -999.2500     2.4180 
  240.7500    59.9560    10.1640     8.8810    10.8390    24.5820  -999.2500     2.4260 
  240.8750    59.9560    10.1640     8.8810    10.5570    24.2910  -999.2500     2.4320 
  241.0000    59.9560    10.1640     8.8810    10.7940    23.4220  -999.2500     2.4350 
  241.1250    59.9560    10.1640     8.8810    10.8750    23.2450  -999.2500     2.4340 
