~V
VERS. 2.00: Ver 2.00
~W
STRT.M 52.0000:
STOP.M 216.0000:
STEP.M 0.1250:
NULL. -999.2500:
UWI. F11106:
~C
DEPT.M :
DEN.GM/CC :
GR.API :
RML.OHMM :
RI. :
RXO.OHMM :
CALI.CM :
SP.MV :
~A
# ...
  209.5000     2.3540    61.4370     8.4000     7.8110     8.3140    29.2240    -6.9730 
  209.6250     2.3530    61.4370     8.4730     7.9560     8.7460    26.8670    -6.9270 
  209.7500     2.3500    61.4370     8.5280     8.0480    10.2150    25.6440    -6.9540 
  209.8750     2.3460    61.4370     8.6130     8.0870    11.2200    25.4450    -6.9730 
  210.0000     2.3420    61.4370     8.7100     8.0760     9.6580    25.4490    -6.9650 
  210.1250     2.3350    61.4370     8.7630     8.0410     8.3470    25.5830    -6.9620 
  210.2500     2.3230    61.4370     8.7530     8.0250     8.0550    25.4500    -6.9770 
  210.3750     2.3040    61.4370     8.6940     8.0270     7.9890    25.3140    -7.0380 
  210.5000     2.2770    61.4370     8.6120     8.0190     6.9820    25.4380    -7.1260 
  210.6250     2.2500    61.4370     8.5260     7.9780     5.9770    25.1920    -7.2140 
  210.7500     2.2310    61.4370     8.4460     7.9270     6.2670    24.7490    -7.2510 
  210.8750     2.2210    61.4370     8.3840     7.9020     7.3950    24.8240    -7.3160 
  211.0000     2.2120    61.4370     8.3520     7.9210     8.3610    25.0080    -7.3750 
  211.1250     2.1900    61.4370     8.3510     7.9620     9.8520    25.0820    -7.4440 
  211.2500     2.1550    61.4370     8.3640     7.9830    14.1440    24.6320    -7.5180 
  211.3750     2.1090    61.4370     8.3800     7.9690    21.8320    24.3560    -7.5670 
  211.5000     2.0640    61.4370     8.3820     7.9640    18.0870    24.2990    -7.5780 
  211.6250     2.0290    61.4370     8.3820     7.9640    10.8630    24.4900    -7.5900 
  211.7500     2.0060    61.4370     8.3820     7.9640     6.7970    25.2420  -999.2500 
  211.8750     1.9980    61.4370     8.3820     7.9640     5.7970    26.3000  -999.2500 
  212.0000     2.0090    61.4370     8.3820     7.9640     5.9860    25.6530  -999.2500 
  212.1250     2.0480    61.4370     8.3820     7.9640     6.2960    25.1100  -999.2500 
  212.2500     2.1110    61.4370     8.3820     7.9640     7.1970    25.0330  -999.2500 
  212.3750     2.1900    61.4370     8.3820     7.9640     8.3400    25.1910  -999.2500 
  212.5000     2.2750    61.4370     8.3820     7.9640     9.3230    25.2120  -999.2500 
  212.6250     2.3460    61.4370     8.3820     7.9640     8.6770    25.1550  -999.2500 
  212.7500     2.3980    61.4370     8.3820     7.9640     8.3790    25.4980  -999.2500 
  212.8750     2.4330    61.4370     8.3820     7.9640     8.5300    25.1940  -999.2500 
  213.0000     2.4560    61.4370     8.3820     7.9640     9.9250    24.3520  -999.2500 
  213.1250     2.4690    61.4370     8.3820     7.9640    13.4390    24.1060  -999.2500 
  213.2500     2.4800    61.4370     8.3820     7.9640    17.0990    24.2020  -999.2500 
  213.3750     2.4710    61.4370     8.3820     7.9640    17.5250    24.2620  -999.2500 
  213.5000     2.4500    61.4370     8.3820     7.9640    15.8520    24.2980  -999.2500 
  213.6250     2.4160    61.4370     8.3820     7.9640    13.5760    24.0540  -999.2500 
  213.7500     2.3640    61.4370     8.3820     7.9640    13.6160    23.9490  -999.2500 
  213.8750     2.2880    61.4370     8.3820     7.9640    16.4880    24.3300  -999.2500 
  214.0000     2.1950    61.4370     8.3820     7.9640    20.8700    24.4560  -999.2500 
  214.1250     2.0990    61.4370     8.3820     7.9640    21.6180    23.8350  -999.2500 
  214.2500     2.0160    61.4370     8.3820     7.9640    17.5480    22.5020  -999.2500 
  214.3750     1.9590    61.4370     8.3820     7.9640    15.7450    22.2860  -999.2500 
  214.5000     1.9250    61.4370     8.3820     7.9640    15.4630    22.2560  -999.2500 
  214.6250     1.9090    61.4370     8.3820     7.9640    15.4610    22.2560  -999.2500 
  214.7500     1.9040    61.4370     8.3820     7.9640    15.4570    22.2560  -999.2500 
  214.8750     1.9030    61.4370     8.3820     7.9640    15.4590    22.2560  -999.2500 
  215.0000     1.9020    61.4370     8.3820     7.9640    15.4590    22.2560  -999.2500 
  215.1250     1.9010    61.4370     8.3820     7.9640    15.4630    22.2560  -999.2500 
  215.2500     1.9000    61.4370     8.3820     7.9640    15.4640    22.2560  -999.2500 
  215.3750     1.9000    61.4370     8.3820     7.9640    15.4640    22.2560  -999.2500 
  215.5000     1.9000    61.4370     8.3820     7.9640    15.4650    22.2560  -999.2500 
  215.6250     1.8920    61.4370     8.3820     7.9640    15.4650    22.2560  -999.2500 
  215.7500  -999.2500    61.4370     8.3820     7.9640    15.4640    22.2550  -999.2500 
  215.8750  -999.2500    61.4370     8.3820     7.9640    15.4610    22.2490  -999.2500 
  216.0000  -999.2500    61.4370     8.3820     7.9640    15.4610    22.2450  -999.2500 
