~V
VERS. 2.00: Ver 2.00
~W
STRT.M 50.0000:
STOP.M 248.0000:
STEP.M 0.1250:
NULL. -999.2500:
UWI. F11129:
~C
DEPT.M :
SP.MV :
DEN.GM/CC :
GR.API :
RML.OHMM :
RI. :
RXO.OHMM :
CALI.CM :
~A
   50.0000    24.5930  -999.2500  -999.2500  -999.2500  -999.2500  -999.2500  -999.2500 
   50.1250    24.7660  -999.2500  -999.2500  -999.2500  -999.2500  -999.2500  -999.2500 
   50.2500    25.0230  -999.2500  -999.2500  -999.2500  -999.2500  -999.2500  -999.2500 
   50.3750    25.2900  -999.2500  -999.2500  -999.2500  -999.2500  -999.2500  -999.2500 
   50.5000    25.5290  -999.2500  -999.2500  -999.2500  -999.2500  -999.2500  -999.2500 
   50.6250    25.7160  -999.2500  -999.2500  -999.2500  -999.2500  -999.2500  -999.2500 
   50.7500    25.9160  -999.2500  -999.2500  -999.2500  -999.2500  -999.2500  -999.2500 
   50.8750    26.2240  -999.2500  -999.2500  -999.2500  -999.2500  -999.2500  -999.2500 
   51.0000    26.6110  -999.2500  -999.2500  -999.2500  -999.2500  -999.2500  -999.2500 
   51.1250    27.0400  -999.2500  -999.2500  -999.2500  -999.2500  -999.2500  -999.2500 
   51.2500    27.5190  -999.2500  -999.2500  -999.2500  -999.2500  -999.2500  -999.2500 
   51.3750    28.0200  -999.2500  -999.2500  -999.2500  -999.2500  -999.2500  -999.2500 
   51.5000    28.4940  -999.2500  -999.2500  -999.2500  -999.2500  -999.2500  -999.2500 
   51.6250    28.9130  -999.2500  -999.2500  -999.2500  -999.2500  -999.2500  -999.2500 
   51.7500    29.2130  -999.2500    49.8810     0.1260     0.2280     1.2200    25.2700 
   51.8750    29.3730  -999.2500    49.8810     0.1260     0.2280     1.2200    25.2700 
   52.0000    29.4490  -999.2500    49.2640     0.1250     0.2280     1.0820    25.2680 
   52.1250    29.4720  -999.2500    47.1960     0.1270     0.2260     0.5560    25.2590 
   52.2500    29.4340  -999.2500    44.2860     0.1400     0.2240    -0.0980    25.2440 
   52.3750    29.3570  -999.2500    41.5670     0.1560     0.2210    -0.4090    25.2290 
   52.5000    29.3280  -999.2500    39.6210     0.1620     0.2190    -0.3640    25.2010 
   52.6250    29.4180  -999.2500    39.2290     0.1560     0.2170    -0.0280    25.1090 
   52.7500    29.6350  -999.2500    41.7540     0.1400     0.2140     0.3740    24.9420 
   52.8750    29.9320  -999.2500    46.1040     0.1230     0.2100     0.6650    24.7630 
   53.0000    30.2580  -999.2500    48.2550     0.1130     0.2050     0.7880    24.6590 
   53.1250    30.6160     0.0000    46.1530     0.1120     0.2030     0.8800    24.6420 
   53.2500    31.0480     0.0000    42.0500     0.1220     0.2070     0.7060    24.6690 
   53.3750    31.6120     0.0000    39.8650     0.1340     0.2140     0.3900    24.7320 
   53.5000    32.2720     0.0000    39.9290     0.1370     0.2190     0.2080    24.8360 
   53.6250    32.9770     0.0000    40.3310     0.1300     0.2190     0.1810    24.9270 
   53.7500    33.7370     0.9130    41.2790     0.1210     0.2150     0.2290    24.9310 
   53.8750    34.6060     2.2920    43.1790     0.1270     0.2100     0.2810    24.8820 
   54.0000    35.6040     2.3120    44.1580     0.1500     0.2090     0.3610    24.8720 
   54.1250    36.6970     2.3150    43.3540     0.1760     0.2120     0.4080    24.8920 
   54.2500    37.8330     2.3050    42.1260     0.1910     0.2170     0.3310    24.9180 
   54.3750    38.9450     2.2880    41.4090     0.1930     0.2230     0.1460    24.9440 
   54.5000    39.9830     2.2590    40.7800     0.1910     0.2290    -0.0030    24.9780 
   54.6250    40.8960     2.2190    40.9520     0.1950     0.2310    -0.0720    25.0250 
   54.7500    41.5670     2.1720    43.0340     0.2040     0.2310    -0.1340    25.0850 
   54.8750    41.9270     2.1260    46.4390     0.2110     0.2270    -0.1910    25.1450 
   55.0000    42.0320     2.0880    49.0160     0.2070     0.2230    -0.2130    25.2070 
   55.1250    41.9500     2.0630    49.2560     0.1900     0.2210    -0.1900    25.2490 
   55.2500    41.7630     2.0560    47.1790     0.1620     0.2220    -0.1100    25.2670 
   55.3750    41.5320     2.0640    44.7940     0.1320     0.2250     0.0110    25.2710 
   55.5000    41.3370     2.0810    43.8060     0.1090     0.2260     0.1140    25.2710 
   55.6250    41.2780     2.0980    43.7300     0.0960     0.2260     0.1550    25.2710 
   55.7500    41.4590     2.1110    44.4460     0.0960     0.2240     0.1650    25.2710 
   55.8750    41.9140     2.1270    45.6470     0.1030     0.2220     0.1890    25.2710 
   56.0000    42.5890     2.1480    45.5430     0.1160     0.2210     0.2240    25.2710 
   56.1250    43.4680     2.1680    43.4000     0.1340     0.2200     0.2940    25.2710 
   56.2500    44.5400     2.1780    40.9380     0.1510     0.2210     0.4090    25.2710 
   56.3750    45.7380     2.1770    40.5210     0.1580     0.2240     0.4790    25.2710 
   56.5000    46.9930     2.1680    41.4560     0.1520     0.2270     0.4710    25.2710 
   56.6250    48.2590     2.1440    41.2990     0.1390     0.2290     0.4700    25.2710 
   56.7500    49.4050     2.1070    40.2210     0.1270     0.2270     0.4400    25.2710 
   56.8750    50.2140     2.0710    40.4590     0.1220     0.2260     0.2450    25.2710 
   57.0000    50.5520     2.0480    42.0120     0.1230     0.2290    -0.0470    25.2710 
   57.1250    50.4170     2.0390    43.2470     0.1280     0.2330    -0.2080    25.2710 
   57.2500    49.8380     2.0400    43.8960     0.1290     0.2360    -0.1870    25.2710 
   57.3750    48.8950     2.0470    44.7210     0.1260     0.2370    -0.0720    25.2710 
   57.5000    47.6660     2.0530    44.8640     0.1210     0.2370     0.1250    25.2710 
   57.6250    46.1460     2.0540    43.5300     0.1220     0.2360     0.5500    25.2710 
   57.7500    44.4590     2.0500    42.5890     0.1310     0.2360     1.0430    25.2710 
   57.8750    42.8660     2.0480    43.3270     0.1490     0.2360     0.9290    25.2710 
   58.0000    41.5130     2.0490    44.2740     0.1660     0.2360     0.3720    25.2710 
   58.1250    40.3370     2.0480    44.9910     0.1710     0.2370     0.2110    25.2710 
   58.2500    39.2010     2.0400    46.6120     0.1610     0.2380     0.1670    25.2710 
   58.3750    38.0100     2.0220    50.0380     0.1420     0.2380     0.1630    25.2680 
   58.5000    36.7390     2.0050    53.8790     0.1220     0.2350     0.2010    25.2600 
   58.6250    35.3990     1.9990    55.5110     0.1060     0.2270     0.3140    25.2440 
   58.7500    33.9340     2.0150    54.1430     0.0890     0.2120     0.5940    25.2300 
   58.8750    32.2020     2.0640    52.1360     0.0680     0.1880     1.0920    25.2350 
   59.0000    30.0840     2.1440    52.5500     0.0420     0.1570     1.6850    25.2520 
   59.1250    27.5080     2.2480    55.5290     0.0190     0.1260     2.0610    25.2630 
   59.2500    24.3990     2.3640    59.7430     0.0060     0.1030     1.7450    25.2310 
   59.3750    20.7170     2.4680    63.6520     0.0040     0.0960     1.1120    25.0900 
   59.5000    16.5710     2.5250    67.0930     0.0180     0.1140     0.9190    24.8100 
   59.6250    12.1390     2.5130    73.4220     0.0700     0.1790     1.2530    24.4780 
   59.7500     7.6450     2.4470    84.2940     0.2200     0.3400     2.1980    24.2520 
   59.8750     3.3000     2.3710    95.2790     0.5590     0.6660     3.3520    24.1730 
   60.0000    -0.7460     2.3200   102.1950     1.1420     1.2080     4.0670    24.1570 
   60.1250    -4.3490     2.2970   105.8620     1.9090     1.9710     4.4330    24.1560 
   60.2500    -7.3300     2.2910   106.7320     2.6400     2.8670     4.7850    24.1560 
   60.3750    -9.6410     2.2870   104.0660     3.1630     3.7600     5.4660    24.1440 
   60.5000   -11.4200     2.2830    99.3680     3.5320     4.5680     6.7110    24.0770 
   60.6250   -12.7970     2.2760    95.5420     3.8330     5.2610     8.4060    23.8750 
   60.7500   -13.9180     2.2640    93.8220     4.0740     5.7740     9.0530    23.5040 
   60.8750   -14.8700     2.2490    93.4470     4.2070     6.0350     7.8150    23.0660 
   61.0000   -15.6550     2.2400    93.6270     4.2110     6.0560     6.5200    22.7060 
   61.1250   -16.3040     2.2380    94.5480     4.1030     5.8970     5.8450    22.5030 
