~V
VERS. 2.00: Ver 2.00
~W
STRT.M 58.0000:
STOP.M 208.0000:
STEP.M 0.1250:
NULL. -999.2500:
UWI. F11103:
~C
DEPT.M :
DEN.GM/CC :
SP.MV :
GR.API :
RML.OHMM :
RI. :
RXO.OHMM :
CALI.CM :
~A
# ...
  159.2500     2.2800   -27.0240    67.9940    34.7390    29.7970    25.4560    27.5990 
  159.3750     2.2740   -27.0120    66.6490    37.9640    32.3890    32.9030    27.4540 
  159.5000     2.2680   -27.0800    67.8870    40.2360    34.3890    41.4770    27.3870 
  159.6250     2.2630   -27.1720    68.5020    41.0740    35.1940    44.5650    27.3430 
  159.7500     2.2610   -27.2500    69.5160    40.7560    34.8710    40.3620    27.1870 
  159.8750     2.2610   -27.3620    72.3500    40.1360    34.0700    33.2910    27.0700 
  160.0000     2.2640   -27.4540    73.7890    40.2820    33.6940    31.3360    27.0070 
  160.1250     2.2660   -27.5340    72.0610    41.5410    34.1770    33.5470    27.0110 
  160.2500     2.2670   -27.6050    69.1230    43.8400    35.5780    37.9880    27.0450 
  160.3750     2.2660   -27.6270    67.5730    46.7880    37.6690    42.0230    27.0340 
  160.5000     2.2640   -27.6780    66.1540    49.7030    39.9480    45.0000    26.9590 
  160.6250     2.2630   -27.7190    64.4770    51.9220    41.7920    46.7740    26.8880 
  160.7500     2.2620   -27.7570    61.9730    53.0270    42.8050    49.8440    26.9590 
  160.8750     2.2610   -27.8120    59.2260    52.8200    42.7820    52.2760    27.1590 
  161.0000     2.2600   -27.8840    61.4890    51.1940    41.5810    49.4620    27.4760 
  161.1250     2.2580   -27.9870    67.2090    48.7730    39.6590    45.5890    27.9170 
  161.2500     2.2550   -28.0900    71.7980    46.1470    37.4580    42.1900    27.9450 
  161.3750     2.2510   -28.1930    72.7570    44.0380    35.5260    44.5550    27.9250 
  161.5000     2.2480   -28.2540    72.0260    43.5000    34.6630    39.8920    27.8830 
  161.6250     2.2450   -28.2760    72.7850    44.9650    35.2670    37.1220    27.6600 
  161.7500     2.2410   -28.3210    75.0260    48.7460    37.6720    36.0600    26.9370 
  161.8750     2.2370   -28.3170    76.5620    54.7930    42.0310    37.3330    26.2000 
  162.0000     2.2330   -28.3150    73.4960    62.4800    48.2120    47.5240    25.8410 
  162.1250     2.2310   -28.3270    68.3600    69.6770    54.6500    69.4520    25.6970 
  162.2500     2.2310   -28.3260    65.2630    74.1210    59.5020    91.3100    25.5080 
  162.3750     2.2360   -28.3740    63.8960    73.9420    60.9950    97.9020    25.3780 
  162.5000     2.2470   -28.4560    63.1870    67.9320    57.5960    87.8120    25.1820 
  162.6250     2.2640   -28.6160    64.0190    58.5890    50.9110    75.6090    24.9370 
  162.7500     2.2830   -28.7910    65.3500    48.1750    42.7490    61.9380    24.7130 
  162.8750     2.3030   -29.0110    65.7430    38.5150    34.8110    45.4140    24.5050 
  163.0000     2.3210   -29.2620    70.0640    30.9270    28.3900    34.3920    24.3520 
  163.1250     2.3340   -29.4610    78.2600    25.3030    23.5610    22.7740    24.1830 
  163.2500     2.3420   -29.6870    84.7350    21.4030    20.1810    17.6840    24.0510 
  163.3750     2.3470   -29.8800    86.4100    18.8860    17.9790    15.6880    23.9090 
  163.5000     2.3480   -30.0300    86.0230    17.5920    16.8210    14.8090    23.8330 
  163.6250     2.3470   -30.1650    85.9480    17.0730    16.3520    13.6800    23.8060 
  163.7500     2.3460   -30.2820    84.6610    17.0930    16.4020    12.7270    23.7340 
  163.8750     2.3440   -30.3950    82.0700    17.4230    16.7780    13.0620    23.6120 
  164.0000     2.3420   -30.4550    80.4760    17.8570    17.2660    14.1010    23.5910 
  164.1250     2.3400   -30.5370    81.2720    18.1910    17.6380    14.7280    23.5860 
  164.2500     2.3380   -30.6320    82.9710    18.3000    17.7550    14.7370    23.5850 
  164.3750     2.3360   -30.7150    82.7810    18.1570    17.5700    14.5680    23.5750 
  164.5000     2.3340   -30.8250    79.7900    17.8630    17.1480    14.0870    23.5150 
  164.6250     2.3320   -30.9300    76.5350    17.6650    16.7140    14.2020    23.4400 
  164.7500     2.3300   -31.0520    75.0910    17.8330    16.4760    14.6050    23.4260 
  164.8750     2.3250   -31.1810    75.3760    18.7290    16.6990    14.7000    23.4220 
  165.0000     2.3160   -31.3480    77.1890    21.1280    17.9230    15.3640    23.4200 
  165.1250     2.3030   -31.6060    77.3540    25.5850    20.5690    17.5570    23.4100 
  165.2500     2.2850   -31.9100    73.1010    32.8740    25.3400    21.5800    23.3540 
  165.3750     2.2640   -32.2700    65.9970    43.5610    33.0360    29.7410    23.1780 
  165.5000     2.2440   -32.6850    61.1640    57.7540    44.5080    58.8460    23.1250 
  165.6250     2.2270   -33.1160    60.1730    72.5530    57.7060   101.4180    23.1130 
  165.7500     2.2160   -33.5930    61.6670    84.0170    69.2400   116.8020    23.1210 
  165.8750     2.2100   -34.0600    63.8280    88.5430    75.3690   101.2310    23.1520 
  166.0000     2.2110   -34.5210    66.0190    85.1040    73.9840    79.2750    23.3440 
  166.1250     2.2150   -34.9100    67.5900    78.8720    69.0310    62.9630    23.4800 
  166.2500     2.2220   -35.2380    69.2000    73.3310    63.7650    57.4260    23.7090 
  166.3750     2.2290   -35.5460    70.4540    70.1630    60.1240    59.8020    23.9470 
  166.5000     2.2360   -35.7840    70.2050    70.2570    59.1630    61.9010    23.9870 
  166.6250     2.2410   -36.0350    69.2120    73.2130    60.6450    63.1390    24.0050 
  166.7500     2.2440   -36.2450    67.7010    79.0610    64.6270    69.1590    24.0610 
  166.8750     2.2450   -36.4630    65.8930    87.8310    71.1550    80.6970    24.2290 
  167.0000     2.2410   -36.6970    64.0940   100.0410    80.7170    94.6900    24.4720 
  167.1250     2.2330   -36.9040    62.4620   115.0790    92.8590   109.5510    24.9390 
  167.2500     2.2210   -37.1100    60.5120   132.4060   107.2310   131.0660    25.8970 
  167.3750     2.2060   -37.2830    60.1080   150.7870   122.8820   187.8140    26.9650 
  167.5000     2.1900   -37.4660    61.1640   167.6790   137.8800   245.3640    27.4250 
  167.6250     2.1760   -37.5990    61.1670   180.3690   149.9740   266.5080    27.4860 
  167.7500     2.1670   -37.6960    60.4720   186.4870   157.1340   263.8330    27.3600 
  167.8750     2.1640   -37.7370    59.4010   185.0290   158.2400   244.2440    27.1400 
  168.0000     2.1660   -37.6970    58.3640   176.0860   152.8420   231.9000    27.0170 
  168.1250     2.1710   -37.6840    56.9990   163.4430   143.7430   220.8110    26.9840 
  168.2500     2.1780   -37.6380    55.4880   149.9020   133.1300   200.1270    26.7860 
  168.3750     2.1850   -37.6240    54.3360   137.9800   123.1700   158.2380    26.3680 
  168.5000     2.1940   -37.6270    54.2540   130.0990   116.1770   130.4330    26.0440 
  168.6250     2.2020   -37.6520    55.7800   126.2590   112.6130   119.5310    25.9190 
  168.7500     2.2090   -37.7180    56.6880   126.1000   112.4360   121.9440    25.8270 
  168.8750     2.2150   -37.7970    57.7370   128.8500   115.1050   138.8550    25.8090 
  169.0000     2.2170   -37.9270    60.6940   133.8640   120.0280   156.2000    25.9040 
  169.1250     2.2150   -38.0360    62.0150   140.1660   126.1220   168.5790    26.1820 
  169.2500     2.2100   -38.1680    61.1030   147.6550   133.1550   170.7490    26.4760 
  169.3750     2.2030   -38.3120    60.1130   156.3910   141.1910   158.4580    26.7080 
  169.5000     2.1930   -38.4370    60.1890   166.0070   150.1460   161.4850    26.7390 
  169.6250     2.1840   -38.5870    58.8700   174.8990   158.8140   169.6740    26.7210 
  169.7500     2.1770   -38.7280    55.8720   181.2830   165.6170   177.9980    26.6370 
  169.8750     2.1740   -38.9000    55.2970   183.9470   169.2180   178.2180    26.4460 
  170.0000     2.1740   -39.1060    58.2740   182.6370   168.8890   173.7030    26.3500 
  170.1250     2.1780   -39.2980    59.4550   179.4430   166.3190   172.9510    26.2830 
  170.2500     2.1820   -39.5030    57.6760   175.6750   162.8060   175.1370    26.1960 
  170.3750     2.1880   -39.6770    55.4990   171.9900   159.1860   183.2180    26.0880 
