~V
VERS. 2.00: Ver 2.00
~W
STRT.M 56.0000:
STOP.M 269.0000:
STEP.M 0.1250:
NULL. -999.2500:
UWI. F11148:
~C
DEPT.M :
GR.API :
RML.OHMM :
RI. :
RXO.OHMM :
SP.MV :
DEN.GM/CC :
CALI.CM :
~A
# ...
   67.2500    65.2760     8.0330     8.0390    10.8140   -29.4290     2.1220    25.3460 
   67.3750    65.3590     7.9650     7.9870    10.9840   -29.9400     2.1220    25.0230 
   67.5000    66.8080     7.8380     7.8660    11.0250   -30.3640     2.1390    24.5690 
   67.6250    69.0350     7.7140     7.7260    10.9710   -30.7080     2.1730    24.1930 
   67.7500    69.0570     7.6380     7.6050    10.9220   -30.9960     2.2000    24.1910 
   67.8750    65.3200     7.6030     7.5040    11.0700   -31.2420     2.2090    24.5680 
   68.0000    60.5840     7.5750     7.4000    11.3330   -31.4730     2.2050    25.1150 
   68.1250    60.9680     7.5190     7.2700    11.4850   -31.7140     2.1970    25.5490 
   68.2500    68.1160     7.4490     7.1280    11.3420   -31.9660     2.1900    25.8400 
   68.3750    75.0550     7.4540     7.0500    11.0050   -32.2320     2.1850    26.1190 
   68.5000    76.0020     7.6270     7.1130    10.3460   -32.5170     2.1820    26.4980 
   68.6250    70.5050     8.0080     7.3580     9.5310   -32.7570     2.1780    26.8020 
   68.7500    64.9660     8.5560     7.7680    10.6530   -32.9550     2.1660    26.6730 
   68.8750    62.8560     9.0630     8.1890    13.2610   -33.2050     2.1530    26.0170 
   69.0000    64.1480     9.3180     8.4560    14.3110   -33.4410     2.1610    25.0620 
   69.1250    66.1220     9.1970     8.4450    12.0720   -33.6470     2.1960    24.0860 
   69.2500    67.3240     8.7570     8.1410    10.6820   -33.9590     2.2370    23.8640 
   69.3750    67.4500     8.2860     7.7420    10.6170   -34.2810     2.2410    24.2880 
   69.5000    65.9280     7.9490     7.3880    10.8820   -34.5160     2.2040    24.7480 
   69.6250    63.9750     7.8030     7.1570    10.7870   -34.7320     2.1620    24.8190 
   69.7500    63.8420     7.8290     7.0750    10.6940   -35.0020     2.1440    24.6390 
   69.8750    64.1980     7.9180     7.0700    10.8990   -35.2380     2.1470    24.5290 
   70.0000    63.1480     8.0150     7.0930    11.2030   -35.4560     2.1590    24.4910 
   70.1250    62.3150     8.1000     7.1180    11.3560   -35.6950     2.1720    24.4480 
   70.2500    64.1340     8.1720     7.1370    11.3870   -35.8990     2.1840    24.3730 
   70.3750    65.9020     8.2390     7.1520    11.3910   -36.1190     2.1940    24.3230 
   70.5000    66.2310     8.3090     7.1710    11.4240   -36.3890     2.1980    24.3340 
   70.6250    64.8510     8.3860     7.1950    11.5170   -36.7070     2.1960    24.4510 
   70.7500    62.7650     8.4650     7.2210    11.5970   -36.9680     2.1910    24.7000 
   70.8750    61.2810     8.5340     7.2380    11.6300   -37.1340     2.1810    24.9080 
   71.0000    60.6600     8.5880     7.2350    11.6460   -37.2360     2.1680    24.8790 
   71.1250    60.6010     8.6310     7.2110    11.7730   -37.2070     2.1580    24.6840 
   71.2500    60.5450     8.6660     7.1660    11.9270   -37.0460     2.1590    24.4150 
   71.3750    60.4510     8.6820     7.1070    11.9580   -36.8520     2.1720    24.1990 
   71.5000    60.0420     8.6420     7.0170    11.9050   -36.5890     2.1920    24.0140 
   71.6250    59.4230     8.5090     6.8730    11.7980   -36.2110     2.2120    23.8350 
   71.7500    59.8110     8.2580     6.6550    11.7150   -35.8530     2.2210    23.6830 
   71.8750    61.4720     7.9540     6.3940    11.8870   -35.5750     2.2240    23.5720 
   72.0000    62.8920     7.6890     6.1530    11.9090   -35.3340     2.2300    23.4160 
   72.1250    63.0500     7.5960     6.0210    11.3550   -35.2390     2.2410    23.2580 
   72.2500    61.1200     7.8400     6.1200    11.0440   -35.2770     2.2520    23.1990 
   72.3750    60.7410     8.3810     6.4430    11.1400   -35.3540     2.2510    23.3320 
   72.5000    62.8570     9.1140     6.9400    11.8980   -35.5460     2.2360    23.6320 
   72.6250    65.1570     9.8410     7.4930    14.0800   -35.8120     2.2090    23.9880 
   72.7500    65.3030    10.2440     7.8840    16.8140   -36.0810     2.1810    24.6070 
   72.8750    65.4030    10.2140     7.9860    16.0290   -36.3330     2.1580    25.2620 
   73.0000    65.9300     9.8310     7.8150    13.8160   -36.5750     2.1330    25.5950 
   73.1250    65.6610     9.2990     7.4910    13.1920   -36.7990     2.1110    25.5030 
   73.2500    65.4190     8.8510     7.1660    13.3330   -36.9820     2.1070    25.5130 
   73.3750    64.2520     8.5920     6.9370    13.2550   -37.1070     2.1220    25.9170 
   73.5000    59.9360     8.5090     6.8280    12.9330   -37.1810     2.1420    26.6350 
   73.6250    55.4380     8.5310     6.8150    12.6640   -37.2800     2.1520    27.4900 
   73.7500    56.8030     8.5780     6.8560    12.3630   -37.2970     2.1490    28.2010 
   73.8750    59.9650     8.6120     6.9050    12.3360   -37.2730     2.1400    28.5050 
   74.0000    59.3330     8.6310     6.9470    12.3310   -37.2500     2.1310    28.4070 
   74.1250    56.5640     8.6520     6.9780    12.1410   -37.1390     2.1290    28.0470 
   74.2500    57.6560     8.7080     7.0160    11.8630   -36.9110     2.1410    27.6460 
   74.3750    61.1540     8.8040     7.0730    12.0250   -36.6620     2.1580    27.3820 
   74.5000    64.4570     8.9120     7.1420    12.2900   -36.3260     2.1690    27.0350 
   74.6250    66.4090     8.9710     7.1870    12.6660   -35.8500     2.1680    26.5050 
   74.7500    66.8470     8.8950     7.1450    12.7850   -35.3430     2.1570    26.1780 
   74.8750    66.1160     8.6980     7.0120    12.4140   -34.7600     2.1430    25.8450 
   75.0000    65.6410     8.4430     6.8210    12.2920   -34.0850     2.1310    25.4760 
   75.1250    66.0330     8.2330     6.6370    11.7100   -33.4130     2.1340    25.3180 
   75.2500    65.8640     8.1910     6.5460    10.3700   -32.8270     2.1550    25.3990 
   75.3750    65.2800     8.3190     6.5730    10.2030   -32.2440     2.1820    25.5900 
   75.5000    66.1700     8.5660     6.7050    11.0490   -31.6740     2.2010    25.6690 
   75.6250    69.4780     8.8410     6.8930    11.6460   -31.1540     2.2090    25.4520 
   75.7500    73.1810     9.0200     7.0570    11.7090   -30.6730     2.2090    24.9940 
   75.8750    73.9730     9.0550     7.1390    11.7250   -30.2470     2.2080    24.5950 
   76.0000    70.9020     8.9580     7.1250    11.4750   -29.8800     2.2050    24.2820 
   76.1250    64.9120     8.7830     7.0430    11.1500   -29.5780     2.1980    24.2390 
   76.2500    60.2210     8.5950     6.9390    11.1900   -29.2660     2.1900    24.6470 
   76.3750    60.2400     8.4300     6.8540    11.3110   -28.8880     2.1800    25.1970 
   76.5000    64.0360     8.2990     6.8100    11.3640   -28.4540     2.1680    25.4900 
   76.6250    68.5510     8.2180     6.8180    11.3930   -27.9230     2.1550    25.3040 
   76.7500    69.3580     8.2280     6.9010    11.4890   -27.2170     2.1520    24.8500 
   76.8750    68.3300     8.3270     7.0430    11.4680   -26.4120     2.1570    24.5050 
   77.0000    68.2670     8.4750     7.2100    11.2630   -25.4770     2.1660    24.4050 
   77.1250    69.3480     8.5810     7.3370    11.3990   -24.3140     2.1790    24.6380 
   77.2500    69.4820     8.4930     7.2980    11.7290   -22.8050     2.1910    25.2730 
   77.3750    69.5800     8.1610     7.0390    11.3670   -21.1310     2.2000    25.8210 
   77.5000    73.5310     7.6250     6.5730     9.6880   -19.3100     2.2060    25.7760 
   77.6250    82.8090     7.0100     5.9940     7.5350   -17.4830     2.2150    25.3850 
   77.7500    93.5290     6.4730     5.4320     6.2690   -15.7830     2.2350    25.0540 
   77.8750   101.0050     6.0540     4.9580     5.5100   -14.2420     2.2610    24.9000 
   78.0000   103.8280     5.7130     4.5720     5.1440   -12.8930     2.2820    24.9270 
   78.1250   103.6660     5.3880     4.2480     5.5030   -11.8300     2.2930    25.0000 
   78.2500   102.7600     5.1130     4.0100     5.8590   -11.1890     2.2970    25.0740 
   78.3750   102.1470     5.1160     3.9590     5.6890   -10.8840     2.3070    25.1140 
