~V
VERS. 2.00: Ver 2.00
~W
STRT.M 20.0000:
STOP.M 279.0000:
STEP.M 0.1250:
NULL. -999.2500:
UWI. F11153:
~C
DEPT.M :
DEN.GM/CC :
GR.API :
RML.OHMM :
RI. :
RXO.OHMM :
CALI.CM :
SP.MV :
~A
# ...
  222.5000     2.1920    58.8710    57.9280    54.0140    36.8150    25.5620   -27.4580 
  222.6250     2.1850    61.2800    57.0240    52.7740    33.6750    25.6530   -27.7530 
  222.7500     2.1730    61.6440    56.5800    51.8180    31.9600    25.7940   -27.9930 
  222.8750     2.1620    59.2280    56.7240    51.3010    32.6560    25.9410   -28.2060 
  223.0000     2.1570    57.7090    57.4770    51.2910    33.1610    25.9990   -28.4190 
  223.1250     2.1640    59.9600    58.8200    51.8130    32.4460    25.9400   -28.6390 
  223.2500     2.1810    63.8420    60.5180    52.6470    33.8770    25.8430   -28.8480 
  223.3750     2.2010    66.1450    62.4710    53.6730    38.1770    25.7630   -29.0380 
  223.5000     2.2190    64.8950    64.6660    54.8480    40.4720    25.7060   -29.2030 
  223.6250     2.2250    65.2050    67.3230    56.3280    39.7400    25.6690   -29.3080 
  223.7500     2.2160    66.5380    70.6630    58.3240    37.4580    25.7390   -29.3510 
  223.8750     2.1950    65.2390    74.9530    61.1130    36.6410    25.9750   -29.3400 
  224.0000     2.1750    63.2010    80.3140    64.8420    39.7310    26.1810   -29.2790 
  224.1250     2.1740    62.6060    86.5220    69.3700    42.8400    26.2870   -29.1660 
  224.2500     2.1850    63.1200    92.5030    73.8280    42.4940    26.4330   -29.0060 
  224.3750     2.1920    62.8560    97.1310    77.3340    41.3420    26.8430   -28.8060 
  224.5000     2.1820    62.1120    99.6090    79.2360    41.3690    27.6270   -28.5740 
  224.6250     2.1510    60.4720    99.7620    79.2950    36.3400    28.4300   -28.3510 
  224.7500     2.1110    58.0030    98.9060    78.4640    29.1510    28.7440   -28.1400 
  224.8750     2.0810    57.0830    97.8620    77.4260    26.0370    28.6700   -27.9100 
  225.0000     2.0750    56.4740    96.9460    76.5320    27.9720    28.5670   -27.6800 
  225.1250     2.0900    54.1200    96.0300    75.7930    35.6960    28.6490   -27.4800 
  225.2500     2.1040    53.3560    94.8560    74.9810    45.7160    28.7040   -27.3060 
  225.3750     2.1130    55.8020    93.3170    73.9180    52.0320    28.5730   -27.1610 
  225.5000     2.1240    58.0540    91.5100    72.5630    53.5530    28.3110   -27.0430 
  225.6250     2.1430    57.1900    89.7850    71.0860    50.5530    28.0260   -26.9090 
  225.7500     2.1570    56.6640    88.5460    69.8460    46.9770    27.8290   -26.7630 
  225.8750     2.1640    57.6340    88.0590    69.1340    46.7990    27.6270   -26.6270 
  226.0000     2.1660    58.0870    88.4200    69.1160    50.0080    27.3550   -26.4720 
  226.1250     2.1730    59.3890    89.7500    69.9220    58.6210    27.1520   -26.2590 
  226.2500     2.1840    61.6840    92.0540    71.5100    65.3500    27.0170   -26.0030 
  226.3750     2.1990    61.9310    95.7390    74.2250    66.0630    26.9150   -25.7020 
  226.5000     2.2240    59.2320   101.1190    78.4890    65.2810    26.6620   -25.3640 
  226.6250     2.2680    58.4800   107.5520    84.2800    65.7460    26.4270   -25.0230 
  226.7500     2.3200    59.3210   112.3130    89.7850    74.2580    26.1910   -24.6880 
  226.8750     2.3720    57.1230   112.3460    92.6610    96.5960    25.7390   -24.3530 
  227.0000     2.4270    53.3630   106.0620    90.9210   127.8670    25.1530   -24.0120 
  227.1250     2.4730    55.1480    94.8510    84.0040   102.3600    24.7540   -23.6630 
  227.2500     2.4840    61.6300    83.2170    75.1520    61.1230    24.4980   -23.3270 
  227.3750     2.4610    66.7430    79.1210    66.2560    40.9880    24.2640   -23.0130 
  227.5000     2.4310    66.8010    70.2120    57.1520    34.6240    24.0520   -22.7150 
  227.6250     2.4230    65.2090    56.5620    46.0420    33.6120    23.9630   -22.4440 
  227.7500     2.4350    64.7070    41.1850    33.5240    31.9770    23.9360   -22.1980 
  227.8750     2.4560    63.0850    27.0290    22.0010    27.5030    24.1520   -22.0160 
  228.0000     2.4530    59.2350    16.5210    13.4480    16.8950    24.7790   -21.9310 
  228.1250     2.3550    56.2870    10.5100     8.5550     8.4490    26.4740   -21.9790 
  228.2500     2.1930    59.2170     7.1930     5.8550     4.6770    28.6330   -22.1090 
  228.3750     2.0500    66.3440     5.5610     4.5270     3.5050    29.6880   -22.2720 
  228.5000     1.9770    71.8840     4.9680     4.0440     3.2110    29.4030   -22.4400 
  228.6250     1.9700    73.4340     5.1700     4.2090     3.3210    28.6380   -22.6140 
  228.7500     1.9890    74.8000     5.8710     4.7790     3.8450    27.4940   -22.8080 
  228.8750     2.0350    76.2710     6.9190     5.6320     4.7570    25.9790   -22.9840 
  229.0000     2.1110    76.5260     8.1140     6.6050     5.5570    24.9860   -23.1150 
  229.1250     2.1900    76.8810     9.1400     7.4400     5.8850    24.6670   -23.1860 
  229.2500     2.2360    80.1520     9.7760     7.9580     5.8740    24.4180   -23.2390 
  229.3750     2.2600    85.4450     9.9740     8.1190     5.8970    24.0610   -23.3050 
  229.5000     2.2900    91.4240     9.8450     8.0140     6.0080    23.7580   -23.3870 
  229.6250     2.3220    96.2050     9.5600     7.7820     5.9510    23.6110   -23.5060 
  229.7500     2.3410    97.7920     9.2730     7.5480     5.9360    23.5710   -23.6440 
  229.8750     2.3470    99.2400     9.0180     7.3410     6.1290    23.6580   -23.7920 
  230.0000     2.3490   102.0710     8.7950     7.1590     6.4480    23.8340   -23.9820 
  230.1250     2.3440   104.2120     8.5820     6.9860     6.6520    24.1110   -24.2490 
  230.2500     2.3370   106.6270     8.3530     6.8000     6.6240    24.2350   -24.5540 
  230.3750     2.3310   111.1760     8.1280     6.6160     6.5420    24.1710   -24.9040 
  230.5000     2.3310   117.7150     7.9790     6.4950     6.4940    24.1750   -25.3400 
  230.6250     2.3290   120.2000     8.0710     6.5700     6.6280    24.4680   -25.8440 
  230.7500     2.3210   115.3910     8.5120     6.9280     6.9680    24.7840   -26.4000 
  230.8750     2.3100   103.1910     9.4150     7.6640     7.9380    25.0250   -26.9980 
  231.0000     2.2990    87.8570    12.5640     8.8540    10.0360    25.2150   -27.5830 
  231.1250     2.2880    80.4500    15.3230    10.6410    14.1210    25.3790   -28.1130 
  231.2500     2.2720    81.4430    18.5790    12.9250    17.9140    25.4480   -28.5820 
  231.3750     2.2570    81.3000    22.1220    15.5840    20.7780    25.4260   -29.0150 
  231.5000     2.2530    75.4520    25.6700    18.3810    23.1490    25.3630   -29.3860 
  231.6250     2.2640    70.4690    28.8480    20.9700    25.2220    25.3870   -29.6940 
  231.7500     2.2800    70.1200    31.5180    23.1630    27.2900    25.5370   -29.9680 
  231.8750     2.2890    70.8230    33.6800    24.9310    28.9810    25.7480   -30.2230 
  232.0000     2.2900    69.9950    35.4760    26.3720    29.2990    25.8200   -30.4820 
  232.1250     2.2890    69.3970    37.1670    27.6640    28.1030    25.7620   -30.7340 
  232.2500     2.2870    67.4900    38.9650    29.0070    27.6560    25.7260   -30.9840 
  232.3750     2.2810    64.9800    40.8350    30.4340    29.2140    25.7260   -31.2150 
  232.5000     2.2720    64.9690    42.5600    31.8370    32.5310    25.6730   -31.4430 
  232.6250     2.2690    66.4540    43.7040    32.9310    35.1080    25.5450   -31.6610 
  232.7500     2.2730    66.9270    44.1590    33.5630    33.7200    25.3960   -31.8510 
  232.8750     2.2800    68.5310    44.0820    33.7670    30.7350    25.2590   -32.0130 
  233.0000     2.2870    71.4340    43.8390    33.7650    29.2860    25.1440   -32.1360 
  233.1250     2.2890    71.5120    43.8450    33.8720    30.2840    25.0160   -32.2190 
  233.2500     2.2850    70.1550    44.2100    34.2400    31.8780    24.9160   -32.2930 
  233.3750     2.2770    70.7950    44.8460    34.8540    33.9330    24.8840   -32.3630 
  233.5000     2.2680    72.6490    45.5510    35.5930    35.2580    24.9060   -32.4200 
  233.6250     2.2630    69.3970    46.1160    36.2930    32.9360    24.9530   -32.4680 
