~V
VERS. 2.00: Ver 2.00
~W
STRT.M 50.0000:
STOP.M 265.0000:
STEP.M 0.1250:
NULL. -999.2500:
UWI. F11185:
~C
DEPT.M :
SP.MV :
GR.API :
RI. :
RML.OHMM :
RXO.OHMM :
DEN.GM/CC :
~A
   50.0000   -88.7640    30.7810     0.0820     0.3170     0.0970     2.2270 
   50.1250   -87.9050    31.0270     0.0780     0.3060     0.0980     2.2250 
   50.2500   -87.1160    31.1110     0.0770     0.3010     0.0980     2.2290 
   50.3750   -86.5320    31.2450     0.0790     0.3040     0.0960     2.2350 
   50.5000   -86.2650    32.0370     0.0850     0.3060     0.0970     2.2300 
   50.6250   -86.4850    33.7120     0.0950     0.3100     0.1030     2.2160 
   50.7500   -87.1910    36.3500     0.1010     0.3130     0.1110     2.2080 
   50.8750   -88.2230    38.4900     0.1180     0.3170     0.1120     2.2120 
   51.0000   -89.0790    39.4960     0.1260     0.3190     0.1080     2.2180 
   51.1250   -88.9250    41.2280     0.1370     0.3200     0.1050     2.2200 
   51.2500   -87.1210    45.4580     0.1360     0.3180     0.1030     2.2220 
   51.3750   -83.1940    50.6370     0.1270     0.3140     0.0990     2.2270 
   51.5000   -77.5340    52.9790     0.1260     0.3080     0.0960     2.2340 
   51.6250   -70.8810    51.5330     0.1240     0.3020     0.0950     2.2430 
   51.7500   -64.3630    48.6880     0.1250     0.2960     0.0970     2.2550 
   51.8750   -58.8390    46.8630     0.1250     0.2910     0.0990     2.2720 
   52.0000   -54.5890    46.0700     0.1240     0.2860     0.0980     2.2920 
   52.1250   -51.6050    44.3620     0.1240     0.2830     0.0950     2.2990 
   52.2500   -49.3970    42.4580     0.1250     0.2790     0.0910     2.2850 
   52.3750   -47.6520    43.0270     0.1340     0.2760     0.0890     2.2600 
   52.5000   -46.1370    44.7350     0.1480     0.2730     0.0900     2.2440 
   52.6250   -44.8050    44.4910     0.1620     0.2710     0.0920     2.2460 
   52.7500   -43.6590    41.6190     0.1750     0.2700     0.0920     2.2590 
   52.8750   -42.7240    40.9840     0.1760     0.2700     0.0900     2.2650 
   53.0000   -41.9600    43.6620     0.1820     0.2700     0.0900     2.2560 
   53.1250   -41.3570    46.1790     0.1940     0.2710     0.0900     2.2360 
   53.2500   -40.9260    45.5420     0.1940     0.2720     0.0930     2.2220 
   53.3750   -40.7860    43.3100     0.1860     0.2720     0.0960     2.2160 
   53.5000   -41.0700    41.1760     0.1580     0.2670     0.1000     2.2140 
   53.6250   -41.9970    38.8420     0.1170     0.2580     0.1050     2.2220 
   53.7500   -43.6400    36.0380     0.0760     0.2470     0.1130     2.2440 
   53.8750   -46.0550    34.4980     0.0410     0.2410     0.1280     2.2520 
   54.0000   -48.9820    34.3970     0.0220     0.2550     0.2750     2.2320 
   54.1250   -52.0520    36.1630     0.0460     0.3160     1.0550     2.2070 
   54.2500   -54.8440    40.1670     0.1470     0.7020     2.4380     2.1920 
   54.3750   -62.2870    48.4080     0.4690     1.0810     3.4600     2.1860 
   54.5000   -73.4950    61.2820     1.0800     1.6520     3.7220     2.1920 
   54.6250   -82.0720    74.0280     1.9230     2.4480     3.7730     2.2230 
   54.7500   -89.3800    82.1640     2.9070     3.4380     4.9860     2.2720 
   54.8750   -94.0290    84.5420     4.0910     4.5840    11.0770     2.3490 
   55.0000   -97.0880    83.0890     5.7900     5.7600    22.1010     2.4500 
   55.1250   -99.7850    77.1640     7.4940     6.7580    28.6730     2.5020 
   55.2500  -102.4960    69.0910     8.4880     7.4110    23.9010     2.4580 
   55.3750  -105.2250    62.8810     8.2730     7.5840    14.0260     2.3530 
   55.5000  -108.0400    59.7210     7.0710     7.3200     7.9770     2.2550 
   55.6250  -110.8310    59.7630     5.9250     6.7990     6.0470     2.1900 
   55.7500  -113.2730    61.2320     5.2100     6.2550     5.4060     2.1470 
   55.8750  -115.1540    62.1710     4.9910     5.8440     5.2110     2.1220 
   56.0000  -116.5670    61.9030     4.9570     5.6200     5.1700     2.1110 
   56.1250  -117.5020    62.2500     5.0020     5.5480     5.2210     2.1110 
   56.2500  -118.1780    62.8500     5.0790     5.5450     5.3200     2.1200 
   56.3750  -118.7160    63.0460     5.1350     5.6400     5.3570     2.1260 
   56.5000  -119.0980    63.5380     5.1420     5.6480     5.2810     2.1220 
   56.6250  -119.3120    64.4080     5.1100     5.6140     5.1800     2.1180 
   56.7500  -119.5050    64.8560     5.0650     5.5670     5.1760     2.1190 
   56.8750  -119.8150    63.2240     5.0680     5.5700     5.2870     2.1240 
   57.0000  -120.1200    61.7630     5.1500     5.6560     5.3960     2.1280 
   57.1250  -120.1870    61.5000     5.2670     5.7770     5.6030     2.1340 
   57.2500  -119.9770    63.7210     5.3680     5.8830     6.7860     2.1290 
   57.3750  -119.7380    67.1090     5.3810     5.8960     8.9290     2.1040 
   57.5000  -119.6720    68.7960     5.2980     5.8100     9.3660     2.0850 
   57.6250  -119.7520    66.0840     5.1230     5.6280     7.2640     2.0960 
   57.7500  -119.8960    62.0040     4.9260     5.4230     5.4460     2.1180 
   57.8750  -120.0260    60.3380     4.7570     5.2470     5.0550     2.1260 
   58.0000  -120.0900    62.0470     4.6410     5.1270     5.1710     2.1240 
   58.1250  -120.1060    64.1010     4.6100     5.0940     5.3500     2.1200 
   58.2500  -120.1370    64.0840     4.6960     5.1830     5.4570     2.1120 
   58.3750  -120.2640    61.4520     4.9690     5.4680     5.5680     2.1180 
   58.5000  -120.3670    57.4600     5.2590     5.7690     6.5900     2.1610 
   58.6250  -120.3080    54.6780     5.4990     6.0190     9.4370     2.2180 
   58.7500  -120.1100    55.2750     5.5670     6.0900    11.2550     2.2020 
   58.8750  -119.7530    57.4650     5.4540     5.9720     9.0380     2.0820 
   59.0000  -119.3010    57.6830     5.2160     5.7240     5.9420     2.0310 
   59.1250  -118.7250    54.8380     4.9580     5.4560     5.0310     2.0500 
   59.2500  -117.9120    52.3020     4.7340     5.2240     5.1260     2.1080 
   59.3750  -116.8330    54.1710     4.5680     5.0510     4.9070     2.1630 
   59.5000  -115.5850    61.3150     4.4420     4.9190     4.4050     2.2020 
   59.6250  -114.1740    71.1760     4.3100     4.7830     3.9910     2.2280 
   59.7500  -112.7920    79.8960     4.2230     4.6920     3.7690     2.2530 
   59.8750  -111.8170    87.2500     4.2480     4.7180     3.7760     2.2680 
   60.0000  -111.3780    92.7420     4.3860     4.8620     4.0020     2.2660 
   60.1250  -111.6630    91.6240     4.5450     5.0270     4.2460     2.2340 
   60.2500  -112.6740    82.9250     4.6490     5.1350     4.3210     2.1810 
   60.3750  -114.2520    72.4480     4.6720     5.1590     4.3390     2.1300 
   60.5000  -115.9070    65.3660     4.6280     5.1130     4.4200     2.1090 
   60.6250  -117.2370    61.4520     4.5530     5.0350     4.4660     2.1140 
   60.7500  -118.1250    60.2520     4.4950     4.9740     4.4230     2.1230 
   60.8750  -118.6450    61.5530     4.4510     4.9290     4.3810     2.1290 
   61.0000  -118.9230    62.3750     4.4150     4.8920     4.3860     2.1290 
   61.1250  -119.0460    60.7160     4.3790     4.8550     4.4350     2.1220 
   61.2500  -119.0990    60.6010     4.3510     4.8250     4.5250     2.1140 
   61.3750  -119.1600    63.9040     4.3320     4.8060     4.5950     2.1110 
   61.5000  -119.2550    66.3870     4.3340     4.8070     4.6340     2.1170 
   61.6250  -119.4130    63.9730     4.3450     4.8190     4.7340     2.1250 
   61.7500  -119.6880    58.2330     4.3630     4.8380     4.9190     2.1270 
   61.8750  -120.0320    55.2050     4.3970     4.8730     5.0570     2.1190 
   62.0000  -120.3650    57.0000     4.4230     4.9000     5.0380     2.1150 
   62.1250  -120.6000    59.3280     4.4430     4.9200     4.9740     2.1270 
   62.2500  -120.7020    60.0070     4.4380     4.9160     5.0080     2.1420 
   62.3750  -120.7070    61.1270     4.4110     4.8870     5.0710     2.1400 
   62.5000  -120.6170    63.4870     4.4100     4.8870     5.0560     2.1170 
   62.6250  -120.5290    64.1070     4.5140     4.9950     4.9770     2.1020 
   62.7500  -120.6240    61.6670     4.7310     5.2200     5.0200     2.1450 
