~V
VERS. 2.00: Ver 2.00
~W
STRT.M 50.0000:
STOP.M 253.0000:
STEP.M 0.1250:
NULL. -999.2500:
UWI. F11132:
~C
DEPT.M :
DEN.GM/CC :
GR.API :
RML.OHMM :
RI. :
RXO.OHMM :
CALI.CM :
SP.MV :
~A
# ...
  207.5000     2.4110    52.5710     6.3920     6.0170     5.2590    25.0460   -18.5840 
  207.6250     2.4040    54.6180     6.3870     5.9770     5.4140    25.0460   -18.7810 
  207.7500     2.4070    54.5410     6.4350     5.9750     5.4400    25.0460   -19.0940 
  207.8750     2.4250    55.0150     6.5590     6.0360     5.5070    25.0460   -19.4800 
  208.0000     2.4430    58.7250     6.7700     6.1660     5.7850    25.0460   -19.9030 
  208.1250     2.4500    63.7310     7.0520     6.3580     6.2540    25.0480   -20.4160 
  208.2500     2.4520    65.8710     7.3470     6.5690     7.0540    25.0590   -21.0050 
  208.3750     2.4520    65.8390     7.6440     6.7860     7.9200    25.0850   -21.6170 
  208.5000     2.4480    64.9290     8.0300     7.0640     8.5310    25.1070   -22.2410 
  208.6250     2.4370    62.7860     8.7990     7.6100     9.2780    25.1150   -22.8820 
  208.7500     2.4250    59.6920    10.1390     8.5910    10.6080    25.1150   -23.5050 
  208.8750     2.4180    56.5990    12.1420    10.1280    13.1600    25.1150   -24.0730 
  209.0000     2.4100    54.3420    14.6810    12.2150    19.4460    25.1150   -24.5800 
  209.1250     2.3990    54.3370    17.2130    14.5390    32.1440    25.1200   -25.0100 
  209.2500     2.3880    56.9920    18.9340    16.3620    37.3930    25.1390   -25.3610 
  209.3750     2.3820    60.0520    19.4550    17.1960    27.9770    25.1750   -25.6440 
  209.5000     2.3710    60.0550    19.0840    17.1440    20.8140    25.2080   -25.8620 
  209.6250     2.3480    57.6360    18.5890    16.7760    20.9260    25.2140   -26.0240 
  209.7500     2.3160    55.6090    18.4780    16.6100    22.3080    25.1770   -26.1310 
  209.8750     2.2910    54.9010    18.7100    16.7150    23.7350    25.1350   -26.1740 
  210.0000     2.2750    55.3590    18.9460    16.9020    24.4660    25.1160   -26.1860 
  210.1250     2.2730    55.9810    18.7790    16.8620    22.8560    25.1150   -26.1780 
  210.2500     2.2860    56.9210    18.3210    16.6090    21.7790    25.1150   -26.0980 
  210.3750     2.3080    58.4380    17.9400    16.3900    19.8720    25.1150   -25.9690 
  210.5000     2.3270    60.5650    18.0030    16.4930    17.9530    25.1080   -25.8460 
  210.6250     2.3410    62.0030    18.6960    17.1270    20.6920    25.0870   -25.6810 
  210.7500     2.3490    61.1560    19.6300    18.0400    24.6670    25.0600   -25.4550 
  210.8750     2.3430    59.4990    20.2970    18.8120    26.0110    25.0480   -25.2340 
  211.0000     2.3290    59.1870    20.1860    18.9320    22.2060    25.0460   -25.0160 
  211.1250     2.3170    60.1260    18.8840    17.9080    20.4470    25.0460   -24.7460 
  211.2500     2.3160    60.1910    16.8630    16.1330    17.9500    25.0460   -24.4640 
  211.3750     2.3230    59.9020    14.7360    14.1830    15.8210    25.0480   -24.2010 
  211.5000     2.3300    60.8280    13.0900    12.6000    13.0120    25.0540   -23.9430 
  211.6250     2.3360    61.6500    12.4510    11.8450    11.3480    25.0720   -23.7020 
  211.7500     2.3400    59.8720    12.7880    11.9200    10.6240    25.0900   -23.5190 
  211.8750     2.3440    56.7880    13.9770    12.7880    13.4350    25.0940   -23.4000 
  212.0000     2.3430    55.9170    15.6840    14.2570    19.2180    25.0700   -23.3390 
  212.1250     2.3330    58.0770    17.3250    15.9030    21.6350    24.9980   -23.3380 
  212.2500     2.3140    59.2430    18.3810    17.1660    20.5550    24.9270   -23.4130 
  212.3750     2.2900    57.4520    18.6760    17.7570    17.4240    24.8900   -23.5480 
  212.5000     2.2710    54.1110    18.3500    17.7000    15.2880    24.8960   -23.6940 
  212.6250     2.2620    51.0000    17.7640    17.2620    18.7290    24.9410   -23.8760 
  212.7500     2.2610    50.1170    17.3590    16.8770    22.9900    24.9970   -24.1220 
  212.8750     2.2690    53.1990    17.4470    16.8370    21.6830    25.0340   -24.3720 
  213.0000     2.2850    58.2620    18.3610    17.4360    17.4470    25.0460   -24.5980 
  213.1250     2.3070    59.8490    20.5320    19.1150    18.6810    25.0200   -24.8810 
  213.2500     2.3320    57.2360    23.5300    21.6840    26.4150    24.9540   -25.1700 
  213.3750     2.3630    54.1100    26.3930    24.4460    40.9570    24.8790   -25.4030 
  213.5000     2.4060    52.2930    27.5680    25.9470    53.2360    24.8540   -25.6310 
  213.6250     2.4590    53.2170    25.3230    24.2860    57.5400    24.8580   -25.8720 
  213.7500     2.5000    56.3700    20.9350    20.4890    36.0390    24.8120   -26.0280 
  213.8750     2.4910    59.6610    16.2910    16.3300    17.7350    24.7180   -26.1200 
  214.0000     2.4460    61.3380    12.7340    13.0360    10.7800    24.6370   -26.2050 
  214.1250     2.4010    62.2430    10.7800    11.0770     9.3350    24.6090   -26.2150 
  214.2500     2.3770    63.4670     9.8600    10.0300     9.0490    24.5940   -26.1540 
  214.3750     2.3730    64.2690     9.5860     9.6210     8.8110    24.5370   -26.0880 
  214.5000     2.3780    64.1830     9.6220     9.5910     8.6300    24.4540   -26.0170 
  214.6250     2.3890    64.8640     9.7110     9.7180     8.3910    24.5130   -25.8830 
  214.7500     2.4030    66.2270     9.7310     9.8370     8.1940    24.7890   -25.7270 
  214.8750     2.4170    67.7300     9.6870     9.9130     8.1780    25.0120   -25.5900 
  215.0000     2.4320    68.7080     9.6030     9.9350     8.3600    25.0980   -25.4680 
  215.1250     2.4460    67.0350     9.4680     9.8710     8.4780    25.1000   -25.3340 
  215.2500     2.4580    64.3850     9.2580     9.6930     8.6960    25.0800   -25.2160 
  215.3750     2.4560    62.8970     8.9500     9.3800     8.9080    25.0690   -25.1200 
  215.5000     2.4410    64.2530     8.5960     8.9750     8.9860    25.0820   -25.0360 
  215.6250     2.4190    66.2960     8.4200     8.6770     9.0980    25.0770   -24.9640 
  215.7500     2.4010    66.3480     8.6880     8.7280     9.1790    25.0540   -24.9230 
  215.8750     2.3930    63.5280     9.6600     9.3570     9.6740    25.0290   -24.9240 
  216.0000     2.3920    58.5530    11.5570    10.7740    12.4790    24.9930   -24.9210 
  216.1250     2.4000    54.0210    14.6520    13.3380    28.2770    24.9430   -24.9870 
  216.2500     2.4230    50.5950    18.5220    16.8560    34.6040    24.9760   -25.1440 
  216.3750     2.4450    47.9440    22.5220    20.8600    32.8940    25.0950   -25.3200 
  216.5000     2.4300    46.3100    25.8010    24.4780    31.2090    25.2100   -25.4890 
  216.6250     2.3740    47.3140    27.6050    26.6880    32.6330    25.2520   -25.7430 
  216.7500     2.3110    49.6420    28.4490    27.7390    34.2810    25.2580   -26.0570 
  216.8750     2.2780    50.7570    29.0260    28.2450    35.4150    25.2640   -26.3490 
  217.0000     2.2610    49.8440    29.8870    28.7730    35.9300    25.2840   -26.6500 
  217.1250     2.2470    47.8900    31.2500    29.6160    36.1060    25.3150   -26.9700 
  217.2500     2.2350    45.8160    32.8350    30.6540    36.7570    25.3260   -27.2360 
  217.3750     2.2300    44.4990    34.3720    31.7270    37.6450    25.3040   -27.4740 
  217.5000     2.2300    44.3290    35.6170    32.6710    37.3740    25.2160   -27.7250 
  217.6250     2.2350    45.1880    36.3100    33.2860    36.8600    25.0520   -27.9650 
  217.7500     2.2430    46.0140    36.5130    33.5580    35.7680    24.9650   -28.1650 
  217.8750     2.2520    46.1370    36.3600    33.5530    35.3350    24.9960   -28.3370 
  218.0000     2.2560    46.9750    36.0500    33.4130    36.0080    25.0910   -28.4880 
  218.1250     2.2510    49.4190    35.7940    33.3120    34.9530    25.1410   -28.5560 
  218.2500     2.2380    51.2560    35.6970    33.3540    33.2450    25.1110   -28.5740 
  218.3750     2.2230    50.2370    35.7660    33.5580    32.8450    25.0440   -28.5790 
  218.5000     2.2100    46.9710    35.9120    33.8630    33.3260    24.9740   -28.5690 
  218.6250     2.2010    44.9450    35.9750    34.1370    32.2780    24.9030   -28.4990 
