~V
VERS. 2.00: Ver 2.00
~W
STRT.M 59.0000:
STOP.M 221.0000:
STEP.M 0.1250:
NULL. -999.2500:
UWI. F11122:
~C
DEPT.M :
GR.API :
RML.OHMM :
RI. :
RXO.OHMM :
CALI.CM :
SP.MV :
DEN.GM/CC :
~A
# ...
  182.7500    79.9680    72.7520    73.0000    31.8410    24.1100   -11.8720     2.3350 
  182.8750    76.0360    83.2340    84.3400    37.3340    23.6800   -11.2600     2.3210 
  183.0000    71.8020    91.5240    93.5400    37.2750    23.0190   -10.6760     2.2820 
  183.1250    71.0600    94.6040    97.1310    39.8700    22.9110   -10.2390     2.2420 
  183.2500    71.2300    92.9840    95.3910    49.2130    23.3630    -9.9220     2.2290 
  183.3750    71.5530    88.3580    89.9580    48.5470    24.0650    -9.6870     2.2590 
  183.5000    72.9560    83.0210    83.2780    39.6270    24.6710    -9.4610     2.3260 
  183.6250    75.6650    79.1150    77.7510    31.2400    24.4820    -9.2750     2.4060 
  183.7500    78.6810    77.3660    74.3580    34.6390    24.1050    -9.2510     2.4750 
  183.8750    78.3950    78.1720    73.5510    37.8850    23.7830    -9.3410     2.5280 
  184.0000    73.5660    81.9960    75.8140    42.0890    23.6040    -9.4430     2.5700 
  184.1250    68.8280    90.1940    82.6300    55.5330    23.4560    -9.5770     2.6140 
  184.2500    68.7580   102.7420    94.1390    79.9800    23.3410    -9.8180     2.6590 
  184.3750    70.8810   119.2800   110.1720   104.1510    23.4590   -10.0960     2.6930 
  184.5000    70.2030   137.4500   128.6840   129.1400    23.8910   -10.3770     2.7050 
  184.6250    65.6830   150.2770   143.6840   217.6080    24.2710   -10.6880     2.6880 
  184.7500    61.5750   150.9220   148.4440   469.6520    24.4360   -10.9990     2.6630 
  184.8750    60.9020   136.0340   138.4190   754.2880    24.5160   -11.3150     2.6510 
  185.0000    63.5500   108.3110   113.9760   629.8800    24.5460   -11.5910     2.6660 
  185.1250    67.7540    75.9450    81.3200   338.4380    24.4960   -11.7150     2.7110 
  185.2500    69.5990    47.9570    51.4220   163.5330    24.4310   -11.7100     2.7640 
  185.3750    68.9000    27.5380    29.5740    95.9040    24.3780   -11.7150     2.8050 
  185.5000    67.4290    14.6690    16.3250    72.0310    24.3180   -11.7440     2.8190 
  185.6250    67.7640     8.4930     9.9710    45.2000    24.3050   -11.7620     2.7910 
  185.7500    70.1950     5.7760     6.7710    22.0600    24.2940   -11.8110     2.7280 
  185.8750    74.1550     4.7690     5.2680    10.6470    24.2350   -11.9560     2.6380 
  186.0000    77.8970     4.4650     4.6820     6.8590    24.1930   -12.2500     2.5350 
  186.1250    77.7800     4.5920     4.6630     5.9350    24.1580   -12.7050     2.4400 
  186.2500    71.7820     4.8940     4.9030     5.3930    24.3200   -13.2510     2.3710 
  186.3750    64.3730     5.2580     5.2680     5.2380    24.5680   -13.8210     2.3360 
  186.5000    62.5070     5.6050     5.6570     6.1040    24.7080   -14.3810     2.3330 
  186.6250    67.0740     5.8840     5.9990     6.6120    24.6980   -14.8470     2.3510 
  186.7500    68.7330     6.1090     6.2770     6.8680    24.6560   -15.1890     2.3690 
  186.8750    65.4210     6.2990     6.4910     6.8630    24.6310   -15.4120     2.3750 
  187.0000    62.3990     6.4730     6.6530     7.1620    24.5740   -15.5340     2.3710 
  187.1250    62.4110     6.6530     6.7740     7.3140    24.5300   -15.5860     2.3620 
  187.2500    60.3290     6.8550     6.8790     7.4090    24.5410   -15.5920     2.3560 
  187.3750    56.7880     7.0860     6.9790     7.6410    24.6010   -15.5840     2.3560 
  187.5000    56.8870     7.3450     7.0790     8.0480    24.5990   -15.6070     2.3650 
  187.6250    62.2960     7.6200     7.1810     8.2540    24.4440   -15.6900     2.3800 
  187.7500    64.7960     7.8890     7.2840     8.2210    24.2780   -15.8060     2.3940 
  187.8750    61.6040     8.1340     7.3830     8.2060    24.2430   -15.9400     2.3970 
  188.0000    58.1090     8.3380     7.4680     8.4480    24.3530   -16.0770     2.3830 
  188.1250    60.7370     8.4770     7.5220     8.5860    24.4590   -16.1890     2.3590 
  188.2500    66.9660     8.5520     7.5380     8.7190    24.4060   -16.2270     2.3440 
  188.3750    74.8540     8.5530     7.5050     8.9890    24.2050   -16.1830     2.3520 
  188.5000    83.6910     8.4810     7.4180     9.4510    23.9370   -16.0960     2.3810 
  188.6250    86.8750     8.3320     7.2690     9.5930    23.8330   -16.0710     2.4150 
  188.7500    81.4940     8.1390     7.0780     9.2720    23.8480   -16.0960     2.4350 
  188.8750    72.3630     7.9250     6.8630     8.5840    23.9240   -16.0830     2.4340 
  189.0000    66.6070     7.7100     6.6410     7.9470    24.0040   -16.0470     2.4210 
  189.1250    66.0110     7.5060     6.4230     7.4160    24.1130   -16.0740     2.4090 
  189.2500    66.4110     7.3060     6.2100     6.8860    24.1970   -16.1600     2.4080 
  189.3750    65.7710     7.1020     5.9990     6.5200    24.1920   -16.2590     2.4160 
  189.5000    62.7590     6.8920     5.7900     6.4590    24.1100   -16.3460     2.4300 
  189.6250    61.4990     6.6910     5.5920     6.4240    24.0370   -16.3730     2.4430 
  189.7500    64.7990     6.5280     5.4210     6.1780    23.9190   -16.3550     2.4460 
  189.8750    69.4900     6.4350     5.2990     5.9730    23.8060   -16.3500     2.4300 
  190.0000    72.6310     6.4330     5.2480     5.8770    23.7380   -16.3830     2.3880 
  190.1250    74.9010     6.5490     5.2940     5.9020    23.8260   -16.4240     2.3170 
  190.2500    75.5570     6.7550     5.4260     6.1310    24.1610   -16.4800     2.2400 
  190.3750    72.3550     7.0400     5.6370     6.6940    24.6890   -16.5320     2.1820 
  190.5000    66.6730     7.3970     5.9180     7.3470    25.1160   -16.5900     2.1630 
  190.6250    62.7490     7.8320     6.2770     7.8740    25.2830   -16.6530     2.1950 
  190.7500    60.4490     8.3110     6.6890     8.1740    25.3270   -16.6750     2.2580 
  190.8750    60.2310     8.7640     7.1090     8.6730    25.3080   -16.6340     2.3320 
  191.0000    62.2360     9.0780     7.4510     9.3460    25.2950   -16.4920     2.3970 
  191.1250    64.0550     9.0680     7.5490     9.8530    25.4490   -16.3290     2.4220 
  191.2500    64.1120     8.7190     7.3560     9.7390    25.6990   -16.1720     2.4020 
  191.3750    62.6680     8.0980     6.9010     8.9110    25.8500   -15.9740     2.3460 
  191.5000    58.8640     7.3650     6.2970     7.3920    25.8620   -15.7540     2.2790 
  191.6250    51.5000     6.7350     5.7190     5.7980    25.7090   -15.5880     2.2340 
  191.7500    44.6070     6.3220     5.2890     5.2500    25.4420   -15.4670     2.2220 
  191.8750    41.6580     6.1530     5.0540     5.2340    25.1340   -15.3920     2.2390 
  192.0000    41.7890     6.1960     5.0080     5.3560    24.9630   -15.4060     2.2690 
  192.1250    42.3290     6.4060     5.1350     5.5030    24.9040   -15.4240     2.3020 
  192.2500    43.2740     6.6830     5.3530     5.6960    24.8880   -15.4000     2.3330 
  192.3750    45.7730     6.9700     5.6110     5.8660    24.8710   -15.4260     2.3610 
  192.5000    48.2340     7.2210     5.8580     6.1530    24.8970   -15.4670     2.3860 
  192.6250    48.5880     7.3810     6.0390     6.5470    24.9010   -15.3450     2.4020 
  192.7500    49.0760     7.4280     6.1280     6.9680    24.9220   -15.1220     2.4040 
  192.8750    50.3670     7.3490     6.1080     6.9300    24.9300   -14.8810     2.3860 
  193.0000    51.3060     7.1610     5.9850     6.5960    24.9120   -14.5700     2.3490 
  193.1250    51.4940     6.9070     5.7840     6.2900    24.8720   -14.1460     2.3040 
  193.2500    50.7940     6.6710     5.5670     5.8700    24.7960   -13.7060     2.2760 
  193.3750    48.9760     6.5030     5.3810     5.2740    24.7050   -13.2620     2.2790 
  193.5000    48.5870     6.4240     5.2520     4.7630    24.6410   -12.8060     2.3080 
  193.6250    52.7890     6.4380     5.1990     4.8060    24.6130   -12.3830     2.3190 
  193.7500    60.3000     6.5080     5.2020     5.0550    24.6380   -12.0340     2.2710 
  193.8750    68.9840     6.6200     5.2510     5.3010    24.6040   -11.7350     2.1540 
