~V
VERS. 2.00: Ver 2.00
~W
STRT.M 53.0000:
STOP.M 212.0000:
STEP.M 0.1250:
NULL. -999.2500:
UWI. F11124:
~C
DEPT.M :
SP.MV :
DEN.GM/CC :
GR.API :
RML.OHMM :
RI. :
RXO.OHMM :
CALI.CM :
~A
# ...
   75.5000   -26.1200     2.1880    70.1540     6.8490     5.2230     6.8760    24.8950 
   75.6250   -25.4990     2.2010    71.3010     6.7730     5.1650     7.0650    24.6840 
   75.7500   -24.9680     2.2240    69.8380     6.7190     5.1260     7.1630    24.6580 
   75.8750   -24.5870     2.2610    72.0020     6.7120     5.1250     6.8020    24.9890 
   76.0000   -24.4010     2.3050    79.7560     6.7660     5.1730     6.0910    25.4700 
   76.1250   -24.4290     2.3170    82.2250     6.8860     5.2790     5.7250    25.5890 
   76.2500   -24.6220     2.2850    79.3680     7.0410     5.4250     6.0510    25.3010 
   76.3750   -24.9710     2.2390    77.9340     7.2140     5.6000     6.8880    24.9470 
   76.5000   -25.4290     2.2110    80.2800     7.3950     5.7940     7.7590    24.7310 
   76.6250   -25.9320     2.2050    78.2570     7.5750     5.9920     8.3390    24.6060 
   76.7500   -26.4620     2.2030    72.4470     7.7400     6.1710     8.7200    24.5020 
   76.8750   -26.9410     2.2010    68.3810     7.8750     6.3120     8.9090    24.4880 
   77.0000   -27.2750     2.1990    67.6100     7.9540     6.3920     8.8840    24.5780 
   77.1250   -27.4170     2.1990    67.7200     7.9310     6.3780     8.7530    24.6810 
   77.2500   -27.3950     2.1980    66.8510     7.8100     6.2790     8.6460    24.7390 
   77.3750   -27.1850     2.1940    65.9370     7.6000     6.1080     8.5790    24.7590 
   77.5000   -26.8130     2.1890    65.9710     7.3360     5.8900     8.4520    24.7860 
   77.6250   -26.2830     2.1820    65.2020     7.1420     5.6920     7.7180    24.8850 
   77.7500   -25.5850     2.1760    62.7910     7.2350     5.6350     6.6740    25.0170 
   77.8750   -24.7310     2.1760    60.9710     7.8590     5.8780     7.6150    25.1490 
   78.0000   -23.7390     2.1800    62.8400     9.1890     6.5810    13.0850    25.3250 
   78.1250   -22.6170     2.2110    65.7400    11.2710     7.9410    25.8620    25.4390 
   78.2500   -21.4090     2.2880    66.8830    13.4950     9.7280    42.1270    25.4670 
   78.3750   -20.1780     2.4000    67.4310    14.9140    11.3900    55.9730    25.4670 
   78.5000   -18.9630     2.4860    69.8030    14.5080    12.0100    56.3650    25.5010 
   78.6250   -17.8300     2.4660    74.8760    12.0340    10.8380    35.8670    25.6420 
   78.7500   -16.8710     2.4050    81.5460     9.1720     8.8540    15.0960    25.8850 
   78.8750   -16.1310     2.3620    90.0500     6.9390     6.9520     6.8960    26.1090 
   79.0000   -15.6390     2.3450    99.4000     5.5770     5.5520     4.6750    26.2100 
   79.1250   -15.4430     2.3370   105.7100     4.9610     4.7580     4.3070    26.1760 
   79.2500   -15.5270     2.3250   108.7680     4.7060     4.3450     4.2170    26.1270 
   79.3750   -15.8450     2.3130   109.7310     4.6740     4.1940     4.1040    26.1340 
   79.5000   -16.3550     2.3080   108.9250     4.8580     4.2540     3.9460    26.1770 
   79.6250   -17.0980     2.3100   103.2510     5.4730     4.6340     4.1090    26.1740 
   79.7500   -17.9680     2.3130    92.9060     6.6940     5.4530     5.4410    26.1140 
   79.8750   -18.9250     2.3230    83.2320     8.6940     6.8850     8.6680    26.0100 
   80.0000   -19.9470     2.3560    77.8740    11.4830     9.0460    14.0780    25.9020 
   80.1250   -21.0280     2.4220    73.2500    14.6540    11.8130    20.4420    25.8930 
   80.2500   -22.1270     2.4810    65.7230    17.0050    14.1920    25.2290    25.9110 
   80.3750   -23.2350     2.4750    60.0400    17.3710    14.9980    25.5130    25.8800 
   80.5000   -24.3250     2.3910    61.2460    15.5650    13.8230    19.8740    25.7570 
   80.6250   -25.3250     2.2870    64.6430    12.7520    11.5210    13.3350    25.6140 
   80.7500   -26.2310     2.2180    62.9270    10.3970     9.4030    10.1200    25.5390 
   80.8750   -27.0360     2.1880    58.4570     8.8720     7.8550     9.2390    25.5430 
   81.0000   -27.7520     2.1800    55.6270     8.0860     6.8870     9.1100    25.5930 
   81.1250   -28.3600     2.1800    57.5620     7.8590     6.4300     9.0340    25.6890 
   81.2500   -28.8640     2.1850    60.3360     7.8890     6.2560     8.8700    25.8610 
   81.3750   -29.2860     2.1920    61.5310     8.0450     6.2530     8.7000    26.1120 
   81.5000   -29.6580     2.1950    61.9280     8.2480     6.3450     8.6080    26.3940 
   81.6250   -29.9600     2.1920    64.0100     8.4430     6.4790     8.6000    26.6520 
   81.7500   -30.2000     2.1900    66.1520     8.5950     6.6030     8.5960    26.8210 
   81.8750   -30.4170     2.1940    65.7000     8.6800     6.6880     8.5530    26.8890 
   82.0000   -30.6070     2.2030    64.3650     8.6870     6.7150     8.5160    26.8350 
   82.1250   -30.7400     2.2090    63.5010     8.6120     6.6750     8.6030    26.6600 
   82.2500   -30.8460     2.2060    61.6930     8.4920     6.5920     8.8130    26.4600 
   82.3750   -30.9200     2.1960    61.1610     8.3510     6.4790     9.0660    26.3460 
   82.5000   -30.9570     2.1860    62.8860     8.2130     6.3500     9.2500    26.3800 
   82.6250   -31.0190     2.1820    65.1140     8.1080     6.2230     9.3570    26.5900 
   82.7500   -31.1200     2.1820    64.0580     8.0410     6.1110     9.3410    26.8250 
   82.8750   -31.2440     2.1830    61.8020     8.0070     6.0210     9.1600    27.0650 
   83.0000   -31.3930     2.1810    60.1740     7.9860     5.9520     8.8370    27.3160 
   83.1250   -31.6100     2.1730    58.4100     7.9600     5.8990     8.5460    27.6340 
   83.2500   -31.8760     2.1590    57.6350     7.9170     5.8500     8.3620    28.0310 
   83.3750   -32.1380     2.1370    58.5380     7.8570     5.7980     8.2940    28.4490 
   83.5000   -32.3840     2.1130    60.3220     7.7930     5.7420     8.3270    28.8410 
   83.6250   -32.6110     2.0870    59.4570     7.7430     5.6900     8.4680    29.0930 
   83.7500   -32.8190     2.0680    55.7800     7.7210     5.6540     8.6010    29.0660 
   83.8750   -32.9950     2.0680    53.8590     7.7280     5.6410     8.6850    28.6690 
   84.0000   -33.1370     2.0880    56.6950     7.7620     5.6520     8.7240    28.0000 
   84.1250   -33.1960     2.1120    61.3880     7.8080     5.6770     8.7830    27.4280 
   84.2500   -33.1540     2.1140    61.3850     7.8410     5.6940     8.8880    27.1560 
   84.3750   -33.0480     2.1000    56.7660     7.8490     5.6920     9.0300    27.0240 
   84.5000   -32.8770     2.0890    51.8350     7.8220     5.6650     9.1970    26.8140 
   84.6250   -32.5940     2.1010    50.5810     7.7590     5.6130     9.4040    26.4220 
   84.7500   -32.2190     2.1290    53.9620     7.6870     5.5520     9.6240    25.9830 
   84.8750   -31.7850     2.1610    59.6480     7.6410     5.5000     9.7860    25.7330 
   85.0000   -31.2750     2.1860    63.1200     7.6560     5.4770     9.7510    25.7330 
   85.1250   -30.7060     2.1970    61.0720     7.7620     5.5050     9.5910    25.8310 
   85.2500   -30.1590     2.1920    56.5800     7.9310     5.5740     9.4810    25.9020 
   85.3750   -29.6340     2.1770    53.9720     8.1160     5.6660     9.4340    25.9430 
   85.5000   -29.1410     2.1610    55.0580     8.2590     5.7540     9.4030    26.0360 
   85.6250   -28.7350     2.1460    58.3660     8.2950     5.8020     9.3530    26.2510 
   85.7500   -28.3850     2.1320    60.2290     8.2270     5.8030     9.2380    26.5310 
   85.8750   -28.0210     2.1180    59.4440     8.0840     5.7630     9.0560    26.8070 
   86.0000   -27.6540     2.1030    57.0980     7.9150     5.7030     8.8950    27.0720 
   86.1250   -27.2390     2.0800    54.3450     7.7840     5.6520     8.8490    27.3460 
   86.2500   -26.7120     2.0500    52.0700     7.7220     5.6320     8.8620    27.6190 
   86.3750   -26.0570     2.0260    51.7630     7.7250     5.6480     8.8780    27.8510 
   86.5000   -25.2390     2.0250    52.9370     7.7490     5.6770     8.8680    27.9870 
   86.6250   -24.2040     2.0510    54.1320     7.6960     5.6600     8.8060    28.0680 
