~V
VERS. 2.00: Ver 2.00
~W
STRT.M 40.0000:
STOP.M 232.0000:
STEP.M 0.1250:
NULL. -999.2500:
UWI. F11121:
~C
DEPT.M :
SP.MV :
DEN.GM/CC :
GR.API :
RML.OHMM :
RI. :
RXO.OHMM :
CALI.CM :
~A
# ...
   73.7500    -4.1270     2.1240    73.0410     8.9900     6.0070     8.6290    22.0410 
   73.8750    -4.3060     2.1280    71.4110     8.9290     5.8980     8.0370    21.9940 
   74.0000    -4.4270     2.1260    69.8030     8.8810     5.8050     7.6720    21.7970 
   74.1250    -4.4450     2.1210    70.3240     8.8810     5.7660     7.5430    21.2810 
   74.2500    -4.3910     2.1220    71.2070     8.8910     5.7670     7.7060    20.7420 
   74.3750    -4.3000     2.1310    72.2170     8.8660     5.7820     7.8630    20.5920 
   74.5000    -4.1900     2.1470    74.1110     8.7930     5.7910     7.8180    20.9830 
   74.6250    -4.0330     2.1630    75.0960     8.7240     5.8010     7.8410    21.5920 
   74.7500    -3.8430     2.1740    73.8170     8.7360     5.8390     7.7480    21.9740 
   74.8750    -3.6390     2.1800    72.0130     8.8790     5.9290     7.6740    22.0830 
   75.0000    -3.4650     2.1800    71.4900     9.1550     6.0830     7.7460    22.0780 
   75.1250    -3.3330     2.1720    70.9940     9.5140     6.2900     8.0950    22.0730 
   75.2500    -3.2160     2.1600    69.8060     9.8540     6.4970     8.4880    22.0720 
   75.3750    -3.0980     2.1510    69.9510    10.1120     6.6580     8.7980    22.0730 
   75.5000    -2.9960     2.1470    71.3020    10.2440     6.7410     8.9480    22.0760 
   75.6250    -2.9790     2.1500    72.5930    10.2100     6.7290     8.9500    22.0760 
   75.7500    -3.0120     2.1540    71.0600    10.0390     6.6460     8.8670    22.0950 
   75.8750    -3.0460     2.1550    66.6590     9.7420     6.5020     8.7310    22.1880 
   76.0000    -3.0220     2.1510    61.1930     9.3830     6.3210     8.6100    22.3940 
   76.1250    -2.9140     2.1370    57.7970     9.2030     6.2060     8.5740    22.6870 
   76.2500    -2.7510     2.1210    57.8850     9.4980     6.3120     8.6180    22.9730 
   76.3750    -2.5660     2.1150    60.4010    10.4690     6.7740     8.7780    23.2220 
   76.5000    -2.3710     2.1420    62.1140    12.0880     7.6350     9.5080    23.4690 
   76.6250    -2.1420     2.2320    61.3240    13.9060     8.7620    12.8340    23.7900 
   76.7500    -1.8400     2.3600    62.8320    14.9640     9.6470    21.6140    24.1460 
   76.8750    -1.4420     2.4690    70.2390    14.4960     9.7850    30.4390    24.4200 
   77.0000    -1.0170     2.5040    82.6800    12.5310     9.0050    24.0170    24.5510 
   77.1250    -0.6570     2.4570    95.7670    10.0280     7.6460    10.6630    24.5650 
   77.2500    -0.4160     2.3880   103.7620     8.0220     6.3600     6.1620    24.5220 
   77.3750    -0.2760     2.3310   103.6890     6.7730     5.4090     4.9880    24.4180 
   77.5000    -0.2070     2.3030    96.8170     6.2090     4.8520     4.8260    24.2770 
   77.6250    -0.2210     2.3020    91.0880     6.1820     4.6780     4.6360    24.1710 
   77.7500    -0.3750     2.3110    88.8410     6.3930     4.7100     4.5620    24.1070 
   77.8750    -0.6940     2.3150    85.8710     6.7100     4.8610     4.8190    24.0920 
   78.0000    -1.1110     2.3060    80.2850     7.0930     5.0990     5.7530    24.2600 
   78.1250    -1.5680     2.2770    72.1000     7.6080     5.4790     7.2950    24.9240 
   78.2500    -2.0030     2.2260    64.7110     8.3160     6.0310     8.1240    25.8940 
   78.3750    -2.4380     2.1460    59.0170     9.2810     6.7830     8.5860    26.6420 
   78.5000    -2.9010     2.0350    55.7300    10.4930     7.7020    10.9330    26.8700 
   78.6250    -3.3220     1.9050    54.4590    11.7330     8.6200    19.5130    27.3920 
   78.7500    -3.6550     1.7840    53.1720    12.5740     9.2510    33.3440    28.9410 
   78.8750    -3.9340     1.6990    51.2290    12.6770     9.3710    43.0960    30.1670 
   79.0000    -4.2090     1.6700    48.6600    11.9850     8.9390    36.1210    29.2350 
   79.1250    -4.5190     1.7200    49.1320    10.7990     8.1290    20.8360    26.4640 
   79.2500    -4.8290     1.8200    53.5280     9.7080     7.3240    10.8280    24.4840 
   79.3750    -5.0880     1.9270    58.4070     9.0090     6.7190     7.8520    23.9380 
   79.5000    -5.3090     2.0030    60.7250     8.7650     6.3850     7.6880    23.7950 
   79.6250    -5.5820     2.0330    60.8000     8.9030     6.3240     8.0260    23.3810 
   79.7500    -5.9130     2.0440    60.4730     9.1750     6.4040     8.3030    22.9950 
   79.8750    -6.2500     2.0530    58.3640     9.4430     6.5450     8.5320    22.8050 
   80.0000    -6.5430     2.0630    54.1550     9.6330     6.6820     8.6980    22.7910 
   80.1250    -6.7450     2.0760    50.2930     9.7160     6.7670     8.7420    22.8040 
   80.2500    -6.9340     2.0900    48.3340     9.7200     6.7890     8.7930    22.8020 
   80.3750    -7.1470     2.1040    48.3410     9.6580     6.7480     8.8710    22.7990 
   80.5000    -7.3320     2.1160    50.5910     9.5380     6.6520     8.9540    22.7980 
   80.6250    -7.4080     2.1230    54.1780     9.3660     6.5130     8.9560    22.7930 
   80.7500    -7.4060     2.1260    55.3760     9.1820     6.3590     8.8560    22.7890 
   80.8750    -7.3890     2.1290    53.6660     9.0210     6.2090     8.6730    22.7900 
   81.0000    -7.3820     2.1310    50.5350     8.9080     6.0840     8.5390    22.7950 
   81.1250    -7.3680     2.1310    49.8780     8.8620     6.0090     8.5450    22.7980 
   81.2500    -7.2910     2.1300    52.0350     8.8700     5.9830     8.6640    22.7980 
   81.3750    -7.1360     2.1270    53.8620     8.9150     6.0020     8.7410    22.7970 
   81.5000    -6.9740     2.1230    52.8310     8.9790     6.0540     8.8600    22.7950 
   81.6250    -6.8480     2.1200    49.1730     9.0540     6.1330     9.1300    22.7940 
   81.7500    -6.7090     2.1170    46.9610     9.1300     6.2210     9.4750    22.7940 
   81.8750    -6.5020     2.1150    46.2570     9.2080     6.3020     9.6750    22.8020 
   82.0000    -6.2310     2.1150    47.6540     9.2870     6.3570     9.8140    22.8330 
   82.1250    -5.9460     2.1160    52.8450     9.3690     6.3720    10.0440    22.8900 
   82.2500    -5.6820     2.1170    58.8920     9.4540     6.3650    10.1200    22.9610 
   82.3750    -5.4280     2.1200    62.8450     9.5390     6.3530     9.8760    23.0450 
   82.5000    -5.1400     2.1230    63.2290     9.6040     6.3410     9.5330    23.1340 
   82.6250    -4.8200     2.1270    61.1380     9.6210     6.3200     9.7090    23.2000 
   82.7500    -4.5030     2.1320    58.7910     9.5850     6.2760    10.0680    23.2400 
   82.8750    -4.2220     2.1380    57.5260     9.5000     6.2060    10.3170    23.2700 
   83.0000    -3.9690     2.1410    58.2900     9.3840     6.1170    10.0240    23.2960 
   83.1250    -3.6650     2.1410    61.1090     9.2770     6.0260     9.3680    23.3050 
   83.2500    -3.3230     2.1390    62.9520     9.2070     5.9500     8.8780    23.3070 
   83.3750    -2.9910     2.1350    60.5930     9.1710     5.8940     8.5980    23.2980 
   83.5000    -2.6710     2.1300    56.0870     9.1370     5.8540     8.5760    23.2340 
   83.6250    -2.3400     2.1250    56.1480     9.0750     5.8270     8.6230    22.9990 
   83.7500    -1.9730     2.1210    61.5330     9.0150     5.8200     8.4970    22.5510 
   83.8750    -1.5550     2.1180    67.0920     9.0210     5.8610     8.2040    22.0260 
   84.0000    -1.1280     2.1200    69.0550     9.1580     5.9820     8.0370    21.7390 
   84.1250    -0.7820     2.1320    66.8200     9.4670     6.2170     8.2040    22.0050 
   84.2500    -0.4850     2.1530    63.2630     9.8600     6.5240     9.1060    22.5550 
   84.3750    -0.1920     2.1730    61.4570    10.2170     6.8340    10.1470    23.0430 
   84.5000     0.1460     2.1850    60.9360    10.3870     7.0470    10.2940    23.3050 
   84.6250     0.5700     2.1830    58.3230    10.1870     7.0300     9.4600    23.3920 
   84.7500     1.0150     2.1770    57.1390     9.6670     6.7770     8.6730    23.4460 
   84.8750     1.4510     2.1760    61.7440     8.9400     6.3330     7.9670    23.4960 
