~V
VERS. 2.00: Ver 2.00
~W
STRT.M 55.0000:
STOP.M 207.0000:
STEP.M 0.1250:
NULL. -999.2500:
UWI. F11112:
~C
DEPT.M :
SP.MV :
RML.OHMM :
RI. :
RXO.OHMM :
CALI.CM :
DEN.GM/CC :
GR.API :
~A
# ...
  145.0000    -8.2010    11.5280    11.0820     9.7950    26.8610     2.2580    77.4110 
  145.1250    -8.0900    11.0640    10.4690     9.5400    26.8760     2.2570    77.0970 
  145.2500    -8.0600    11.0700    10.3230     9.5330    26.8920     2.2510    77.5470 
  145.3750    -8.0770    11.3930    10.5140    10.1330    26.9010     2.2460    80.0790 
  145.5000    -8.0930    11.9560    10.9790    10.9090    26.9070     2.2460    81.9170 
  145.6250    -8.1430    12.6790    11.6510    11.8490    26.9180     2.2510    81.1690 
  145.7500    -8.2090    13.4710    12.4610    12.9180    26.9400     2.2550    78.9920 
  145.8750    -8.2920    14.1910    13.2680    14.0530    26.9580     2.2550    77.1770 
  146.0000    -8.3850    14.7030    13.9320    14.9560    26.9490     2.2490    76.2610 
  146.1250    -8.4900    14.8730    14.3000    15.3290    26.9210     2.2440    76.5040 
  146.2500    -8.5650    14.5710    14.1850    15.0340    26.8870     2.2450    76.9160 
  146.3750    -8.6270    13.9410    13.6730    14.2280    26.8540     2.2500    76.3050 
  146.5000    -8.6800    13.1610    12.9170    13.0170    26.8060     2.2560    75.6200 
  146.6250    -8.7090    12.4250    12.1180    11.5990    26.7540     2.2570    77.2840 
  146.7500    -8.7130    11.8880    11.4550    10.5870    26.7370     2.2500    81.0770 
  146.8750    -8.7450    11.5080    10.9420    10.2990    26.7560     2.2410    82.8720 
  147.0000    -8.8180    11.2040    10.5250    10.4180    26.7580     2.2380    82.4060 
  147.1250    -8.9460    10.9080    10.1400    10.5660    26.7420     2.2420    81.5510 
  147.2500    -9.0960    10.6480     9.7850     9.8100    26.7760     2.2460    80.8650 
  147.3750    -9.1520    10.5540     9.5480     8.9390    26.7790     2.2430    79.9560 
  147.5000    -9.1490    10.7830     9.5610     8.7060    26.7530     2.2370    80.0060 
  147.6250    -9.1700    11.4430     9.9410     9.2310    26.7370     2.2310    80.9790 
  147.7500    -9.2680    12.5680    10.7890    10.9670    26.7870     2.2220    79.3400 
  147.8750    -9.3530    13.8700    11.9170    13.3500    26.8570     2.2060    76.8880 
  148.0000    -9.4520    15.0360    13.0880    15.1540    26.8720     2.1930    75.9660 
  148.1250    -9.5290    15.7650    14.0110    15.6540    26.8410     2.1940    76.5970 
  148.2500    -9.6280    15.7810    14.3480    15.1100    26.7850     2.2130    77.2060 
  148.3750    -9.8090    15.2690    14.1450    14.2700    26.7340     2.2370    77.5130 
  148.5000   -10.0500    14.4750    13.5710    13.3590    26.6730     2.2570    77.7140 
  148.6250   -10.2660    13.6580    12.8650    12.5750    26.6340     2.2660    77.3730 
  148.7500   -10.4130    13.0150    12.2400    12.1520    26.6320     2.2620    76.9490 
  148.8750   -10.5100    12.5660    11.7760    11.7630    26.6510     2.2530    77.6250 
  149.0000   -10.4880    12.2970    11.4890    11.3710    26.6670     2.2390    79.0620 
  149.1250   -10.3510    12.1780    11.3720    11.2170    26.6840     2.2220    79.2800 
  149.2500   -10.0920    12.2010    11.4200    11.2950    26.6860     2.2110    77.6090 
  149.3750    -9.7950    12.3170    11.5670    11.4880    26.6750     2.2100    76.7870 
  149.5000    -9.4370    12.4950    11.7600    11.6460    26.6740     2.2160    77.4840 
  149.6250    -9.0070    12.7110    11.9420    11.6180    26.7110     2.2220    77.6610 
  149.7500    -8.5460    12.8820    12.0310    11.2770    26.8100     2.2270    76.0860 
  149.8750    -8.1000    12.9320    11.9820    10.8910    26.8720     2.2300    75.1570 
  150.0000    -7.7000    12.7790    11.7540    10.4860    26.9060     2.2320    75.9640 
  150.1250    -7.4000    12.4330    11.3160     9.9440    26.9260     2.2340    78.1580 
  150.2500    -7.2290    11.7710    10.6190     9.1780    26.9350     2.2420    78.8520 
  150.3750    -7.1340    10.8780     9.7440     8.3090    26.9560     2.2540    78.4340 
  150.5000    -7.1350     9.8920     8.7880     7.3920    26.9630     2.2650    79.0130 
  150.6250    -7.1490     9.0670     7.9050     6.7160    26.8830     2.2750    81.0330 
  150.7500    -7.1170     8.7600     7.3640     6.4390    26.7960     2.2810    83.2620 
  150.8750    -7.1180     9.1880     7.3450     6.7270    26.7420     2.2870    84.9720 
  151.0000    -7.1740    10.5710     8.0440     8.2450    26.7460     2.2920    85.2450 
  151.1250    -7.2270    13.0670     9.6620    11.5950    26.8060     2.2880    82.3810 
  151.2500    -7.2860    16.8240    12.5430    17.1630    26.9330     2.2660    76.8660 
  151.3750    -7.3240    21.2370    16.4060    23.3400    27.1060     2.2380    72.8390 
  151.5000    -7.3620    25.5180    20.7500    28.0560    27.2610     2.2170    71.2090 
  151.6250    -7.4820    28.6500    24.6800    29.9790    27.3630     2.2110    70.5280 
  151.7500    -7.7200    29.3210    26.7390    30.0060    27.4120     2.2160    69.3880 
  151.8750    -7.9700    27.6940    26.4950    29.3610    27.4290     2.2250    69.3800 
  152.0000    -8.2060    24.4900    24.2910    27.4830    27.3870     2.2340    71.2720 
  152.1250    -8.4580    20.8310    21.1410    23.7200    27.2810     2.2510    73.2250 
  152.2500    -8.7140    17.7850    18.1620    17.6620    27.1020     2.2770    74.4340 
  152.3750    -8.9910    15.6170    15.8520    12.0810    26.9470     2.2990    77.7620 
  152.5000    -9.2550    14.2240    14.2370     9.4260    26.8390     2.3020    83.2930 
  152.6250    -9.4880    13.3360    13.1380     9.1020    26.7830     2.2910    87.1670 
  152.7500    -9.6040    12.6910    12.3400     9.7240    26.7900     2.2810    86.2910 
  152.8750    -9.5880    12.1130    11.6340    10.0580    26.8220     2.2840    84.0170 
  153.0000    -9.4440    11.6740    11.0160     9.5510    26.9400     2.2980    82.6680 
  153.1250    -9.1690    11.6330    10.6340     8.4540    27.1400     2.3230    82.6800 
  153.2500    -8.8010    12.6710    10.9390     8.3540    27.3100     2.3500    83.8080 
  153.3750    -8.5400    15.4220    12.3370    10.6000    27.4820     2.3660    84.5020 
  153.5000    -8.4160    20.4250    15.3940    16.5760    27.6600     2.3630    84.5750 
  153.6250    -8.3620    28.0920    20.7040    27.3080    27.8350     2.3390    83.0840 
  153.7500    -8.4160    39.0160    28.9920    42.2570    27.9710     2.2960    77.9990 
  153.8750    -8.5570    50.5310    39.1870    57.9870    28.1130     2.2500    71.4480 
  154.0000    -8.7580    61.5000    49.7050    67.3270    28.2650     2.2160    67.1810 
  154.1250    -8.9410    69.7940    58.3870    68.6610    28.4260     2.1990    66.9400 
  154.2500    -9.0570    73.1820    62.7310    67.6730    28.5860     2.1990    68.3250 
  154.3750    -9.0690    72.8240    63.4020    64.3900    28.7110     2.2050    68.5470 
  154.5000    -8.9840    70.3930    61.8250    60.7810    28.8050     2.2130    67.7940 
  154.6250    -8.8120    67.2710    59.3190    58.4000    28.8840     2.2210    65.8930 
  154.7500    -8.6280    64.0190    56.4940    55.9880    28.9560     2.2270    63.9840 
  154.8750    -8.5330    60.8660    53.6410    52.5110    29.0150     2.2330    63.6750 
  155.0000    -8.5620    58.1520    51.0600    48.1500    29.0820     2.2380    64.2660 
  155.1250    -8.8110    56.3810    49.2030    43.3400    29.1580     2.2420    64.3620 
  155.2500    -9.3720    56.3740    48.8340    41.3090    29.2570     2.2380    65.1330 
  155.3750   -10.0550    58.1900    50.1080    42.3430    29.3620     2.2300    67.6330 
  155.5000   -10.7480    61.7190    53.0330    46.2410    29.4370     2.2200    70.4580 
  155.6250   -11.4890    66.4530    57.2590    53.3060    29.4350     2.2130    71.3270 
  155.7500   -12.2070    71.4080    62.0140    62.5260    29.4190     2.2100    69.6380 
  155.8750   -12.8070    75.3710    66.1230    69.8040    29.4350     2.2110    67.8000 
  156.0000   -13.1950    77.5600    68.7550    71.0210    29.4940     2.2120    66.8630 
  156.1250   -13.3130    77.7600    69.5460    67.7230    29.5690     2.2120    66.9280 
