~V
VERS. 2.00: Ver 2.00
~W
STRT.M 56.0000:
STOP.M 252.0000:
STEP.M 0.1250:
NULL. -999.2500:
UWI. F11142:
~C
DEPT.M :
SP.MV :
DEN.GM/CC :
GR.API :
RML.OHMM :
RI. :
RXO.OHMM :
CALI.CM :
~A
# ...
  101.0000   -13.0900     2.2090    78.0060     9.8450     9.0010    12.2930    24.3360 
  101.1250   -14.2360     2.1850    78.0580     9.2940     8.4810    11.1000    24.4170 
  101.2500   -15.2910     2.1740    79.1140     8.9140     8.0940    11.0370    24.4290 
  101.3750   -16.3150     2.1630    79.7900     8.7060     7.8800    11.1440    24.4670 
  101.5000   -17.3060     2.1530    79.6100     8.6440     7.8170    11.1450    24.5530 
  101.6250   -18.2680     2.1500    79.3820     8.6610     7.8180    11.1370    24.6740 
  101.7500   -19.1600     2.1490    78.5170     8.7280     7.8430    11.1940    24.8220 
  101.8750   -19.9460     2.1510    77.4650     8.8170     7.8750    11.3860    24.9440 
  102.0000   -20.6300     2.1610    77.4440     8.8880     7.9080    11.6110    24.9700 
  102.1250   -21.2310     2.1760    77.4550     8.9250     7.9300    11.8360    24.9370 
  102.2500   -21.7130     2.1910    75.2200     8.9320     7.9280    12.1570    24.8960 
  102.3750   -22.0580     2.1950    72.8610     8.9180     7.8870    12.4600    24.8900 
  102.5000   -22.2430     2.1840    74.2870     8.8840     7.7960    12.3120    24.9150 
  102.6250   -22.2720     2.1630    77.2800     8.8310     7.6750    11.7370    24.9290 
  102.7500   -22.1630     2.1410    79.4930     8.7650     7.5520    11.0290    24.8960 
  102.8750   -21.9660     2.1300    80.6600     8.7030     7.4540    10.5600    24.7370 
  103.0000   -21.7070     2.1340    80.3830     8.6800     7.4120    10.5450    24.5190 
  103.1250   -21.4260     2.1460    78.6490     8.7060     7.4190    10.7750    24.3580 
  103.2500   -21.2050     2.1580    77.1550     8.7720     7.4630    11.0490    24.2740 
  103.3750   -21.0940     2.1670    76.8560     8.8620     7.5270    11.2420    24.2230 
  103.5000   -21.1300     2.1720    74.5950     8.9510     7.5950    11.3470    24.2200 
  103.6250   -21.2190     2.1730    71.3560     9.0250     7.6620    11.4860    24.2560 
  103.7500   -21.3260     2.1720    70.1840     9.0800     7.7270    11.6210    24.2900 
  103.8750   -21.4780     2.1730    70.4680     9.1190     7.7920    11.6920    24.3120 
  104.0000   -21.6700     2.1760    70.5560     9.1470     7.8540    11.7700    24.3180 
  104.1250   -21.8840     2.1770    70.5300     9.1740     7.9080    11.7910    24.3170 
  104.2500   -22.1210     2.1720    70.9760     9.2030     7.9430    11.7410    24.3070 
  104.3750   -22.3270     2.1660    70.7430     9.2270     7.9500    11.7380    24.2770 
  104.5000   -22.4640     2.1630    69.1910     9.2160     7.9160    11.6930    24.2400 
  104.6250   -22.5830     2.1600    68.5590     9.1510     7.8420    11.4740    24.1870 
  104.7500   -22.7250     2.1540    69.9220     9.0280     7.7360    11.1770    24.1490 
  104.8750   -22.8270     2.1410    72.3360     8.8630     7.6110    10.8820    24.1710 
  105.0000   -22.8640     2.1280    74.1410     8.6940     7.4920    10.6300    24.1910 
  105.1250   -22.8120     2.1250    74.5670     8.5630     7.4010    10.4060    24.1850 
  105.2500   -22.7000     2.1310    73.2110     8.4900     7.3470    10.2320    24.1290 
  105.3750   -22.5460     2.1390    71.2070     8.4720     7.3260    10.2400    24.0470 
  105.5000   -22.3460     2.1440    70.9250     8.4850     7.3160    10.3070    24.0050 
  105.6250   -22.1280     2.1490    73.3100     8.4740     7.2840    10.2100    23.9920 
  105.7500   -21.8870     2.1580    76.2950     8.3960     7.2050     9.9600    23.9910 
  105.8750   -21.6740     2.1690    77.3910     8.2390     7.0680     9.5900    23.9840 
  106.0000   -21.4260     2.1760    75.3710     8.0290     6.8840     9.0630    23.9710 
  106.1250   -21.2490     2.1780    72.8650     7.8490     6.7050     8.4840    23.9550 
  106.2500   -21.1730     2.1750    71.7090     7.7640     6.5780     7.9200    23.9390 
  106.3750   -21.2650     2.1670    70.7870     7.8140     6.5390     7.7670    23.9270 
  106.5000   -21.5610     2.1500    68.5080     8.0130     6.6180     8.4770    23.9220 
  106.6250   -21.9790     2.1300    65.8170     8.2820     6.7760     9.6080    23.9490 
  106.7500   -22.4840     2.1150    64.5720     8.5490     6.9690    10.2010    24.0070 
  106.8750   -22.9740     2.1070    64.6720     8.7410     7.1460    10.2620    24.0010 
  107.0000   -23.4630     2.1020    64.5520     8.8000     7.2550    10.0210    23.9930 
  107.1250   -23.9590     2.0990    63.7170     8.7560     7.2930     9.8080    24.0240 
  107.2500   -24.4140     2.0960    62.5670     8.6620     7.2760     9.7440    24.0810 
  107.3750   -24.7620     2.0930    61.7990     8.5760     7.2290    10.0840    24.1100 
  107.5000   -25.0210     2.0910    61.9930     8.5350     7.1750    10.6790    24.1370 
  107.6250   -25.2560     2.0920    63.0140     8.5280     7.1270    11.2760    24.2040 
  107.7500   -25.5280     2.0960    64.6550     8.5360     7.0940    11.5950    24.2910 
  107.8750   -25.8610     2.1040    66.1760     8.5460     7.0790    11.5930    24.4530 
  108.0000   -26.2440     2.1120    66.1890     8.5510     7.0780    11.6090    24.7060 
  108.1250   -26.5590     2.1180    65.5340     8.5440     7.0680    11.6240    24.8710 
  108.2500   -26.7200     2.1250    65.3160     8.5060     7.0210    11.4840    24.9270 
  108.3750   -26.6540     2.1350    66.4640     8.4170     6.9170    11.0640    24.8980 
  108.5000   -26.2370     2.1480    67.9150     8.2680     6.7430    10.2550    24.7400 
  108.6250   -25.5340     2.1580    69.2920     8.0970     6.5390     9.1250    24.4570 
  108.7500   -24.6470     2.1620    72.2480     7.9520     6.3500     8.0390    24.2220 
  108.8750   -23.7120     2.1630    77.1610     7.8840     6.2210     7.3580    24.1560 
  109.0000   -22.8270     2.1620    82.1610     7.9340     6.1910     7.6540    24.0370 
  109.1250   -22.0090     2.1600    82.9920     8.0580     6.2400     8.1990    23.9280 
  109.2500   -21.3240     2.1540    79.4850     8.1940     6.3390     8.8440    23.9850 
  109.3750   -20.8010     2.1420    75.0760     8.2710     6.4450     9.1910    24.2250 
  109.5000   -20.4890     2.1280    72.3590     8.2100     6.5020     9.1730    24.4740 
  109.6250   -20.2540     2.1230    71.0200     8.0190     6.4820     9.3730    24.5420 
  109.7500   -19.9370     2.1260    71.2430     7.7400     6.3810     9.6830    24.4520 
  109.8750   -19.4030     2.1310    75.1090     7.4480     6.2340     9.7430    24.2250 
  110.0000   -18.5760     2.1350    80.7020     7.2610     6.1090     9.4810    24.0420 
  110.1250   -17.6270     2.1450    84.5350     7.2260     6.0560     9.1200    23.9560 
  110.2500   -16.6550     2.1560    85.8840     7.3190     6.0740     8.8320    23.9540 
  110.3750   -15.6980     2.1550    86.0850     7.4340     6.1090     8.7910    23.9700 
  110.5000   -14.5280     2.1520    86.1930     7.3820     6.0500     9.1900    23.9260 
  110.6250   -13.1440     2.1710    87.4300     7.0830     5.8350     9.2470    23.8270 
  110.7500   -11.6130     2.2150    91.9200     6.5660     5.4640     8.2430    23.8100 
  110.8750   -10.1200     2.2640    99.6110     5.9580     5.0050     6.5780    24.0810 
  111.0000    -8.7920     2.2870   108.1140     5.4470     4.5760     5.4660    24.2530 
  111.1250    -7.5440     2.2880   114.6960     5.1210     4.2620     5.3310    24.2410 
  111.2500    -6.2640     2.2880   118.3900     4.9820     4.0910     5.3050    24.1190 
  111.3750    -4.9740     2.3020   119.7600     4.9890     4.0560     5.2350    24.0170 
  111.5000    -3.9550     2.3230   118.0890     5.1020     4.1350     5.0910    23.9690 
  111.6250    -3.2930     2.3350   114.0120     5.2610     4.2630     4.9690    23.9110 
  111.7500    -2.9650     2.3340   110.3260     5.4350     4.4000     5.0230    23.7800 
  111.8750    -2.7950     2.3240   109.4300     5.5820     4.5160     5.2360    23.5460 
  112.0000    -2.6350     2.3160   111.2620     5.6490     4.5810     5.4650    23.3020 
  112.1250    -2.4140     2.3210   111.9600     5.6300     4.5960     5.5470    23.2330 
