~V
VERS. 2.00: Ver 2.00
~W
STRT.M 50.0000:
STOP.M 242.0000:
STEP.M 0.1250:
NULL. -999.2500:
UWI. F11136:
~C
DEPT.M :
GR.API :
RML.OHMM :
RI. :
RXO.OHMM :
CALI.CM :
SP.MV :
DEN.GM/CC :
~A
# ...
  185.0000    52.2940   136.5700   123.8140    96.4250    24.0890   -26.2370     2.1860 
  185.1250    55.4340   128.6530   118.3910    91.7880    24.0010   -26.4000     2.1840 
  185.2500    60.9910   119.4330   111.2000    85.7150    23.8330   -26.5610     2.1870 
  185.3750    63.5870   110.5980   103.5200    78.5150    23.8150   -26.6940     2.1980 
  185.5000    64.0360   103.9020    97.0480    69.7340    24.0490   -26.8180     2.2120 
  185.6250    65.1060   101.3970    93.8750    64.3290    24.1680   -26.9750     2.2230 
  185.7500    67.1200   103.2100    94.4170    64.1780    24.2020   -27.1390     2.2270 
  185.8750    67.9820   109.2990    98.7900    70.5650    24.1560   -27.2890     2.2230 
  186.0000    65.3380   119.0400   106.6170    82.5940    23.9650   -27.4540     2.2110 
  186.1250    60.2750   131.3040   117.1570    94.1270    23.8100   -27.6440     2.1930 
  186.2500    57.1130   143.6240   128.1370   101.1880    23.7080   -27.8700     2.1720 
  186.3750    56.2770   154.1910   137.6960   105.8320    23.6210   -28.1510     2.1530 
  186.5000    55.3070   161.7470   144.4570   108.8880    23.7200   -28.4620     2.1370 
  186.6250    55.6360   165.2220   147.4240   112.2790    23.8370   -28.7780     2.1270 
  186.7500    59.2000   165.5480   147.6120   113.4510    23.9620   -29.0980     2.1200 
  186.8750    64.0650   163.6780   145.8610   110.4970    23.8110   -29.4030     2.1150 
  187.0000    67.0580   161.2450   143.2660   104.1570    23.4530   -29.6960     2.1110 
  187.1250    67.9050   160.8720   141.4920    97.6190    23.6090   -29.9810     2.1070 
  187.2500    66.4060   164.2600   142.1520    91.5370    23.8770   -30.2560     2.1020 
  187.3750    61.6860   172.2900   146.5530    90.9190    24.2040   -30.4940     2.1000 
  187.5000    57.0120   184.8460   155.3080    98.6910    24.3280   -30.7290     2.1010 
  187.6250    57.1560   201.0150   168.2880   116.7430    24.3620   -30.9860     2.1050 
  187.7500    58.0080   217.3010   182.4340   142.2300    24.4440   -31.2120     2.1090 
  187.8750    56.5610   230.0070   194.4220   156.4160    24.5510   -31.4240     2.1130 
  188.0000    55.5310   236.0610   201.2320   155.7080    24.7060   -31.6460     2.1180 
  188.1250    58.3520   234.1460   201.0330   149.9630    24.7310   -31.8490     2.1250 
  188.2500    59.6330   228.4550   197.0090   145.7990    24.7350   -32.0250     2.1360 
  188.3750    57.7830   222.2630   192.0790   143.4560    24.7180   -32.1690     2.1490 
  188.5000    54.9610   217.5610   188.3730   143.3720    24.6550   -32.2450     2.1630 
  188.6250    52.9240   214.7940   186.8690   140.3300    24.5660   -32.2380     2.1740 
  188.7500    52.4420   211.8960   186.0810   137.6830    24.5180   -32.2340     2.1830 
  188.8750    54.6660   206.0750   183.6310   136.8480    24.5180   -32.2430     2.1870 
  189.0000    57.4250   194.7190   176.8040   135.9470    24.5620   -32.2340     2.1860 
  189.1250    56.2160   176.4600   163.2160   135.9670    24.6960   -32.2070     2.1790 
  189.2500    52.9130   155.4220   145.7190   132.7780    24.8030   -32.1920     2.1680 
  189.3750    52.8130   135.8760   128.0650   122.5050    24.8340   -32.2000     2.1560 
  189.5000    57.4970   121.3160   113.9440   105.2210    24.7870   -32.2480     2.1490 
  189.6250    63.7200   114.7170   106.7530    90.1700    24.6010   -32.3350     2.1540 
  189.7500    67.0740   114.7270   105.7590    83.2440    24.3280   -32.4350     2.1710 
  189.8750    67.6760   119.6560   109.5900    83.1420    24.3260   -32.5660     2.1940 
  190.0000    66.2510   126.5840   115.6950    96.8820    24.3840   -32.7500     2.2110 
  190.1250    62.3120   131.0040   120.1530   108.5860    24.4450   -32.9500     2.2110 
  190.2500    57.6480   130.5720   120.5180   106.8470    24.4950   -33.1130     2.1940 
  190.3750    54.4200   126.2040   117.0430    93.3960    24.4930   -33.3000     2.1690 
  190.5000    53.0890   121.1160   112.1710    80.8410    24.4450   -33.5440     2.1480 
  190.6250    51.6260   119.0900   109.2180    62.9060    24.5770   -33.7890     2.1420 
  190.7500    50.7650   120.7990   109.3890    46.6540    24.6780   -33.9750     2.1470 
  190.8750    52.5890   125.3230   112.3810    38.4380    24.6960   -34.1110     2.1560 
  191.0000    55.0280   130.6840   116.8270    45.7000    24.5570   -34.2350     2.1580 
  191.1250    54.6530   134.0090   120.3740    60.1260    24.6330   -34.3940     2.1390 
  191.2500    53.2080   134.0500   121.3400    70.3240    24.8810   -34.5140     2.1060 
  191.3750    52.7980   131.0380   119.3290    84.1160    25.0020   -34.5600     2.0720 
  191.5000    53.7710   125.9850   114.8660   103.3500    24.8750   -34.5480     2.0500 
  191.6250    53.5140   119.8450   108.7890   111.9330    24.4460   -34.5240     2.0510 
  191.7500    53.1470   113.5590   102.4020   103.2170    24.2790   -34.5240     2.0700 
  191.8750    54.4130   107.8730    96.6500    84.2520    24.1290   -34.5200     2.0980 
  192.0000    57.7890   103.8440    92.5710    60.7600    23.9320   -34.4450     2.1260 
  192.1250    60.5820   103.1770    91.7190    50.1090    23.8360   -34.2900     2.1480 
  192.2500    60.1090   105.8470    94.1590    58.7810    23.8230   -34.1680     2.1630 
  192.3750    56.8420   111.0660    99.3970    84.9450    23.8750   -34.0920     2.1710 
  192.5000    53.5460   116.9720   105.8760   117.1990    24.0740   -34.0560     2.1750 
  192.6250    52.2280   120.2700   110.5260   123.8940    24.2400   -34.0410     2.1780 
  192.7500    53.6880   118.8670   110.9640   110.4450    24.2720   -34.0110     2.1860 
  192.8750    54.7530   112.5420   106.6190    87.6230    24.1540   -33.9670     2.2010 
  193.0000    53.6860   103.1050    98.9450    68.0680    24.0040   -33.9720     2.2250 
  193.1250    54.5890    93.5170    90.6260    57.2010    24.1290   -34.0540     2.2510 
  193.2500    59.7120    85.7140    83.6800    53.8430    24.4500   -34.1550     2.2730 
  193.3750    65.0260    79.8590    78.3730    54.0390    24.5020   -34.2560     2.2850 
  193.5000    65.2710    75.2380    74.1310    54.1510    24.4620   -34.3390     2.2880 
  193.6250    62.3380    70.9210    70.1640    52.1090    24.2700   -34.3870     2.2850 
  193.7500    60.8280    66.5570    66.1040    51.2240    24.1780   -34.4500     2.2820 
  193.8750    60.3450    62.6820    62.3020    44.3910    24.1890   -34.5580     2.2830 
  194.0000    60.4460    60.2810    59.4960    34.7480    24.2290   -34.7130     2.2900 
  194.1250    60.3590    60.7530    58.8200    33.7830    24.2090   -34.8610     2.2970 
  194.2500    59.9700    64.0750    60.4410    38.2860    24.2230   -34.9790     2.2990 
  194.3750    60.0810    70.0630    64.4460    44.5050    24.2580   -35.0640     2.2920 
  194.5000    60.8420    78.0330    70.6240    51.6430    24.2870   -35.0920     2.2770 
  194.6250    61.6450    86.6890    78.4260    60.3320    24.3470   -35.0930     2.2570 
  194.7500    60.8740    94.4070    86.3290    69.0920    24.3900   -35.0780     2.2410 
  194.8750    58.2820   100.4740    93.1830    75.2930    24.4160   -35.0440     2.2300 
  195.0000    54.3010   105.0640    98.3270    75.7490    24.4160   -34.9840     2.2270 
  195.1250    50.3040   109.0050   101.7440    71.1380    24.3730   -34.8860     2.2300 
  195.2500    50.2020   113.5930   104.8650    65.8680    24.2150   -34.7400     2.2370 
  195.3750    54.4810   119.6080   108.9570    65.1090    24.0420   -34.5620     2.2430 
  195.5000    61.9310   126.6540   114.3960    69.9920    23.9780   -34.4050     2.2470 
  195.6250    67.5370   131.1810   118.9280    77.0500    23.9940   -34.2860     2.2430 
  195.7500    67.2930   128.2010   118.2130    78.7010    23.9480   -34.1710     2.2350 
  195.8750    61.9240   115.1920   109.2780    75.9650    23.9060   -34.0280     2.2250 
  196.0000    55.4650    95.5260    93.5400    64.4360    23.6840   -33.8330     2.2200 
  196.1250    53.8810    77.3770    76.9980    52.0750    23.6450   -33.5890     2.2270 
