~V
VERS. 2.00: Ver 2.00
~W
STRT.M 59.0000:
STOP.M 221.0000:
STEP.M 0.1250:
NULL. -999.2500:
UWI. F11122:
~C
DEPT.M :
GR.API :
RML.OHMM :
RI. :
RXO.OHMM :
CALI.CM :
SP.MV :
DEN.GM/CC :
~A
# ...
  126.5000    59.4750    19.5850    17.8800    16.5140    24.2430     0.2190     2.5520 
  126.6250    56.9960    20.1260    18.4250    17.6070    24.4250    -0.0860     2.5470 
  126.7500    56.5820    20.5310    18.8920    19.2680    24.5830    -0.3490     2.5380 
  126.8750    58.0450    20.7010    19.1550    19.7090    24.5990    -0.5740     2.5260 
  127.0000    58.7410    20.6160    19.1560    19.9920    24.4920    -0.7390     2.5140 
  127.1250    59.1260    20.3350    18.9140    18.5210    24.2290    -0.8160     2.5030 
  127.2500    61.4810    20.0300    18.6010    17.3960    23.9960    -0.8000     2.4970 
  127.3750    63.6350    19.8090    18.3390    15.8360    23.8750    -0.7160     2.4970 
  127.5000    63.9920    19.7290    18.2040    15.5130    23.8730    -0.5990     2.5080 
  127.6250    64.7750    19.8120    18.2420    16.5690    23.8710    -0.4860     2.5320 
  127.7500    65.4600    19.9980    18.4020    16.6890    23.8050    -0.4250     2.5630 
  127.8750    64.4610    20.2480    18.6490    16.1450    23.7590    -0.4100     2.5910 
  128.0000    62.6670    20.5310    18.9490    16.5680    23.7710    -0.4580     2.6060 
  128.1250    62.4760    20.8220    19.2780    17.9600    23.7520    -0.5670     2.5950 
  128.2500    62.7530    21.0930    19.6100    17.8990    23.6620    -0.7270     2.5610 
  128.3750    63.9710    21.3080    19.9120    17.4570    23.6440    -0.9100     2.5170 
  128.5000    67.4150    21.4140    20.1310    16.6300    23.7420    -1.1050     2.4840 
  128.6250    69.2460    21.3260    20.1690    16.5440    23.8940    -1.3300     2.4800 
  128.7500    66.9260    21.0440    20.0050    18.4450    23.9240    -1.5780     2.4880 
  128.8750    64.6830    20.5850    19.6440    19.5480    23.8770    -1.8550     2.4840 
  129.0000    64.6380    20.0030    19.1290    18.1950    23.8170    -2.1430     2.4520 
  129.1250    63.9150    19.3740    18.5340    15.9200    23.8590    -2.4420     2.3980 
  129.2500    61.2710    18.7850    17.9530    13.9730    24.0600    -2.6920     2.3570 
  129.3750    59.5990    18.2870    17.4440    13.1260    24.2430    -2.8690     2.3460 
  129.5000    60.6140    17.9050    17.0400    13.3900    24.1380    -3.0040     2.3670 
  129.6250    63.6240    17.6650    16.7720    14.0090    23.8600    -3.1520     2.4090 
  129.7500    67.6280    17.5380    16.6140    13.5600    23.5630    -3.3120     2.4510 
  129.8750    70.0580    17.5070    16.5500    13.0750    23.2840    -3.4720     2.4830 
  130.0000    69.4180    17.5520    16.5630    13.2780    23.1510    -3.6450     2.4990 
  130.1250    67.7670    17.6350    16.6240    13.7190    23.1500    -3.8700     2.4940 
  130.2500    68.5870    17.6840    16.6720    13.5170    23.2950    -4.1720     2.4770 
  130.3750    71.6890    17.6390    16.6430    12.2510    23.6450    -4.5710     2.4580 
  130.5000    72.2930    17.4600    16.4880    12.6290    24.1390    -5.0540     2.4470 
  130.6250    66.5360    17.1430    16.1820    13.6850    24.4810    -5.5850     2.4450 
  130.7500    60.7850    16.7760    15.8000    13.6880    24.6340    -6.1380     2.4440 
  130.8750    60.3380    16.4300    15.4110    13.1360    24.7400    -6.6950     2.4440 
  131.0000    65.0230    16.1600    15.0730    12.5580    24.8470    -7.2030     2.4510 
  131.1250    69.1380    16.0000    14.8340    13.4160    24.8870    -7.6160     2.4750 
  131.2500    69.0520    15.9210    14.6790    15.0220    24.8950    -8.0120     2.5120 
  131.3750    65.5870    15.9010    14.5890    14.8770    24.8640    -8.4250     2.5490 
  131.5000    62.1600    15.9230    14.5440    13.3390    24.7800    -8.8390     2.5680 
  131.6250    62.6610    15.9820    14.5320    12.5210    24.7230    -9.2020     2.5530 
  131.7500    64.3420    16.0650    14.5320    12.8480    24.7190    -9.5040     2.5160 
  131.8750    63.1550    16.1450    14.5240    13.1490    24.7390    -9.7510     2.4800 
  132.0000    60.1170    16.0180    14.4730    12.0510    24.6890    -9.9800     2.4620 
  132.1250    58.7530    15.4750    14.3260    11.8160    24.6270   -10.2360     2.4760 
  132.2500    59.2910    14.7890    14.0880    12.8440    24.7520   -10.5170     2.5070 
  132.3750    60.4440    14.2820    13.8000    14.0460    25.1490   -10.8020     2.5380 
  132.5000    61.3620    14.0560    13.5350    12.5010    25.5210   -11.0660     2.5530 
  132.6250    61.8350    14.0110    13.3830    11.7410    25.5960   -11.2980     2.5420 
  132.7500    62.2290    14.0680    13.3550    11.1820    25.5210   -11.4970     2.5150 
  132.8750    61.9250    14.2000    13.4170    11.2110    25.4960   -11.6450     2.4860 
  133.0000    62.0790    14.3200    13.5000    11.8420    25.5620   -11.7440     2.4710 
  133.1250    62.0130    14.3130    13.4990    12.6570    25.5260   -11.7970     2.4820 
  133.2500    61.9300    14.1500    13.3630    13.0170    25.4300   -11.8050     2.5080 
  133.3750    63.3270    13.8430    13.0810    12.7230    25.3810   -11.7670     2.5270 
  133.5000    66.7010    13.4440    12.6860    11.9780    25.4360   -11.6650     2.5180 
  133.6250    70.7190    13.0180    12.2340    11.7020    25.6690   -11.5230     2.4770 
  133.7500    71.8250    12.6210    11.7870    10.6330    25.9760   -11.4140     2.4310 
  133.8750    70.2490    12.2690    11.3710     9.0800    26.0390   -11.3930     2.4080 
  134.0000    67.7730    11.9710    10.9990     8.4540    25.6700   -11.4690     2.4210 
  134.1250    66.7730    11.7450    10.6940     9.3520    25.2220   -11.5680     2.4610 
  134.2500    68.1020    11.5990    10.4640     9.6550    25.0330   -11.6100     2.5010 
  134.3750    69.4520    11.5510    10.3270     8.7170    24.9590   -11.5910     2.5250 
  134.5000    69.1930    11.6100    10.2930     7.9620    24.8570   -11.6030     2.5310 
  134.6250    69.1050    11.7860    10.3750     8.1420    24.7760   -11.6740     2.5280 
  134.7500    69.7660    12.0370    10.5400     8.7780    24.7330   -11.7410     2.5250 
  134.8750    69.2190    12.3410    10.7710     9.3140    24.7020   -11.7580     2.5230 
  135.0000    66.9850    12.6800    11.0520    10.4990    24.6900   -11.6890     2.5240 
  135.1250    65.8700    13.0240    11.3640    11.4730    24.7070   -11.5610     2.5280 
  135.2500    66.0070    13.2870    11.6380    11.9500    24.7010   -11.4570     2.5360 
  135.3750    66.5810    13.3270    11.7530    12.8060    24.6700   -11.4130     2.5460 
  135.5000    67.8280    12.9770    11.5500    13.7180    24.6620   -11.4080     2.5520 
  135.6250    70.1390    12.0600    10.8400    13.9800    24.6240   -11.4260     2.5430 
  135.7500    74.1540    10.7590     9.7540    13.2660    24.5020   -11.4690     2.5190 
  135.8750    87.8270     9.3190     8.4860    10.5530    24.3390   -11.5710     2.4830 
  136.0000    99.5680     8.0060     7.2670     6.9820    24.2800   -11.7560     2.4420 
  136.1250   104.0800     7.0710     6.3250     5.5410    24.3350   -11.9990     2.4070 
  136.2500   106.0930     6.4990     5.6850     5.0500    24.2970   -12.2810     2.3790 
  136.3750   106.8140     6.2250     5.3200     4.8650    24.3970   -12.5860     2.3590 
  136.5000   106.0640     6.1490     5.1650     4.8530    24.7070   -12.8850     2.3420 
  136.6250   106.0620     6.1590     5.1410     4.9320    24.8300   -13.1310     2.3250 
  136.7500   108.1790     6.1460     5.1330     4.9490    24.7820   -13.2880     2.3080 
  136.8750   110.3150     6.0670     5.0870     4.7530    24.7390   -13.3260     2.2950 
  137.0000   110.1700     5.9330     4.9910     4.6470    24.7190   -13.2580     2.2910 
  137.1250   107.0770     5.8030     4.8790     4.6580    24.6990   -13.1660     2.3000 
  137.2500   104.1430     5.7470     4.8100     4.5240    24.6950   -13.0710     2.3200 
  137.3750   102.1280     5.7960     4.8210     4.2970    24.8060   -12.9810     2.3500 
  137.5000   100.2120     5.9410     4.9170     4.3600    24.9420   -12.8910     2.3850 
  137.6250    99.0980     6.1250     5.0640     5.5290    24.9380   -12.7950     2.4120 
