~V
VERS. 2.00: Ver 2.00
~W
STRT.M 47.0000:
STOP.M 248.0000:
STEP.M 0.1250:
NULL. -999.2500:
UWI. F11134:
~C
DEPT.M :
GR.API :
RML.OHMM :
RI. :
RXO.OHMM :
CALI.CM :
SP.MV :
DEN.GM/CC :
~A
# ...
  125.7500    42.5130    23.8150    22.3110    20.2050    25.0780   -17.4530     2.4860 
  125.8750    41.5540    22.9070    21.4000    20.4370    25.0700   -17.3320     2.5060 
  126.0000    39.8090    22.6320    21.0530    21.6270    25.0550   -17.2030     2.5370 
  126.1250    38.9720    22.7950    21.1510    22.4260    25.0290   -17.0970     2.5600 
  126.2500    39.3560    23.2160    21.5510    21.2750    25.0150   -17.0160     2.5690 
  126.3750    39.4290    23.7410    22.0940    20.7360    25.0130   -16.9010     2.5680 
  126.5000    38.5250    24.1970    22.6000    22.8170    25.0140   -16.7570     2.5710 
  126.6250    36.9630    24.3780    22.8690    25.5310    25.0130   -16.6400     2.5810 
  126.7500    35.6570    24.1090    22.7230    25.6310    25.0080   -16.5530     2.5920 
  126.8750    36.3710    23.3340    22.0820    22.8780    24.9900   -16.4600     2.5900 
  127.0000    39.1800    22.2940    21.1400    19.9990    24.9740   -16.3450     2.5700 
  127.1250    41.6380    21.3610    20.2120    18.4110    24.9860   -16.2230     2.5420 
  127.2500    41.6700    20.8180    19.5480    18.0290    25.0160   -16.1080     2.5200 
  127.3750    40.0380    20.8230    19.3200    18.0530    25.0420   -15.9990     2.5190 
  127.5000    39.4850    21.2470    19.4810    18.0550    25.0330   -15.8850     2.5380 
  127.6250    40.6060    21.8170    19.8420    18.2100    24.9830   -15.7830     2.5640 
  127.7500    41.3390    22.2770    20.1990    18.4250    24.9150   -15.7030     2.5880 
  127.8750    40.2420    22.3900    20.3460    18.6120    24.8510   -15.6320     2.6000 
  128.0000    38.5130    22.1080    20.2160    18.9480    24.8010   -15.5630     2.5990 
  128.1250    38.0250    21.5660    19.8820    18.5340    24.7600   -15.5130     2.5870 
  128.2500    39.0870    20.9770    19.4900    17.1910    24.7290   -15.4750     2.5750 
  128.3750    40.5910    20.5720    19.2170    16.3250    24.7140   -15.4490     2.5690 
  128.5000    41.8760    20.4270    19.1260    16.4050    24.7210   -15.4420     2.5650 
  128.6250    42.6590    20.4840    19.1780    17.0990    24.7540   -15.4340     2.5580 
  128.7500    42.7540    20.6370    19.2880    18.1230    24.8020   -15.4030     2.5520 
  128.8750    41.4040    20.7610    19.3550    18.6670    24.8110   -15.3780     2.5520 
  129.0000    38.8410    20.8050    19.3460    18.1160    24.7670   -15.3810     2.5550 
  129.1250    37.1110    20.8220    19.3230    17.6530    24.7230   -15.3910     2.5500 
  129.2500    37.9450    20.9140    19.3850    18.2980    24.7350   -15.4040     2.5350 
  129.3750    40.4240    21.1660    19.6210    18.5870    24.7640   -15.4210     2.5200 
  129.5000    42.8580    21.5500    20.0110    19.0000    24.7750   -15.4200     2.5130 
  129.6250    44.8000    21.9280    20.4330    20.4390    24.7870   -15.4060     2.5140 
  129.7500    45.7180    22.1390    20.7310    21.3390    24.8140   -15.4150     2.5160 
  129.8750    44.4690    22.0700    20.7640    20.9780    24.8230   -15.4500     2.5120 
  130.0000    42.0590    21.8080    20.5690    19.9900    24.8010   -15.4800     2.5020 
  130.1250    40.6760    21.5530    20.3140    18.9700    24.7660   -15.4690     2.4890 
  130.2500    40.4500    21.4700    20.1640    18.2330    24.7370   -15.4410     2.4770 
  130.3750    40.7150    21.6550    20.2430    18.4220    24.7240   -15.4460     2.4720 
  130.5000    41.5540    22.0440    20.5280    19.1960    24.7140   -15.4690     2.4730 
  130.6250    42.7130    22.4780    20.8970    19.9430    24.6900   -15.4700     2.4800 
  130.7500    42.6970    22.7980    21.1990    20.4360    24.6650   -15.4580     2.4880 
  130.8750    41.3050    22.8500    21.2800    20.3300    24.6530   -15.4510     2.4910 
  131.0000    41.0110    22.6140    21.1030    19.9730    24.6500   -15.4320     2.4890 
  131.1250    42.7890    22.1760    20.7360    19.9450    24.6580   -15.4030     2.4850 
  131.2500    44.3020    21.6510    20.2780    19.6470    24.6960   -15.3750     2.4820 
  131.3750    43.3850    21.1820    19.8490    18.4360    24.7840   -15.3180     2.4800 
  131.5000    41.4310    20.8610    19.5270    17.3410    24.8850   -15.2320     2.4820 
  131.6250    40.6770    20.6910    19.3260    17.0230    24.9680   -15.1500     2.4890 
  131.7500    41.0070    20.6260    19.2180    17.1780    25.0330   -15.0680     2.4990 
  131.8750    41.3080    20.5790    19.1420    17.6750    25.0700   -14.9770     2.5030 
  132.0000    41.3730    20.4610    19.0250    18.1640    25.0810   -14.9000     2.5010 
  132.1250    41.7440    20.2240    18.8150    17.7800    25.0870   -14.8290     2.5010 
  132.2500    42.8180    19.8800    18.5120    17.0490    25.0990   -14.7560     2.5030 
  132.3750    43.3390    19.4950    18.1670    16.7750    25.1230   -14.7200     2.5060 
  132.5000    41.2530    19.1300    17.8430    17.0480    25.1390   -14.7260     2.5030 
  132.6250    37.3520    18.8050    17.5660    17.0860    25.1410   -14.7270     2.4930 
  132.7500    35.4650    18.5000    17.3210    17.2590    25.1250   -14.6960     2.4800 
  132.8750    36.9830    18.1780    17.0620    17.8990    25.0790   -14.6630     2.4740 
  133.0000    39.1370    17.8380    16.7720    18.1250    25.0410   -14.6560     2.4750 
  133.1250    40.8980    17.5340    16.4800    17.5700    25.0450   -14.6710     2.4810 
  133.2500    42.7780    17.3400    16.2550    16.5810    25.0630   -14.6690     2.4890 
  133.3750    42.9650    17.3290    16.1710    16.1590    25.0520   -14.6420     2.4950 
  133.5000    40.5160    17.4640    16.2190    15.8910    25.0120   -14.6310     2.4980 
  133.6250    38.1700    17.6380    16.3210    15.9150    24.9820   -14.6500     2.4970 
  133.7500    38.5040    17.7400    16.3750    16.5970    24.9850   -14.6720     2.4960 
  133.8750    40.5240    17.6880    16.2980    16.4110    24.9950   -14.6830     2.4920 
  134.0000    41.9420    17.5240    16.1200    15.2460    24.9790   -14.6870     2.4830 
  134.1250    41.5940    17.3560    15.9400    14.4280    24.9400   -14.7010     2.4750 
  134.2500    40.0760    17.2610    15.8370    14.3830    24.8810   -14.7350     2.4720 
  134.3750    40.1160    17.2570    15.8280    14.7320    24.7970   -14.7750     2.4750 
  134.5000    42.2500    17.2770    15.8460    14.9510    24.6820   -14.8110     2.4780 
  134.6250    43.7290    17.2210    15.7930    14.6180    24.5600   -14.8440     2.4770 
  134.7500    42.1090    17.0110    15.5920    13.7180    24.4900   -14.8850     2.4700 
  134.8750    38.8770    16.5980    15.2010    13.0310    24.5000   -14.9400     2.4650 
  135.0000    37.7480    16.0240    14.6690    12.9250    24.5390   -14.9910     2.4690 
  135.1250    39.8020    15.3870    14.0870    12.6460    24.5420   -15.0220     2.4790 
  135.2500    42.9370    14.7990    13.5450    12.2960    24.4980   -15.0430     2.4890 
  135.3750    45.4060    14.4050    13.1560    12.1450    24.4560   -15.0580     2.4950 
  135.5000    48.4870    14.2770    12.9860    12.1900    24.4830   -15.0670     2.5020 
  135.6250    52.8020    14.3970    13.0380    12.6000    24.5980   -15.0870     2.5080 
  135.7500    56.0870    14.6730    13.2580    13.4760    24.7940   -15.1220     2.5070 
  135.8750    55.6280    14.9340    13.5110    14.3440    24.9700   -15.1390     2.4980 
  136.0000    52.4570    15.0270    13.6480    14.6460    25.0580   -15.1490     2.4900 
  136.1250    49.5610    14.9210    13.6040    14.2990    25.0810   -15.2070     2.4860 
  136.2500    49.0350    14.7000    13.4270    13.1560    25.0860   -15.3150     2.4840 
  136.3750    52.5490    14.5390    13.2560    12.1640    25.0890   -15.4250     2.4790 
  136.5000    57.9070    14.5560    13.2100    12.2930    25.0740   -15.5210     2.4720 
  136.6250    61.0970    14.7490    13.3080    13.4300    25.0290   -15.6240     2.4670 
  136.7500    61.6110    15.0270    13.4930    14.7970    24.9980   -15.7480     2.4620 
  136.8750    61.9900    15.2370    13.6430    15.9040    25.0200   -15.8790     2.4510 
