~V
VERS. 2.00: Ver 2.00
~W
STRT.M 50.0000:
STOP.M 245.0000:
STEP.M 0.1250:
NULL. -999.2500:
UWI. F11135:
~C
DEPT.M :
GR.API :
RML.OHMM :
RI. :
RXO.OHMM :
CALI.CM :
SP.MV :
DEN.GM/CC :
~A
# ...
   72.5000    57.6370     9.6780     6.7330     9.7840    24.0980   -41.8550     2.1260 
   72.6250    56.9490     9.7380     6.7700     9.4470    24.1300   -41.7830     2.1250 
   72.7500    55.3390     9.7240     6.7650     9.1890    24.1970   -41.7900     2.1230 
   72.8750    56.1040     9.6620     6.7180     9.0720    24.2460   -41.8160     2.1180 
   73.0000    56.9610     9.5870     6.6450     9.1260    24.2520   -41.8540     2.1120 
   73.1250    54.0950     9.5230     6.5690     9.2080    24.2890   -41.8840     2.1060 
   73.2500    51.4990     9.4710     6.5030     9.0450    24.3720   -41.9990     2.1050 
   73.3750    53.4330     9.4310     6.4520     8.8350    24.4120   -42.2070     2.1070 
   73.5000    57.2000     9.4110     6.4180     8.9780    24.4190   -42.5240     2.1110 
   73.6250    57.8970     9.4300     6.4080     9.4580    24.4190   -42.9320     2.1090 
   73.7500    55.5830     9.4820     6.4220     9.6500    24.4190   -43.3230     2.1010 
   73.8750    53.1220     9.5530     6.4580     9.6810    24.4190   -43.7590     2.0890 
   74.0000    52.5570     9.6190     6.5090     9.7800    24.4150   -44.2010     2.0770 
   74.1250    53.0730     9.6570     6.5650    10.1800    24.3890   -44.6520     2.0700 
   74.2500    53.2350     9.6670     6.6100    10.3740    24.3310   -45.0300     2.0700 
   74.3750    51.4020     9.6570     6.6380    10.1730    24.2690   -45.3400     2.0760 
   74.5000    48.7310     9.6370     6.6480     9.9800    24.1800   -45.5550     2.0850 
   74.6250    47.1510     9.6100     6.6410     9.9580    24.0910   -45.6800     2.0930 
   74.7500    46.8940     9.5820     6.6280    10.0250    24.0270   -45.7310     2.0990 
   74.8750    47.2380     9.5560     6.6070    10.0770    23.9660   -45.7000     2.1030 
   75.0000    47.7400     9.5250     6.5710    10.1500    23.9360   -45.6210     2.1080 
   75.1250    49.7420     9.4630     6.5100    10.2820    23.8910   -45.4650     2.1150 
   75.2500    51.8110     9.3570     6.4330    10.3430    23.8350   -45.3000     2.1220 
   75.3750    52.0330     9.2100     6.3510    10.2350    23.7980   -45.0840     2.1250 
   75.5000    50.8100     9.0490     6.2710    10.0980    23.7700   -44.8140     2.1230 
   75.6250    50.4970     8.9250     6.1960    10.0510    23.7280   -44.4640     2.1160 
   75.7500    51.6750     8.8740     6.1250    10.0510    23.7160   -44.0960     2.1100 
   75.8750    52.9350     8.9220     6.0770    10.0590    23.6960   -43.6960     2.1090 
   76.0000    52.2200     9.0900     6.0750    10.0290    23.6690   -43.3050     2.1130 
   76.1250    50.1250     9.3870     6.1430    10.0710    23.5750   -42.9220     2.1210 
   76.2500    49.8180     9.7120     6.2460    10.0500    23.5830   -42.5290     2.1280 
   76.3750    52.6640     9.9400     6.3380    10.0110    23.4910   -42.1780     2.1310 
   76.5000    57.7550     9.9530     6.3780    10.0420    23.2010   -41.8880     2.1300 
   76.6250    62.4040     9.6750     6.3380    10.2270    23.0850   -41.6810     2.1260 
   76.7500    62.5490     9.2500     6.2560    10.2940    23.0120   -41.5060     2.1210 
   76.8750    58.4080     8.8540     6.1680    10.1710    23.0510   -41.3620     2.1150 
   77.0000    53.9740     8.6350     6.0960     9.9350    23.0790   -41.2090     2.1110 
   77.1250    52.9030     8.6630     6.0570     9.7410    23.1130   -41.0820     2.1110 
   77.2500    52.4040     8.8130     6.0430     9.7730    23.1670   -40.9250     2.1140 
   77.3750    50.9000     8.9550     6.0370    10.0320    23.2260   -40.7440     2.1180 
   77.5000    51.1390     8.9810     6.0150    10.3460    23.3080   -40.5670     2.1190 
   77.6250    52.5120     8.8350     5.9450    10.5930    23.3120   -40.3440     2.1140 
   77.7500    53.0100     8.6100     5.8240    10.6740    23.3170   -40.1210     2.1040 
   77.8750    53.7860     8.3980     5.6710    10.4810    23.3180   -39.9020     2.0900 
   78.0000    54.7690     8.2690     5.5280    10.2130    23.3340   -39.7050     2.0740 
   78.1250    53.9200     8.2830     5.4490    10.0210    23.4360   -39.5110     2.0600 
   78.2500    51.8460     8.4250     5.4460     9.8370    23.5970   -39.4050     2.0520 
   78.3750    49.9240     8.6600     5.5100     9.6160    23.7130   -39.3180     2.0550 
   78.5000    47.8040     8.9010     5.6150     9.7270    23.7450   -39.2100     2.0660 
   78.6250    46.9240     9.0090     5.7170     9.9290    23.6450   -39.0960     2.0810 
   78.7500    50.7580     8.9510     5.7880    10.2760    23.6360   -38.9340     2.0960 
   78.8750    57.3150     8.8010     5.8460    10.3950    23.6280   -38.7310     2.1100 
   79.0000    60.0740     8.7260     5.9420    10.4860    23.6330   -38.4760     2.1290 
   79.1250    56.6240     8.9400     6.1760    10.8660    23.6330   -38.2100     2.1580 
   79.2500    52.7620     9.4140     6.5720    11.5610    23.6290   -37.8890     2.1920 
   79.3750    50.8730     9.9730     7.0990    12.6350    23.6260   -37.5370     2.2200 
   79.5000    49.6790    10.3740     7.6490    13.9850    23.6040   -37.1070     2.2320 
   79.6250    47.7590    10.3880     7.9930    14.3260    23.5560   -36.6280     2.2190 
   79.7500    47.7210    10.0790     7.9980    13.7800    23.5480   -36.1550     2.1920 
   79.8750    50.6960     9.5730     7.6580    12.3100    23.5500   -35.6540     2.1610 
   80.0000    53.9420     8.9810     7.0870    10.9820    23.5570   -35.1160     2.1310 
   80.1250    52.8730     8.3820     6.4580    10.3470    23.5990   -34.4720     2.1080 
   80.2500    49.3300     7.9330     5.9550    10.2420    23.5620   -33.7180     2.1000 
   80.3750    46.9180     7.9100     5.7330    10.3560    23.5490   -32.8310     2.1170 
   80.5000    46.1000     8.6410     5.9460    10.6200    23.5510   -31.8320     2.1720 
   80.6250    45.8840    10.5770     6.8780    11.3170    23.6070   -30.6760     2.2700 
   80.7500    45.8860    13.5710     8.5970    13.3360    23.8590   -29.4440     2.3860 
   80.8750    48.6400    17.1690    11.0700    18.4700    24.4380   -28.1620     2.4850 
   81.0000    56.3400    20.1340    13.7290    26.5290    25.0020   -26.8680     2.5350 
   81.1250    66.3920    19.9990    14.7780    24.6750    25.2880   -25.6690     2.5170 
   81.2500    72.6200    16.7920    13.4430    18.7260    25.3170   -24.5940     2.4650 
   81.3750    73.6890    12.4120    10.6820    13.3660    25.2530   -23.7030     2.4080 
   81.5000    76.2350     8.7800     7.9480     8.1290    25.0630   -23.0400     2.3640 
   81.6250    85.4850     6.7250     6.0890     5.8820    24.8170   -22.6740     2.3390 
   81.7500    93.4420     5.6810     4.9650     5.1730    24.6030   -22.4720     2.3230 
   81.8750    95.0200     5.2760     4.4010     4.8420    24.4730   -22.4850     2.3120 
   82.0000    91.2580     5.3340     4.2730     4.6350    24.3760   -22.6790     2.3080 
   82.1250    87.3300     5.9690     4.6170     4.7140    24.1590   -23.0100     2.3250 
   82.2500    83.5210     7.2680     5.4220     5.1160    24.0150   -23.4530     2.3670 
   82.3750    76.5030     9.3800     6.8120     6.1550    23.9250   -23.9750     2.4270 
   82.5000    65.9530    12.2930     8.9010     8.5110    23.9500   -24.5270     2.4870 
   82.6250    56.0960    15.4860    11.5650    12.2970    24.2780   -25.1520     2.5160 
   82.7500    51.4080    17.5930    13.7670    16.5650    24.4600   -25.8510     2.5030 
   82.8750    53.3530    17.4180    14.2790    18.2100    24.4920   -26.5360     2.4530 
   83.0000    60.2680    15.0280    12.7840    17.3870    24.4960   -27.1990     2.3880 
   83.1250    68.9630    12.0230    10.3860    13.7610    24.5030   -27.8640     2.3320 
   83.2500    75.2090     9.9680     8.4800     9.0800    24.5330   -28.6110     2.2930 
   83.3750    76.8930     9.1930     7.4350     7.0360    24.5570   -29.4640     2.2690 
   83.5000    72.9210     9.5320     7.2100     7.2340    24.5610   -30.4750     2.2470 
   83.6250    63.9470    10.6970     7.6920    10.2350    24.5610   -31.5540     2.2220 
