~V
VERS. 2.00: Ver 2.00
~W
STRT.M 50.0000:
STOP.M 264.0000:
STEP.M 0.1250:
NULL. -999.2500:
UWI. F11182:
~C
DEPT.M :
SP.MV :
GR.API :
RI. :
RML.OHMM :
RXO.OHMM :
DEN.GM/CC :
~A
# ...
  204.5000     3.2630    75.5870     3.9630     4.4610     5.7590     2.2840 
  204.6250     3.5260    68.9830     4.7420     5.2790     6.5970     2.3190 
  204.7500     3.7260    65.2010     5.2030     5.7630     7.0560     2.3630 
  204.8750     4.0460    61.0110     5.4920     6.0660     8.7930     2.4310 
  205.0000     4.2600    59.7560     5.2800     5.8440    12.0320     2.4550 
  205.1250     4.5590    62.0980     4.3650     4.8830    15.0610     2.4300 
  205.2500     4.7290    66.0690     3.5830     4.0620    11.9380     2.3910 
  205.3750     4.9190    71.0160     2.6090     3.0390     5.9710     2.3490 
  205.5000     4.9870    73.4350     2.1820     2.5910     4.5460     2.3440 
  205.6250     4.9790    74.5490     1.8860     2.2800     3.4360     2.3600 
  205.7500     4.8890    74.4810     1.8810     2.2750     3.0990     2.3730 
  205.8750     4.6190    72.5420     2.0550     2.4570     3.8620     2.3760 
  206.0000     4.3570    72.0940     2.2590     2.6720     4.3360     2.3620 
  206.1250     3.8870    70.9400     2.5650     2.9930     4.4140     2.3470 
  206.2500     3.5640    70.9010     2.7200     3.1560     4.5820     2.3480 
  206.3750     3.1440    72.7330     2.7730     3.2120     4.7440     2.3480 
  206.5000     2.9470    76.6650     2.7090     3.1440     4.4450     2.3410 
  206.6250     2.8100    82.1200     2.5490     2.9760     4.2370     2.3320 
  206.7500     2.8250    83.1360     2.4590     2.8820     4.4150     2.3300 
  206.8750     2.9810    82.2050     2.4820     2.9070     4.7190     2.3280 
  207.0000     3.1520    82.3750     2.6710     3.1040     4.9290     2.3380 
  207.1250     3.4740    82.3760     3.0630     3.5160     5.5770     2.3930 
  207.2500     3.7180    80.9230     3.2560     3.7190     8.2340     2.4330 
  207.3750     4.1150    77.7910     3.1410     3.5980    12.7600     2.4320 
  207.5000     4.3870    74.8020     2.7690     3.2070    10.7950     2.3920 
  207.6250     4.7710    71.8050     2.0370     2.4380     4.3570     2.3280 
  207.7500     4.9750    72.2560     1.5870     1.9670     2.5220     2.3020 
  207.8750     5.1340    76.6730     1.1430     1.5000     2.3330     2.2850 
  208.0000     5.1150    78.1790     1.0050     1.3550     2.6180     2.2870 
  208.1250     4.8980    77.3760     0.9440     1.2910     2.6670     2.2950 
  208.2500     4.6490    77.2360     0.9480     1.2950     2.4370     2.2960 
  208.3750     4.1790    79.2740     0.9990     1.3480     2.5650     2.2980 
  208.5000     3.8260    80.6620     1.0580     1.4110     2.7250     2.3080 
  208.6250     3.2420    80.3140     1.1850     1.5440     2.9190     2.3280 
  208.7500     2.8020    78.5040     1.2770     1.6410     3.2550     2.3310 
  208.8750     2.0420    76.6500     1.4140     1.7850     3.7300     2.3200 
  209.0000     1.4590    76.6100     1.5050     1.8800     3.7060     2.3100 
  209.1250     0.4820    77.3100     1.6310     2.0130     3.2350     2.2930 
  209.2500    -0.2200    76.1860     1.7260     2.1120     3.3660     2.2760 
  209.3750    -1.2950    71.4060     1.9170     2.3130     4.4670     2.2480 
  209.5000    -1.9840    68.1100     2.0540     2.4560     4.9390     2.2390 
  209.6250    -2.8960    67.7450     2.2620     2.6750     5.1440     2.2400 
  209.7500    -3.3810    69.0130     2.3620     2.7800     5.2060     2.2500 
  209.8750    -3.8860    67.9320     2.4380     2.8600     5.0230     2.2730 
  210.0000    -4.0770    66.4080     2.4650     2.8880     4.9460     2.2820 
  210.1250    -4.1930    67.9060     2.5330     2.9590     5.3630     2.2760 
  210.2500    -4.1910    69.8200     2.6350     3.0670     5.6270     2.2700 
  210.3750    -4.1250    70.5400     2.9340     3.3810     5.6680     2.2720 
  210.5000    -4.0550    69.7610     3.3680     3.8360     5.9070     2.2630 
  210.6250    -3.9200    68.4360     4.4200     4.9410     7.5930     2.2040 
  210.7500    -3.8070    66.2770     5.5150     6.0900     9.3360     2.1490 
  210.8750    -3.6020    62.7950     7.4900     8.1650    10.6440     2.0970 
  211.0000    -3.4440    61.8750     8.7420     9.4790    10.5820     2.1020 
  211.1250    -3.1890    62.2670     9.9950    10.7950    10.9020     2.1450 
  211.2500    -3.0140    62.6670    10.2480    11.0600    11.5420     2.1720 
  211.3750    -2.7460    63.6000     9.9290    10.7250    11.8930     2.1920 
  211.5000    -2.5570    61.6230     9.5660    10.3440    11.5330     2.1890 
  211.6250    -2.2390    58.3320     9.1130     9.8690    10.5780     2.1700 
  211.7500    -1.9980    58.7450     9.0010     9.7510     9.6430     2.1530 
  211.8750    -1.5950    62.2260     9.2080     9.9680     7.9460     2.1290 
  212.0000    -1.3110    61.8460     9.6440    10.4260     7.1380     2.1190 
  212.1250    -0.8940    58.9150    10.6300    11.4620     7.6020     2.1140 
  212.2500    -0.6400    58.2800    11.4870    12.3610     9.1100     2.1160 
  212.3750    -0.3120    58.8040    12.9060    13.8510    11.7410     2.1200 
  212.5000    -0.1320    59.0860    13.7620    14.7500    12.6580     2.1240 
  212.6250     0.0920    57.9040    14.7540    15.7910    12.4890     2.1270 
  212.7500     0.2160    56.6240    15.0210    16.0720    13.3850     2.1190 
  212.8750     0.3710    55.5340    14.7950    15.8350    16.7050     2.1000 
  213.0000     0.4530    56.7030    14.3000    15.3150    16.9240     2.0940 
  213.1250     0.5380    58.8740    13.2650    14.2280    14.3780     2.0990 
  213.2500     0.5690    59.9330    12.5830    13.5120    13.0930     2.1040 
  213.3750     0.5860    60.7590    11.6910    12.5750    12.6960     2.1120 
  213.5000     0.5880    59.6840    11.1950    12.0540    13.4500     2.1160 
  213.6250     0.5910    56.0010    10.6530    11.4860    13.8890     2.1160 
  213.7500     0.6010    54.7440    10.3200    11.1360    12.9470     2.1170 
  213.8750     0.6310    56.8420     9.9150    10.7100    11.6330     2.1280 
  214.0000     0.6590    57.7200     9.7430    10.5300    11.2000     2.1390 
  214.1250     0.7130    55.4320     9.6350    10.4170    10.7190     2.1490 
  214.2500     0.7580    53.4770     9.7350    10.5220    10.9900     2.1470 
  214.3750     0.8380    55.3120    10.1120    10.9180    12.3860     2.1370 
  214.5000     0.8990    57.7880    10.4280    11.2500    12.9610     2.1300 
  214.6250     0.9980    59.7660    10.8240    11.6650    13.1210     2.1200 
  214.7500     1.0640    60.6850    10.9810    11.8300    13.2820     2.1130 
  214.8750     1.1550    61.4310    10.9420    11.7890    12.9270     2.1050 
  215.0000     1.2070    59.4690    10.8000    11.6400    12.6690     2.1090 
  215.1250     1.2730    54.2170    10.5500    11.3770    13.0710     2.1240 
  215.2500     1.3150    52.5920    10.4120    11.2320    12.7580     2.1300 
  215.3750     1.3910    55.2940    10.4070    11.2270    11.6080     2.1310 
  215.5000     1.4600    57.2880    10.5570    11.3850    11.8350     2.1310 
  215.6250     1.6030    59.3300    11.0130    11.8640    12.9840     2.1280 
  215.7500     1.7240    59.2820    11.3710    12.2400    13.7250     2.1280 
  215.8750     1.9360    58.1480    11.9010    12.7960    14.8490     2.1330 
  216.0000     2.0910    57.5520    12.2510    13.1640    14.5860     2.1350 
  216.1250     2.3330    58.8530    12.6970    13.6320    13.0730     2.1270 
  216.2500     2.4930    61.2500    12.9200    13.8660    13.0660     2.1180 
  216.3750     2.7210    63.2500    13.0430    13.9950    14.5690     2.1090 
  216.5000     2.8570    62.6410    12.9160    13.8620    15.1100     2.1070 
  216.6250     3.0300    59.2800    12.5080    13.4330    14.7030     2.1110 
  216.7500     3.1200    57.6290    12.1330    13.0390    14.2430     2.1170 
  216.8750     3.2120    56.5950    11.3420    12.2090    13.6330     2.1260 
  217.0000     3.2410    56.4860    10.7040    11.5390    13.4400     2.1320 
  217.1250     3.2400    57.0290     9.6050    10.3850    12.9490     2.1420 
  217.2500     3.2150    58.4410     8.8840     9.6280    12.0230     2.1450 
