~V
VERS. 2.00: Ver 2.00
~W
STRT.M 50.0000:
STOP.M 253.0000:
STEP.M 0.1250:
NULL. -999.2500:
UWI. F11132:
~C
DEPT.M :
DEN.GM/CC :
GR.API :
RML.OHMM :
RI. :
RXO.OHMM :
CALI.CM :
SP.MV :
~A
# ...
  117.5000     2.2230    58.3270    10.8580     9.2760    13.1530    25.0750   -25.1550 
  117.6250     2.2860    58.7210    10.8050     9.2440    13.3230    25.0600   -24.5660 
  117.7500     2.3310    57.7960    10.7560     9.1890    13.3570    25.0370   -23.9230 
  117.8750     2.3140    55.8660    10.7330     9.1310    13.2310    25.0390   -23.2330 
  118.0000     2.2370    55.3800    10.7540     9.0900    13.1170    25.0740   -22.4760 
  118.1250     2.1420    58.1940    10.8210     9.0790    12.7770    25.1390   -21.5930 
  118.2500     2.0760    60.8210    10.8650     9.0640    12.4400    25.1920   -20.5790 
  118.3750     2.0630    59.7820    10.7770     8.9760    11.9680    25.2330   -19.4450 
  118.5000     2.0860    57.2270    10.4490     8.7350    11.8180    25.2000   -18.2110 
  118.6250     2.1350    59.8990     9.8000     8.2660    13.0000    25.0820   -16.9170 
  118.7500     2.2030    65.7230     8.9760     7.6540    14.4060    24.9660   -15.6020 
  118.8750     2.2590    69.6520     8.1540     7.0120    12.8920    24.8960   -14.3420 
  119.0000     2.2900    70.4220     7.5150     6.4710     8.7270    24.8770   -13.2070 
  119.1250     2.2990    69.1740     7.2590     6.1910     6.7910    24.8850   -12.2500 
  119.2500     2.2960    67.9620     7.3920     6.2120     6.8300    24.9010   -11.5200 
  119.3750     2.2830    66.7440     7.8780     6.5380     7.8350    24.9240   -11.0590 
  119.5000     2.2670    66.0970     8.5740     7.0880     8.8260    24.9440   -10.8030 
  119.6250     2.2530    64.3900     9.1850     7.6550     9.6920    24.9620   -10.6490 
  119.7500     2.2440    61.3960     9.4250     7.9770    10.9810    24.9840   -10.5100 
  119.8750     2.2410    60.3560     9.1780     7.9180    11.5410    25.0110   -10.3350 
  120.0000     2.2500    63.2170     8.5380     7.5100     9.9010    25.0570   -10.0960 
  120.1250     2.2760    66.6050     7.7530     6.9090     7.5580    25.1850    -9.8460 
  120.2500     2.3060    65.9790     7.0810     6.3340     6.8560    25.3500    -9.5740 
  120.3750     2.3160    62.7270     6.6500     5.9040     7.1300    25.4460    -9.2200 
  120.5000     2.3120    61.1670     6.5600     5.7190     7.5940    25.4790    -8.8150 
  120.6250     2.3150    62.1070     6.9880     5.9410     7.4360    25.5380    -8.4920 
  120.7500     2.3360    62.9530     7.9160     6.5810     7.5000    25.5460    -8.2780 
  120.8750     2.3640    61.4950     9.3040     7.6390     8.6060    25.4560    -8.1650 
  121.0000     2.3940    57.2920    10.9470     9.0070    12.1740    25.3080    -8.1200 
  121.1250     2.4320    53.1100    12.2640    10.2810    18.8920    25.1630    -8.0900 
  121.2500     2.4770    50.8540    12.6660    10.9000    22.2970    25.0880    -8.0500 
  121.3750     2.4940    49.8730    11.9800    10.6050    17.2870    25.0460    -8.0110 
  121.5000     2.4520    50.6010    10.5770     9.6200    12.3880    25.0240    -7.9680 
  121.6250     2.3710    54.6470     9.1240     8.4500    10.0970    25.0200    -7.8770 
  121.7500     2.3090    59.3890     8.0720     7.5070     8.8910    25.0350    -7.7210 
  121.8750     2.3060    60.5040     7.5020     6.8990     7.8720    25.0830    -7.4880 
  122.0000     2.3320    57.3380     7.3000     6.5860     7.3720    25.1810    -7.1630 
  122.1250     2.3490    53.4740     7.2850     6.4760     6.9330    25.3220    -6.7590 
  122.2500     2.3380    51.3590     7.2570     6.4210     6.6510    25.4580    -6.3520 
  122.3750     2.3050    52.3400     7.1420     6.3620     6.6060    25.5530    -5.9770 
  122.5000     2.2730    56.1350     6.9410     6.2750     6.3150    25.6290    -5.6570 
  122.6250     2.2520    59.5270     6.7320     6.1870     5.8710    25.6880    -5.3470 
  122.7500     2.2480    58.7760     6.6170     6.1520     5.6240    25.7690    -5.0710 
  122.8750     2.2580    55.7600     6.6580     6.2150     5.6190    25.8700    -4.8730 
  123.0000     2.2680    54.8830     6.8640     6.3920     6.0570    25.9540    -4.7420 
  123.1250     2.2770    55.7380     7.2020     6.6720     6.6910    25.9770    -4.6080 
  123.2500     2.2890    54.2260     7.5800     6.9940     7.2900    25.9330    -4.3910 
  123.3750     2.2920    51.5890     7.9430     7.3200     8.2240    25.8270    -4.0970 
  123.5000     2.2820    50.5410     8.2250     7.5940     9.4510    25.6870    -3.7540 
  123.6250     2.2830    51.0310     8.3240     7.7190    10.2410    25.6150    -3.4240 
  123.7500     2.3140    52.1400     8.2630     7.6920     9.6720    25.5380    -3.1040 
  123.8750     2.3660    53.4810     8.1480     7.5930    11.2540    25.3750    -2.7380 
  124.0000     2.4140    54.5110     8.1760     7.5780    11.6390    25.3000    -2.3390 
  124.1250     2.4510    53.9730     8.7240     7.9340     9.0780    25.3060    -1.9970 
  124.2500     2.4730    52.2130     9.9900     8.8400     8.8630    25.2460    -1.7530 
  124.3750     2.4880    47.9950    12.0480    10.4160    12.3940    25.1380    -1.6050 
  124.5000     2.5200    42.2760    14.7230    12.6240    18.4140    25.0630    -1.4970 
  124.6250     2.5720    37.8570    17.4540    15.1310    23.5970    25.0310    -1.3940 
  124.7500     2.6190    34.9900    19.4880    17.2210    26.4100    25.0230    -1.2990 
  124.8750     2.6340    34.5690    20.4590    18.4280    26.9170    25.0350    -1.2370 
  125.0000     2.6260    37.3820    20.5800    18.7980    21.6820    25.0660    -1.2360 
  125.1250     2.6110    40.3200    20.4640    18.7840    19.3030    25.0810    -1.2560 
  125.2500     2.5940    40.1340    20.5830    18.8350    20.1210    25.0870    -1.2420 
  125.3750     2.5800    38.5130    20.9540    19.0230    22.9460    25.0990    -1.1920 
  125.5000     2.5710    37.9290    21.4120    19.2690    24.3220    25.1360    -1.1510 
  125.6250     2.5620    37.8370    21.7270    19.4400    21.8060    25.1850    -1.1650 
  125.7500     2.5400    37.6350    21.8410    19.4910    19.2450    25.1810    -1.2000 
  125.8750     2.5070    37.8550    21.8400    19.4760    18.9600    25.1180    -1.2360 
  126.0000     2.4960    38.7040    21.8760    19.5100    19.8340    25.0290    -1.2310 
  126.1250     2.5220    39.4950    22.1080    19.7290    19.8750    24.9890    -1.1950 
  126.2500     2.5680    39.2830    22.4970    20.1180    19.5830    24.9910    -1.2070 
  126.3750     2.6050    38.1050    22.9140    20.5740    19.3470    24.9860    -1.2560 
  126.5000     2.6210    37.0010    23.1810    20.9370    20.3370    24.9960    -1.2930 
  126.6250     2.6230    36.3400    23.0840    20.9940    20.0940    25.0150    -1.2750 
  126.7500     2.6160    35.9190    22.6240    20.7100    20.2200    25.0490    -1.2380 
  126.8750     2.5960    36.6010    21.9020    20.1460    19.2460    25.1060    -1.2110 
  127.0000     2.5660    38.7900    21.1350    19.4810    19.5890    25.1450    -1.2270 
  127.1250     2.5320    40.0100    20.6460    18.9990    20.9470    25.1540    -1.2590 
  127.2500     2.5090    39.4940    20.5690    18.8620    18.9950    25.1410    -1.2420 
  127.3750     2.5190    38.5240    20.8940    19.1040    17.9270    25.1100    -1.1850 
  127.5000     2.5490    38.1890    21.4640    19.6320    18.8070    25.0680    -1.1300 
  127.6250     2.5790    36.5910    21.9950    20.2230    20.7160    25.0440    -1.0950 
  127.7500     2.5920    34.0810    22.2490    20.6240    22.0300    25.0560    -1.0690 
  127.8750     2.5930    34.1890    22.1540    20.7190    21.6510    25.0750    -1.0480 
  128.0000     2.5950    37.1990    21.7910    20.5290    19.7880    25.0820    -1.0210 
  128.1250     2.5950    38.7060    21.3730    20.2030    19.1010    25.0890    -0.9920 
  128.2500     2.5880    37.1270    21.1340    19.9660    18.6270    25.1200    -0.9600 
  128.3750     2.5860    35.1930    21.1610    19.9230    18.2890    25.1430    -0.9330 
  128.5000     2.5990    35.2530    21.4080    20.0640    18.4300    25.1360    -0.9360 
  128.6250     2.6200    36.4110    21.7060    20.2720    20.0760    25.1020    -0.9760 
