~V
VERS. 2.00: Ver 2.00
~W
STRT.M 56.0000:
STOP.M 269.0000:
STEP.M 0.1250:
NULL. -999.2500:
UWI. F11148:
~C
DEPT.M :
GR.API :
RML.OHMM :
RI. :
RXO.OHMM :
SP.MV :
DEN.GM/CC :
CALI.CM :
~A
# ...
  247.2500    66.8970    14.0330    10.8490    13.3310   -12.5230     2.4680    24.4050 
  247.3750    66.6160    14.4350    11.2030    13.1600   -12.4760     2.4830    24.3990 
  247.5000    66.3300    14.9330    11.6350    13.8140   -12.4230     2.4910    24.3220 
  247.6250    64.5900    15.4830    12.1200    14.4320   -12.3740     2.4910    24.2520 
  247.7500    61.4280    15.9540    12.5730    14.2690   -12.3980     2.4810    24.3010 
  247.8750    61.1570    16.2070    12.8810    14.0230   -12.4740     2.4710    24.4030 
  248.0000    64.4210    16.1500    12.9550    14.7070   -12.5640     2.4670    24.4770 
  248.1250    67.3870    15.7560    12.7520    15.0870   -12.6230     2.4630    24.5550 
  248.2500    66.2690    15.0470    12.2620    14.9980   -12.6280     2.4550    24.6410 
  248.3750    64.6250    14.2300    11.6440    13.1560   -12.6350     2.4420    24.6750 
  248.5000    64.9310    13.4850    11.0400    11.5910   -12.6840     2.4280    24.6890 
  248.6250    66.2840    12.9720    10.5780    10.3760   -12.7930     2.4130    24.7430 
  248.7500    67.9680    12.8250    10.3750     9.9210   -12.9070     2.4000    24.9050 
  248.8750    69.1720    12.9010    10.3590    10.5390   -12.9880     2.3870    25.1900 
  249.0000    68.4410    12.9910    10.3990    11.5910   -13.0360     2.3810    25.4020 
  249.1250    66.3500    12.8870    10.3450    12.7550   -13.0600     2.3900    25.2910 
  249.2500    64.1430    12.4970    10.1030    13.3880   -13.0790     2.4100    24.9550 
  249.3750    61.3830    12.0480     9.8040    11.5730   -13.0690     2.4180    24.6870 
  249.5000    58.0810    11.8260     9.6270     9.3910   -13.0140     2.4060    24.5720 
  249.6250    57.4100    12.0730     9.7400     9.9020   -12.9130     2.3890    24.6390 
  249.7500    61.1850    12.9450    10.2990    16.4570   -12.7830     2.3810    24.7880 
  249.8750    64.8370    14.1670    11.1830    26.9500   -12.6710     2.3820    24.8300 
  250.0000    66.9140    15.4230    12.2100    28.3580   -12.6010     2.3940    24.7880 
  250.1250    68.6840    16.3830    13.1180    19.6760   -12.5700     2.4170    24.6610 
  250.2500    69.6270    16.7730    13.6120    15.9380   -12.5790     2.4420    24.5540 
  250.3750    68.8560    16.7540    13.7350    14.4370   -12.6060     2.4530    24.4800 
  250.5000    68.6040    16.5300    13.6260    13.7750   -12.6420     2.4450    24.4630 
  250.6250    69.9600    16.2710    13.4310    13.2000   -12.6730     2.4260    24.4670 
  250.7500    71.2010    16.0930    13.2630    15.4690   -12.7260     2.4100    24.4460 
  250.8750    70.6760    16.0570    13.1890    20.8720   -12.7820     2.4010    24.4300 
  251.0000    69.7460    16.2070    13.2520    22.1170   -12.8330     2.3940    24.4210 
  251.1250    69.2170    16.5510    13.4660    20.1000   -12.8790     2.3860    24.3500 
  251.2500    69.6460    17.0490    13.8210    19.8460   -12.8890     2.3830    24.1960 
  251.3750    70.0730    17.5560    14.2200    19.1520   -12.8970     2.3810    24.0600 
  251.5000    69.1620    17.9500    14.5750    18.7500   -12.9500     2.3830    24.1080 
  251.6250    67.3770    18.1400    14.8020    18.3850   -13.0670     2.3990    24.2660 
  251.7500    68.3510    18.0720    14.8300    17.9360   -13.1870     2.4330    24.2610 
  251.8750    71.8110    17.8540    14.7120    17.7510   -13.2560     2.4570    24.1310 
  252.0000    75.0290    17.5930    14.5220    17.6190   -13.2690     2.4510    24.0240 
  252.1250    75.8700    17.3810    14.3380    17.0440   -13.2670     2.4270    24.1050 
  252.2500    74.7930    17.2920    14.2350    17.0980   -13.3160     2.4140    24.2150 
  252.3750    72.8370    17.3170    14.2370    17.4550   -13.3580     2.4160    24.2740 
  252.5000    70.2610    17.4550    14.3560    16.9690   -13.3410     2.4160    24.3380 
  252.6250    67.1540    17.7070    14.5990    16.8660   -13.2660     2.3990    24.4660 
  252.7500    65.2480    18.0920    14.9760    17.8600   -13.0950     2.3810    24.5700 
  252.8750    66.0170    18.5650    15.4420    18.6520   -12.9420     2.3870    24.5860 
  253.0000    67.8690    19.0700    15.9500    20.2910   -12.8530     2.4190    24.4690 
  253.1250    68.1240    19.5370    16.4420    23.0540   -12.7520     2.4560    24.3240 
  253.2500    67.2120    19.8570    16.8260    22.0550   -12.6270     2.4780    24.3270 
  253.3750    66.7710    19.9600    17.0260    19.6110   -12.5380     2.4890    24.4240 
  253.5000    66.6130    19.7680    16.9620    18.2870   -12.4810     2.5000    24.4610 
  253.6250    66.3760    19.2250    16.5720    18.4040   -12.4340     2.5090    24.4380 
  253.7500    66.2600    18.2940    15.8140    19.8210   -12.4350     2.5090    24.5270 
  253.8750    65.7530    17.1770    14.8610    18.9690   -12.4790     2.4980    24.6460 
  254.0000    65.0600    16.0840    13.8920    14.8770   -12.5090     2.4810    24.7710 
  254.1250    63.6400    15.2390    13.0910    11.1620   -12.5610     2.4660    24.8990 
  254.2500    62.0400    14.8770    12.6550    11.4060   -12.6250     2.4550    24.9970 
  254.3750    62.1750    14.9690    12.5890    13.8650   -12.6820     2.4430    25.0420 
  254.5000    63.8340    15.4370    12.8620    18.2810   -12.7120     2.4330    25.0610 
  254.6250    65.1510    16.1300    13.3840    22.9960   -12.7180     2.4320    25.0680 
  254.7500    65.5300    16.8490    14.0140    24.3050   -12.7360     2.4440    25.0030 
  254.8750    66.8630    17.4360    14.5850    20.3960   -12.6750     2.4550    24.9050 
  255.0000    68.5380    17.8600    15.0310    16.5870   -12.5360     2.4640    24.8180 
  255.1250    68.0090    18.1810    15.3710    13.7740   -12.3810     2.4790    24.7860 
  255.2500    65.7790    18.5280    15.6950    13.0710   -12.2040     2.5020    24.7440 
  255.3750    65.6650    18.9910    16.0900    14.3240   -12.0360     2.5170    24.7230 
  255.5000    67.8920    19.5660    16.5700    17.9420   -11.8820     2.5210    24.6930 
  255.6250    70.1350    20.1540    17.0740    23.2280   -11.7270     2.5160    24.6420 
  255.7500    69.9300    20.5430    17.4340    25.7420   -11.5900     2.5020    24.6100 
  255.8750    68.9420    20.5980    17.5320    25.7050   -11.4700     2.4850    24.6760 
  256.0000    68.8590    20.2850    17.3270    25.2100   -11.4010     2.4760    24.7280 
  256.1250    69.6280    19.6890    16.8790    23.9580   -11.3840     2.4860    24.7370 
  256.2500    69.7730    18.9740    16.3110    19.4170   -11.3720     2.5100    24.7290 
  256.3750    67.7140    18.3150    15.7630    16.0350   -11.3350     2.5300    24.7270 
  256.5000    64.9190    17.7600    15.2830    15.1840   -11.3210     2.5320    24.7270 
  256.6250    63.8120    17.2860    14.8620    15.6230   -11.3460     2.5210    24.7220 
  256.7500    64.9900    16.8320    14.4710    14.6350   -11.3580     2.5130    24.6390 
  256.8750    66.4380    16.3530    14.0810    13.3950   -11.3950     2.5150    24.4780 
  257.0000    67.1820    15.8610    13.6950    12.2750   -11.4130     2.5180    24.3750 
  257.1250    67.5190    15.3990    13.3380    10.6290   -11.4060     2.5140    24.3520 
  257.2500    67.6100    15.0320    13.0460     9.6580   -11.4150     2.5020    24.4500 
  257.3750    67.1150    14.7670    12.8200     9.3640   -11.4240     2.4920    24.6110 
  257.5000    66.9020    14.5960    12.6600     9.2850   -11.4560     2.4820    24.7730 
  257.6250    67.6760    14.5090    12.5630     9.3530   -11.4480     2.4730    24.8790 
  257.7500    67.7600    14.5230    12.5490     9.5000   -11.4140     2.4680    24.9420 
  257.8750    66.4460    14.6400    12.6190     9.5140   -11.3890     2.4690    24.9950 
  258.0000    65.7910    14.8710    12.7840     9.5120   -11.4100     2.4710    25.0080 
  258.1250    65.7910    15.2050    13.0380    10.4480   -11.4280     2.4740    24.9960 
  258.2500    65.7910    15.6270    13.3740    14.1430   -11.4510     2.4750    25.0550 
  258.3750    65.7910    16.0960    13.7520    18.3620   -11.4950     2.4730    25.1010 
