~V
VERS. 2.00: Ver 2.00
~W
STRT.M 62.0000:
STOP.M 277.0000:
STEP.M 0.1250:
NULL. -999.2500:
UWI. F11155:
~C
DEPT.M :
SP.MV :
DEN.GM/CC :
GR.API :
RML.OHMM :
RI. :
RXO.OHMM :
CALI.CM :
~A
# ...
  129.5000    -5.7050     2.5190    44.8890    22.4690    20.7000    19.0700    23.5260 
  129.6250    -5.6150     2.5290    48.1160    22.2240    20.5940    20.1920    23.6830 
  129.7500    -5.5330     2.5360    48.8060    21.7070    20.2230    20.4900    23.8120 
  129.8750    -5.4600     2.5360    47.7120    21.0920    19.6990    18.8100    23.9110 
  130.0000    -5.4090     2.5260    47.8490    20.5800    19.1890    17.3090    23.9510 
  130.1250    -5.4020     2.5080    50.5590    20.3350    18.8700    16.4700    24.0190 
  130.2500    -5.4290     2.4850    51.2840    20.4530    18.8900    17.2290    24.1770 
  130.3750    -5.4810     2.4640    48.0690    20.7920    19.1620    18.7370    24.2510 
  130.5000    -5.5420     2.4540    44.1400    21.1930    19.5580    19.4520    24.1670 
  130.6250    -5.6090     2.4620    43.5590    21.4950    19.9210    19.4450    23.9040 
  130.7500    -5.6850     2.4840    45.1740    21.5290    20.0820    19.4700    23.4940 
  130.8750    -5.7590     2.5010    45.6550    21.3110    20.0210    18.6210    23.0710 
  131.0000    -5.8180     2.5070    45.9030    20.9050    19.7650    18.4190    22.8100 
  131.1250    -5.8720     2.5030    46.7670    20.3750    19.3650    19.1100    22.8340 
  131.2500    -5.9360     2.4940    46.8250    19.7970    18.8640    19.1880    23.0920 
  131.3750    -6.0180     2.4850    47.1690    19.2760    18.3610    18.3150    23.3220 
  131.5000    -6.1230     2.4770    49.2400    18.9140    17.9580    17.1180    23.3990 
  131.6250    -6.2440     2.4630    51.4820    18.8090    17.7560    15.9840    23.3160 
  131.7500    -6.3520     2.4390    51.5630    19.0850    17.8860    15.8200    23.3020 
  131.8750    -6.4700     2.4200    51.9610    19.6630    18.3120    17.0350    23.3780 
  132.0000    -6.6010     2.4160    53.3530    20.4170    18.9590    18.9780    23.5170 
  132.1250    -6.7380     2.4220    53.9230    21.1790    19.6950    20.3860    23.6710 
  132.2500    -6.8500     2.4190    52.8530    21.7880    20.3630    20.6200    23.7960 
  132.3750    -6.9490     2.4060    52.6180    22.2220    20.8930    20.4310    23.8650 
  132.5000    -7.0390     2.3930    54.9720    22.5240    21.2810    20.6320    23.8300 
  132.6250    -7.1110     2.3950    59.8910    22.7600    21.5670    21.3780    23.6980 
  132.7500    -7.1550     2.4140    63.3060    22.9470    21.7720    22.7570    23.6320 
  132.8750    -7.1440     2.4350    63.9920    23.0610    21.8980    23.0240    23.5700 
  133.0000    -7.0740     2.4450    63.7890    23.0500    21.9060    22.3370    23.4390 
  133.1250    -6.9460     2.4470    63.5810    22.8780    21.7650    21.6190    23.3170 
  133.2500    -6.7830     2.4470    61.1650    22.5450    21.4540    20.6180    23.3410 
  133.3750    -6.6040     2.4440    56.6860    22.1330    21.0620    19.6290    23.5380 
  133.5000    -6.4350     2.4370    53.7660    21.7060    20.6580    19.4130    23.9410 
  133.6250    -6.2990     2.4220    53.1360    21.2970    20.2820    19.4940    24.3720 
  133.7500    -6.2300     2.4020    54.5660    20.9110    19.9440    19.8120    24.5410 
  133.8750    -6.2530     2.3910    59.2160    20.5340    19.6240    20.5210    24.3930 
  134.0000    -6.3540     2.3960    63.8140    20.1620    19.3140    20.2050    24.1250 
  134.1250    -6.5060     2.4110    63.5310    19.8400    19.0340    18.7790    24.0000 
  134.2500    -6.7080     2.4170    57.0000    19.6810    18.8680    17.1700    24.0240 
  134.3750    -6.9240     2.4060    51.7490    19.7180    18.8610    16.4270    24.0190 
  134.5000    -7.1460     2.3840    52.2410    19.9420    19.0170    16.3850    23.9410 
  134.6250    -7.3670     2.3560    56.6400    20.2630    19.2840    17.1460    23.7250 
  134.7500    -7.5710     2.3330    60.2490    20.4920    19.5270    18.9410    23.2870 
  134.8750    -7.7180     2.3200    60.0350    20.4630    19.5740    21.0920    22.9280 
  135.0000    -7.8090     2.3100    56.8740    20.0990    19.3180    22.6690    22.8190 
  135.1250    -7.8670     2.2980    53.1190    19.4510    18.7610    21.0680    22.8180 
  135.2500    -7.9060     2.2910    50.4730    18.6860    18.0210    19.0460    22.7590 
  135.3750    -7.9410     2.2980    50.6870    18.0430    17.3340    16.4870    22.7290 
  135.5000    -7.9670     2.3150    52.0960    17.6830    16.8650    14.7280    22.7410 
  135.6250    -7.9830     2.3320    52.1950    17.6660    16.7000    14.0320    22.7780 
  135.7500    -7.9850     2.3510    50.7120    18.0040    16.8880    14.5710    22.6940 
  135.8750    -7.9990     2.3750    49.9470    18.5160    17.2870    15.1070    22.5930 
  136.0000    -8.0310     2.4030    50.4650    19.0420    17.7660    15.7730    22.5100 
  136.1250    -8.0750     2.4310    50.5740    19.4320    18.1830    16.1190    22.4770 
  136.2500    -8.1190     2.4470    48.5500    19.5480    18.4010    16.0240    22.5090 
  136.3750    -8.1450     2.4470    45.1830    19.4470    18.4280    16.4320    22.5350 
  136.5000    -8.1250     2.4390    42.6530    19.2210    18.3230    16.1560    22.5730 
  136.6250    -8.0690     2.4290    44.7170    18.9760    18.1710    15.3580    22.7760 
  136.7500    -8.0220     2.4120    50.2040    18.8030    18.0490    15.7450    23.1090 
  136.8750    -8.0170     2.3910    52.5250    18.6940    17.9740    16.4590    23.4240 
  137.0000    -8.0580     2.3800    50.2640    18.5980    17.9200    16.6610    23.6110 
  137.1250    -8.1180     2.3890    47.0950    18.4330    17.8260    16.7550    23.6360 
  137.2500    -8.1910     2.4110    44.9490    18.0660    17.5760    15.6000    23.6550 
  137.3750    -8.3040     2.4290    43.5240    17.4870    17.1270    14.9120    23.7260 
  137.5000    -8.4760     2.4420    45.5720    16.7180    16.4850    14.3510    23.7880 
  137.6250    -8.6850     2.4530    53.1460    15.8160    15.6930    13.8150    23.7830 
  137.7500    -8.9020     2.4570    61.0130    14.8510    14.8010    13.1790    23.7440 
  137.8750    -9.0850     2.4540    63.3650    13.9120    13.9050    12.9150    23.7030 
  138.0000    -9.2220     2.4460    61.7080    13.0950    13.0860    12.6550    23.7400 
  138.1250    -9.3200     2.4310    60.0240    12.5070    12.4430    12.1850    23.9470 
  138.2500    -9.3840     2.4080    60.8470    12.3360    12.1420    11.4100    24.2200 
  138.3750    -9.4240     2.3900    61.2880    12.6030    12.2150    11.2530    24.2540 
  138.5000    -9.4540     2.3900    59.5460    13.3000    12.6820    11.8280    24.2170 
  138.6250    -9.4790     2.4140    56.0560    14.3630    13.5150    13.3280    24.3260 
  138.7500    -9.5030     2.4500    51.7100    15.6580    14.6510    14.9010    24.5330 
  138.8750    -9.5400     2.4790    47.5120    16.8960    15.8450    16.0510    24.6430 
  139.0000    -9.6040     2.4940    45.7870    17.8230    16.8470    16.5140    24.6740 
  139.1250    -9.7230     2.4980    49.8490    18.2420    17.4300    16.8880    24.6530 
  139.2500    -9.8940     2.4950    57.3760    18.0490    17.4160    17.1060    24.5000 
  139.3750   -10.0830     2.4870    61.6580    17.5270    17.0090    17.0250    24.2490 
  139.5000   -10.2770     2.4690    62.6060    16.9630    16.4510    16.0720    23.9960 
  139.6250   -10.4490     2.4440    63.9360    16.6380    16.0030    14.6840    23.8850 
  139.7500   -10.5800     2.4200    68.1980    16.7830    15.9120    14.7950    23.9450 
  139.8750   -10.6720     2.4060    72.9530    17.3130    16.1760    15.5490    23.9500 
  140.0000   -10.7090     2.4000    77.3680    18.1060    16.7320    17.6010    23.8570 
  140.1250   -10.6810     2.3980    80.5750    18.9970    17.4660    20.5860    23.8870 
  140.2500   -10.6170     2.3950    80.2120    19.8300    18.2350    21.9030    24.3370 
  140.3750   -10.5220     2.3920    77.7620    20.5510    18.9430    20.4460    24.8440 
  140.5000   -10.3870     2.3960    76.4750    21.1950    19.5870    19.5540    25.0230 
  140.6250   -10.2600     2.4070    76.6390    21.7860    20.1770    20.4450    24.7850 
