~V
VERS. 2.00: Ver 2.00
~W
STRT.M 55.0000:
STOP.M 240.0000:
STEP.M 0.1250:
NULL. -999.2500:
UWI. F11138:
~C
DEPT.M :
SP.MV :
DEN.GM/CC :
GR.API :
RML.OHMM :
RI. :
RXO.OHMM :
CALI.CM :
~A
# ...
  201.2500   -19.6470     2.3080    97.4210    10.1880     8.3700     8.8590    23.0520 
  201.3750   -19.7840     2.3320    97.4370    10.7260     8.7480    10.6890    23.6510 
  201.5000   -19.9340     2.3200    96.7170    11.0290     8.9890    11.5820    23.9970 
  201.6250   -20.1190     2.3000    96.9900    11.1040     9.0730    11.2880    24.0510 
  201.7500   -20.3000     2.2940    97.9930    11.1430     9.1040    11.2740    24.1040 
  201.8750   -20.4860     2.3070    98.3910    11.3120     9.1900    11.3750    24.1430 
  202.0000   -20.6240     2.3280    96.8280    11.7210     9.4140    11.3690    24.0360 
  202.1250   -20.6760     2.3450    95.2780    12.4170     9.8470    11.4940    23.8840 
  202.2500   -20.5720     2.3560    95.9960    13.2560    10.4190    11.9470    23.6660 
  202.3750   -20.4220     2.3680    97.7460    14.0750    11.0310    12.5370    23.4740 
  202.5000   -20.1900     2.3850    98.3860    14.6920    11.5430    12.7620    23.3440 
  202.6250   -19.9050     2.4020   100.7540    14.8920    11.7740    13.0800    23.2390 
  202.7500   -19.5590     2.4080   106.3530    14.7090    11.7150    13.2550    23.2150 
  202.8750   -19.1340     2.4050   111.7350    14.2550    11.4280    13.1910    23.2450 
  203.0000   -18.7260     2.4050   112.3510    13.7070    11.0300    12.2790    23.3630 
  203.1250   -18.4230     2.4160   107.9640    13.2740    10.6600    11.1080    23.4180 
  203.2500   -18.2890     2.4240   103.6840    13.0530    10.4090    10.3800    23.3770 
  203.3750   -18.2140     2.4210   101.5980    13.0720    10.3220    10.3750    23.2850 
  203.5000   -18.2130     2.4140   100.9400    13.3240    10.4230    10.4750    23.2210 
  203.6250   -18.2450     2.4180    99.9250    13.8080    10.7510    10.6570    23.2240 
  203.7500   -18.2710     2.4360    97.1890    14.4270    11.2420    11.0910    23.2060 
  203.8750   -18.2600     2.4590    94.5400    15.0910    11.8300    11.8740    23.1400 
  204.0000   -18.0720     2.4750    93.1590    15.6730    12.4040    13.0210    23.0580 
  204.1250   -17.7000     2.4750    92.6950    15.9480    12.7690    13.7600    23.0970 
  204.2500   -17.1290     2.4690    93.6850    15.7750    12.7820    13.3690    23.1110 
  204.3750   -16.4540     2.4660    96.5880    15.0650    12.3520    12.7440    23.0560 
  204.5000   -15.6430     2.4610    99.5040    13.8610    11.5030    12.5010    22.9750 
  204.6250   -14.7020     2.4410    97.9040    12.3440    10.3680    11.2680    22.7800 
  204.7500   -13.7570     2.3940    92.5210    10.8610     9.2260     9.5520    22.4800 
  204.8750   -12.7850     2.3170    85.6790     9.6370     8.2540     7.7160    22.1620 
  205.0000   -11.8470     2.2170    78.2320     8.7960     7.5550     6.3640    22.1730 
  205.1250   -10.8520     2.1370    71.4630     8.3960     7.1890     5.9710    22.5410 
  205.2500    -9.8600     2.1140    66.8380     8.2640     7.0500     5.9440    23.1490 
  205.3750    -8.9550     2.1480    65.7520     8.2810     7.0560     5.9170    23.4940 
  205.5000    -8.2950     2.2100    69.4120     8.3410     7.1250     5.7960    23.0730 
  205.6250    -7.9250     2.2580    76.5990     8.3680     7.1820     5.7360    21.9770 
  205.7500    -7.6450     2.2840    83.3260     8.3650     7.1970     5.6940    20.8730 
  205.8750    -7.5100     2.3010    87.6920     8.3150     7.1780     5.6300    20.0510 
  206.0000    -7.4950     2.3140    90.4210     8.1990     7.1360     5.5570    19.7920 
  206.1250    -7.7290     2.3190    91.8410     8.0760     7.0760     5.5510    20.1640 
  206.2500    -8.1600     2.3160    92.4330     7.9600     6.9990     5.6250    20.6180 
  206.3750    -8.6200     2.3070    93.9360     7.8420     6.8990     5.7630    20.9340 
  206.5000    -9.0090     2.2980    96.8650     7.7240     6.7740     5.9490    21.2070 
  206.6250    -9.2360     2.2920    99.4140     7.6260     6.6260     6.0550    21.5260 
  206.7500    -9.4450     2.2930   100.0960     7.5750     6.4750     6.0370    21.7670 
  206.8750    -9.6540     2.3020   100.2620     7.5260     6.3460     5.9950    22.0070 
  207.0000    -9.8570     2.3160   102.3100     7.4980     6.2650     5.9580    22.2530 
  207.1250   -10.0910     2.3300   104.9800     7.5260     6.2690     6.0080    22.4580 
  207.2500   -10.2690     2.3370   105.2570     7.6280     6.3620     6.1990    22.6870 
  207.3750   -10.4390     2.3360   103.7450     7.8320     6.5570     6.5860    22.9710 
  207.5000   -10.5590     2.3250   103.6750     8.1780     6.8760     7.0390    23.2070 
  207.6250   -10.6380     2.3080   106.2960     8.7810     7.3920     7.6360    23.3210 
  207.7500   -10.7510     2.2880   109.3260     9.7000     8.1470     8.3000    23.4130 
  207.8750   -10.8280     2.2680   112.0610    11.0140     9.2030     9.1140    23.5020 
  208.0000   -10.8760     2.2510   111.0600    12.7300    10.5860    10.2580    23.5300 
  208.1250   -10.8280     2.2440   103.1930    14.7050    12.2400    12.3290    23.5220 
  208.2500   -10.7360     2.2450    94.2550    16.5020    13.8590    15.1280    23.4590 
  208.3750   -10.6260     2.2460    90.4610    17.6830    15.1020    18.2380    23.3750 
  208.5000   -10.4800     2.2480    91.4740    17.9280    15.6650    21.1210    23.4620 
  208.6250   -10.3650     2.2520    90.5750    17.1840    15.3750    21.3530    23.6050 
  208.7500   -10.3270     2.2590    87.1810    16.2160    14.7420    19.0100    23.6840 
  208.8750   -10.3160     2.2630    83.8600    15.7470    14.3170    16.3340    23.6950 
  209.0000   -10.3150     2.2560    80.9880    16.3010    14.5580    14.9040    23.6860 
  209.1250   -10.3480     2.2360    78.4590    18.2290    15.8640    15.5760    23.7030 
  209.2500   -10.4030     2.2120    77.4530    21.0540    18.0200    18.7540    23.7620 
  209.3750   -10.5130     2.1930    78.1680    24.2030    20.6760    24.1790    23.8390 
  209.5000   -10.6990     2.1840    77.9610    26.9440    23.2610    28.8770    23.9320 
  209.6250   -10.8630     2.1880    76.3700    28.3580    24.9430    30.9110    23.9760 
  209.7500   -10.9500     2.1990    75.5940    28.4040    25.4760    29.8970    24.0070 
  209.8750   -11.0870     2.2120    75.6160    27.4790    25.0480    27.2020    24.0550 
  210.0000   -11.2670     2.2230    75.0960    26.2730    24.1840    24.5640    24.1340 
  210.1250   -11.5140     2.2310    74.0140    25.4660    23.4740    24.5450    24.2200 
  210.2500   -11.8410     2.2330    74.1580    25.2230    23.1560    25.4820    24.2840 
  210.3750   -12.1400     2.2300    75.3100    25.4800    23.2400    26.4020    24.3120 
  210.5000   -12.4150     2.2240    76.7330    26.1010    23.6600    26.8660    24.3230 
  210.6250   -12.7910     2.2200    79.4190    26.9960    24.3910    27.4960    24.3330 
  210.7500   -13.1870     2.2240    83.3220    28.0890    25.3700    28.1800    24.3650 
  210.8750   -13.5090     2.2360    85.9910    29.4120    26.6210    28.7750    24.4220 
  211.0000   -13.7880     2.2550    84.8710    30.9800    28.1470    29.7250    24.4840 
  211.1250   -13.9820     2.3040    80.8950    32.6220    29.8120    30.9600    24.5430 
  211.2500   -14.1170     2.3850    77.1410    33.8220    31.1660    32.7940    24.5280 
  211.3750   -14.2030     2.4810    74.6220    33.9140    31.6090    35.1140    24.3520 
  211.5000   -14.1910     2.5520    73.9850    32.2990    30.5410    39.3200    23.9790 
  211.6250   -14.0470     2.5410    75.9500    28.5380    27.4190    42.7110    23.5330 
  211.7500   -13.8550     2.4700    79.1420    23.6380    23.0580    46.4250    23.1110 
  211.8750   -13.6860     2.3880    82.6680    18.6630    18.4280    52.9670    22.7960 
  212.0000   -13.5190     2.3300    85.2220    14.4870    14.4060    51.8680    22.6680 
  212.1250   -13.3100     2.3050    85.1010    11.6740    11.5840    30.9460    22.7750 
  212.2500   -13.0370     2.2850    83.1970     9.9190     9.7280    15.9780    23.0510 
  212.3750   -12.7180     2.2610    80.3390     8.9600     8.6210     9.3090    23.2960 
