~V
VERS. 2.00: Ver 2.00
~W
STRT.M 50.0000:
STOP.M 245.0000:
STEP.M 0.1250:
NULL. -999.2500:
UWI. F11135:
~C
DEPT.M :
GR.API :
RML.OHMM :
RI. :
RXO.OHMM :
CALI.CM :
SP.MV :
DEN.GM/CC :
~A
# ...
   61.2500    34.9830     0.6220     0.3890     1.0680    25.0410    91.4940     1.9880 
   61.3750    33.8120     0.4350     0.3670     1.0830    25.0410    89.6390     1.9880 
   61.5000    32.8240     0.3140     0.3520     1.1000    25.0410    87.1710     1.9900 
   61.6250    34.1390     0.2580     0.3530     1.1100    25.0400    83.5560     1.9860 
   61.7500    36.0670     0.2710     0.3620     1.1180    25.0370    79.2700     1.9710 
   61.8750    36.7270     0.3550     0.3710     1.1200    25.0380    74.4210     1.9420 
   62.0000    35.8670     0.4660     0.3710     1.1120    25.0400    68.8550     1.9070 
   62.1250    35.4400     0.5580     0.3550     1.0880    25.0390    61.9130     1.8880 
   62.2500    36.2840     0.6190     0.3250     1.0550    25.0240    53.3350     1.9100 
   62.3750    37.0490     0.5940     0.2850     1.0330    24.9580    43.2820     1.9860 
   62.5000    37.3480     0.3970     0.2440     1.0410    24.8640    32.6320     2.1070 
   62.6250    37.6650     0.1640     0.2100     1.0850    24.7490    21.9530     2.2250 
   62.7500    38.5770     0.0600     0.1810     1.1340    24.6190    11.2890     2.2820 
   62.8750    40.1890     0.0390     0.1530     1.1940    24.4650     1.1330     2.2640 
   63.0000    42.7280     0.0540     0.1230     1.2460    24.4350    -7.5090     2.2040 
   63.1250    45.1050     0.1170     0.1100     1.3810    24.7990   -12.7790     2.1540 
   63.2500    46.2240     0.2830     0.1550     1.9880    25.4290   -15.5650     2.1400 
   63.3750    48.2860     0.6890     0.3250     3.4660    26.5480   -16.8410     2.1590 
   63.5000    52.9110     1.6290     0.7080     4.9080    28.6700   -17.1090     2.1930 
   63.6250    59.9940     3.4670     1.4410     5.6590    28.5610   -16.4420     2.2200 
   63.7500    68.6990     5.0520     2.4130     5.7950    26.1280   -15.3050     2.2330 
   63.8750    78.7200     5.4290     3.3790     5.6940    25.5300   -14.2320     2.2390 
   64.0000    87.6120     5.1510     4.1350     5.6660    25.4230   -13.9400     2.2460 
   64.1250    89.0120     4.8860     4.6940     5.7820    25.3100   -15.5780     2.2470 
   64.2500    85.0260     4.8190     5.2190     6.2380    24.8920   -17.9710     2.2370 
   64.3750    80.7330     4.9020     5.7250     7.0120    24.4370   -20.1430     2.2140 
   64.5000    78.4550     4.9540     6.1220     7.7050    24.2100   -22.0500     2.1870 
   64.6250    77.0370     4.6990     6.2280     8.0910    23.9570   -23.6380     2.1750 
   64.7500    77.3600     4.2050     6.0520     8.1900    23.8710   -24.9730     2.1910 
   64.8750    81.0920     3.6710     5.7510     7.9450    24.0950   -26.0650     2.2390 
   65.0000    84.0360     3.2900     5.5990     7.2060    24.5460   -27.0300     2.3140 
   65.1250    81.0360     3.4230     5.9820     6.8120    24.9320   -27.9050     2.3880 
   65.2500    75.6290     4.7390     7.0400     8.6650    25.0230   -28.8200     2.4280 
   65.3750    71.1250     8.4210     8.8330    14.5150    25.0330   -29.8220     2.4150 
   65.5000    66.8320    13.2310    11.1380    24.3010    25.0300   -30.9410     2.3540 
   65.6250    61.7740    14.5030    12.9970    33.6050    25.0080   -32.2400     2.2720 
   65.7500    58.6760    14.2890    13.3570    33.1200    24.9000   -33.6230     2.2050 
   65.8750    56.3790    14.0280    12.1400    21.9430    24.7710   -35.0230     2.1650 
   66.0000    54.2790    13.9160    10.2230    12.6930    24.7380   -36.3040     2.1520 
   66.1250    54.5590    13.6690     8.5520     9.8520    24.7300   -37.4090     2.1560 
   66.2500    57.4260    12.8120     7.4030     9.3900    24.7070   -38.2690     2.1610 
   66.3750    58.8300    11.1340     6.7510     9.4530    24.6050   -38.9690     2.1610 
   66.5000    57.1480     9.0770     6.4880     9.3000    24.4290   -39.4950     2.1540 
   66.6250    57.4410     7.5790     6.5170     9.0840    24.2570   -39.8600     2.1400 
   66.7500    59.1290     6.9360     6.6810     8.9570    23.9640   -40.1450     2.1250 
   66.8750    58.9540     6.9800     6.9220     8.9360    23.7680   -40.4210     2.1160 
   67.0000    56.8360     7.3020     7.2190     9.1130    23.6540   -40.7570     2.1170 
   67.1250    58.2170     7.5820     7.5760     9.5550    23.6520   -41.1280     2.1310 
   67.2500    62.9030     7.7600     7.9530    10.5860    23.6940   -41.5560     2.1480 
   67.3750    65.6140     7.8590     8.2840    12.6820    23.7170   -41.9620     2.1570 
   67.5000    65.2680     8.0030     8.4790    14.3600    23.7250   -42.3550     2.1540 
   67.6250    62.9270     8.3620     8.4470    12.8340    23.7940   -42.6760     2.1390 
   67.7500    59.8520     8.7880     8.2370    10.7860    23.8510   -42.9680     2.1240 
   67.8750    56.0430     8.9580     7.9200     9.7380    23.9530   -43.1880     2.1130 
   68.0000    51.9420     8.6960     7.5860     9.3490    24.0780   -43.3370     2.1100 
   68.1250    51.9790     8.1790     7.3240     9.1460    24.1920   -43.4390     2.1110 
   68.2500    54.2740     7.8130     7.1520     9.0200    24.3070   -43.4670     2.1140 
   68.3750    55.0080     7.6910     7.0670     9.0940    24.3290   -43.4690     2.1180 
   68.5000    53.3610     7.6760     7.0490     9.2110    24.3320   -43.4390     2.1250 
   68.6250    53.0510     7.5810     7.0860     9.2700    24.3320   -43.4010     2.1330 
   68.7500    55.8210     7.3800     7.1460     9.3240    24.3300   -43.3530     2.1380 
   68.8750    57.0200     7.1210     7.2070     9.3890    24.3220   -43.3190     2.1410 
   69.0000    53.1880     6.8800     7.2330     9.4050    24.2680   -43.2670     2.1430 
   69.1250    48.3370     6.7110     7.1810     9.3430    24.2570   -43.2300     2.1480 
   69.2500    48.5790     6.5420     7.0650     9.2080    24.2420   -43.2120     2.1540 
   69.3750    54.1100     6.3500     6.9280     8.7880    24.1930   -43.2250     2.1560 
   69.5000    61.5860     6.2120     6.8190     7.9810    24.1260   -43.2970     2.1530 
   69.6250    65.9840     6.2240     6.7860     7.5280    24.1040   -43.4610     2.1440 
   69.7500    66.6580     6.3570     6.8310     8.0210    24.0610   -43.6530     2.1380 
   69.8750    63.1850     6.5630     6.9390     9.0830    24.0050   -43.8770     2.1380 
   70.0000    57.1300     6.8250     7.0850     9.8290    23.9170   -44.1250     2.1460 
   70.1250    54.2560     7.3070     7.2360    10.1020    23.8720   -44.3450     2.1560 
   70.2500    56.4140     8.0360     7.3570    10.3930    23.8640   -44.5520     2.1610 
   70.3750    60.9190     8.7490     7.4250    10.4890    23.8630   -44.6720     2.1580 
   70.5000    62.3270     9.2240     7.4300    10.1450    23.8620   -44.6920     2.1520 
   70.6250    58.6000     9.4220     7.3530     9.7420    23.8580   -44.5450     2.1500 
   70.7500    56.2600     9.4590     7.2120     9.7740    23.8460   -44.3190     2.1580 
   70.8750    57.9330     9.3960     7.0270     9.9640    23.8030   -44.0060     2.1720 
   71.0000    60.8370     9.2900     6.8330     9.8010    23.7950   -43.6650     2.1840 
   71.1250    61.1950     9.2160     6.6840     9.3680    23.7850   -43.3320     2.1840 
   71.2500    61.2900     9.2190     6.6040     9.0980    23.7990   -43.0480     2.1740 
   71.3750    62.4020     9.3030     6.5970     9.2390    23.8160   -42.8100     2.1600 
   71.5000    61.3740     9.4300     6.6400     9.9160    23.9170   -42.5770     2.1480 
   71.6250    59.4070     9.5160     6.6880    10.1270    23.9340   -42.4170     2.1440 
   71.7500    59.9980     9.5160     6.7010     9.9700    23.9440   -42.2810     2.1440 
   71.8750    62.7680     9.4370     6.6730     9.7290    23.9720   -42.2040     2.1440 
   72.0000    63.5210     9.3410     6.6240     9.4060    24.0330   -42.1550     2.1410 
   72.1250    59.4470     9.3210     6.5980     9.1110    24.0810   -42.1270     2.1370 
   72.2500    55.6560     9.4010     6.6150     9.3960    24.0950   -42.0390     2.1350 
   72.3750    55.5110     9.5420     6.6690     9.7710    24.0970   -41.9360     2.1290 
