~V
VERS. 2.00: Ver 2.00
~W
STRT.M 63.0000:
STOP.M 246.0000:
STEP.M 0.1250:
NULL. -999.2500:
UWI. F11137:
~C
DEPT.M :
DEN.GM/CC :
GR.API :
RML.OHMM :
RI. :
RXO.OHMM :
CALI.CM :
SP.MV :
~A
# ...
  220.5000     2.4490   100.2190     8.0300     7.1770     9.5730    24.6940    -6.7600 
  220.6250     2.4520   101.0300     8.1160     7.2580     9.8130    24.6880    -6.6810 
  220.7500     2.4570   103.6200     8.2190     7.3400     9.9500    24.6790    -6.6840 
  220.8750     2.4650   107.2050     8.3310     7.4100    10.1800    24.6840    -6.7610 
  221.0000     2.4710   105.9270     8.4270     7.4560    10.3340    24.7040    -6.8760 
  221.1250     2.4730   100.5100     8.4870     7.4700    10.2060    24.7200    -6.9990 
  221.2500     2.4720    96.4930     8.5000     7.4570    10.0260    24.7380    -7.1170 
  221.3750     2.4680    96.7970     8.4630     7.4260     9.9950    24.7760    -7.2120 
  221.5000     2.4630    97.1990     8.4030     7.3960     9.9010    24.8200    -7.2420 
  221.6250     2.4580    96.2810     8.3460     7.3730     9.8080    24.8320    -7.2500 
  221.7500     2.4500    95.2940     8.3080     7.3590     9.8460    24.8170    -7.1960 
  221.8750     2.4430    96.1930     8.3040     7.3490     9.8100    24.7790    -7.1220 
  222.0000     2.4390    98.9660     8.3310     7.3350     9.8220    24.7610    -7.1200 
  222.1250     2.4390   101.3700     8.3790     7.3220     9.8160    24.7570    -7.1730 
  222.2500     2.4400    99.2230     8.4290     7.3130     9.7910    24.7440    -7.2150 
  222.3750     2.4390    93.7150     8.4490     7.3190     9.8300    24.7490    -7.2130 
  222.5000     2.4360    91.2660     8.4350     7.3430     9.6860    24.7440    -7.1690 
  222.6250     2.4340    93.3950     8.4030     7.3920     9.8010    24.7500    -7.1290 
  222.7500     2.4340    95.5740     8.3800     7.4690    10.1380    24.7510    -7.1410 
  222.8750     2.4360    93.9650     8.3790     7.5640     9.9880    24.7340    -7.1440 
  223.0000     2.4350    92.2730     8.3740     7.6460     9.8590    24.7300    -6.9830 
  223.1250     2.4310    94.2780     8.3200     7.6720    10.0440    24.7460    -6.6100 
  223.2500     2.4240    98.9710     8.1760     7.5940    10.0030    24.7490    -6.1650 
  223.3750     2.4150   101.3680     7.8990     7.3530     9.4650    24.7490    -5.7440 
  223.5000     2.4070    97.4120     7.5200     6.9820     8.5350    24.7500    -5.3680 
  223.6250     2.3970    91.0630     7.0800     6.5350     7.7840    24.7520    -5.0390 
  223.7500     2.3870    87.1500     6.6360     6.0880     7.3310    24.7660    -4.6940 
  223.8750     2.3790    86.9190     6.2730     5.7290     6.9890    24.7530    -4.3690 
  224.0000     2.3750    88.2510     6.0320     5.4880     6.5550    24.7030    -4.1990 
  224.1250     2.3750    90.2670     5.9270     5.3730     6.3850    24.6190    -4.1810 
  224.2500     2.3810    93.4310     5.9420     5.3690     6.5830    24.5630    -4.2850 
  224.3750     2.3910    95.5110     6.0430     5.4520     6.9680    24.5560    -4.3960 
  224.5000     2.4030    95.1900     6.1570     5.5610     7.1810    24.5980    -4.4950 
  224.6250     2.4130    93.1440     6.2380     5.6530     7.2170    24.6620    -4.5990 
  224.7500     2.4190    89.6030     6.2660     5.7020     7.3990    24.7160    -4.7920 
  224.8750     2.4220    85.7320     6.2520     5.7080     7.4600    24.7570    -5.0390 
  225.0000     2.4280    81.2020     6.2520     5.7110     7.3870    24.7690    -5.2250 
  225.1250     2.4410    74.4340     6.3180     5.7520     7.2890    24.7980    -5.3560 
  225.2500     2.4600    66.2750     6.4890     5.8620     7.8180    24.8000    -5.4320 
  225.3750     2.4760    59.9120     6.7950     6.0770     8.3850    24.7610    -5.5210 
  225.5000     2.4830    56.9340     7.1850     6.3820     8.4650    24.6730    -5.5570 
  225.6250     2.4790    55.5210     7.6040     6.7540     7.9070    24.5940    -5.4890 
  225.7500     2.4670    55.3010     7.9830     7.1470     8.7080    24.5400    -5.3410 
  225.8750     2.4490    58.9260     8.2350     7.4710     9.7080    24.5780    -5.1580 
  226.0000     2.4270    63.0600     8.3480     7.6630     9.7730    24.5890    -4.9780 
  226.1250     2.4070    65.2930     8.3460     7.6990     9.6920    24.6010    -4.8390 
  226.2500     2.3930    67.2950     8.2870     7.6090     9.2430    24.6540    -4.7370 
  226.3750     2.3940    68.3390     8.2520     7.4740     8.1940    24.6290    -4.5370 
  226.5000     2.4050    65.9650     8.2930     7.4000     7.5890    24.5940    -4.3310 
  226.6250     2.4150    61.7330     8.4170     7.4330     8.0200    24.5960    -4.2070 
  226.7500     2.4080    61.2300     8.5930     7.5720     9.0950    24.6130    -4.0900 
  226.8750     2.3750    64.6560     8.7370     7.7480    11.1620    24.6380    -3.9930 
  227.0000     2.3310    67.4810     8.7610     7.8400    13.2740    24.6310    -3.9520 
  227.1250     2.2990    69.4140     8.6170     7.7620    12.8880    24.5680    -3.8930 
  227.2500     2.2980    70.1370     8.3240     7.5030    11.2580    24.4570    -3.7780 
  227.3750     2.3310    67.0960     7.9670     7.1300     9.8940    24.2730    -3.7510 
  227.5000     2.3760    63.1340     7.6740     6.7790     8.3580    24.1780    -3.7480 
  227.6250     2.4110    61.4990     7.5120     6.5340     6.7600    24.2880    -3.7040 
  227.7500     2.4260    61.9880     7.4940     6.4300     6.0850    24.5320    -3.6620 
  227.8750     2.4230    63.8560     7.6020     6.4770     6.0650    24.6730    -3.6030 
  228.0000     2.4170    66.4790     7.7640     6.6160     6.4820    24.7570    -3.5130 
  228.1250     2.4140    67.6370     7.9430     6.8010     7.4390    24.7940    -3.4370 
  228.2500     2.4140    66.4100     8.1180     6.9870     9.0420    24.7930    -3.3750 
  228.3750     2.4080    65.3610     8.2800     7.1340     9.8920    24.7910    -3.2210 
  228.5000     2.3960    65.2530     8.4250     7.2380     9.8000    24.7840    -3.1160 
  228.6250     2.3840    65.4510     8.5470     7.3090     9.6860    24.8040    -3.1620 
  228.7500     2.3850    66.6760     8.6360     7.3640     9.6520    24.8380    -3.2780 
  228.8750     2.4070    69.3150     8.6850     7.4160     9.6790    24.7390    -3.3620 
  229.0000     2.4410    70.3750     8.7030     7.4640     9.5810    24.5800    -3.4240 
  229.1250     2.4760    68.0220     8.7010     7.4920     9.3650    24.4810    -3.4960 
  229.2500     2.5040    62.7970     8.6880     7.4930     9.4010    24.4310    -3.5830 
  229.3750     2.5220    58.9580     8.6740     7.4680     9.9060    24.4390    -3.8010 
  229.5000     2.5310    61.4700     8.6630     7.4290    11.6880    24.4480    -4.0160 
  229.6250     2.5280    67.5600     8.6540     7.3890    14.4350    24.4510    -4.0580 
  229.7500     2.5130    70.8980     8.6380     7.3500    16.9780    24.5380    -3.9430 
  229.8750     2.4920    70.9600     8.5990     7.3060    16.4640    24.6290    -3.8300 
  230.0000     2.4760    71.0450     8.5320     7.2450    13.4570    24.6650    -3.7450 
  230.1250     2.4680    69.9780     8.4440     7.1710    10.7090    24.6390    -3.6730 
  230.2500     2.4670    67.5730     8.3510     7.0970     9.2890    24.6360    -3.6320 
  230.3750     2.4690    67.8330     8.2780     7.0490     9.2530    24.6940    -3.5340 
  230.5000     2.4690    69.6120     8.2280     7.0370     9.6600    24.7360    -3.4430 
  230.6250     2.4690    69.7880     8.1870     7.0470    10.2870    24.7590    -3.4470 
  230.7500     2.4660    69.4630     8.1210     7.0480    10.4740    24.7440    -3.5400 
  230.8750     2.4580    71.3910     7.9890     6.9860     9.9370    24.7010    -3.6460 
  231.0000     2.4460    72.8310     7.7940     6.8440     8.7800    24.6580    -3.7420 
  231.1250     2.4330    70.6310     7.5550     6.6300     7.7280    24.6240    -3.8380 
  231.2500     2.4220    66.0990     7.3100     6.3770     7.3750    24.5850    -3.9490 
  231.3750     2.4170    63.2180     7.1020     6.1360     6.8250    24.5600    -4.0180 
  231.5000     2.4170    62.3070     6.9450     5.9430     6.3160    24.5310    -4.0530 
  231.6250     2.4180    61.6870     6.8380     5.8110     5.8840    24.4950    -4.0790 
