~V
VERS. 2.00: Ver 2.00
~W
STRT.M 56.0000:
STOP.M 269.0000:
STEP.M 0.1250:
NULL. -999.2500:
UWI. F11148:
~C
DEPT.M :
GR.API :
RML.OHMM :
RI. :
RXO.OHMM :
SP.MV :
DEN.GM/CC :
CALI.CM :
~A
# ...
  258.5000    65.7910    16.5960    14.1560    20.7510   -11.5300     2.4640    25.1230 
  258.6250    65.7910    17.1200    14.5790    22.7090   -11.6290     2.4480    25.1400 
  258.7500    65.7910    17.6400    15.0110    25.0300   -11.7610     2.4360    25.1750 
  258.8750    65.7910    18.0980    15.4130    24.3920   -11.8840     2.4340    25.1850 
  259.0000    65.7910    18.4420    15.7400    22.0400   -12.0080     2.4380    25.1320 
  259.1250    65.7910    18.6530    15.9590    20.9640   -12.1100     2.4460    25.0340 
  259.2500    65.7910    18.7610    16.0680    21.7680   -12.1980     2.4530    24.9400 
  259.3750    65.7910    18.8830    16.1530    21.3510   -12.2770     2.4530    24.9220 
  259.5000    65.7910    19.1130    16.2970    18.6490   -12.3150     2.4380    24.9690 
  259.6250    65.7910    19.4600    16.5320    15.7120   -12.3040     2.4220    24.9810 
  259.7500    65.7910    19.7650    16.7580    16.5950   -12.3200     2.4310    24.9030 
  259.8750    65.7910    19.8100    16.8070    18.7400   -12.3340     2.4640    24.8390 
  260.0000    65.7910    19.4930    16.5880    19.7280   -12.3240     2.5000    24.8300 
  260.1250    65.7910    18.8700    16.1350    18.9230   -12.3450     2.5210    24.8310 
  260.2500    65.7910    18.1630    15.5980    17.4580   -12.3360     2.5210    24.8380 
  260.3750    65.7910    17.6510    15.1780    15.4930   -12.2930     2.5090    24.8590 
  260.5000    65.7910    17.4450    14.9650    13.0530   -12.2410     2.4950    24.9080 
  260.6250    65.7910    17.4950    14.9450    12.4610   -12.1920     2.4860    24.9120 
  260.7500    65.7910    17.6430    15.0290    12.0850   -12.1590     2.4800    24.9060 
  260.8750    65.7910    17.7160    15.0860    11.7130   -12.1150     2.4700    24.9190 
  261.0000    65.7910    17.6600    15.0570    11.5880   -12.0290     2.4580    24.9580 
  261.1250    65.7910    17.5230    14.9600    12.2220   -11.9160     2.4520    24.9750 
  261.2500    65.7910    17.4390    14.8880    13.1480   -11.8360     2.4490    25.0140 
  261.3750    65.7910    17.4840    14.9150    14.4160   -11.7900     2.4430    25.0010 
  261.5000    65.7910    17.6470    15.0540    15.9480   -11.7900     2.4370    24.9170 
  261.6250    65.7910    17.8940    15.2830    16.1060   -11.8290     2.4410    24.8120 
  261.7500    65.7910    18.2130    15.5930    15.0120   -11.8000     2.4630    24.7730 
  261.8750    65.7910    18.6030    15.9690    14.3450   -11.7830     2.4930    24.8430 
  262.0000    65.7910    19.0890    16.4240    14.1970   -11.8390     2.5190    24.8990 
  262.1250    65.7910    19.6840    16.9680    14.9620   -11.9260     2.5320    24.8510 
  262.2500    65.7910    20.3390    17.5660    16.3220   -12.0110     2.5260    24.8360 
  262.3750    65.7910    20.9180    18.0960    18.9790   -12.0660     2.5080    24.8820 
  262.5000    65.7910    21.2970    18.4440    22.8600   -12.0880     2.4940    24.8730 
  262.6250    65.7910    21.4110    18.5620    26.7410   -12.0830     2.4960    24.8420 
  262.7500    65.7910    21.2830    18.4840    27.1920   -12.0800     2.5160    24.8460 
  262.8750    65.7910    21.1050    18.3650    21.2650   -12.0890     2.5340    24.8730 
  263.0000    65.7910    20.9830    18.2920    15.3460   -12.0660     2.5420    24.8770 
  263.1250    65.7910    20.9310    18.2800    12.7310   -12.0210     2.5410    24.8660 
  263.2500    65.7910    20.9170    18.2960    11.3000   -11.9900     2.5380    24.8810 
  263.3750    65.7910    20.9120    18.3070    10.3240   -11.9960     2.5340    24.8970 
  263.5000    65.7910    20.9150    18.3090     9.7530   -11.9930     2.5280    24.9440 
  263.6250    65.7910    20.9210    18.3070     9.7450   -11.9770     2.5220    25.0440 
  263.7500    65.7910    20.9260    18.3020    10.7290   -11.9770     2.5170    25.1200 
  263.8750    65.7910    20.9270    18.2980    12.7900   -11.9860     2.5140    25.1170 
  264.0000    65.7910    20.9270    18.2980    15.1460   -11.9990     2.5120    25.0860 
  264.1250    65.7910    20.9270    18.2980    16.6930   -12.0370     2.5160    25.0770 
  264.2500    65.7910    20.9270    18.2980    18.0860   -12.0480     2.5260    25.0990 
  264.3750    65.7910    20.9270    18.2980    18.9530   -12.0270     2.5330    25.1190 
  264.5000    65.7910    20.9270    18.2980    17.5830   -12.0260     2.5320    25.1390 
  264.6250    65.7910    20.9270    18.2980    14.2130   -12.0120     2.5240    25.1710 
  264.7500    65.7910    20.9270    18.2980    12.5410   -12.0250     2.5140    25.1710 
  264.8750    65.7910    20.9270    18.2980    12.0670   -12.0420     2.5130    25.1250 
  265.0000    65.7910    20.9270    18.2980    12.3500   -12.0630     2.5250    25.0490 
  265.1250    65.7910    20.9270    18.2980    13.0020   -12.0530     2.5450    24.9890 
  265.2500    65.7910    20.9270    18.2980    12.9360   -12.0820     2.5590    25.0000 
  265.3750    65.7910    20.9270    18.2980    12.9970   -12.1320     2.5600    24.9880 
  265.5000    65.7910    20.9270    18.2980    14.2880   -12.2320     2.5500    24.9760 
  265.6250    65.7910    20.9270    18.2980    17.8730   -12.4550     2.5350    24.9920 
  265.7500    65.7910    20.9270    18.2980    20.6970   -12.6900     2.5260    25.0790 
  265.8750    65.7910    20.9270    18.2980    22.2370   -12.9090     2.5270    25.1400 
  266.0000    65.7910    20.9270    18.2980    23.0430   -13.1280     2.5310    25.1710 
  266.1250    65.7910    20.9270    18.2980    23.0060   -13.3880     2.5350    25.1650 
  266.2500    65.7910    20.9270    18.2980    20.3820   -13.6130     2.5320    25.1400 
  266.3750    65.7910    20.9270    18.2980    19.5410   -13.8780     2.5200    25.1390 
  266.5000    65.7910    20.9270    18.2980    19.2600   -13.9880     2.4960    25.1420 
  266.6250    65.7910    20.9270    18.2980    20.8040   -13.9780     2.4650    25.1200 
  266.7500    65.7910    20.9270    18.2980    21.6560   -13.9710     2.4490    25.0600 
  266.8750    65.7910    20.9270    18.2980    21.2950  -999.2500     2.4480    24.9370 
  267.0000    65.7910    20.9270    18.2980    21.0670  -999.2500     2.4730    24.8220 
  267.1250    65.7910    20.9270    18.2980    21.2510  -999.2500     2.5090    24.6560 
  267.2500    65.7910    20.9270    18.2980    20.6430  -999.2500     2.5330    24.3230 
  267.3750    65.7910    20.9270    18.2980    20.1250  -999.2500     2.5340    23.9510 
  267.5000    65.7910    20.9270    18.2980    19.8360  -999.2500     2.5000    23.5140 
  267.6250    65.7910    20.9270    18.2980    18.2520  -999.2500     2.4340    22.8670 
  267.7500    65.7910    20.9270    18.2980    17.1340  -999.2500     2.3340    22.4580 
  267.8750    65.7910    20.9270    18.2980    16.5070  -999.2500     2.2180    22.2540 
  268.0000    65.7910    20.9270    18.2980    16.4350  -999.2500     2.1320    22.2050 
  268.1250    65.7910    20.9270    18.2980    16.4300  -999.2500     2.0880    22.2040 
  268.2500    65.7910    20.9270    18.2980    16.4290  -999.2500     2.0750    22.2040 
  268.3750    65.7910    20.9270    18.2980    16.4240  -999.2500     2.0740    22.2010 
  268.5000    65.7910    20.9270    18.2980    16.4140  -999.2500     2.0740    22.1970 
  268.6250    65.7910    20.9270    18.2980    16.4020  -999.2500     2.0750    22.1950 
  268.7500    65.7910    20.9270    18.2980    16.3800  -999.2500     2.0780    22.1950 
  268.8750    65.7910    20.9270    18.2980    16.3670  -999.2500     2.0800    22.1950 
  269.0000  -999.2500  -999.2500  -999.2500  -999.2500  -999.2500     2.0820  -999.2500 
