~V
VERS. 2.00: Ver 2.00
~W
STRT.M 55.0000:
STOP.M 207.0000:
STEP.M 0.1250:
NULL. -999.2500:
UWI. F11112:
~C
DEPT.M :
SP.MV :
RML.OHMM :
RI. :
RXO.OHMM :
CALI.CM :
DEN.GM/CC :
GR.API :
~A
# ...
   66.2500   -35.8390     8.3240     5.8870     7.9790    28.7270     2.0320    71.0620 
   66.3750   -36.2620     8.4200     5.8830     7.9930    28.7160     2.0600    71.0230 
   66.5000   -36.7250     8.5890     5.9610     8.0520    28.7880     2.0750    69.1810 
   66.6250   -37.2380     8.7520     6.1090     8.2000    28.9160     2.0750    66.7730 
   66.7500   -37.8350     8.8760     6.2880     8.3580    29.0360     2.0580    65.7870 
   66.8750   -38.5060     8.9400     6.4340     8.3930    29.0590     2.0350    66.6970 
   67.0000   -39.2280     8.9060     6.5020     8.3240    28.9620     2.0180    68.7640 
   67.1250   -39.9650     8.7740     6.4740     8.1910    28.7920     2.0120    71.4510 
   67.2500   -40.5580     8.5550     6.3550     8.0690    28.6720     2.0120    73.1000 
   67.3750   -40.8980     8.2780     6.2070     7.9870    28.6430     2.0120    72.9890 
   67.5000   -41.0960     8.0580     6.0730     7.9600    28.6570     2.0100    72.2180 
   67.6250   -41.2270     7.9340     5.9800     8.0130    28.6630     2.0080    71.5290 
   67.7500   -41.3210     7.8070     5.9340     8.2310    28.5910     2.0110    69.8770 
   67.8750   -41.3940     7.6910     5.9080     8.4850    28.4730     2.0190    68.2340 
   68.0000   -41.4080     7.5930     5.8790     8.7390    28.3410     2.0330    68.5230 
   68.1250   -41.3170     7.4800     5.8350     8.9170    28.2080     2.0520    70.4800 
   68.2500   -41.1550     7.3720     5.7820     8.9270    28.0520     2.0670    70.8220 
   68.3750   -41.0300     7.2790     5.7360     8.9000    27.9060     2.0750    69.4080 
   68.5000   -40.9000     7.1900     5.7080     8.9480    27.7760     2.0790    68.2560 
   68.6250   -40.7120     7.0960     5.6950     9.0140    27.6460     2.0820    68.6330 
   68.7500   -40.3150     7.0200     5.6830     8.9500    27.5510     2.0810    71.3790 
   68.8750   -39.6700     6.9400     5.6450     8.7820    27.5650     2.0690    76.0470 
   69.0000   -38.8070     6.8260     5.5670     8.5470    27.5920     2.0480    81.4700 
   69.1250   -37.8110     6.6780     5.4470     8.2910    27.5570     2.0230    84.8430 
   69.2500   -36.6970     6.5250     5.3020     8.0020    27.4780     2.0030    83.3620 
   69.3750   -35.4950     6.4050     5.1620     7.7170    27.3590     2.0010    78.2030 
   69.5000   -34.2370     6.3450     5.0540     7.5330    27.2000     2.0220    72.7940 
   69.6250   -32.9700     6.3480     4.9860     7.5370    27.0380     2.0620    71.9170 
   69.7500   -31.8440     6.3880     4.9550     7.7240    26.9340     2.0980    76.4420 
   69.8750   -30.9070     6.4150     4.9290     7.7440    26.8720     2.1180    80.5510 
   70.0000   -30.1800     6.3930     4.8850     7.7010    26.8080     2.1300    81.8440 
   70.1250   -29.6430     6.3130     4.8060     7.4490    26.7250     2.1400    81.9400 
   70.2500   -29.3720     6.2120     4.7070     7.0400    26.6400     2.1530    83.8580 
   70.3750   -29.3120     6.1680     4.6350     6.6480    26.5260     2.1660    87.4720 
   70.5000   -29.5590     6.2450     4.6390     6.4040    26.3680     2.1760    91.8700 
   70.6250   -30.0750     6.4770     4.7550     6.4850    26.1720     2.1790    94.3060 
   70.7500   -30.7640     6.8600     5.0010     7.3050    25.9370     2.1710    91.6850 
   70.8750   -31.4720     7.2870     5.3170     8.5520    25.7200     2.1630    86.0350 
   71.0000   -32.0970     7.6570     5.6330     9.7420    25.5930     2.1610    79.9160 
   71.1250   -32.6610     7.8810     5.8780    10.4130    25.5710     2.1690    75.2860 
   71.2500   -33.0330     7.8970     5.9810    10.3500    25.6180     2.1790    72.8700 
   71.3750   -33.2410     7.7810     5.9660     9.9010    25.7080     2.1790    70.6960 
   71.5000   -33.1410     7.6140     5.8750     9.4390    25.8160     2.1650    68.5400 
   71.6250   -32.7640     7.4730     5.7660     9.2420    25.9210     2.1470    67.6660 
   71.7500   -32.1380     7.4020     5.6840     9.2620    25.9860     2.1350    67.8140 
   71.8750   -31.3410     7.3670     5.6290     9.2590    26.0160     2.1270    68.2530 
   72.0000   -30.4160     7.3190     5.5760     9.2600    26.0270     2.1230    69.3440 
   72.1250   -29.2840     7.2080     5.4900     9.2520    26.0370     2.1210    70.7060 
   72.2500   -28.0110     6.9950     5.3350     9.1940    26.0630     2.1230    70.9310 
   72.3750   -26.6010     6.7170     5.1250     8.9670    26.1040     2.1280    71.7430 
   72.5000   -25.1900     6.4240     4.8890     8.4800    26.1490     2.1330    75.0850 
   72.6250   -23.7830     6.1750     4.6720     7.7760    26.2030     2.1370    78.7780 
   72.7500   -22.4810     6.0330     4.5260     7.0620    26.2450     2.1410    79.1870 
   72.8750   -21.3660     5.9970     4.4580     6.6120    26.2960     2.1450    78.5090 
   73.0000   -20.4610     6.0500     4.4640     6.4780    26.3470     2.1460    79.5670 
   73.1250   -19.8760     6.1610     4.5270     6.5460    26.3900     2.1410    82.2100 
   73.2500   -19.5960     6.2930     4.6240     6.6680    26.4330     2.1350    83.1460 
   73.3750   -19.5760     6.4090     4.7250     6.7890    26.4650     2.1330    82.1890 
   73.5000   -19.6570     6.4930     4.8120     6.9010    26.4880     2.1380    80.9000 
   73.6250   -19.8380     6.5320     4.8760     7.0170    26.5130     2.1450    80.2700 
   73.7500   -19.9960     6.5210     4.9080     7.0330    26.5570     2.1510    80.4860 
   73.8750   -20.0510     6.4750     4.9160     6.9010    26.6220     2.1560    81.6620 
   74.0000   -20.0280     6.4090     4.9010     6.7010    26.6970     2.1580    84.0370 
   74.1250   -19.8860     6.3400     4.8660     6.5110    26.7740     2.1590    85.9740 
   74.2500   -19.6110     6.2870     4.8150     6.4270    26.8560     2.1570    86.0320 
   74.3750   -19.2440     6.2590     4.7630     6.4840    26.9040     2.1490    85.7230 
   74.5000   -18.8460     6.2540     4.7170     6.5280    26.9170     2.1350    86.6990 
   74.6250   -18.3830     6.2680     4.6890     6.4860    26.9060     2.1220    88.8190 
   74.7500   -17.9170     6.2930     4.6830     6.4170    26.8740     2.1190    89.0190 
   74.8750   -17.4760     6.3190     4.6900     6.3890    26.8070     2.1250    86.3300 
   75.0000   -17.1080     6.3380     4.7000     6.4320    26.6870     2.1350    82.3070 
   75.1250   -16.7770     6.3460     4.7040     6.4890    26.5450     2.1440    79.9170 
   75.2500   -16.6450     6.3400     4.6970     6.5020    26.4220     2.1500    81.4140 
   75.3750   -16.6230     6.3260     4.6840     6.4130    26.3450     2.1540    84.8990 
   75.5000   -16.6250     6.3120     4.6750     6.3100    26.3000     2.1560    88.2740 
   75.6250   -16.7020     6.3090     4.6830     6.3030    26.2580     2.1550    89.8730 
   75.7500   -16.9340     6.3340     4.7260     6.3990    26.2150     2.1520    88.4370 
   75.8750   -17.3390     6.3910     4.8080     6.5220    26.1820     2.1490    84.5980 
   76.0000   -17.8690     6.4880     4.9310     6.6090    26.1630     2.1500    80.5480 
   76.1250   -18.5440     6.6340     5.0940     6.7150    26.1540     2.1510    78.0420 
   76.2500   -19.1620     6.8410     5.2950     6.9300    26.1500     2.1540    75.8020 
   76.3750   -19.7190     7.0940     5.5220     7.1450    26.1470     2.1570    72.0920 
   76.5000   -20.2160     7.3710     5.7600     7.2570    26.1460     2.1620    69.1990 
   76.6250   -20.6240     7.6220     5.9850     7.4190    26.1510     2.1700    68.7620 
   76.7500   -20.7860     7.7370     6.1270     7.9600    26.1860     2.1850    69.5790 
   76.8750   -20.6540     7.6520     6.1230     8.5340    26.2760     2.2000    69.9770 
   77.0000   -20.1610     7.3360     5.9250     8.9200    26.4180     2.2110    70.5500 
   77.1250   -19.2560     6.8640     5.5510     8.9160    26.6030     2.2080    72.5070 
   77.2500   -18.0080     6.4670     5.1190     7.9960    26.8240     2.1780    76.0420 
   77.3750   -16.5520     6.4350     4.8520     6.4340    26.9260     2.1390    80.5670 
