~V
VERS. 2.00: Ver 2.00
~W
STRT.M 62.0000:
STOP.M 277.0000:
STEP.M 0.1250:
NULL. -999.2500:
UWI. F11155:
~C
DEPT.M :
SP.MV :
DEN.GM/CC :
GR.API :
RML.OHMM :
RI. :
RXO.OHMM :
CALI.CM :
~A
# ...
  107.0000   -17.1050     2.5020    58.2120    23.0170    18.2960    39.0310    24.7620 
  107.1250   -17.0900     2.5760    61.0590    28.1480    23.8150    44.0710    24.6960 
  107.2500   -17.2260     2.6030    63.0770    30.6760    27.6760    44.2800    24.6300 
  107.3750   -17.4930     2.6100    63.7680    29.7980    28.3390    44.3160    24.6540 
  107.5000   -17.9150     2.5980    62.3670    26.0020    25.7200    42.3240    24.6790 
  107.6250   -18.5180     2.5620    60.3860    20.7880    21.1090    35.5950    24.5680 
  107.7500   -19.2810     2.5000    61.2600    15.9010    16.3220    24.5980    24.1500 
  107.8750   -20.1230     2.4170    63.5920    12.2230    12.4800    16.6220    23.6510 
  108.0000   -20.9790     2.3210    63.3340     9.8750     9.8060    13.1010    23.3000 
  108.1250   -21.7830     2.2330    61.2790     8.6410     8.1660    12.1340    23.2330 
  108.2500   -22.5050     2.1790    61.6150     8.2670     7.4040    11.8420    23.3640 
  108.3750   -23.1050     2.1530    62.5030     8.2710     7.1210    11.4350    23.4850 
  108.5000   -23.5530     2.1440    62.9840     8.4110     7.1120    11.3020    23.5180 
  108.6250   -23.8400     2.1420    64.2460     8.5250     7.2130    11.3930    23.4910 
  108.7500   -23.9520     2.1450    65.8440     8.5360     7.3040    11.3670    23.4500 
  108.8750   -23.9590     2.1500    65.6420     8.4880     7.3480    11.1920    23.3650 
  109.0000   -23.8940     2.1520    63.3750     8.4240     7.3560    11.0120    23.2310 
  109.1250   -23.7790     2.1510    61.4550     8.3670     7.3420    10.7310    23.0420 
  109.2500   -23.6160     2.1490    63.1450     8.3070     7.3030    10.5510    22.8480 
  109.3750   -23.4280     2.1470    67.4790     8.2140     7.2300    10.4500    22.6810 
  109.5000   -23.2040     2.1470    70.4160     8.0710     7.1110    10.2900    22.5830 
  109.6250   -22.9670     2.1500    70.2870     7.8770     6.9470    10.0680    22.5290 
  109.7500   -22.7580     2.1580    70.6250     7.6640     6.7590     9.8840    22.5150 
  109.8750   -22.5830     2.1720    73.1340     7.5050     6.6020     9.6610    22.5220 
  110.0000   -22.4530     2.1880    73.9250     7.4610     6.5230     9.4570    22.5490 
  110.1250   -22.3330     2.1990    72.1600     7.5770     6.5580     9.6490    22.5740 
  110.2500   -22.1940     2.1990    70.8640     7.8580     6.7270    10.2780    22.6120 
  110.3750   -22.0520     2.1940    69.9580     8.1940     6.9670    10.7220    22.6880 
  110.5000   -21.9190     2.1870    67.7690     8.4660     7.1980    11.3790    22.8190 
  110.6250   -21.7890     2.1770    65.0440     8.5670     7.3310    11.9750    23.0520 
  110.7500   -21.6370     2.1700    65.3780     8.4450     7.2940    11.5830    23.4740 
  110.8750   -21.4420     2.1680    67.7560     8.2330     7.1560    10.7710    23.8910 
  111.0000   -21.2140     2.1710    70.4340     8.0460     7.0050    10.0630    24.1430 
  111.1250   -20.9780     2.1770    72.7840     7.9690     6.9140     9.4430    24.2730 
  111.2500   -20.7370     2.1850    74.0900     8.0280     6.9330     9.3550    24.5680 
  111.3750   -20.4560     2.1940    73.2340     8.1640     7.0320     9.4850    25.1210 
  111.5000   -20.0970     2.2030    69.7420     8.3210     7.1780     9.8380    25.5600 
  111.6250   -19.6530     2.2090    64.2100     8.4670     7.3430    10.1700    25.4970 
  111.7500   -19.1020     2.2070    60.1110     8.5940     7.5110    10.9780    24.8970 
  111.8750   -18.4360     2.2030    60.0760     8.6930     7.6590    11.6930    24.3380 
  112.0000   -17.6130     2.1980    63.4590     8.7320     7.7570    12.9520    23.8540 
  112.1250   -16.6500     2.1950    68.4620     8.6750     7.7750    14.4520    23.4530 
  112.2500   -15.5670     2.1960    72.9580     8.4570     7.6640    13.5440    23.3040 
  112.3750   -14.4530     2.2060    77.1000     8.0920     7.4230    10.2460    23.3210 
  112.5000   -13.3530     2.2210    79.5990     7.6140     7.0690     8.2970    23.3420 
  112.6250   -12.2860     2.2320    80.0000     7.0940     6.6540     7.8220    23.3160 
  112.7500   -11.2870     2.2410    84.1620     6.6080     6.2440     7.5610    23.2870 
  112.8750   -10.3910     2.2590    95.0200     6.1810     5.8790     6.7480    23.2460 
  113.0000    -9.6370     2.2880   105.9740     5.8210     5.5710     5.7380    23.1620 
  113.1250    -9.0390     2.3200   110.5170     5.5210     5.3170     5.2990    23.0490 
  113.2500    -8.5770     2.3410   109.1960     5.2790     5.1170     5.3720    22.9650 
  113.3750    -8.1910     2.3430   108.3120     5.0900     4.9560     5.3880    22.9230 
  113.5000    -7.9100     2.3270   110.7090     4.9620     4.8390     5.1210    22.9690 
  113.6250    -7.7270     2.3020   115.9660     4.9050     4.7710     4.9590    23.0730 
  113.7500    -7.6450     2.2870   115.9800     4.9450     4.7710     5.0130    23.1240 
  113.8750    -7.6170     2.2860   108.3190     5.0640     4.8330     5.1060    23.1560 
  114.0000    -7.6450     2.2910   100.8780     5.2320     4.9380     5.1840    23.1730 
  114.1250    -7.7210     2.2960    99.0830     5.3750     5.0360     5.2240    23.2010 
  114.2500    -7.8810     2.2970    99.0980     5.3740     5.0340     5.2610    23.2750 
  114.3750    -8.1240     2.2930    98.1680     5.1990     4.8950     5.3260    23.3600 
  114.5000    -8.4300     2.2870    99.4030     4.8910     4.6330     5.3340    23.4280 
  114.6250    -8.8010     2.2860   103.1820     4.5820     4.3240     5.1020    23.4660 
  114.7500    -9.2640     2.2930   104.8770     4.5310     4.1410     4.8240    23.5210 
  114.8750    -9.8390     2.3060   103.3510     4.9290     4.2430     4.9140    23.6190 
  115.0000   -10.5060     2.3200    99.2290     5.9370     4.7750     5.5150    23.7160 
  115.1250   -11.2670     2.3420    93.8870     7.6370     5.8580     6.9250    23.7640 
  115.2500   -12.1320     2.3810    86.7900     9.9890     7.6190    10.3160    23.7680 
  115.3750   -13.0580     2.4320    77.5780    12.2860     9.6420    16.4490    23.7350 
  115.5000   -14.0350     2.4730    70.3020    13.5680    11.1780    23.0550    23.6380 
  115.6250   -15.0510     2.4730    67.8760    13.1560    11.4550    21.9590    23.4880 
  115.7500   -16.0840     2.4030    70.0520    11.3740    10.3810    15.0610    23.2860 
  115.8750   -17.0840     2.3060    75.2780     9.5990     8.9940    10.7590    23.1240 
  116.0000   -18.0370     2.2250    80.5610     8.4230     7.8560     9.3430    23.0550 
  116.1250   -18.9150     2.1790    82.1050     7.9160     7.1630     9.2960    23.1020 
  116.2500   -19.6730     2.1620    78.4410     7.9450     6.9480     9.7680    23.2670 
  116.3750   -20.3550     2.1530    75.1190     8.1750     6.9990    10.1000    23.4190 
  116.5000   -20.9460     2.1470    73.7100     8.4270     7.1710    10.3400    23.4600 
  116.6250   -21.4540     2.1430    71.2800     8.5920     7.3370    10.4200    23.4360 
  116.7500   -21.8640     2.1400    68.2020     8.6340     7.4230    10.3440    23.5190 
  116.8750   -22.1800     2.1380    68.1720     8.6160     7.4430    10.2770    23.6170 
  117.0000   -22.4230     2.1360    69.3140     8.5750     7.4170    10.2820    23.6320 
  117.1250   -22.6260     2.1350    68.5000     8.5290     7.3680    10.2630    23.5300 
  117.2500   -22.8100     2.1390    66.2930     8.4840     7.3060    10.0550    23.4010 
  117.3750   -22.9610     2.1490    65.9770     8.4320     7.2410     9.8990    23.3970 
  117.5000   -23.0990     2.1620    67.2490     8.3790     7.1810     9.9160    23.4520 
  117.6250   -23.2240     2.1700    66.9630     8.3370     7.1340     9.9080    23.4740 
  117.7500   -23.3320     2.1720    63.9890     8.3240     7.1110     9.8010    23.4690 
  117.8750   -23.4530     2.1730    61.1010     8.3410     7.1080     9.8220    23.4710 
  118.0000   -23.5820     2.1710    61.5580     8.3730     7.1180     9.9520    23.5050 
  118.1250   -23.6940     2.1620    64.0670     8.4130     7.1360    10.1330    23.6090 
