~V
VERS. 2.00: Ver 2.00
~W
STRT.M 40.0000:
STOP.M 232.0000:
STEP.M 0.1250:
NULL. -999.2500:
UWI. F11121:
~C
DEPT.M :
SP.MV :
DEN.GM/CC :
GR.API :
RML.OHMM :
RI. :
RXO.OHMM :
CALI.CM :
~A
# ...
  141.2500    -1.2920     2.2510    91.2150     5.8770     4.6360     3.0760    24.7990 
  141.3750    -1.2820     2.2450    90.5880     6.0810     4.7570     3.1790    24.7920 
  141.5000    -1.2810     2.2430    89.8690     6.3900     4.9960     3.3660    24.7910 
  141.6250    -1.2720     2.2510    89.4940     6.8190     5.3540     3.7590    24.7920 
  141.7500    -1.2480     2.2630    89.1660     7.2980     5.7460     4.5480    24.7910 
  141.8750    -1.2100     2.2720    89.0040     7.7650     6.1050     5.5830    24.7910 
  142.0000    -1.1540     2.2700    90.1200     8.2090     6.4140     5.9720    24.7940 
  142.1250    -1.0990     2.2590    91.3190     8.7620     6.7530     5.7870    24.7990 
  142.2500    -1.0750     2.2540    89.5200     9.6360     7.2640     5.4290    24.7990 
  142.3750    -1.0690     2.2610    84.9430    11.0400     8.0850     5.5610    24.7960 
  142.5000    -1.0390     2.2730    79.7970    13.0900     9.3260     6.9300    24.7930 
  142.6250    -0.9970     2.2700    76.4850    15.7760    11.0700    10.3860    24.7900 
  142.7500    -0.9610     2.2460    75.3310    18.5990    13.0650    13.8080    24.7880 
  142.8750    -0.9340     2.2080    75.1390    21.0440    14.9810    15.8100    24.7910 
  143.0000    -0.9310     2.1730    73.5070    22.7280    16.4900    16.0440    24.7960 
  143.1250    -0.9450     2.1560    71.5480    23.5700    17.3990    16.0850    24.7970 
  143.2500    -0.9350     2.1540    73.4860    24.0750    17.9840    15.4970    24.7940 
  143.3750    -0.9060     2.1600    77.0010    24.4530    18.4310    15.1360    24.7890 
  143.5000    -0.8890     2.1660    74.6670    24.5320    18.7070    17.3880    24.7860 
  143.6250    -0.8910     2.1670    68.4800    23.7310    18.4510    20.6840    24.7960 
  143.7500    -0.8930     2.1690    66.8590    21.9360    17.5150    20.4670    24.7880 
  143.8750    -0.8950     2.1790    71.3670    19.3760    15.9830    15.5620    24.6870 
  144.0000    -0.8970     2.1980    76.5960    16.5440    14.1500    10.2250    24.4840 
  144.1250    -0.8990     2.2200    77.3310    14.0130    12.3890     8.2290    24.2960 
  144.2500    -0.9070     2.2360    76.7030    11.9760    10.8930     7.8800    24.2170 
  144.3750    -0.9240     2.2430    76.8860    10.4190     9.6780     7.5670    24.2230 
  144.5000    -0.9290     2.2460    78.6540     9.2530     8.6930     6.8630    24.2490 
  144.6250    -0.9050     2.2520    81.3210     8.4160     7.8990     6.2950    24.2700 
  144.7500    -0.8650     2.2630    84.3910     7.7690     7.2300     5.6130    24.2810 
  144.8750    -0.8120     2.2730    88.0160     7.3010     6.7010     5.2200    24.2850 
  145.0000    -0.7410     2.2770    90.7580     7.0820     6.3800     4.9640    24.2860 
  145.1250    -0.6530     2.2730    91.8980     7.3630     6.4490     4.5820    24.2860 
  145.2500    -0.5770     2.2650    91.5370     8.2990     6.9910     4.2320    24.3230 
  145.3750    -0.5150     2.2520    87.5970    10.0530     8.1220     4.6810    24.4150 
  145.5000    -0.4620     2.2330    79.1230    12.6470     9.9150     6.8020    24.5210 
  145.6250    -0.4120     2.2110    71.2360    15.8250    12.3380    12.0790    24.5750 
  145.7500    -0.3770     2.1940    68.1290    18.7550    14.8250    17.0650    24.5830 
  145.8750    -0.3650     2.1850    69.5270    20.7080    16.7420    18.2680    24.5790 
  146.0000    -0.3530     2.1870    71.5360    21.3850    17.6650    17.3860    24.5780 
  146.1250    -0.3320     2.1920    71.6450    21.1090    17.6340    17.6670    24.5850 
  146.2500    -0.3050     2.1900    71.3940    20.7520    17.3390    16.2260    24.5970 
  146.3750    -0.2640     2.1810    72.5650    20.7000    17.1550    15.0060    24.6060 
  146.5000    -0.2260     2.1680    74.5240    21.0040    17.2030    15.6820    24.6150 
  146.6250    -0.1920     2.1590    74.0640    21.4610    17.4030    17.0790    24.6290 
  146.7500    -0.1630     2.1580    72.4990    21.7500    17.5450    17.7070    24.6290 
  146.8750    -0.1390     2.1640    73.2340    21.6510    17.4720    16.1790    24.6070 
  147.0000    -0.1360     2.1760    75.7790    21.0730    17.0980    13.8720    24.5730 
  147.1250    -0.1630     2.1860    76.6950    20.0550    16.4160    12.8240    24.5410 
  147.2500    -0.1980     2.1930    74.9630    18.9100    15.6200    12.0710    24.5140 
  147.3750    -0.2330     2.1940    73.1750    17.8620    14.8650    11.5700    24.4950 
  147.5000    -0.2410     2.1950    75.0120    17.0520    14.2620    11.0230    24.4870 
  147.6250    -0.2330     2.2000    78.8940    16.5890    13.9050    10.3680    24.4850 
  147.7500    -0.2020     2.2080    79.7480    16.4190    13.7710     9.9320    24.4890 
  147.8750    -0.1450     2.2140    77.5690    16.4870    13.8370    10.1000    24.4950 
  148.0000    -0.0540     2.2140    74.3990    16.6900    14.0380    10.9140    24.4970 
  148.1250     0.0680     2.2070    73.5720    16.9070    14.2780    11.1890    24.5000 
  148.2500     0.1990     2.1980    75.1200    17.0970    14.4850    11.3650    24.5040 
  148.3750     0.3390     2.1920    76.5960    17.3340    14.6790    11.7640    24.4880 
  148.5000     0.4640     2.1960    75.7460    17.7540    14.9430    11.6270    24.4300 
  148.6250     0.5630     2.2140    73.5560    18.5430    15.4150    10.5930    24.3380 
  148.7500     0.6710     2.2360    72.1590    19.6550    16.1050    11.0120    24.2980 
  148.8750     0.7830     2.2510    70.4510    20.9470    16.9460    14.0660    24.3620 
  149.0000     0.8900     2.2530    67.8920    22.1880    17.7940    16.8870    24.4880 
  149.1250     0.9870     2.2490    66.3930    23.1590    18.4760    17.4390    24.5700 
  149.2500     1.0810     2.2540    66.7310    23.9980    19.0320    15.9380    24.5850 
  149.3750     1.1570     2.2670    67.8580    25.0950    19.6770    14.8880    24.5770 
  149.5000     1.2180     2.2750    68.9120    27.0120    20.7600    15.2460    24.5950 
  149.6250     1.2920     2.2580    69.2410    30.5720    22.8340    16.8130    24.6630 
  149.7500     1.3700     2.2210    69.7360    35.7980    25.9920    20.2020    24.7390 
  149.8750     1.4610     2.1810    68.5220    42.4180    30.1210    24.9330    24.7800 
  150.0000     1.5640     2.1530    64.1120    49.6030    34.7230    29.3570    24.7870 
  150.1250     1.6970     2.1450    60.9120    55.7370    38.8180    30.0050    24.7890 
  150.2500     1.8600     2.1490    62.3480    59.7550    41.7160    26.8340    24.7890 
  150.3750     2.0590     2.1540    64.7420    61.5470    43.3130    22.4340    24.7880 
  150.5000     2.2830     2.1540    63.1520    61.8540    44.0310    21.7700    24.7880 
  150.6250     2.5180     2.1490    58.6270    61.7470    44.5230    22.1640    24.7900 
  150.7500     2.7460     2.1430    56.1570    62.0840    45.3340    23.2800    24.7930 
  150.8750     2.9570     2.1420    57.9720    63.1690    46.6790    24.6880    24.7970 
  151.0000     3.1610     2.1410    60.9310    64.7840    48.4940    24.9750    24.7820 
  151.1250     3.3660     2.1410    58.9100    64.9260    49.5700    25.0920    24.7110 
  151.2500     3.5750     2.1630    55.6570    60.5010    47.5730    26.3520    24.6000 
  151.3750     3.7750     2.2300    56.4930    49.9860    40.9190    25.7790    24.4840 
  151.5000     3.9830     2.3330    61.2120    35.7730    30.8580    19.8980    24.3680 
  151.6250     4.1940     2.3910    64.9550    23.1100    21.1430    15.8170    24.3610 
  151.7500     4.3980     2.3540    67.2380    14.3600    13.9910    13.1180    24.6820 
  151.8750     4.5970     2.2440    72.4940     9.1930     9.4310     7.9500    25.3180 
  152.0000     4.7750     2.1130    78.7090     6.4550     6.7700     4.8330    25.8430 
  152.1250     4.9160     2.0090    82.2930     5.2160     5.4050     3.9780    25.9890 
  152.2500     5.0430     1.9410    83.5820     4.5990     4.6500     3.8690    26.1970 
  152.3750     5.1570     1.8980    84.8210     4.3300     4.2780     3.7690    26.6100 
