~V
VERS. 2.00: Ver 2.00
~W
STRT.M 63.0000:
STOP.M 208.0000:
STEP.M 0.1250:
NULL. -999.2500:
UWI. F11108:
~C
DEPT.M :
GR.API :
RML.OHMM :
RI. :
RXO.OHMM :
CALI.CM :
SP.MV :
DEN.GM/CC :
~A
# ...
  164.2500    96.6010    19.6830    17.7480    16.4750    23.7760   -17.7490     2.4070 
  164.3750    95.6730    19.8650    18.0970    17.0900    23.7530   -17.7560     2.4100 
  164.5000    93.8900    20.0480    18.5280    17.9310    23.8520   -17.7890     2.4080 
  164.6250    92.0410    20.0540    18.8500    18.1730    24.0170   -17.8370     2.4060 
  164.7500    92.0650    19.8350    18.9470    17.2810    24.0290   -17.8530     2.4070 
  164.8750    94.8500    19.4090    18.7790    15.9090    23.8700   -17.8310     2.4130 
  165.0000    99.4690    18.8440    18.3710    15.1330    23.7320   -17.7820     2.4210 
  165.1250   102.0960    18.2080    17.7670    14.6480    23.6970   -17.7000     2.4280 
  165.2500   100.7920    17.5550    17.0580    13.9950    23.7080   -17.6360     2.4320 
  165.3750    98.8700    16.8920    16.2720    13.1850    23.7260   -17.5950     2.4340 
  165.5000    98.9790    16.2360    15.4390    12.3570    23.7330   -17.5140     2.4340 
  165.6250   102.3080    15.7090    14.6450    11.9060    23.7780   -17.3230     2.4370 
  165.7500   104.9930    15.5370    14.0550    11.8990    23.8410   -17.1140     2.4410 
  165.8750   105.8710    16.0890    13.9030    11.8250    23.8520   -16.9600     2.4470 
  166.0000   104.4210    17.9210    14.5240    11.4530    23.7080   -16.8730     2.4540 
  166.1250    99.5220    22.3390    16.8190    11.5480    23.4250   -16.8460     2.4580 
  166.2500    95.1340    30.2720    21.7560    13.5790    23.1380   -16.8790     2.4550 
  166.3750    92.0830    43.1590    31.0450    19.0970    22.9760   -16.9630     2.4370 
  166.5000    87.1270    62.5020    46.6850    27.4680    22.9090   -17.1170     2.3950 
  166.6250    77.0180    89.9250    70.7790    40.6940    22.9560   -17.4100     2.3250 
  166.7500    68.8390   121.0900    99.1530    54.7830    23.0040   -17.8010     2.2450 
  166.8750    66.3750   149.3160   125.5580    69.1630    23.0310   -18.2510     2.1800 
  167.0000    66.7650   167.6250   143.6020    79.2890    23.0240   -18.7280     2.1440 
  167.1250    68.5540   171.7990   149.2070    77.5030    23.0020   -19.2030     2.1380 
  167.2500    71.2700   168.3070   147.5400    75.7020    23.0250   -19.6290     2.1360 
  167.3750    73.4720   162.3660   143.0520    89.1030    23.1070   -19.9810     2.1260 
  167.5000    72.4050   156.5060   138.3550   114.9630    23.2620   -20.2790     2.1100 
  167.6250    69.3250   150.1510   133.5510   118.0880    23.5520   -20.5340     2.1070 
  167.7500    70.5250   141.9850   127.5450   113.5120    23.9360   -20.7520     2.1270 
  167.8750    74.9260   131.7830   119.8070   110.2000    24.3780   -20.9290     2.1660 
  168.0000    78.7400   120.6140   110.8470   106.6480    24.7290   -21.1210     2.2090 
  168.1250    79.8950   110.7910   102.3590    99.3950    24.8540   -21.3360     2.2400 
  168.2500    81.0470   104.0520    96.1120    88.4400    24.8840   -21.5120     2.2570 
  168.3750    82.0640   101.3650    93.2840    80.4600    24.8780   -21.6830     2.2650 
  168.5000    79.4630   103.0390    94.4800    80.1600    24.8530   -21.9020     2.2690 
  168.6250    74.3430   109.4570   100.3840    86.9120    24.7810   -22.1830     2.2730 
  168.7500    69.8740   118.9860   109.6230    93.0950    24.6790   -22.5030     2.2740 
  168.8750    67.0160   129.9210   120.7190    94.0100    24.5020   -22.8330     2.2680 
  169.0000    68.8270   139.5720   131.2080    86.2150    24.2960   -23.0680     2.2540 
  169.1250    74.4480   143.5490   136.9220    79.9110    24.1810   -23.2190     2.2340 
  169.2500    78.5070   140.5510   136.0860    81.3360    24.1470   -23.4280     2.2170 
  169.3750    78.6750   131.4910   128.9510    86.5540    24.2480   -23.6920     2.2070 
  169.5000    78.6670   119.4590   117.9750    86.7860    24.2960   -23.9350     2.2090 
  169.6250    80.6760   108.6770   107.0420    68.8890    24.2100   -24.1270     2.2240 
  169.7500    80.9770   101.6160    99.1720    53.9250    23.9070   -24.2730     2.2450 
  169.8750    79.2590    98.9870    95.5420    54.1700    23.6130   -24.3560     2.2660 
  170.0000    78.9130   100.4900    96.1900    59.4280    23.4390   -24.4290     2.2810 
  170.1250    81.3330   105.6100   100.8430    61.4590    23.3060   -24.5410     2.2860 
  170.2500    81.6560   112.2110   107.6070    61.6080    23.1740   -24.7130     2.2910 
  170.3750    78.6800   120.8290   115.1550    65.0150    23.0910   -24.9040     2.3030 
  170.5000    75.5390   132.4410   122.2680    66.8810    23.0800   -25.1130     2.3200 
  170.6250    75.8570   144.5630   127.7890    62.7110    23.1290   -25.3220     2.3280 
  170.7500    76.7320   152.5470   131.5590    57.2370    23.3380   -25.5000     2.3080 
  170.8750    74.8880   155.5290   133.6220    58.4340    23.7710   -25.6470     2.2560 
  171.0000    71.5650   155.9590   134.3080    69.6030    24.3710   -25.7900     2.1850 
  171.1250    70.1080   155.8710   134.1510    78.7390    25.0580   -25.9990     2.1260 
  171.2500    71.6980   155.7410   133.9900    81.5090    25.4650   -26.1590     2.0990 
  171.3750    73.9220   156.0400   134.2320    84.8790    25.6040   -26.2460     2.1040 
  171.5000    73.9880   156.7430   134.9290    89.5420    25.7560   -26.2420     2.1200 
  171.6250    71.0140   157.3140   135.7160   100.8910    26.1850   -26.2130     2.1260 
  171.7500    67.9460   157.1180   136.0260   102.8410    26.3410   -26.2780     2.1230 
  171.8750    68.0900   155.8860   135.5550    85.4370    25.6240   -26.3670     2.1270 
  172.0000    72.5250   153.8680   134.4070    58.4560    24.3060   -26.3700     2.1450 
  172.1250    77.1560   151.9140   133.2010    48.7600    23.4850   -26.3040     2.1700 
  172.2500    78.1790   150.9370   132.7360    55.2000    23.4700   -26.2720     2.1850 
  172.3750    76.4620   151.3100   133.4000    71.7420    23.7620   -26.3090     2.1850 
  172.5000    75.3230   152.7400   135.0290    95.7210    23.8650   -26.4070     2.1790 
  172.6250    77.0120   154.1830   136.8010   109.2970    23.6730   -26.4830     2.1850 
  172.7500    79.5260   154.4280   137.6220   114.1270    23.4040   -26.4460     2.2000 
  172.8750    81.2200   152.9120   136.8730   109.1640    23.2540   -26.4550     2.2110 
  173.0000    80.0620   149.8780   134.5790   100.4190    23.3160   -26.6200     2.2110 
  173.1250    78.0480   146.4410   131.4850    98.1050    23.6080   -26.7680     2.2030 
  173.2500    79.6210   144.1350   128.9830   103.3480    23.9730   -26.8000     2.1980 
  173.3750    82.7970   144.0140   128.1170   110.4820    24.2910   -26.7040     2.2020 
  173.5000    83.2550   146.7130   129.6290   114.9850    24.5070   -26.5350     2.2120 
  173.6250    78.4570   152.8850   134.3250   120.7140    24.6300   -26.4400     2.2210 
  173.7500    72.7700   161.6070   141.5200   128.6600    24.6760   -26.4340     2.2280 
  173.8750    69.8700   171.9330   150.4430   137.3540    24.6510   -26.3820     2.2300 
  174.0000    69.5810   182.4170   159.8230   146.2060    24.6210   -26.2050     2.2300 
  174.1250    71.5370   190.7490   167.5970   162.1440    24.6500   -25.9760     2.2280 
  174.2500    73.1200   195.5840   172.3830   168.1070    24.6900   -25.8540     2.2260 
  174.3750    74.0780   196.5170   173.6220   165.9930    24.6890   -25.8740     2.2270 
  174.5000    75.5990   194.3670   171.8440   161.2660    24.6500   -25.9610     2.2290 
  174.6250    77.7270   190.9320   168.4830   150.5730    24.6450   -25.9120     2.2310 
  174.7500    77.7750   188.4170   165.6620   134.7220    24.6520   -25.8050     2.2290 
  174.8750    74.3450   187.8670   164.5420   128.7610    24.6710   -25.7670     2.2220 
  175.0000    70.4370   189.3680   165.4580   144.4550    24.6950   -25.7900     2.2130 
  175.1250    71.2950   192.0430   167.9180   160.1740    24.7350   -25.8150     2.2030 
  175.2500    73.3030   193.9760   170.2260   169.2460    24.7780   -25.7570     2.1980 
  175.3750    72.3740   193.6290   170.9490   170.1150    24.8230   -25.6800     2.1990 
