~V
VERS. 2.00: Ver 2.00
~W
STRT.M 40.0000:
STOP.M 206.0000:
STEP.M 0.1250:
NULL. -999.2500:
UWI. F11104:
~C
DEPT.M :
GR.API :
RML.OHMM :
RI. :
RXO.OHMM :
CALI.CM :
SP.MV :
DEN.GM/CC :
~A
# ...
  152.5000    50.3460    82.1740    71.4310   154.6200    33.7150   -26.9100     1.9710 
  152.6250    47.6210    81.7550    69.2460   153.7440    33.6950   -27.0010     1.9810 
  152.7500    46.3580    80.6210    66.0430   134.2940    33.6730   -27.1050     1.9970 
  152.8750    49.2990    78.6740    62.3970   119.8280    33.6650   -27.2130     2.0070 
  153.0000    54.7450    74.4960    58.9040   103.7060    33.6800   -27.3280     2.0060 
  153.1250    58.4640    68.1860    56.1440    84.3430    33.7220   -27.4470     1.9970 
  153.2500    58.6450    63.9560    54.1630    63.6250    33.7710   -27.5760     1.9930 
  153.3750    56.2330    61.3160    52.8690    53.4650    33.8070   -27.7080     1.9990 
  153.5000    53.1650    59.7760    52.0960    51.8720    33.8160   -27.8440     2.0130 
  153.6250    52.8360    59.1630    51.7850    48.4200    33.7990   -27.9840     2.0260 
  153.7500    57.0090    59.3310    51.8630    44.7780    33.7750   -28.1370     2.0290 
  153.8750    62.0240    60.3640    52.3670    47.8820    33.7610   -28.2860     2.0220 
  154.0000    64.2800    62.2090    53.2700    56.5080    33.7660   -28.4130     2.0100 
  154.1250    64.1580    64.4650    54.3930    65.5840    33.7910   -28.5140     1.9950 
  154.2500    63.1510    66.1600    55.2930    71.3260    33.8200   -28.5860     1.9860 
  154.3750    60.4130    66.3870    55.5570    68.2580    33.8400   -28.6200     1.9860 
  154.5000    55.5350    64.7510    54.9580    60.5340    33.8340   -28.6110     1.9960 
  154.6250    53.9210    61.6320    53.5500    52.4960    33.7830   -28.5320     2.0140 
  154.7500    56.6090    58.4020    51.9290    48.0650    33.7000   -28.3920     2.0300 
  154.8750    59.4750    56.0140    50.5730    49.5730    33.6120   -28.1890     2.0360 
  155.0000    59.1420    55.2000    49.9140    52.2810    33.5480   -27.9450     2.0320 
  155.1250    55.7920    56.8410    50.4690    57.7480    33.5380   -27.6790     2.0180 
  155.2500    53.4940    60.7430    52.1590    61.6490    33.5690   -27.4130     2.0020 
  155.3750    53.2180    66.4980    54.7430    69.5420    33.6210   -27.1580     1.9890 
  155.5000    53.1730    72.8980    57.6210    86.4060    33.6700   -26.8940     1.9820 
  155.6250    50.4600    77.3740    59.7040   136.9560    33.7020   -26.6280     1.9800 
  155.7500    47.3320    78.2550    60.3540   183.3250    33.7200   -26.3640     1.9790 
  155.8750    47.2650    75.5530    59.5200   187.9040    33.7280   -26.1200     1.9770 
  156.0000    50.4170    70.8770    57.7010   154.1130    33.7300   -25.8900     1.9770 
  156.1250    51.7530    66.6250    55.7610   126.7300    33.7300   -25.6620     1.9840 
  156.2500    49.6230    64.1960    54.4440   102.1280    33.7300   -25.4290     1.9970 
  156.3750    47.8020    63.7470    53.9730    84.4770    33.7260   -25.1940     2.0160 
  156.5000    49.3760    64.7380    54.2100    73.8440    33.7110   -24.9760     2.0360 
  156.6250    53.9050    66.3620    54.8390    76.0520    33.6760   -24.8070     2.0540 
  156.7500    57.3320    67.9110    55.5040    92.1700    33.6330   -24.6780     2.0680 
  156.8750    57.0350    69.3790    56.1520   108.9920    33.5990   -24.5620     2.0750 
  157.0000    53.9500    71.0450    56.8800   105.7530    33.5850   -24.4460     2.0780 
  157.1250    52.6600    72.9470    57.7190   102.3640    33.5870   -24.3500     2.0820 
  157.2500    54.6440    74.4370    58.4310   100.9320    33.5850   -24.2890     2.0930 
  157.3750    57.7420    74.8310    58.7610    95.8670    33.5750   -24.2350     2.1120 
  157.5000    57.9800    73.8320    58.5970    87.8260    33.5700   -24.1430     2.1340 
  157.6250    55.0370    71.6300    57.9890    80.5860    33.5820   -23.9830     2.1520 
  157.7500    53.2370    69.2370    57.2940    75.4330    33.7330   -23.7880     2.1630 
  157.8750    53.7660    67.4440    56.8290    74.5640    33.6630   -23.5850     2.1660 
  158.0000    54.9200    66.8030    56.8490    76.7390    33.3620   -23.3550     2.1630 
  158.1250    55.7780    67.4330    57.4640    82.0090    33.0930   -23.0420     2.1590 
  158.2500    57.2000    67.6580    58.0460    85.7640    32.8240   -22.6710     2.1620 
  158.3750    59.2110    66.5710    57.4940    87.2520    32.5870   -22.2790     2.1760 
  158.5000    59.7540    64.4860    54.5290    87.8820    32.3750   -21.8730     2.2050 
  158.6250    60.0250    60.2180    48.2410    91.1790    32.0890   -21.4290     2.2230 
  158.7500    61.5880    51.9490    40.3590    87.3410    31.7590   -20.9610     2.2590 
  158.8750    63.2180    39.2800    32.6560    64.4310    31.5050   -20.5140     2.2870 
  159.0000    63.1480    28.8980    26.3740    36.1000    31.3650   -20.1200     2.3020 
  159.1250    63.2190    22.7330    22.1780    23.3150    31.2440   -19.7850     2.3050 
  159.2500    66.0800    19.1410    19.5280    18.7300    31.0870   -19.4630     2.2990 
  159.3750    70.8540    17.3610    18.1030    18.9680    30.9320   -19.1610     2.2860 
  159.5000    75.6160    16.8770    17.6400    19.2150    30.7820   -18.9070     2.2730 
  159.6250    77.2050    17.4280    18.0150    17.9000    30.5890   -18.7040     2.2670 
  159.7500    74.4610    18.4760    18.8320    17.8100    30.3990   -18.5180     2.2720 
  159.8750    69.0250    19.6570    19.8030    19.5270    30.2550   -18.3440     2.2850 
  160.0000    65.5920    20.6040    20.6160    22.9460    30.1400   -18.2070     2.3030 
  160.1250    67.0240    20.9310    20.9290    25.9180    30.0150   -18.1350     2.3150 
  160.2500    67.8760    20.7520    20.7920    25.9410    29.8880   -18.0720     2.3160 
  160.3750    67.5980    20.4480    20.4690    22.8520    29.7800   -17.9890     2.3070 
  160.5000    69.5880    20.5620    20.3520    20.4700    29.6660   -17.8810     2.2930 
  160.6250    73.4840    21.7670    20.9100    20.8430    29.5250   -17.7690     2.2780 
  160.7500    74.4730    24.1830    22.2490    22.7980    29.3660   -17.6390     2.2660 
  160.8750    71.1650    27.8030    24.3900    28.8840    29.1890   -17.4700     2.2590 
  161.0000    66.0710    32.3570    27.1910    41.3240    28.9980   -17.2620     2.2520 
  161.1250    61.5990    37.2710    30.3350    45.1480    28.7990   -17.0640     2.2460 
  161.2500    59.4280    41.7640    33.3060    43.4000    28.6100   -16.9030     2.2430 
  161.3750    59.1420    45.3520    35.7520    42.9720    28.4440   -16.7480     2.2450 
  161.5000    57.9380    47.8000    37.4720    50.9730    28.3030   -16.5700     2.2500 
  161.6250    57.8640    48.8730    38.2980    61.7080    28.1440   -16.3960     2.2550 
  161.7500    62.3930    48.7800    38.3870    56.6410    27.9350   -16.2500     2.2600 
  161.8750    68.0650    47.5410    37.7470    47.9210    27.6960   -16.1270     2.2670 
  162.0000    70.2650    45.3510    36.4620    43.7930    27.4640   -15.9940     2.2760 
  162.1250    69.5110    42.5970    34.7160    45.1280    27.2790   -15.8410     2.2880 
  162.2500    71.1430    39.8280    32.8720    43.9990    27.1230   -15.7060     2.2970 
  162.3750    73.3260    37.3320    31.1540    38.5670    26.9580   -15.6140     2.3000 
  162.5000    73.2790    35.4240    29.8000    32.5070    26.7530   -15.5450     2.2910 
  162.6250    70.6960    34.8230    29.2620    31.0970    26.5230   -15.4520     2.2730 
  162.7500    68.5820    36.0120    29.8050    30.9800    26.3010   -15.3660     2.2520 
  162.8750    67.1940    39.6090    31.7560    31.3180    26.0970   -15.3240     2.2350 
  163.0000    63.9160    46.1100    35.3580    35.2970    25.9060   -15.3290     2.2240 
  163.1250    59.5660    54.5180    40.7910    47.5520    25.7270   -15.3450     2.2200 
  163.2500    57.3630    58.2490    47.0400    69.2080    25.5600   -15.3330     2.2220 
  163.3750    58.5110    60.3870    52.7580    78.8410    25.4060   -15.3160     2.2290 
  163.5000    61.9540    60.3310    56.3390    85.1690    25.2730   -15.3270     2.2430 
  163.6250    63.3100    57.7940    56.2160    74.3480    25.1820   -15.3530     2.2630 
