~V
VERS. 2.00: Ver 2.00
~W
STRT.M 59.0000:
STOP.M 221.0000:
STEP.M 0.1250:
NULL. -999.2500:
UWI. F11122:
~C
DEPT.M :
GR.API :
RML.OHMM :
RI. :
RXO.OHMM :
CALI.CM :
SP.MV :
DEN.GM/CC :
~A
# ...
  137.7500    98.7680     6.2530     5.1850     6.4420    24.8900   -12.7230     2.4210 
  137.8750    99.9190     6.2660     5.2220     6.0770    24.8750   -12.7110     2.4080 
  138.0000   102.7850     6.1510     5.1520     5.1440    24.8110   -12.7690     2.3810 
  138.1250   107.0300     5.9480     4.9820     4.4070    24.7070   -12.8520     2.3550 
  138.2500   109.8660     5.7490     4.7880     4.0540    24.5740   -12.9040     2.3410 
  138.3750   110.1460     5.6110     4.6200     3.8820    24.4490   -12.8730     2.3390 
  138.5000   108.0730     5.5540     4.5060     3.9330    24.5130   -12.7750     2.3410 
  138.6250   106.3310     5.5680     4.4550     4.0920    24.6730   -12.6690     2.3440 
  138.7500   106.2250     5.6080     4.4400     4.2530    24.7970   -12.6110     2.3460 
  138.8750   107.9990     5.6520     4.4430     4.2880    24.9010   -12.5980     2.3480 
  139.0000   108.3170     5.6940     4.4580     4.2550    25.0320   -12.6290     2.3490 
  139.1250   103.6800     5.7430     4.4900     4.1980    25.1450   -12.7020     2.3490 
  139.2500    98.2750     5.8130     4.5430     4.2610    25.1780   -12.7970     2.3500 
  139.3750    97.1640     5.9190     4.6280     4.5010    25.1130   -12.8910     2.3490 
  139.5000   100.2600     6.0750     4.7550     4.8500    24.8900   -13.0070     2.3460 
  139.6250   103.0660     6.3050     4.9450     5.1920    24.3830   -13.1900     2.3430 
  139.7500   105.4770     6.6050     5.1960     5.4670    23.8870   -13.4100     2.3440 
  139.8750   108.1380     6.9690     5.5070     5.8060    24.0510   -13.6120     2.3530 
  140.0000   110.0700     7.3670     5.8650     6.4800    24.7320   -13.7340     2.3640 
  140.1250   109.0820     7.7170     6.2210     7.5180    25.0510   -13.7700     2.3690 
  140.2500   106.3240     7.9100     6.4850     8.0220    25.1230   -13.7760     2.3600 
  140.3750   102.8700     7.8480     6.5630     7.7530    25.1480   -13.8140     2.3420 
  140.5000   100.3660     7.4930     6.3960     7.5980    25.1780   -13.8500     2.3250 
  140.6250    99.1670     6.8800     5.9710     7.3250    25.1900   -13.8130     2.3200 
  140.7500   101.0610     6.2110     5.4400     6.3570    25.1930   -13.6940     2.3270 
  140.8750   108.8490     5.6340     4.9290     4.9590    25.1810   -13.5200     2.3380 
  141.0000   117.4000     5.2460     4.5340     3.9320    25.1700   -13.3490     2.3470 
  141.1250   119.0210     5.1040     4.3270     3.7750    25.1690   -13.2100     2.3490 
  141.2500   116.1800     5.1340     4.2690     4.0730    25.1660   -13.1050     2.3470 
  141.3750   114.5840     5.2710     4.3190     4.3590    25.1590   -13.0130     2.3470 
  141.5000   115.5160     5.4460     4.4270     4.4690    25.1560   -12.9220     2.3510 
  141.6250   117.8960     5.5950     4.5420     4.5320    25.2040   -12.7940     2.3570 
  141.7500   122.2100     5.7090     4.6370     4.6710    25.2610   -12.6500     2.3620 
  141.8750   125.0330     5.8250     4.7240     4.8710    25.2940   -12.5430     2.3620 
  142.0000   123.5020     6.0130     4.8430     5.0190    25.3120   -12.4640     2.3570 
  142.1250   118.9110     6.4070     5.0870     5.2520    25.3360   -12.3950     2.3500 
  142.2500   113.5980     7.0950     5.5290     5.7040    25.3700   -12.3240     2.3450 
  142.3750   109.9950     8.1650     6.2510     6.5160    25.3810   -12.2430     2.3470 
  142.5000   107.7450     9.6560     7.3200     8.2190    25.3590   -12.1590     2.3550 
  142.6250   102.1770    11.5200     8.7920    11.4480    25.3160   -12.1340     2.3630 
  142.7500    92.8190    13.4130    10.4550    14.3040    25.3020   -12.1770     2.3640 
  142.8750    85.3740    14.9660    12.0230    14.6390    25.3710   -12.2520     2.3550 
  143.0000    86.1810    15.8610    13.1630    16.6790    25.4720   -12.3480     2.3400 
  143.1250    91.3870    15.8730    13.5400    18.3670    25.4800   -12.4000     2.3280 
  143.2500    92.5630    15.3440    13.3270    18.3630    25.4250   -12.3970     2.3220 
  143.3750    89.4320    14.6080    12.7790    16.8520    25.2960   -12.3530     2.3170 
  143.5000    86.2240    13.9600    12.1790    14.8410    25.0940   -12.3110     2.3070 
  143.6250    89.7030    13.6060    11.7560    14.2660    24.9270   -12.2600     2.2860 
  143.7500    97.2570    13.5080    11.5470    13.9540    24.8740   -12.1710     2.2640 
  143.8750   103.2770    13.6000    11.5220    14.5110    24.8720   -12.0280     2.2500 
  144.0000   102.4430    13.8160    11.6320    15.6680    24.9310   -11.8230     2.2450 
  144.1250    97.5200    14.1740    11.8700    16.4810    25.0390   -11.6290     2.2430 
  144.2500    95.9270    14.7500    12.2670    14.9310    25.0890   -11.4660     2.2280 
  144.3750    95.7870    15.6890    12.9260    13.4660    25.0640   -11.3490     2.2030 
  144.5000    93.2660    17.1390    13.9750    12.9240    25.0540   -11.2680     2.1790 
  144.6250    87.4580    19.2780    15.6190    13.8900    24.9550   -11.1900     2.1740 
  144.7500    85.4160    21.9230    17.7890    15.5900    24.5010   -11.1030     2.1850 
  144.8750    88.5870    24.8120    20.3360    15.7100    23.8220   -11.0300     2.1980 
  145.0000    92.1110    27.5340    22.9410    15.0760    23.3300   -10.9930     2.1940 
  145.1250    91.2040    29.4650    25.0420    15.0880    23.2400   -10.9670     2.1690 
  145.2500    89.6450    30.3590    26.3000    18.0740    23.4220   -10.9660     2.1400 
  145.3750    88.7330    30.1690    26.5830    25.1700    24.0180   -10.9550     2.1220 
  145.5000    85.9820    29.0730    25.9860    32.2090    24.8630   -10.9080     2.1220 
  145.6250    83.9230    27.3290    24.7000    30.7860    25.5590   -10.8480     2.1360 
  145.7500    86.3500    25.3710    23.1420    28.4770    25.8260   -10.8010     2.1520 
  145.8750    90.8900    23.4150    21.5330    26.6480    25.9160   -10.7670     2.1670 
  146.0000    94.0470    21.5960    20.0160    23.4810    25.9750   -10.7550     2.1810 
  146.1250    95.9080    20.0420    18.7120    20.7980    25.9240   -10.8020     2.1950 
  146.2500    96.6480    18.7760    17.6460    19.4880    25.8160   -10.8410     2.2120 
  146.3750    95.0280    17.8410    16.8570    18.2960    25.7250   -10.8370     2.2310 
  146.5000    93.4690    17.2640    16.3780    17.0770    25.6780   -10.8100     2.2470 
  146.6250    93.3000    17.0790    16.2610    16.5370    25.6670   -10.7790     2.2550 
  146.7500    93.3500    17.1330    16.3900    17.1890    25.6620   -10.7490     2.2530 
  146.8750    92.9360    17.2710    16.6410    17.8380    25.6320   -10.7230     2.2440 
  147.0000    91.9100    17.3000    16.8350    17.8510    25.5100   -10.7000     2.2310 
  147.1250    90.4190    16.9490    16.6910    16.1560    25.2880   -10.6210     2.2190 
  147.2500    88.8780    16.1640    16.1000    16.1230    25.2050   -10.4930     2.2120 
  147.3750    89.5430    15.0330    15.1010    15.9030    25.3210   -10.3690     2.2120 
  147.5000    92.6130    13.8040    13.9120    15.2240    25.4890   -10.2970     2.2230 
  147.6250    95.9330    12.9000    12.9200    13.5640    25.5030   -10.2680     2.2480 
  147.7500    96.7170    12.5850    12.4150    11.8350    25.4640   -10.2420     2.2810 
  147.8750    95.7330    12.9790    12.5580    10.9790    25.4070   -10.1800     2.3100 
  148.0000    95.3400    14.0260    13.3800    13.2520    25.3410   -10.0470     2.3270 
  148.1250    94.2270    15.4900    14.7970    16.9780    25.3560    -9.8620     2.3270 
  148.2500    92.8210    16.8610    16.3360    17.8570    25.4080    -9.6840     2.3190 
  148.3750    93.9440    17.7610    17.5660    17.7070    25.4510    -9.5420     2.3100 
  148.5000    98.0010    17.9910    18.1530    17.9640    25.4370    -9.4060     2.3060 
  148.6250   100.8680    17.5320    17.9180    16.7880    25.4240    -9.2690     2.3080 
  148.7500    98.1070    16.7630    17.2080    14.3510    25.4090    -9.1380     2.3120 
  148.8750    92.7190    15.9430    16.3060    12.5510    25.3910    -9.0340     2.3180 
