~V
VERS. 2.00: Ver 2.00
~W
STRT.M 53.0000:
STOP.M 252.0000:
STEP.M 0.1250:
NULL. -999.2500:
UWI. F11141:
~C
DEPT.M :
SP.MV :
DEN.GM/CC :
GR.API :
RML.OHMM :
RI. :
RXO.OHMM :
CALI.CM :
~A
# ...
   75.5000   -31.7390     2.0980    63.1380     9.8760     7.4560    13.7900    24.6810 
   75.6250   -31.5190     2.0810    63.7260     9.8340     7.4190    13.6820    25.1980 
   75.7500   -31.3070     2.0760    63.8000     9.7970     7.3790    13.4810    25.4380 
   75.8750   -31.1470     2.0800    63.2520     9.7640     7.3280    13.3910    25.3590 
   76.0000   -31.0650     2.0770    61.5770     9.7240     7.2650    13.4150    25.2030 
   76.1250   -31.0240     2.0540    60.1970     9.6710     7.1940    13.1970    25.2610 
   76.2500   -30.9480     2.0230    63.2870     9.6090     7.1230    13.0500    25.4830 
   76.3750   -30.8460     2.0030    69.2660     9.5490     7.0560    12.9040    25.6550 
   76.5000   -30.7400     2.0070    72.2120     9.5020     6.9960    12.7950    25.5640 
   76.6250   -30.6660     2.0360    68.0640     9.4770     6.9480    12.9030    25.2850 
   76.7500   -30.6470     2.0690    64.3460     9.4730     6.9160    13.1060    25.0280 
   76.8750   -30.6650     2.0900    64.5540     9.4870     6.9020    13.2980    24.9250 
   77.0000   -30.6830     2.0940    65.0580     9.5130     6.9020    13.5640    24.9940 
   77.1250   -30.6850     2.0810    64.8280     9.5340     6.9030    13.4440    25.2840 
   77.2500   -30.6970     2.0650    65.4520     9.5300     6.8910    13.3780    25.6570 
   77.3750   -30.6900     2.0560    67.7060     9.4960     6.8660    13.2820    26.0120 
   77.5000   -30.6440     2.0630    69.0910     9.4450     6.8380    13.1340    26.1760 
   77.6250   -30.5310     2.0880    66.8730     9.3990     6.8210    12.8790    25.9940 
   77.7500   -30.3100     2.1120    64.2970     9.3700     6.8170    12.5750    25.5650 
   77.8750   -29.9340     2.1200    63.1870     9.3550     6.8220    12.1660    24.9800 
   78.0000   -29.4090     2.1030    63.9550     9.3520     6.8320    12.6230    24.2770 
   78.1250   -28.8730     2.0670    65.0780     9.3640     6.8450    15.4520    23.7730 
   78.2500   -28.4740     2.0310    67.1500     9.3950     6.8640    18.9960    23.5960 
   78.3750   -28.2540     2.0090    71.8430     9.4520     6.8960    16.7100    23.4140 
   78.5000   -28.2290     2.0050    77.7040     9.5430     6.9500    13.8320    23.0790 
   78.6250   -28.4080     2.0190    80.3500     9.6780     7.0430    13.2400    23.0760 
   78.7500   -28.6890     2.0420    78.2670     9.8450     7.1700    13.4600    23.2850 
   78.8750   -29.0470     2.0690    74.1180    10.0270     7.3150    13.6270    23.5040 
   79.0000   -29.4900     2.0930    72.1930    10.1810     7.4500    13.8470    23.6760 
   79.1250   -29.9440     2.1050    73.0500    10.2460     7.5290    14.0060    23.7060 
   79.2500   -30.2700     2.1020    73.1650    10.2210     7.5440    14.2470    23.7160 
   79.3750   -30.4540     2.0890    71.2370    10.1090     7.4850    14.3910    23.7120 
   79.5000   -30.4830     2.0740    69.9300     9.9030     7.3400    14.1190    23.7220 
   79.6250   -30.3330     2.0710    72.1630     9.5780     7.0920    12.7840    23.7060 
   79.7500   -30.0580     2.0860    73.9230     9.1860     6.7950    11.6750    23.6410 
   79.8750   -29.7140     2.1120    72.6680     8.7990     6.5120    11.7540    23.5980 
   80.0000   -29.4190     2.1370    70.8340     8.5030     6.3070    10.9190    23.6200 
   80.1250   -29.3180     2.1460    72.3830     8.4010     6.2510     9.4850    23.6530 
   80.2500   -29.4610     2.1370    74.0510     8.4750     6.3350    10.4680    23.8160 
   80.3750   -29.7820     2.1160    70.4610     8.6700     6.5400    12.8170    24.1330 
   80.5000   -30.1980     2.0930    63.2570     8.9100     6.8250    14.2020    24.5500 
   80.6250   -30.6030     2.0780    60.1030     9.1310     7.1410    14.0220    24.6750 
   80.7500   -30.9050     2.0720    60.6650     9.3240     7.4440    13.7850    24.5810 
   80.8750   -31.0510     2.0730    62.5020     9.5120     7.7130    13.5250    24.4530 
   81.0000   -30.9410     2.0810    64.6570     9.6950     7.9280    13.3290    24.3770 
   81.1250   -30.2670     2.1010    68.2500     9.7720     8.0010    13.1780    24.3020 
   81.2500   -28.8520     2.1340    72.7200     9.6190     7.8490    12.9220    24.1850 
   81.3750   -26.6540     2.1800    77.3310     9.1620     7.4190    12.2780    24.0470 
   81.5000   -23.7970     2.2310    83.4640     8.4320     6.7450    10.6460    23.9650 
   81.6250   -20.5530     2.2760    93.4860     7.5570     5.9460     7.7880    24.0810 
   81.7500   -17.3510     2.3040   104.9980     6.7140     5.1790     5.4350    24.2680 
   81.8750   -14.3550     2.3110   113.8370     5.9860     4.5230     4.6410    24.3710 
   82.0000   -11.5880     2.3020   118.4250     5.4390     4.0370     4.5670    24.4130 
   82.1250    -9.1650     2.2950   121.8920     5.2610     3.8480     4.5860    24.3950 
   82.2500    -7.2630     2.3100   123.6150     5.6060     4.0190     4.7460    24.3570 
   82.3750    -6.0250     2.3590   116.4010     6.7330     4.6820     5.1700    24.2830 
   82.5000    -5.4890     2.4390    99.7110     8.9780     6.0600     7.2350    24.1400 
   82.6250    -5.6190     2.5340    83.4550    12.8580     8.6900    14.5540    23.8320 
   82.7500    -6.1320     2.6130    75.3540    17.8880    12.5690    25.9780    23.4450 
   82.8750    -6.9230     2.6530    72.7110    22.8320    17.0880    29.3820    23.1320 
   83.0000    -7.9770     2.6380    70.4020    25.5680    20.5080    29.9960    23.1280 
   83.1250    -9.4060     2.5620    69.9320    24.0760    20.5150    33.1620    23.4390 
   83.2500   -11.1680     2.4550    70.6750    20.3160    18.1600    29.6970    23.6170 
   83.3750   -13.2360     2.3450    69.9750    16.4430    15.1910    21.1970    23.6350 
   83.5000   -15.4820     2.2570    66.1970    13.6340    12.7290    14.4250    23.6870 
   83.6250   -17.7860     2.2060    63.3070    12.2020    11.1900    13.6550    23.9440 
   83.7500   -20.0520     2.1790    62.0460    11.6530    10.3350    15.7640    24.1420 
   83.8750   -22.2000     2.1660    60.9040    11.6780    10.0110    16.0010    24.0720 
   84.0000   -24.1770     2.1590    60.8480    11.9710    10.0330    14.7900    23.8380 
   84.1250   -25.9150     2.1590    63.4530    12.2450    10.2020    14.2280    23.6890 
   84.2500   -27.4510     2.1590    65.3330    12.3530    10.3250    15.2680    23.8430 
   84.3750   -28.7810     2.1510    63.4340    12.2700    10.3350    16.7390    24.3060 
   84.5000   -29.9370     2.1250    59.5960    12.0350    10.2290    16.0070    24.8950 
   84.6250   -30.8980     2.0770    58.8850    11.7630    10.0720    15.8720    25.2330 
   84.7500   -31.6140     2.0310    59.6250    11.6400     9.9940    14.3900    25.3020 
   84.8750   -32.1390     2.0090    58.3660    11.7770    10.0760    13.5900    25.0310 
   85.0000   -32.6330     2.0200    57.8550    12.1640    10.3210    14.1210    24.7090 
   85.1250   -33.0610     2.0540    58.9550    12.6210    10.6100    15.9360    24.5080 
   85.2500   -33.2910     2.0790    58.2910    12.8550    10.7430    18.7110    24.3960 
   85.3750   -33.3240     2.0820    55.7130    12.6810    10.5860    21.9900    24.3740 
   85.5000   -33.2410     2.0670    55.8960    12.1110    10.1350    18.3850    24.5430 
   85.6250   -33.1080     2.0540    59.4410    11.3670     9.5300    13.8390    24.7770 
   85.7500   -32.9830     2.0530    60.5640    10.7540     8.9850    12.1840    24.8550 
   85.8750   -32.8000     2.0660    59.6200    10.3990     8.5990    12.9020    25.0810 
   86.0000   -32.4820     2.0820    59.3920    10.3120     8.3990    13.1480    25.6120 
   86.1250   -32.1120     2.0870    61.3690    10.4110     8.3630    12.5370    26.0540 
   86.2500   -31.7390     2.0690    62.5370    10.5010     8.3700    12.4580    26.1360 
   86.3750   -31.2930     2.0190    61.8420    10.4660     8.3310    13.2670    26.1060 
   86.5000   -30.7040     1.9430    60.6570    10.3040     8.2230    13.7980    26.1600 
   86.6250   -29.9050     1.8790    61.7910    10.1760     8.1320    13.5380    26.0470 
