~V
VERS. 2.00: Ver 2.00
~W
STRT.M 56.0000:
STOP.M 252.0000:
STEP.M 0.1250:
NULL. -999.2500:
UWI. F11142:
~C
DEPT.M :
SP.MV :
DEN.GM/CC :
GR.API :
RML.OHMM :
RI. :
RXO.OHMM :
CALI.CM :
~A
# ...
  112.2500    -2.1470     2.3390   111.1220     5.5450     4.5670     5.6550    23.4690 
  112.3750    -1.8370     2.3530   110.9210     5.4350     4.5110     5.6440    23.8300 
  112.5000    -1.4800     2.3520   112.7030     5.3520     4.4500     5.2920    24.1270 
  112.6250    -1.0860     2.3460   115.7920     5.3100     4.4000     5.0870    24.2980 
  112.7500    -0.6790     2.3470   118.0100     5.2920     4.3600     5.1530    24.3480 
  112.8750    -0.2930     2.3470   117.6580     5.2560     4.3170     5.2730    24.3490 
  113.0000     0.0550     2.3340   114.3460     5.1490     4.2480     5.1900    24.3670 
  113.1250     0.3540     2.3160   110.5690     4.9620     4.1490     5.0490    24.3660 
  113.2500     0.5980     2.3090   108.0760     4.7170     4.0290     4.9080    24.3450 
  113.3750     0.8060     2.3120   107.3590     4.4680     3.9020     4.6640    24.3320 
  113.5000     0.9160     2.3150   109.3100     4.3000     3.7920     4.3870    24.3660 
  113.6250     0.9610     2.3140   112.6310     4.2400     3.7120     4.2380    24.4420 
  113.7500     0.9980     2.3160   116.5040     4.2760     3.6670     4.2310    24.4940 
  113.8750     1.0310     2.3310   120.1240     4.3710     3.6570     4.2830    24.4720 
  114.0000     1.0210     2.3540   124.1060     4.4780     3.6850     4.3520    24.3900 
  114.1250     0.9890     2.3660   125.5350     4.5620     3.7350     4.4540    24.3190 
  114.2500     0.9340     2.3610   122.1530     4.6160     3.7970     4.5910    24.2470 
  114.3750     0.8420     2.3470   115.4230     4.6560     3.8620     4.6990    24.1580 
  114.5000     0.7870     2.3280   110.4590     4.7080     3.9250     4.7840    24.1200 
  114.6250     0.7660     2.3120   109.3650     4.7970     3.9940     4.8660    24.0500 
  114.7500     0.7490     2.3150   110.4780     4.9340     4.0760     4.9200    23.9490 
  114.8750     0.7020     2.3490   112.6920     5.1110     4.1770     4.9940    23.9310 
  115.0000     0.6120     2.3980   114.0290     5.2880     4.2910     5.2700    23.9870 
  115.1250     0.4880     2.4280   113.5830     5.4130     4.3890     5.6180    24.1530 
  115.2500     0.3560     2.4330   114.0180     5.4450     4.4370     5.8090    24.2390 
  115.3750     0.2200     2.4210   118.4700     5.3580     4.4040     5.7700    24.2490 
  115.5000     0.0960     2.3990   130.2300     5.1410     4.2690     5.4220    24.2520 
  115.6250    -0.0640     2.3730   142.9890     4.8560     4.0730     4.9020    24.2880 
  115.7500    -0.2290     2.3490   147.4580     4.5670     3.8620     4.4230    24.3180 
  115.8750    -0.3910     2.3350   140.0810     4.3320     3.6780     4.1570    24.2530 
  116.0000    -0.4960     2.3350   127.8390     4.2060     3.5630     4.0720    24.0410 
  116.1250    -0.5740     2.3460   120.6310     4.1730     3.5120     4.0940    23.9510 
  116.2500    -0.6100     2.3620   119.0950     4.2070     3.5130     4.1630    23.8930 
  116.3750    -0.6230     2.3710   119.4260     4.2730     3.5480     4.2240    23.8690 
  116.5000    -0.6300     2.3690   120.7070     4.3330     3.5960     4.2460    23.8790 
  116.6250    -0.6470     2.3640   121.6290     4.3650     3.6350     4.2530    23.8980 
  116.7500    -0.6910     2.3630   120.9070     4.3650     3.6580     4.2630    23.8900 
  116.8750    -0.7080     2.3640   120.0330     4.3460     3.6620     4.2720    23.8610 
  117.0000    -0.6900     2.3660   119.9730     4.3380     3.6570     4.2690    23.8600 
  117.1250    -0.6870     2.3640   119.9370     4.3910     3.6780     4.2920    23.7620 
  117.2500    -0.7430     2.3610   118.3340     4.5730     3.7750     4.3460    23.5740 
  117.3750    -0.8300     2.3580   116.2010     4.9550     4.0160     4.5130    23.4220 
  117.5000    -0.9700     2.3630   114.6940     5.6160     4.4970     5.0400    23.3860 
  117.6250    -1.0960     2.3830   110.9060     6.4640     5.1890     6.1390    23.3930 
  117.7500    -1.2250     2.4210   103.8410     7.3640     6.0190     7.7100    23.3950 
  117.8750    -1.3790     2.4620    95.5400     8.1360     6.8450     9.4870    23.4020 
  118.0000    -1.5810     2.4830    89.2050     8.5560     7.4440    10.5480    23.4380 
  118.1250    -1.7970     2.4770    86.3090     8.6200     7.7140    10.4010    23.5170 
  118.2500    -2.0320     2.4620    86.4980     8.4060     7.6600     9.4450    23.6550 
  118.3750    -2.2770     2.4570    87.0600     8.0630     7.3880     9.2740    23.7990 
  118.5000    -2.5310     2.4610    84.7150     7.7260     7.0380    10.1510    23.9250 
  118.6250    -2.8200     2.4460    81.9120     7.4390     6.7120    11.0480    24.0200 
  118.7500    -3.1400     2.4000    80.8140     7.1960     6.4350    10.6470    24.0710 
  118.8750    -3.4610     2.3440    81.4510     7.0230     6.2280     8.7340    24.1060 
  119.0000    -3.7310     2.3130    82.6070     7.0880     6.1990     7.9980    24.1300 
  119.1250    -3.8640     2.3070    83.7260     7.5790     6.4800     8.1930    24.1620 
  119.2500    -3.8220     2.3230    83.2000     8.6890     7.2440     8.6070    24.2340 
  119.3750    -3.6380     2.3700    79.5440    10.4740     8.6110     9.7650    24.3130 
  119.5000    -3.3340     2.4550    72.9480    12.7140    10.5500    13.0110    24.3610 
  119.6250    -2.9480     2.5460    65.6060    14.6720    12.5080    17.3770    24.3020 
  119.7500    -2.5210     2.6020    60.0160    15.6210    13.8370    21.0800    24.2020 
  119.8750    -2.1300     2.5990    59.0870    15.0510    13.9240    21.7690    24.1100 
  120.0000    -1.8620     2.5410    63.1260    12.9350    12.4160    18.2030    24.0010 
  120.1250    -1.7060     2.4660    68.7830    10.5530    10.3250    13.1430    24.0030 
  120.2500    -1.6240     2.4000    73.3430     8.9290     8.5960     8.8890    24.0940 
  120.3750    -1.6170     2.3630    75.1460     8.6920     7.7670     7.0360    24.1430 
  120.5000    -1.6510     2.3680    73.4740    10.1030     8.1930     8.0890    24.0940 
  120.6250    -1.6820     2.4010    69.2240    12.8490     9.7230    11.0290    24.0220 
  120.7500    -1.6800     2.4490    63.2780    16.6850    12.2760    15.4660    24.1240 
  120.8750    -1.6170     2.4930    58.1230    20.5850    15.5450    20.7220    24.3830 
  121.0000    -1.5000     2.5150    56.0960    23.7320    18.8390    24.1250    24.5330 
  121.1250    -1.4010     2.5200    54.9970    25.5220    21.2950    25.0820    24.5460 
  121.2500    -1.4210     2.5210    52.9140    25.7760    22.4270    24.2370    24.5410 
  121.3750    -1.5260     2.5310    51.1000    24.9440    22.3510    22.3980    24.5130 
  121.5000    -1.7030     2.5410    50.5870    23.8100    21.6350    20.9530    24.3900 
  121.6250    -1.8980     2.5360    50.5010    22.9190    20.9220    20.8540    24.2000 
  121.7500    -2.0930     2.5130    50.4690    22.3150    20.3710    21.5540    24.0580 
  121.8750    -2.2770     2.4890    50.4660    21.8830    19.9540    22.2740    24.0930 
  122.0000    -2.3910     2.4810    50.6460    21.5110    19.5800    22.4130    24.2300 
  122.1250    -2.4570     2.4870    51.1900    21.1360    19.1800    21.5020    24.2410 
  122.2500    -2.4540     2.4950    52.3950    20.7760    18.7620    20.5160    24.1830 
  122.3750    -2.4110     2.4970    52.7290    20.4840    18.3830    19.8910    24.0880 
  122.5000    -2.3500     2.4970    51.2750    20.3580    18.1530    19.3500    23.9560 
  122.6250    -2.3220     2.5050    49.9760    20.4440    18.1290    18.6400    23.9150 
  122.7500    -2.3090     2.5240    50.1400    20.7680    18.3470    18.4350    24.0530 
  122.8750    -2.2830     2.5490    51.1770    21.2980    18.7920    19.4260    24.2320 
  123.0000    -2.2800     2.5690    53.1440    21.9380    19.4040    20.9170    24.2890 
  123.1250    -2.2920     2.5740    56.0450    22.5190    20.0190    22.7970    24.2890 
  123.2500    -2.2900     2.5590    58.0060    22.9170    20.5030    24.9380    24.3410 
  123.3750    -2.2890     2.5310    57.4760    23.0760    20.7670    25.8910    24.4730 
