~V
VERS. 2.00: Ver 2.00
~W
STRT.M 62.0000:
STOP.M 219.0000:
STEP.M 0.1250:
NULL. -999.2500:
UWI. F11127:
~C
DEPT.M :
SP.MV :
DEN.GM/CC :
GR.API :
RML.OHMM :
RI. :
RXO.OHMM :
CALI.CM :
~A
# ...
  129.5000    -6.0620     2.4590    58.0300    16.6590    15.9250    16.1840    23.4780 
  129.6250    -5.9230     2.4710    57.1700    16.6820    15.8820    16.4740    23.6810 
  129.7500    -5.7850     2.4780    55.8560    16.8160    15.9570    16.5160    23.8160 
  129.8750    -5.6340     2.4890    54.4110    17.0950    16.1600    16.5350    23.9140 
  130.0000    -5.5890     2.5030    53.5130    17.5720    16.5410    16.8960    24.0250 
  130.1250    -5.6150     2.5150    52.9340    18.2370    17.1150    17.5030    24.1380 
  130.2500    -5.6500     2.5200    52.0490    19.0000    17.8300    18.5510    24.2110 
  130.3750    -5.6820     2.5200    51.6290    19.6960    18.5310    19.4400    24.2110 
  130.5000    -5.6840     2.5170    52.0010    20.2270    19.1000    19.6600    24.2020 
  130.6250    -5.7220     2.5120    53.2260    20.5590    19.4760    18.9980    24.2670 
  130.7500    -5.8840     2.5100    53.8890    20.6820    19.6310    18.5610    24.2660 
  130.8750    -6.1340     2.5190    53.5140    20.6350    19.6210    19.0350    24.2230 
  131.0000    -6.2390     2.5340    53.4890    20.3680    19.4200    20.0260    24.1550 
  131.1250    -6.3110     2.5460    54.7740    19.8050    18.9610    20.6420    24.1160 
  131.2500    -6.4790     2.5510    56.1870    18.8830    18.1580    19.9840    24.1220 
  131.3750    -6.7080     2.5520    56.2100    17.8180    17.1720    18.1030    24.1380 
  131.5000    -6.9630     2.5490    56.1900    16.8940    16.2390    15.8330    24.1850 
  131.6250    -7.2510     2.5430    58.4070    16.4090    15.6320    14.2210    24.2890 
  131.7500    -7.5710     2.5350    61.3980    16.6420    15.6430    14.2190    24.3290 
  131.8750    -7.8370     2.5320    62.1260    17.4040    16.1880    15.8170    24.3290 
  132.0000    -8.0290     2.5360    60.7230    18.4030    17.0860    18.2460    24.3000 
  132.1250    -8.1790     2.5420    59.1640    19.2520    18.0240    20.2930    24.2610 
  132.2500    -8.2820     2.5430    59.2180    19.4830    18.5520    20.9300    24.1450 
  132.3750    -8.3560     2.5310    61.5470    19.0340    18.4650    20.6150    24.1200 
  132.5000    -8.3890     2.5060    65.9540    18.0300    17.7730    19.5980    24.2650 
  132.6250    -8.3800     2.4720    70.8440    16.7590    16.6900    17.8670    24.4760 
  132.7500    -8.3110     2.4420    73.5910    15.5900    15.5570    16.3000    24.6480 
  132.8750    -8.2700     2.4240    74.6970    14.7480    14.6520    14.6950    24.7450 
  133.0000    -8.2930     2.4140    76.5560    14.3090    14.0810    13.4740    24.8250 
  133.1250    -8.3370     2.4080    79.5900    14.2620    13.8610    12.9090    24.8870 
  133.2500    -8.4690     2.4140    79.6810    14.5540    13.9740    13.1800    24.8250 
  133.3750    -8.6730     2.4320    77.7190    14.9780    14.2500    14.0880    24.6830 
  133.5000    -8.8810     2.4470    77.5580    15.3850    14.5580    14.9820    24.5790 
  133.6250    -9.0510     2.4450    79.5960    15.6720    14.7930    15.0950    24.5870 
  133.7500    -9.1950     2.4220    79.7600    15.8240    14.9000    15.2730    24.7100 
  133.8750    -9.3570     2.3960    77.9840    15.9870    14.9740    15.3560    24.7840 
  134.0000    -9.6210     2.3820    77.2110    16.3300    15.1490    15.4140    24.7300 
  134.1250    -9.9150     2.3870    77.5680    17.0070    15.5720    15.9440    24.6150 
  134.2500   -10.1320     2.4130    76.3520    18.1630    16.4110    17.1830    24.4550 
  134.3750   -10.2970     2.4440    75.2180    19.6820    17.6110    19.0240    24.2550 
  134.5000   -10.5390     2.4690    76.1140    21.4220    19.0760    20.7890    24.0650 
  134.6250   -10.8370     2.4790    78.3970    23.1820    20.6410    22.6390    23.9600 
  134.7500   -11.1070     2.4670    80.3180    24.6790    22.0490    24.6210    23.9470 
  134.8750   -11.3100     2.4460    82.5010    25.7680    23.1230    26.4800    23.9270 
  135.0000   -11.4620     2.4300    85.4870    26.3980    23.7890    27.4550    23.8830 
  135.1250   -11.5600     2.4250    86.0580    26.6250    24.0760    27.3940    23.8340 
  135.2500   -11.5840     2.4290    83.8400    26.5420    24.0460    26.2650    23.8590 
  135.3750   -11.5480     2.4370    82.4250    26.3350    23.8550    25.6140    23.9470 
  135.5000   -11.4750     2.4440    82.4850    26.0840    23.5750    25.3300    24.0090 
  135.6250   -11.3740     2.4460    83.2300    25.8080    23.2440    25.0170    23.9780 
  135.7500   -11.2500     2.4420    84.2890    25.4490    22.8460    25.2150    23.8850 
  135.8750   -11.1020     2.4340    85.7600    24.9610    22.3690    24.6910    23.8210 
  136.0000   -10.9280     2.4210    85.8730    24.3500    21.8140    24.3800    23.7840 
  136.1250   -10.7700     2.4010    85.3510    23.6880    21.2230    24.0960    23.7920 
  136.2500   -10.6340     2.3830    85.7860    23.1130    20.6810    21.9190    23.9570 
  136.3750   -10.5100     2.3750    85.0200    22.7090    20.2550    20.2540    24.2400 
  136.5000   -10.4430     2.3780    82.2380    22.4920    19.9760    19.6430    24.4360 
  136.6250   -10.4060     2.3850    79.3390    22.4120    19.8270    19.3480    24.4720 
  136.7500   -10.3380     2.3890    79.2590    22.3640    19.7390    18.3000    24.3340 
  136.8750   -10.1930     2.3960    81.3670    22.2170    19.5970    17.5200    24.0380 
  137.0000    -9.9490     2.4110    82.9960    21.8720    19.3050    17.3600    23.6510 
  137.1250    -9.7320     2.4290    83.2880    21.2670    18.7980    17.8430    23.3700 
  137.2500    -9.5980     2.4380    83.5140    20.3740    18.0290    18.7610    23.4370 
  137.3750    -9.4970     2.4380    84.9950    19.3400    17.1130    19.3710    23.8420 
  137.5000    -9.2790     2.4410    87.0470    18.3200    16.1750    19.2100    24.3880 
  137.6250    -9.0450     2.4510    88.4570    17.4600    15.3500    18.2060    24.8730 
  137.7500    -8.9360     2.4660    88.8920    16.8930    14.7770    16.8450    25.0020 
  137.8750    -8.9600     2.4740    88.3390    16.5210    14.4080    16.0740    25.0770 
  138.0000    -9.0700     2.4740    86.9640    16.1630    14.1070    16.1060    25.1910 
  138.1250    -9.1950     2.4680    86.7010    15.5860    13.6660    16.3790    25.3150 
  138.2500    -9.3250     2.4530    87.5810    14.5420    12.8360    16.5060    25.3870 
  138.3750    -9.4540     2.4230    87.7780    13.1230    11.6400    16.0550    25.4060 
  138.5000    -9.5890     2.3770    88.2750    11.5440    10.2330    14.4920    25.4190 
  138.6250    -9.6920     2.3270    89.7320    10.0160     8.8570    11.3800    25.3430 
  138.7500    -9.7410     2.2910    90.6600     8.8760     7.7850     8.7440    25.1440 
  138.8750    -9.7660     2.2730    89.6730     8.0820     7.0610     7.3430    24.9390 
  139.0000    -9.7920     2.2670    87.3800     7.5130     6.6490     6.9160    24.8160 
  139.1250    -9.7840     2.2650    84.4400     7.3530     6.4560     6.8280    24.6880 
  139.2500    -9.7580     2.2630    81.7940     7.3010     6.3740     6.9680    24.5240 
  139.3750    -9.7530     2.2610    82.1860     7.1840     6.2850     6.9610    24.3110 
  139.5000    -9.7490     2.2650    85.2940     6.9940     6.1540     6.5920    24.0190 
  139.6250    -9.7840     2.2720    88.0240     6.7880     6.0040     5.9420    23.6580 
  139.7500    -9.9200     2.2780    87.8210     6.6750     5.9050     5.5110    23.3450 
  139.8750   -10.1070     2.2760    86.4800     6.7090     5.9070     5.5690    23.3130 
  140.0000   -10.1900     2.2660    84.5090     6.8850     6.0200     5.9820    23.4460 
  140.1250   -10.1810     2.2540    81.4520     7.1470     6.2130     6.5730    23.5650 
  140.2500   -10.0980     2.2470    79.3600     7.3830     6.4100     7.1650    23.6010 
  140.3750    -9.9910     2.2520    79.2480     7.4950     6.5240     7.5040    23.6810 
  140.5000    -9.9840     2.2620    78.7210     7.4120     6.5000     7.4920    23.8260 
  140.6250    -9.9700     2.2670    77.0060     7.1490     6.3290     7.2350    24.0080 
