~V
VERS. 2.00: Ver 2.00
~W
STRT.M 45.0000:
STOP.M 268.0000:
STEP.M 0.1250:
NULL. -999.2500:
UWI. F11184:
~C
DEPT.M :
SP.MV :
GR.API :
RI. :
RML.OHMM :
RXO.OHMM :
DEN.GM/CC :
~A
# ...
  122.2500   -22.5770    91.8960     3.5470     3.9240     3.7270     2.1930 
  122.3750   -22.6930    88.2410     3.7700     4.1590     4.3610     2.1830 
  122.5000   -22.8350    82.2930     3.9650     4.3630     5.7290     2.1750 
  122.6250   -22.9570    77.6220     4.0230     4.4240     6.2700     2.1770 
  122.7500   -23.0350    77.4160     3.9810     4.3810     5.0880     2.1910 
  122.8750   -23.0660    81.4750     3.8740     4.2670     4.2330     2.2140 
  123.0000   -23.0760    86.2030     3.7660     4.1540     4.4720     2.2460 
  123.1250   -23.0960    90.7950     3.7250     4.1110     4.9850     2.2730 
  123.2500   -23.1390    92.6180     3.7490     4.1360     5.2940     2.2670 
  123.3750   -23.2070    89.9250     3.7780     4.1670     5.0380     2.2260 
  123.5000   -23.2870    85.4200     3.7530     4.1410     4.6660     2.1890 
  123.6250   -23.3690    82.7890     3.7190     4.1050     4.5560     2.1750 
  123.7500   -23.4530    80.8060     3.7230     4.1090     4.4790     2.1680 
  123.8750   -23.5420    78.8310     3.7960     4.1850     4.3610     2.1610 
  124.0000   -23.6330    79.9220     3.9000     4.2940     4.4800     2.1580 
  124.1250   -23.7120    83.6770     3.9940     4.3940     4.8280     2.1550 
  124.2500   -23.7610    84.5330     4.0520     4.4550     4.9700     2.1450 
  124.3750   -23.7570    80.9140     4.0290     4.4310     4.7700     2.1380 
  124.5000   -23.6970    76.7380     3.9160     4.3120     4.6230     2.1430 
  124.6250   -23.5880    75.1980     3.7220     4.1080     4.5820     2.1580 
  124.7500   -23.4580    76.3810     3.5030     3.8780     4.4400     2.1750 
  124.8750   -23.3360    80.1030     3.3330     3.6990     4.2810     2.1880 
  125.0000   -23.2440    85.3450     3.3260     3.6920     4.0900     2.1960 
  125.1250   -23.2020    89.3100     3.4830     3.8570     3.9780     2.1970 
  125.2500   -23.2030    90.5860     3.8010     4.1910     4.1470     2.2100 
  125.3750   -23.2350    89.8350     4.1710     4.5790     8.1420     2.2610 
  125.5000   -23.2710    88.3410     4.4580     4.8810    14.5410     2.3110 
  125.6250   -23.2820    86.2850     4.4510     4.8740    13.6840     2.2860 
  125.7500   -23.2460    82.7880     4.1640     4.5720     8.0080     2.1990 
  125.8750   -23.1430    79.2590     3.7440     4.1310     5.3340     2.1440 
  126.0000   -22.9820    79.5300     3.3500     3.7170     4.2840     2.1600 
  126.1250   -22.7830    83.5600     3.2060     3.5660     3.5860     2.2000 
  126.2500   -22.5820    87.5130     3.2220     3.5840     3.7520     2.2110 
  126.3750   -22.4080    88.3130     3.3220     3.6880     4.1140     2.1980 
  126.5000   -22.2670    86.8940     3.4260     3.7970     4.1740     2.1830 
  126.6250   -22.1620    86.5250     3.4300     3.8010     4.1630     2.1770 
  126.7500   -22.0840    87.6590     3.3190     3.6850     4.2120     2.1740 
  126.8750   -22.0320    89.5290     3.1520     3.5090     3.9400     2.1750 
  127.0000   -22.0060    91.3230     3.0130     3.3630     3.4260     2.1880 
  127.1250   -22.0140    93.7810     2.9680     3.3160     3.2660     2.2160 
  127.2500   -22.0600    96.8740     2.9980     3.3470     3.5450     2.2410 
  127.3750   -22.1520    96.8540     3.1110     3.4670     3.8530     2.2410 
  127.5000   -22.2890    92.8320     3.2750     3.6390     4.0930     2.2230 
  127.6250   -22.4670    86.1160     3.4280     3.7990     4.2870     2.2040 
  127.7500   -22.6640    80.2910     3.5130     3.8880     4.4420     2.1850 
  127.8750   -22.8430    76.8160     3.5050     3.8800     4.6770     2.1670 
  128.0000   -22.9670    76.9320     3.4740     3.8480     4.7520     2.1680 
  128.1250   -23.0030    80.5460     3.5350     3.9120     4.4880     2.1920 
  128.2500   -22.9600    83.6050     3.7240     4.1100     4.2410     2.2120 
  128.3750   -22.8590    81.6160     3.9820     4.3810     4.4430     2.1920 
  128.5000   -22.7360    77.4040     4.1810     4.5900     5.0980     2.1510 
  128.6250   -22.6070    75.4570     4.1330     4.5400     5.7530     2.1340 
  128.7500   -22.4810    76.7620     3.9010     4.2960     5.6170     2.1590 
  128.8750   -22.3660    79.6050     3.5860     3.9650     4.6100     2.2010 
  129.0000   -22.2790    82.3890     3.3050     3.6700     3.9230     2.2230 
  129.1250   -22.2410    83.5040     3.2140     3.5750     4.0330     2.2190 
  129.2500   -22.2580    82.5810     3.2920     3.6570     4.3770     2.2070 
  129.3750   -22.3260    81.4970     3.4980     3.8730     4.5200     2.2020 
  129.5000   -22.4280    80.1190     3.7400     4.1270     4.7060     2.2010 
  129.6250   -22.5500    78.8080     3.9470     4.3440     5.1150     2.1910 
  129.7500   -22.6760    78.7540     4.0680     4.4710     5.1880     2.1780 
  129.8750   -22.7830    79.8070     4.0990     4.5040     5.1120     2.1690 
  130.0000   -22.8450    79.0090     4.0300     4.4320     5.1190     2.1680 
  130.1250   -22.8320    76.7980     3.8940     4.2890     4.8740     2.1780 
  130.2500   -22.7440    76.3940     3.7230     4.1090     4.4990     2.1960 
  130.3750   -22.5980    78.4230     3.5460     3.9230     4.2650     2.2180 
  130.5000   -22.4370    79.6850     3.3770     3.7460     4.4850     2.2340 
  130.6250   -22.3010    78.7920     3.2370     3.5980     4.6010     2.2400 
  130.7500   -22.2140    78.8060     3.2000     3.5600     4.1120     2.2430 
  130.8750   -22.1850    82.2380     3.3060     3.6720     3.8410     2.2450 
  131.0000   -22.2010    84.2240     3.5680     3.9460     4.1640     2.2370 
  131.1250   -22.2400    79.9580     3.8930     4.2870     4.9270     2.2010 
  131.2500   -22.2720    72.5620     4.1640     4.5720     5.6180     2.1580 
  131.3750   -22.2830    68.9960     4.2710     4.6850     5.4990     2.1470 
  131.5000   -22.2800    70.3490     4.1570     4.5650     4.9000     2.1780 
  131.6250   -22.2900    72.8790     3.9190     4.3150     4.6160     2.2220 
  131.7500   -22.3380    72.5210     3.6730     4.0570     4.6210     2.2460 
  131.8750   -22.4480    71.1270     3.5730     3.9510     4.5740     2.2420 
  132.0000   -22.6120    71.5720     3.6620     4.0450     4.4860     2.2220 
  132.1250   -22.8050    73.7020     3.9050     4.3000     4.5160     2.1940 
  132.2500   -22.9790    73.5460     4.3210     4.7370     4.8030     2.1580 
  132.3750   -23.0780    69.8810     5.0670     5.5200     5.3580     2.1350 
  132.5000   -23.0730    66.1130     6.0420     6.5440     5.9060     2.1700 
  132.6250   -22.9560    64.9180     7.1840     7.7440     8.5720     2.2920 
  132.7500   -22.7740    64.2290     8.1160     8.7220    13.8180     2.4190 
  132.8750   -22.5840    62.0170     8.5480     9.1750    14.5850     2.4220 
  133.0000   -22.4470    60.4250     8.4240     9.0460     9.7250     2.2970 
  133.1250   -22.4110    59.3490     7.7830     8.3720     6.6300     2.1510 
  133.2500   -22.4840    56.9100     7.0040     7.5540     6.3040     2.0750 
  133.3750   -22.6600    55.2760     6.2760     6.7900     5.9680     2.0720 
  133.5000   -22.8950    57.5320     5.8010     6.2920     5.6020     2.0960 
  133.6250   -23.1340    62.2570     5.5680     6.0460     5.5340     2.1190 
  133.7500   -23.3120    65.3900     5.4750     5.9480     5.9380     2.1230 
  133.8750   -23.3710    66.9980     5.5500     6.0280     6.7290     2.1160 
  134.0000   -23.2990    67.4840     5.7880     6.2770     7.5750     2.1150 
  134.1250   -23.1120    66.4050     6.1090     6.6140     8.1550     2.1160 
  134.2500   -22.8750    63.7890     6.4290     6.9510     8.1480     2.1110 
  134.3750   -22.6490    62.4080     6.6760     7.2100     7.6500     2.0990 
  134.5000   -22.4800    62.2240     6.8080     7.3480     6.8790     2.0930 
  134.6250   -22.3860    61.7510     6.7880     7.3280     6.4740     2.1010 
  134.7500   -22.3460    60.1180     6.6730     7.2070     6.7600     2.1120 
  134.8750   -22.3340    58.5040     6.4820     7.0060     6.9580     2.1180 
  135.0000   -22.3150    57.3360     6.2940     6.8090     6.7000     2.1180 
