~V
VERS. 2.00: Ver 2.00
~W
STRT.M 55.0000:
STOP.M 240.0000:
STEP.M 0.1250:
NULL. -999.2500:
UWI. F11138:
~C
DEPT.M :
SP.MV :
DEN.GM/CC :
GR.API :
RML.OHMM :
RI. :
RXO.OHMM :
CALI.CM :
~A
# ...
  167.5000   -11.3710     2.1680    82.9570    26.2730    23.2100    26.3270    23.6890 
  167.6250   -11.3190     2.1780    82.5820    25.3060    21.9070    25.7740    23.7220 
  167.7500   -11.2490     2.1900    81.7870    24.7580    20.9790    23.4500    23.7470 
  167.8750   -11.1560     2.2010    82.2510    24.1500    20.7050    20.4890    23.7620 
  168.0000   -11.0600     2.2070    83.8120    24.4230    21.1350    18.5120    23.7590 
  168.1250   -10.8830     2.2070    84.9210    25.1410    21.9980    18.3930    23.7450 
  168.2500   -10.6450     2.2030    86.0150    25.4300    22.5980    20.6400    23.7470 
  168.3750   -10.3740     2.1980    87.0590    24.6550    22.3390    24.1130    23.7470 
  168.5000   -10.1260     2.1990    87.2720    22.5810    20.8830    24.0490    23.7520 
  168.6250    -9.8300     2.2090    86.3310    19.4760    18.3130    20.9050    23.7610 
  168.7500    -9.5370     2.2230    85.0360    16.2940    15.5010    16.7380    23.7380 
  168.8750    -9.2250     2.2370    84.8010    13.6410    13.0510    12.9650    23.6900 
  169.0000    -8.9600     2.2460    86.9030    11.8110    11.2750     9.9400    23.6520 
  169.1250    -8.7220     2.2480    92.1290    10.9570    10.3450     8.1460    23.6060 
  169.2500    -8.5820     2.2470    96.3810    10.8020    10.0390     7.2200    23.5110 
  169.3750    -8.5370     2.2440    97.7460    11.1640    10.2220     6.8250    23.3700 
  169.5000    -8.6180     2.2350    96.7770    11.8360    10.7330     6.8500    23.2250 
  169.6250    -8.7910     2.2190    94.7890    12.6120    11.4120     7.1900    23.1150 
  169.7500    -9.0270     2.2060    92.6220    13.3650    12.1180     7.4680    23.0070 
  169.8750    -9.3690     2.2050    89.7000    14.1710    12.8680     7.3290    22.9220 
  170.0000    -9.7840     2.2140    86.1350    15.2820    13.8230     7.4780    22.8720 
  170.1250   -10.3360     2.2230    84.5670    17.2540    15.3980     8.8970    22.7950 
  170.2500   -10.9800     2.2230    84.6250    20.4110    17.8990    12.1440    22.6910 
  170.3750   -11.7430     2.2210    84.2490    25.0450    21.6510    17.9310    22.6300 
  170.5000   -12.5300     2.2230    82.7400    31.3270    26.9010    26.6960    22.6540 
  170.6250   -13.4410     2.2260    82.5820    39.5930    34.0440    35.8320    22.7290 
  170.7500   -14.4010     2.2250    84.3530    49.4940    42.7530    44.0500    22.8110 
  170.8750   -15.4110     2.2170    85.1160    60.8440    52.8090    53.0030    22.9340 
  171.0000   -16.4310     2.2010    83.9510    73.2440    63.8180    68.0600    23.0850 
  171.1250   -17.4760     2.1820    81.7970    85.7740    75.0160    86.4070    23.1450 
  171.2500   -18.4690     2.1690    79.5640    96.9650    85.1840   104.6270    23.1400 
  171.3750   -19.3390     2.1640    77.4890   105.4270    93.1430   106.5760    23.1130 
  171.5000   -20.0870     2.1670    76.0940   110.3040    98.1010    92.9150    23.0700 
  171.6250   -20.6560     2.1740    76.2670   111.4730    99.7810    85.1860    22.9850 
  171.7500   -21.1430     2.1850    76.8510   110.9410    99.7790    80.8570    22.8740 
  171.8750   -21.5290     2.1960    76.4270   109.9390    99.1640    78.5690    22.7370 
  172.0000   -21.8380     2.2020    75.5210   109.0140    98.5260    68.4250    22.5750 
  172.1250   -22.0110     2.1980    77.5140   107.9540    97.8430    53.0820    22.1800 
  172.2500   -22.1530     2.1870    80.9170   106.1990    96.6770    41.3160    21.2030 
  172.3750   -22.2490     2.1760    82.5660   103.4030    94.6860    33.8710    19.7130 
  172.5000   -22.4180     2.1720    82.7500    99.6420    91.8570    29.4300    18.4370 
  172.6250   -22.6010     2.1760    83.0440    95.4640    88.5800    26.8420    17.5930 
  172.7500   -22.7050     2.1840    82.2850    91.8600    85.6890    25.7920    17.0530 
  172.8750   -22.7580     2.1890    80.4430    89.7090    83.9580    27.4510    16.9710 
  173.0000   -22.8580     2.1930    79.9930    89.5910    83.9660    30.6000    17.3780 
  173.1250   -22.9720     2.1980    81.3110    91.7700    86.0630    33.0010    17.9920 
  173.2500   -23.0900     2.2030    80.6190    95.2410    89.4250    34.7270    18.5580 
  173.3750   -23.2300     2.2080    78.6860    99.2160    93.3560    37.3820    19.0440 
  173.5000   -23.3280     2.2100    77.9610   103.0370    97.2280    41.1410    19.5780 
  173.6250   -23.5350     2.2090    78.0630   106.3460   100.6260    45.2470    20.2420 
  173.7500   -23.8280     2.2030    76.5620   109.4190   103.7210    48.5260    20.8840 
  173.8750   -24.1990     2.1900    73.2940   112.5340   106.7730    51.3730    21.2960 
  174.0000   -24.4870     2.1760    70.4300   115.7210   109.8770    54.8790    21.5190 
  174.1250   -24.7820     2.1720    71.0910   118.5900   112.7790    60.7650    21.6490 
  174.2500   -25.0640     2.1760    72.9770   120.7050   115.0850    62.7060    21.7910 
  174.3750   -25.3920     2.1830    73.9230   121.7890   116.4880    63.3000    22.0270 
  174.5000   -25.6770     2.1910    73.6240   121.8610   116.9260    64.2930    22.3180 
  174.6250   -25.8650     2.1940    73.0230   121.1670   116.5490    65.3400    22.5980 
  174.7500   -26.0040     2.1960    73.2120   120.2620   115.8860    65.6990    22.7910 
  174.8750   -26.1110     2.1980    73.7150   119.4280   115.2330    66.0500    22.9090 
  175.0000   -26.2330     2.2030    73.5650   118.8140   114.7690    66.6590    22.9580 
  175.1250   -26.3500     2.2070    72.2510   118.5920   114.6700    67.4310    22.9740 
  175.2500   -26.4400     2.2050    70.6660   118.8900   115.0420    68.7500    23.0030 
  175.3750   -26.4620     2.1980    70.3830   119.8820   116.0300    69.7830    23.0560 
  175.5000   -26.4950     2.1910    71.5820   121.6610   117.7040    70.3930    23.0950 
  175.6250   -26.5110     2.1900    72.8340   124.3760   120.1830    70.5040    23.1100 
  175.7500   -26.5290     2.1930    73.3260   127.9040   123.3640    71.2480    23.1120 
  175.8750   -26.5150     2.1930    72.9570   132.3300   127.3270    72.1340    23.1130 
  176.0000   -26.6110     2.1870    72.0490   137.8520   132.2330    72.2900    23.1160 
  176.1250   -26.6770     2.1740    72.1570   144.9930   138.4900    73.2690    23.1280 
  176.2500   -26.7790     2.1540    73.9850   153.6660   145.9910    75.4460    23.1480 
  176.3750   -26.8630     2.1300    76.2110   163.6520   154.5320    78.7450    23.1660 
  176.5000   -27.0020     2.1060    75.4170   174.3590   163.5990    82.6150    23.1740 
  176.6250   -27.2110     2.0920    71.4060   184.7240   172.2740    85.6000    23.1750 
  176.7500   -27.4600     2.0870    69.2060   193.7700   179.7380    87.8330    23.1780 
  176.8750   -27.7400     2.0860    70.0920   200.9330   185.4960    88.0160    23.1890 
  177.0000   -27.8990     2.0810    71.4340   206.1830   189.4980    87.7670    23.2100 
  177.1250   -28.1010     2.0710    70.0860   209.9960   192.0950    89.5350    23.2340 
  177.2500   -28.2290     2.0620    67.7020   213.8710   194.6020    90.0240    23.2470 
  177.3750   -28.4070     2.0550    67.3720   219.3640   198.4030    91.2950    23.2320 
  177.5000   -28.5090     2.0470    69.5870   228.2220   205.0910    91.1440    23.1840 
  177.6250   -28.6330     2.0310    72.2160   243.1920   217.1930    92.1970    23.1360 
  177.7500   -28.7170     2.0090    72.2460   264.6130   235.1130    97.0200    23.1210 
  177.8750   -28.7550     1.9800    69.4040   292.2920   258.7870   105.6340    23.1350 
  178.0000   -28.6930     1.9470    66.0860   324.3150   286.6680   119.6400    23.1700 
  178.1250   -28.4680     1.9190    64.5310   355.8370   314.8760   135.8480    23.2000 
  178.2500   -28.2160     1.9130    65.0050   379.9910   337.6460   146.9320    23.2130 
  178.3750   -27.7860     1.9380    66.8470   390.3140   349.5250   149.8320    23.1980 
  178.5000   -27.3930     1.9920    68.9090   382.0960   346.2240   145.6820    23.1740 
  178.6250   -26.8780     2.0460    69.3710   351.1300   323.2610   136.9620    23.1310 
