~V
VERS. 2.00: Ver 2.00
~W
STRT.M 20.0000:
STOP.M 279.0000:
STEP.M 0.1250:
NULL. -999.2500:
UWI. F11153:
~C
DEPT.M :
DEN.GM/CC :
GR.API :
RML.OHMM :
RI. :
RXO.OHMM :
CALI.CM :
SP.MV :
~A
# ...
  211.2500     2.2980    70.6220     7.9930     6.8520     7.9910    24.6020   -15.4470 
  211.3750     2.2970    70.7960     7.3820     6.4020     6.9640    24.5590   -15.5670 
  211.5000     2.3010    74.3360     6.9880     6.0220     6.4280    24.5510   -15.6960 
  211.6250     2.3060    75.4030     6.8780     5.8360     6.4490    24.5420   -15.8260 
  211.7500     2.3120    73.0190     6.9480     5.8330     6.6430    24.5110   -15.9540 
  211.8750     2.3140    74.2980     7.1090     5.9570     7.1320    24.4920   -16.0630 
  212.0000     2.3070    79.8380     7.2640     6.1110     7.4810    24.5500   -16.1390 
  212.1250     2.2830    82.3330     7.3100     6.1740     7.2840    24.7070   -16.1620 
  212.2500     2.2540    82.3470     7.2090     6.1060     7.1550    24.8500   -16.1460 
  212.3750     2.2430    84.6620     6.9610     5.9200     6.9870    24.9230   -16.1120 
  212.5000     2.2610    88.3990     6.6480     5.6810     6.6680    24.9520   -16.0740 
  212.6250     2.3000    86.4760     6.4980     5.5340     6.7320    24.9900   -16.0400 
  212.7500     2.3390    81.4420     6.7590     5.6250     7.1910    25.0510   -16.0300 
  212.8750     2.3640    77.5250     7.6940     6.1210     7.7320    25.1660   -16.0610 
  213.0000     2.3710    76.2420     9.5790     7.2520     9.3700    25.3170   -16.1570 
  213.1250     2.3610    74.1010    15.1350     9.5490    15.4430    25.3120   -16.3120 
  213.2500     2.3390    68.9550    19.5940    13.2410    27.3410    25.2250   -16.5220 
  213.3750     2.3120    63.4620    25.0600    18.4260    36.3240    25.1630   -16.7540 
  213.5000     2.2880    61.7060    31.6860    24.4650    42.2450    25.1490   -16.9720 
  213.6250     2.2740    64.6650    35.8990    29.2000    45.5360    25.2110   -17.1600 
  213.7500     2.2680    65.2130    36.6520    31.1010    41.1810    25.3090   -17.2780 
  213.8750     2.2670    61.8660    35.0650    30.5470    34.0160    25.3580   -17.3280 
  214.0000     2.2670    60.4000    33.0830    28.9920    29.1340    25.3710   -17.3170 
  214.1250     2.2650    63.7390    32.1290    27.7610    27.5960    25.3730   -17.2620 
  214.2500     2.2570    66.6640    32.3890    27.3740    28.6170    25.3680   -17.2050 
  214.3750     2.2420    68.0670    33.8260    27.9940    30.7380    25.3380   -17.1710 
  214.5000     2.2270    70.6550    36.3030    29.6310    30.9670    25.2800   -17.1670 
  214.6250     2.2190    72.3550    39.7030    32.3000    30.7070    25.2490   -17.1850 
  214.7500     2.2150    70.7410    43.5360    35.5740    33.9890    25.3130   -17.2600 
  214.8750     2.2130    67.9240    47.3640    39.0590    41.2700    25.4290   -17.3770 
  215.0000     2.2100    65.0460    50.6740    42.2770    45.2670    25.5220   -17.5060 
  215.1250     2.2040    60.5170    52.7900    44.6030    43.7920    25.5540   -17.6330 
  215.2500     2.1960    57.7100    53.7400    45.9430    41.7270    25.5550   -17.7360 
  215.3750     2.1910    59.7170    53.8380    46.4560    41.7450    25.5710   -17.8070 
  215.5000     2.1930    62.6130    53.6200    46.5460    44.1960    25.6300   -17.8630 
  215.6250     2.2030    61.4260    53.6530    46.6940    45.6570    25.7240   -17.9250 
  215.7500     2.2120    59.6730    54.1350    47.1430    42.5290    25.7730   -17.9860 
  215.8750     2.2110    59.6980    55.0190    47.9030    40.8730    25.7670   -18.0530 
  216.0000     2.1990    59.9050    56.1690    48.9060    41.2930    25.6900   -18.1220 
  216.1250     2.1860    61.1340    57.5020    50.1480    40.9680    25.5270   -18.1920 
  216.2500     2.1840    64.9930    58.8650    51.5540    40.8070    25.4050   -18.2640 
  216.3750     2.1860    68.0010    59.9290    52.8960    41.9300    25.3500   -18.3550 
  216.5000     2.1810    65.0730    60.1040    53.6830    44.3940    25.2710   -18.4670 
  216.6250     2.1790    57.4430    58.5680    53.1360    47.8680    25.1090   -18.5840 
  216.7500     2.1900    54.0680    55.6340    51.2820    48.9290    25.0350   -18.7040 
  216.8750     2.2030    56.8740    52.0740    48.5750    45.6040    25.1820   -18.8140 
  217.0000     2.2030    61.4180    48.9410    45.8450    39.9000    25.3430   -18.9340 
  217.1250     2.1970    63.2280    47.3700    44.1440    36.4780    25.3570   -19.0920 
  217.2500     2.2040    65.0530    47.4250    43.7830    38.0160    25.3790   -19.2770 
  217.3750     2.2180    66.8530    48.8560    44.7200    42.9310    25.5150   -19.4900 
  217.5000     2.2250    65.2430    51.1350    46.6120    47.6320    25.6180   -19.7180 
  217.6250     2.2230    61.4710    53.6200    48.9540    45.3980    25.6910   -19.9890 
  217.7500     2.2230    61.4450    55.8800    51.2160    42.0040    25.8240   -20.2750 
  217.8750     2.2230    64.1440    57.9510    53.3020    41.0130    25.9690   -20.5800 
  218.0000     2.2160    65.5860    60.0520    55.3490    46.8810    26.0500   -20.8870 
  218.1250     2.2090    65.4290    62.2900    57.4960    58.8130    26.1190   -21.1820 
  218.2500     2.2070    65.2940    64.4180    59.5960    64.0950    26.3040   -21.4590 
  218.3750     2.2060    64.5490    66.1660    61.3900    62.0440    26.5520   -21.7270 
  218.5000     2.2000    63.4920    67.4960    62.7420    56.5820    26.7040   -22.0010 
  218.6250     2.1940    61.6410    68.6780    63.7780    50.8280    26.7720   -22.2660 
  218.7500     2.1940    59.6820    70.0150    64.8270    47.6830    26.8830   -22.5240 
  218.8750     2.1970    58.9090    71.4450    65.9510    48.2190    27.0360   -22.7970 
  219.0000     2.1970    59.5920    72.6500    66.9720    53.6420    27.0890   -23.0840 
  219.1250     2.1910    60.2390    73.5840    67.5080    59.8220    26.9310   -23.3840 
  219.2500     2.1860    60.7570    73.7540    67.4720    58.7780    26.6370   -23.6960 
  219.3750     2.1900    62.7520    73.8090    67.0060    52.8310    26.3520   -23.9900 
  219.5000     2.2020    64.4580    73.7730    66.4190    47.7610    26.1810   -24.2290 
  219.6250     2.2150    64.1060    73.5700    65.9130    50.9590    26.1600   -24.4250 
  219.7500     2.2220    63.1070    73.1890    65.3240    56.2070    26.2050   -24.6000 
  219.8750     2.2200    62.8970    72.7820    64.4410    56.5700    26.2630   -24.7280 
  220.0000     2.2090    63.1800    72.3390    63.3340    54.4890    26.3500   -24.7990 
  220.1250     2.1960    62.5020    72.0680    62.7460    52.8720    26.5700   -24.8090 
  220.2500     2.1850    60.2720    73.7150    63.5920    49.1790    26.8160   -24.7800 
  220.3750     2.1840    56.8380    77.7040    66.4800    47.5690    26.7270   -24.7180 
  220.5000     2.2030    53.9640    83.6140    71.3580    51.8310    26.1230   -24.6680 
  220.6250     2.2530    53.9760    89.6730    77.1140    65.4810    25.4060   -24.6280 
  220.7500     2.3100    54.7950    93.1450    81.3620    81.9350    24.9390   -24.5750 
  220.8750     2.3400    55.4610    92.2670    82.2430    83.3630    24.9810   -24.5450 
  221.0000     2.3190    56.4710    87.2670    79.3050    72.6470    25.4610   -24.5610 
  221.1250     2.2580    60.6830    80.2130    73.7090    62.6060    25.9380   -24.6280 
  221.2500     2.2060    64.9030    73.7710    68.0000    55.5500    26.1460   -24.7160 
  221.3750     2.1810    64.1610    68.9150    63.4060    50.6500    26.2050   -24.8260 
  221.5000     2.1750    60.6040    65.7300    60.3100    47.3760    26.1450   -24.9730 
  221.6250     2.1780    60.8750    63.9890    58.6840    44.3180    25.8650   -25.1920 
  221.7500     2.1880    62.7590    62.9880    57.8780    41.8270    25.4930   -25.4720 
  221.8750     2.2030    61.4590    62.3880    57.5540    39.8920    25.3790   -25.7840 
  222.0000     2.2150    59.7560    61.8960    57.4000    38.6150    25.5130   -26.0990 
  222.1250     2.2160    61.9400    61.2170    57.0630    39.1230    25.5930   -26.4080 
  222.2500     2.2070    61.8950    60.2600    56.3620    40.4890    25.5650   -26.7420 
  222.3750     2.1980    59.2080    59.1030    55.2970    39.9820    25.5360   -27.1030 
