~V
VERS. 2.00: Ver 2.00
~W
STRT.M 55.0000:
STOP.M 207.0000:
STEP.M 0.1250:
NULL. -999.2500:
UWI. F11112:
~C
DEPT.M :
SP.MV :
RML.OHMM :
RI. :
RXO.OHMM :
CALI.CM :
DEN.GM/CC :
GR.API :
~A
# ...
  133.7500   -10.5830    17.6130    15.9780    16.9700    26.3880     2.4910    81.0750 
  133.8750   -10.6770    16.4880    15.0990    17.0350    26.3110     2.4830    77.8640 
  134.0000   -10.7850    14.9030    13.7490    15.6050    26.2840     2.4650    74.5820 
  134.1250   -10.8200    13.1810    12.1930    12.1300    26.2750     2.4380    74.5380 
  134.2500   -10.7400    11.7710    10.8280     9.0650    26.3130     2.4100    77.3520 
  134.3750   -10.6540    10.8900     9.8850     7.5900    26.3960     2.3900    78.2190 
  134.5000   -10.5870    10.5740     9.4310     7.6160    26.4660     2.3780    76.4960 
  134.6250   -10.5440    10.7140     9.4200     8.3160    26.4830     2.3610    75.0980 
  134.7500   -10.5210    11.1080     9.7440     9.4020    26.4740     2.3250    74.4790 
  134.8750   -10.5190    11.4400    10.1360    10.1890    26.4340     2.2840    73.2420 
  135.0000   -10.5450    11.4970    10.3860    10.4180    26.3770     2.2540    71.8520 
  135.1250   -10.6400    11.1600    10.3240    10.1340    26.2940     2.2410    71.6960 
  135.2500   -10.8020    10.3930     9.8290     9.4780    26.1830     2.2420    73.4920 
  135.3750   -10.9510     9.4010     9.0540     8.5400    26.0690     2.2480    74.8070 
  135.5000   -11.0590     8.3580     8.1590     7.4070    25.9750     2.2510    75.8610 
  135.6250   -11.1210     7.4070     7.3050     6.3280    25.8950     2.2390    78.5080 
  135.7500   -11.1240     6.6820     6.6290     5.6100    25.8070     2.2210    82.8330 
  135.8750   -11.0200     6.1790     6.1410     5.2030    25.6920     2.2150    85.8850 
  136.0000   -10.8200     5.9720     5.8210     5.0110    25.5230     2.2220    86.4870 
  136.1250   -10.5520     5.8770     5.6270     4.9530    25.4120     2.2370    86.5530 
  136.2500   -10.2930     5.8480     5.5230     4.9760    25.3150     2.2500    87.5340 
  136.3750   -10.0120     5.8460     5.4610     4.9940    25.2460     2.2620    88.7250 
  136.5000    -9.7440     5.8740     5.4350     4.9820    25.1850     2.2750    89.2630 
  136.6250    -9.5080     5.9510     5.4520     4.9780    25.1180     2.2880    87.7670 
  136.7500    -9.3230     6.1280     5.5450     5.0790    25.0580     2.2990    84.2470 
  136.8750    -9.2080     6.4410     5.7390     5.3870    25.0330     2.3040    82.7000 
  137.0000    -9.1760     6.9390     6.0770     5.8530    25.0980     2.3010    83.4540 
  137.1250    -9.2070     7.6590     6.5980     6.5540    25.2540     2.2900    84.2040 
  137.2500    -9.3090     8.6230     7.3480     7.6400    25.5280     2.2750    84.5200 
  137.3750    -9.5150     9.6940     8.2400     9.1620    25.7580     2.2610    85.4290 
  137.5000    -9.7070    10.7030     9.1530    10.8630    25.9120     2.2450    85.2230 
  137.6250    -9.8530    11.4610     9.9210    12.1150    26.0180     2.2280    81.9950 
  137.7500    -9.9980    11.7850    10.3410    12.0650    26.0730     2.2170    78.5190 
  137.8750   -10.1760    11.8130    10.4530    11.3070    26.0940     2.2160    77.4770 
  138.0000   -10.3360    11.7650    10.4030    10.4770    26.0830     2.2260    77.9660 
  138.1250   -10.4680    11.8900    10.4090    10.1710    26.0600     2.2410    79.3420 
  138.2500   -10.5350    12.3850    10.6920    10.7100    26.1360     2.2470    80.1420 
  138.3750   -10.5470    13.1310    11.2450    11.9210    26.2870     2.2400    78.2650 
  138.5000   -10.5680    13.9210    11.9530    13.3330    26.4100     2.2260    73.9190 
  138.6250   -10.6500    14.5060    12.6210    14.1310    26.4630     2.2150    70.1900 
  138.7500   -10.7430    14.5940    12.9670    13.9800    26.4710     2.2110    68.9180 
  138.8750   -10.8450    14.2070    12.8940    13.4240    26.4650     2.2120    69.2140 
  139.0000   -10.9840    13.4700    12.4340    12.6590    26.4270     2.2150    72.4220 
  139.1250   -11.1740    12.6150    11.7490    11.6910    26.3440     2.2200    78.6070 
  139.2500   -11.3550    11.9210    11.0820    10.5600    26.2360     2.2280    83.0370 
  139.3750   -11.4910    11.5050    10.5980     9.6990    26.1750     2.2370    82.3790 
  139.5000   -11.5710    11.3600    10.3380     9.3290    26.1710     2.2440    79.3630 
  139.6250   -11.5760    11.3910    10.2610     9.5240    26.1600     2.2460    77.9790 
  139.7500   -11.5310    11.4430    10.2630    10.1050    26.1690     2.2410    77.4340 
  139.8750   -11.4220    11.3920    10.2170    10.4630    26.2380     2.2340    76.4340 
  140.0000   -11.2770    11.2370    10.0840    10.2740    26.2460     2.2330    75.6260 
  140.1250   -11.0680    11.0830     9.9140     9.7270    26.1350     2.2440    74.7970 
  140.2500   -10.8260    11.1670     9.8760     9.4610    25.9820     2.2630    72.9750 
  140.3750   -10.5760    11.6320    10.1150     9.9090    25.9760     2.2780    72.1120 
  140.5000   -10.3250    12.5400    10.7280    11.2910    26.1270     2.2800    73.2750 
  140.6250   -10.0470    13.8420    11.7350    13.3780    26.3900     2.2670    74.9420 
  140.7500    -9.8350    15.3950    13.1020    14.8620    26.6640     2.2450    74.4450 
  140.8750    -9.7230    16.9070    14.5920    15.9900    26.8580     2.2260    72.9020 
  141.0000    -9.6210    18.1390    15.9820    17.1600    26.9560     2.2180    71.2720 
  141.1250    -9.5150    18.8910    17.0460    18.4250    26.9560     2.2240    69.6480 
  141.2500    -9.4510    18.9430    17.5100    19.2410    26.8700     2.2440    67.3680 
  141.3750    -9.4440    18.3910    17.3830    19.1850    26.7730     2.2630    65.0960 
  141.5000    -9.5250    17.3200    16.6920    17.9890    26.7210     2.2690    64.3550 
  141.6250    -9.7150    15.8750    15.5390    15.8390    26.7030     2.2650    66.2820 
  141.7500    -9.8690    14.2320    14.0570    14.1980    26.6880     2.2600    69.1480 
  141.8750    -9.9530    12.6220    12.5000    12.5100    26.6660     2.2590    72.2090 
  142.0000   -10.0090    11.1890    11.0330    11.0470    26.6430     2.2540    75.4120 
  142.1250   -10.1050    10.0440     9.7890     9.5830    26.6110     2.2440    77.5600 
  142.2500   -10.1840     9.3360     8.9260     8.4920    26.5440     2.2360    77.6030 
  142.3750   -10.2200     9.0580     8.4510     7.6450    26.4240     2.2400    77.2240 
  142.5000   -10.1790     9.2230     8.3860     7.4200    26.2530     2.2520    77.6800 
  142.6250   -10.0610     9.7910     8.7090     7.9440    26.0950     2.2620    78.5790 
  142.7500    -9.8670    10.6990     9.3980     9.2670    26.1390     2.2540    78.2970 
  142.8750    -9.6730    11.7580    10.2880    10.8060    26.4050     2.2330    76.4420 
  143.0000    -9.5150    12.8700    11.2800    12.0850    26.7010     2.2100    73.4920 
  143.1250    -9.3580    14.0050    12.3120    12.5740    26.8530     2.1990    71.9190 
  143.2500    -9.1850    15.2390    13.4050    12.9540    26.8920     2.2030    74.0690 
  143.3750    -8.9970    16.6620    14.6360    14.2120    26.9470     2.2120    76.6570 
  143.5000    -8.8370    18.2960    16.0620    16.7410    27.0320     2.2170    77.0120 
  143.6250    -8.7280    20.0290    17.6530    20.1960    27.0870     2.2150    75.1770 
  143.7500    -8.7190    21.5410    19.2110    23.4340    27.1120     2.2130    71.7750 
  143.8750    -8.7060    22.5320    20.4410    24.7730    27.1330     2.2170    68.2510 
  144.0000    -8.6980    22.8030    21.1000    24.1030    27.1560     2.2240    67.0660 
  144.1250    -8.6600    22.3090    21.0510    22.5750    27.1700     2.2330    69.8090 
  144.2500    -8.5880    21.0750    20.2150    21.3230    27.1670     2.2400    73.3460 
  144.3750    -8.5340    19.4150    18.8610    20.1990    27.1270     2.2460    74.0900 
  144.5000    -8.5120    17.5190    17.1670    18.2540    27.0540     2.2520    72.9820 
  144.6250    -8.4880    15.5740    15.3220    15.3150    26.9630     2.2550    71.9480 
  144.7500    -8.4170    13.8320    13.5790    12.7770    26.9030     2.2550    72.7870 
  144.8750    -8.3250    12.4540    12.1290    10.9220    26.8710     2.2560    75.4400 
