~V
VERS. 2.00: Ver 2.00
~W
STRT.M 56.0000:
STOP.M 269.0000:
STEP.M 0.1250:
NULL. -999.2500:
UWI. F11148:
~C
DEPT.M :
GR.API :
RML.OHMM :
RI. :
RXO.OHMM :
SP.MV :
DEN.GM/CC :
CALI.CM :
~A
# ...
  101.0000    62.2350    11.7800     9.8550    14.4740   -28.8980     2.2230    26.2460 
  101.1250    61.1570    11.5970     9.7840    14.0650   -29.2760     2.2130    26.2240 
  101.2500    58.5600    11.3730     9.6530    13.9370   -29.6330     2.2010    26.1850 
  101.3750    56.5320    11.2310     9.5520    14.1620   -29.9380     2.1910    26.1690 
  101.5000    56.9320    11.2160     9.5270    14.7650   -30.1790     2.1820    26.1560 
  101.6250    58.7100    11.3090     9.5850    15.3850   -30.3620     2.1770    26.1820 
  101.7500    58.9250    11.4410     9.6950    15.7180   -30.4740     2.1710    26.3160 
  101.8750    56.5800    11.5340     9.7910    15.8710   -30.5350     2.1620    26.4670 
  102.0000    54.3000    11.5610     9.8410    15.9250   -30.5220     2.1460    26.6380 
  102.1250    55.1620    11.5410     9.8460    15.8970   -30.4400     2.1240    26.8250 
  102.2500    58.0020    11.5150     9.8390    15.4530   -30.2200     2.1020    26.6990 
  102.3750    59.0990    11.5050     9.8460    14.9620   -29.9230     2.0920    26.1490 
  102.5000    59.5870    11.4920     9.8610    14.6080   -29.5540     2.1000    25.5430 
  102.6250    62.0120    11.4370     9.8600    14.2130   -29.1200     2.1170    25.1730 
  102.7500    64.3210    11.2880     9.8010    14.1440   -28.6380     2.1350    25.0030 
  102.8750    64.3500    11.0780     9.6950    13.9700   -28.1090     2.1480    24.8330 
  103.0000    63.3040    10.8930     9.5950    13.5480   -27.5540     2.1540    24.6760 
  103.1250    62.0330    10.8530     9.5820    13.1240   -26.9710     2.1550    24.5720 
  103.2500    60.3430    11.0750     9.7510    13.0470   -26.3680     2.1550    24.5180 
  103.3750    60.0510    11.4290    10.0330    13.7130   -25.6880     2.1560    24.5330 
  103.5000    62.8780    11.6690    10.2520    14.5080   -24.9270     2.1600    24.5850 
  103.6250    66.4820    11.5070    10.1600    14.8790   -24.0640     2.1690    24.6390 
  103.7500    67.6360    10.7040     9.5190    14.4020   -23.0690     2.1920    24.7130 
  103.8750    70.1610     9.5130     8.5220    12.2440   -22.0010     2.2260    24.8120 
  104.0000    76.9730     8.2490     7.4290     8.9460   -20.9370     2.2690    24.8890 
  104.1250    83.5790     7.1940     6.4690     6.4970   -20.0100     2.3100    24.9420 
  104.2500    86.0030     6.5820     5.8250     5.9770   -19.3450     2.3340    24.9480 
  104.3750    87.6060     6.3800     5.4960     6.4720   -19.0120     2.3390    24.9250 
  104.5000    88.8560     6.5460     5.4760     7.1700   -19.0680     2.3290    24.8730 
  104.6250    87.2430     7.0120     5.7380     6.7950   -19.5580     2.3080    24.7970 
  104.7500    80.4590     7.7040     6.2580     7.4820   -20.5480     2.2760    24.7400 
  104.8750    72.9910     8.4620     6.9030     9.5250   -21.8850     2.2350    24.7560 
  105.0000    68.1730     9.1600     7.5620    11.6310   -23.3740     2.1920    24.8390 
  105.1250    66.0830     9.6860     8.1200    12.3820   -24.8300     2.1600    24.8610 
  105.2500    64.7270     9.9400     8.4580    11.9640   -26.0850     2.1460    24.7240 
  105.3750    63.2890    10.0000     8.6030    11.5330   -27.1390     2.1430    24.5470 
  105.5000    63.8600     9.9650     8.6200    11.5410   -27.9650     2.1450    24.4910 
  105.6250    66.4800     9.9320     8.5860    11.9230   -28.5820     2.1480    24.5000 
  105.7500    66.4500     9.9560     8.5600    12.2820   -28.9590     2.1500    24.5090 
  105.8750    62.8380    10.0090     8.5480    12.5870   -29.1860     2.1520    24.5340 
  106.0000    58.1860    10.0580     8.5380    12.8760   -29.3630     2.1540    24.6080 
  106.1250    54.0170    10.0860     8.5210    13.0930   -29.5150     2.1560    24.7250 
  106.2500    52.0790    10.0930     8.4930    13.0210   -29.6750     2.1610    24.7790 
  106.3750    52.8170    10.1060     8.4650    12.8300   -29.7860     2.1700    24.7860 
  106.5000    56.7430    10.1420     8.4490    12.7250   -29.8930     2.1810    24.7430 
  106.6250    60.9610    10.2070     8.4550    12.5600   -29.8980     2.1930    24.6700 
  106.7500    60.7030    10.2990     8.4880    12.2820   -29.8630     2.2080    24.5700 
  106.8750    58.2630    10.3920     8.5370    12.0850   -29.7820     2.2160    24.4760 
  107.0000    58.0950    10.4700     8.5910    12.0620   -29.6370     2.2090    24.3900 
  107.1250    61.3950    10.5220     8.6400    12.0240   -29.4940     2.1880    24.3190 
  107.2500    62.3230    10.5540     8.6820    12.0360   -29.3930     2.1670    24.2970 
  107.3750    59.6190    10.5950     8.7220    12.4400   -29.2650     2.1540    24.3180 
  107.5000    57.3790    10.6750     8.7710    12.8230   -29.1000     2.1480    24.3750 
  107.6250    56.6770    10.8130     8.8380    13.0270   -28.9260     2.1470    24.4170 
  107.7500    56.8110    10.9660     8.9000    12.9960   -28.6190     2.1530    24.4370 
  107.8750    59.0330    11.0100     8.8890    13.0240   -28.2380     2.1620    24.4540 
  108.0000    62.3240    10.8310     8.7280    13.2750   -27.7800     2.1680    24.4740 
  108.1250    63.0210    10.3980     8.3900    13.4740   -27.1420     2.1720    24.4810 
  108.2500    64.7450     9.8100     7.9330    12.9190   -26.3390     2.1820    24.4760 
  108.3750    71.2710     9.3020     7.5210    11.3340   -25.5300     2.2000    24.4140 
  108.5000    77.3450     9.0340     7.2720     9.6710   -24.6940     2.2170    24.3330 
  108.6250    76.7050     9.0720     7.2500     9.5820   -23.9250     2.2130    24.2960 
  108.7500    72.7590     9.4310     7.4950    11.1310   -23.3340     2.1780    24.2900 
  108.8750    72.9000     9.9660     7.9230    12.7900   -22.7490     2.1410    24.3210 
  109.0000    74.9600    10.5770     8.4660    13.4960   -22.1460     2.1250    24.4110 
  109.1250    73.5570    11.1640     9.0350    13.6450   -21.5980     2.1290    24.5050 
  109.2500    68.8110    11.5650     9.4800    13.8080   -21.0240     2.1400    24.4600 
  109.3750    65.9340    11.6490     9.6590    14.6080   -20.2610     2.1460    24.2530 
  109.5000    66.9770    11.2780     9.4370    15.1660   -19.2960     2.1500    23.9170 
  109.6250    70.9400    10.4040     8.7620    14.5250   -18.0510     2.1620    23.6890 
  109.7500    78.1030     9.1300     7.7110    11.7940   -16.4500     2.1930    23.5240 
  109.8750    89.1650     7.8450     6.6140     8.5500   -14.7940     2.2360    23.4010 
  110.0000   100.3770     6.8140     5.6880     6.4650   -13.2020     2.2760    23.4780 
  110.1250   106.1820     6.1540     5.0310     5.3280   -11.6470     2.3040    23.7990 
  110.2500   103.0360     5.8650     4.6750     4.9290   -10.2490     2.3150    24.1190 
  110.3750    96.2420     5.7770     4.5170     5.2130    -9.0890     2.3090    24.3900 
  110.5000    91.6770     5.8420     4.5290     5.8500    -8.1900     2.2930    24.7340 
  110.6250    89.9720     6.1070     4.7260     6.0710    -7.5690     2.2860    25.1660 
  110.7500    89.8770     6.7370     5.2030     5.8800    -7.2420     2.3070    25.2660 
  110.8750    87.6890     7.7250     5.9540     6.5170    -6.9970     2.3470    25.1800 
  111.0000    83.1430     8.9350     6.9260     9.1830    -6.8260     2.3900    25.0670 
  111.1250    79.8720    10.0290     7.9210    13.5300    -6.7860     2.4180    25.0240 
  111.2500    79.5210    10.4280     8.4930    14.0110    -6.7690     2.4040    25.0310 
  111.3750    78.6650    10.0020     8.4150    11.5430    -6.7700     2.3520    25.0570 
  111.5000    76.7020     8.9810     7.7830     8.9510    -6.8080     2.2890    25.0480 
  111.6250    79.3240     7.8180     6.9240     7.5040    -6.8340     2.2540    24.8650 
  111.7500    88.3080     6.9320     6.1650     6.8770    -6.8200     2.2670    24.4670 
  111.8750    95.8820     6.3610     5.5970     6.4690    -6.8330     2.3030    24.2230 
  112.0000    98.8170     5.9990     5.1850     5.9600    -6.8650     2.3390    24.1430 
  112.1250    99.3000     5.7280     4.8620     5.4440    -6.8510     2.3640    24.0850 
