~V
VERS. 2.00: Ver 2.00
~W
STRT.M 59.0000:
STOP.M 221.0000:
STEP.M 0.1250:
NULL. -999.2500:
UWI. F11122:
~C
DEPT.M :
GR.API :
RML.OHMM :
RI. :
RXO.OHMM :
CALI.CM :
SP.MV :
DEN.GM/CC :
~A
# ...
  205.2500    66.1780    42.1470    38.4850    59.6600    25.3200    -8.3200     2.1740 
  205.3750    64.8190    43.6710    40.5600    56.8450    25.3510    -8.0180     2.1710 
  205.5000    64.9850    43.2390    40.9160    52.9020    25.3040    -7.6670     2.1870 
  205.6250    65.2120    40.7890    39.3090    49.8900    25.1370    -7.3140     2.2290 
  205.7500    65.8470    37.2210    36.4800    49.7490    24.9280    -6.8820     2.2860 
  205.8750    68.0320    33.0920    32.9350    47.6830    24.7680    -6.3640     2.3460 
  206.0000    71.9320    28.7660    29.0480    40.0690    24.6670    -5.8600     2.3920 
  206.1250    75.5550    24.4400    25.0160    31.4590    24.6240    -5.4310     2.4130 
  206.2500    77.3770    20.2740    21.0250    29.6470    24.6270    -5.0150     2.4150 
  206.3750    76.8490    16.4690    17.2720    27.3030    24.5760    -4.5940     2.4060 
  206.5000    76.8210    13.2340    13.9740    21.4690    24.4490    -4.1880     2.3840 
  206.6250    81.2460    10.8150    11.3980    12.8190    24.2240    -3.6960     2.3410 
  206.7500    87.3800     9.0660     9.4550     8.7170    24.1540    -3.2230     2.2810 
  206.8750    92.0060     7.8680     8.0610     6.5220    24.3290    -2.7960     2.2200 
  207.0000    92.5290     7.0800     7.1000     5.5550    24.6570    -2.3260     2.1790 
  207.1250    89.3930     6.6120     6.5050     5.1660    24.8570    -1.7860     2.1780 
  207.2500    84.8190     6.3140     6.1270     5.0100    24.9250    -1.1820     2.2040 
  207.3750    79.3360     6.1240     5.8990     5.0230    24.9470    -0.5450     2.2420 
  207.5000    74.3610     5.9990     5.7700     5.3440    24.8810     0.1640     2.2780 
  207.6250    71.0340     5.9110     5.7030     5.5620    24.7970     0.8310     2.3000 
  207.7500    69.8380     5.8450     5.6590     5.3240    24.7800     1.3630     2.3050 
  207.8750    69.5700     5.8140     5.6380     4.9550    24.8120     1.8360     2.2970 
  208.0000    68.8340     5.8540     5.6600     4.8760    24.8130     2.2210     2.2790 
  208.1250    67.1910     6.0260     5.7830     4.9850    24.7610     2.4650     2.2640 
  208.2500    64.2460     6.3060     6.0070     5.2990    24.7280     2.5870     2.2600 
  208.3750    61.6770     6.6230     6.2870     5.9150    24.7030     2.6590     2.2620 
  208.5000    60.8420     6.8570     6.5200     6.7200    24.7110     2.7150     2.2600 
  208.6250    61.4490     6.8380     6.5410     7.4520    24.7240     2.7660     2.2400 
  208.7500    59.9430     6.5640     6.3170     7.5010    24.7050     2.8370     2.2100 
  208.8750    57.5930     6.1170     5.9010     6.6280    24.6500     2.9050     2.1880 
  209.0000    58.4270     5.6410     5.4150     4.7450    24.5700     2.9720     2.1910 
  209.1250    61.1620     5.3040     5.0130     3.9820    24.5060     3.0880     2.2270 
  209.2500    61.8100     5.1500     4.7640     4.0480    24.5550     3.2490     2.2800 
  209.3750    60.4450     5.1600     4.6720     4.5770    24.7020     3.3880     2.3310 
  209.5000    59.2370     5.2710     4.7000     4.9500    24.8510     3.4170     2.3660 
  209.6250    58.2160     5.4040     4.7870     4.9690    24.9720     3.3820     2.3740 
  209.7500    56.7200     5.4950     4.8610     4.9890    25.0890     3.4200     2.3590 
  209.8750    55.8320     5.5250     4.8900     4.9180    25.1310     3.5270     2.3310 
  210.0000    56.3670     5.4980     4.8620     4.7680    25.0760     3.6740     2.2990 
  210.1250    58.2090     5.4210     4.7760     5.0780    24.9510     3.8950     2.2740 
  210.2500    58.2090     5.3170     4.6540     4.7370    24.8870     4.1340     2.2610 
  210.3750    58.2090     5.2120     4.5170     4.3700    24.8380     4.3330     2.2600 
  210.5000    58.2090     5.1450     4.4000     4.3000    24.7530     4.4850     2.2710 
  210.6250    58.2090     5.1820     4.3600     4.3040    24.7350     4.5170     2.2920 
  210.7500    58.2090     5.3430     4.4230     4.2320    24.7570     4.3690     2.3160 
  210.8750    58.2090     5.6230     4.5970     4.4750    24.8500     4.0660     2.3360 
  211.0000    58.2090     5.9900     4.8680     5.8620    25.0120     3.6920     2.3450 
  211.1250    58.2090     6.3890     5.2050     7.0290    24.9840     3.2420     2.3400 
  211.2500    58.2090     6.7690     5.5570     7.0090    24.8280     2.7700     2.3290 
  211.3750    58.2090     7.1160     5.9000     6.4430    24.7080     2.3260     2.3190 
  211.5000    58.2090     7.4280     6.2190     6.9560    24.6660     1.9040     2.3180 
  211.6250    58.2090     7.6780     6.4870     8.7450    24.6850     1.5570     2.3280 
  211.7500    58.2090     7.8150     6.6620     8.5470    24.6160     1.3850     2.3430 
  211.8750    58.2090     7.7690     6.6840     7.7550    24.5220     1.3630     2.3520 
  212.0000    58.2090     7.4970     6.5080     7.0150    24.5870     1.4280     2.3520 
  212.1250    58.2090     7.0050     6.1110     6.2020    24.7160     1.6330     2.3470 
  212.2500    58.2090     6.4390     5.6070     5.3910    24.7980     1.8880     2.3500 
  212.3750    58.2090     5.9060     5.0900     4.8660    24.8210     2.1520     2.3630 
  212.5000    58.2090     5.4760     4.6360     4.5020    24.7760     2.5440     2.3800 
  212.6250    58.2090     5.1930     4.3040     4.4090    24.6790     3.0540     2.3880 
  212.7500    58.2090     5.0330     4.0900     4.3480    24.6410     3.5550     2.3840 
  212.8750    58.2090     5.0000     4.0020     4.0390    24.6270     4.0640     2.3730 
  213.0000    58.2090     5.1050     4.0430     3.6960    24.5980     4.5460     2.3640 
  213.1250    58.2090     5.3690     4.2290     3.9240    24.5680     4.8520     2.3680 
  213.2500    58.2090     5.7240     4.5080     4.7660    24.5810     5.1320     2.3830 
  213.3750    58.2090     6.0830     4.8240     5.7090    24.6200     5.4440     2.4000 
  213.5000    58.2090     6.3470     5.0970     6.2110    24.6280     5.6600     2.4110 
  213.6250    58.2090     6.4100     5.2310     5.5550    24.5830     5.7950     2.4090 
  213.7500    58.2090     6.3060     5.2180     4.8940    24.5400     5.8590     2.3960 
  213.8750    58.2090     6.1000     5.0910     4.5650    24.5080     5.8920     2.3800 
  214.0000    58.2090     5.8760     4.9100     4.4840    24.4670     5.8950     2.3680 
  214.1250    58.2090     5.7320     4.7710     4.4340    24.4200     5.8800     2.3660 
  214.2500    58.2090     5.6340     4.6630     4.4560    24.4040     5.8710     2.3710 
  214.3750    58.2090     5.5810     4.5860     4.5740    24.4070     5.9150     2.3810 
  214.5000    58.2090     5.5830     4.5610     4.7670    24.4660     6.0330     2.3950 
  214.6250    58.2090     5.6230     4.5730     4.7890    24.5160     6.2140     2.4120 
  214.7500    58.2090     5.6820     4.6050     4.7930    24.5290     6.4320     2.4270 
  214.8750    58.2090     5.7250     4.6360     4.7900    24.5210     6.6110     2.4350 
  215.0000    58.2090     5.7230     4.6520     4.8630    24.5270     6.7250     2.4340 
  215.1250    58.2090     5.6740     4.6470     4.7920    24.5310     6.8260     2.4250 
  215.2500    58.2090     5.5980     4.6240     4.6030    24.5320     6.9080     2.4130 
  215.3750    58.2090     5.5430     4.5910     4.4880    24.5340     6.9690     2.4020 
  215.5000    58.2090     5.5330     4.5620     4.4390    24.5360     6.9600     2.3980 
  215.6250    58.2090     5.5670     4.5430     4.4300    24.5310     6.8730     2.3990 
  215.7500    58.2090     5.6190     4.5360     4.4490    24.5240     6.8170     2.4010 
  215.8750    58.2090     5.6620     4.5390     4.4370    24.5200     6.7960     2.4020 
  216.0000    58.2090     5.6840     4.5430     4.4150    24.5230     6.7890     2.4000 
  216.1250    58.2090     5.6920     4.5460     4.4330    24.5260     6.7740     2.3960 
  216.2500    58.2090     5.6920     4.5470     4.5540    24.5260     6.7250     2.3920 
  216.3750    58.2090     5.6920     4.5470     4.7340    24.5260     6.6730     2.3890 
