~V
VERS. 2.00: Ver 2.00
~W
STRT.M 54.0000:
STOP.M 273.0000:
STEP.M 0.1250:
NULL. -999.2500:
UWI. F11158:
~C
DEPT.M :
SP.MV :
DEN.GM/CC :
GR.API :
RML.OHMM :
RI. :
RXO.OHMM :
CALI.CM :
~A
# ...
  234.0000   -14.9380     2.3020    67.9700    32.7740    29.1140    26.1950    23.5720 
  234.1250   -14.5970     2.3060    64.4500    30.3150    26.8510    23.8510    23.4880 
  234.2500   -14.2910     2.3120    63.9360    29.5360    25.9900    23.5990    23.4100 
  234.3750   -14.0090     2.3210    68.0400    29.7290    26.0500    24.9570    23.3820 
  234.5000   -13.7510     2.3360    72.0750    30.3050    26.5920    27.7750    23.4110 
  234.6250   -13.5070     2.3480    72.4930    30.6050    27.0490    30.2190    23.4320 
  234.7500   -13.2740     2.3470    71.6020    30.0600    26.8490    30.3060    23.3770 
  234.8750   -13.0570     2.3380    72.2810    28.6980    25.8990    28.6770    23.2870 
  235.0000   -12.8660     2.3260    72.8380    26.8240    24.4090    25.2100    23.2220 
  235.1250   -12.6900     2.3110    71.8770    24.8590    22.7310    20.8040    23.1940 
  235.2500   -12.5240     2.2890    73.2590    23.1420    21.1790    17.9900    23.2120 
  235.3750   -12.3870     2.2680    77.0660    21.7770    19.8880    17.4460    23.3570 
  235.5000   -12.2810     2.2540    79.6750    20.8120    18.9220    17.1780    23.5730 
  235.6250   -12.2270     2.2470    78.6830    20.3570    18.3760    16.5620    23.7560 
  235.7500   -12.2100     2.2390    78.8390    20.6090    18.4090    15.5690    23.9880 
  235.8750   -12.1830     2.2290    86.4890    21.5700    19.0340    15.3320    24.2280 
  236.0000   -12.1310     2.2210    97.3390    23.1770    20.2540    16.4220    24.3440 
  236.1250   -12.0660     2.2200   102.5510    25.1510    21.9250    19.0440    24.2890 
  236.2500   -12.0130     2.2260   100.7750    26.9470    23.6550    22.0970    24.1230 
  236.3750   -11.9580     2.2370   101.3690    28.0120    24.8810    24.3060    24.0750 
  236.5000   -11.8940     2.2460   106.1950    28.1340    25.2770    25.2120    24.1000 
  236.6250   -11.7980     2.2510   107.8360    27.5530    24.9280    24.6050    24.1180 
  236.7500   -11.6870     2.2540   102.3070    26.7990    24.2550    23.0380    24.1040 
  236.8750   -11.5810     2.2600    94.2250    26.2190    23.6510    21.6780    24.1260 
  237.0000   -11.4880     2.2790    87.2460    25.6660    23.0760    21.4710    24.1890 
  237.1250   -11.4220     2.3120    81.4160    24.7570    22.2620    22.9100    24.2350 
  237.2500   -11.3880     2.3600    77.3810    23.1970    20.9670    25.4090    24.1560 
  237.3750   -11.3820     2.4070    75.4140    21.2440    19.3490    26.3090    23.9960 
  237.5000   -11.3850     2.4420    73.6730    19.3700    17.7470    22.5170    23.8540 
  237.6250   -11.3710     2.4550    72.8350    18.0910    16.5550    17.6340    23.7540 
  237.7500   -11.3210     2.4400    78.4530    17.7760    16.0840    16.2900    23.7180 
  237.8750   -11.2580     2.4030    89.4720    18.2650    16.2970    17.0460    23.7560 
  238.0000   -11.1920     2.3570    99.5880    19.2600    17.0580    17.4380    23.8620 
  238.1250   -11.1220     2.3240   103.8830    20.2460    18.0120    17.4500    23.9510 
  238.2500   -11.0400     2.3140   103.1910    20.5640    18.5640    17.7690    23.9660 
  238.3750   -10.9210     2.3110   100.1020    19.9280    18.2870    17.4290    23.8940 
  238.5000   -10.7700     2.3070    94.6850    18.4610    17.1780    16.0190    23.7870 
  238.6250   -10.6070     2.2950    88.1330    16.6220    15.6040    13.7190    23.7100 
  238.7500   -10.4580     2.2810    81.7100    14.9790    14.0650    11.8020    23.8090 
  238.8750   -10.3260     2.2710    76.3850    13.8830    12.9080    11.0620    23.8970 
  239.0000   -10.2270     2.2640    73.2530    13.4360    12.2550    11.1610    23.9270 
  239.1250   -10.1640     2.2590    73.6910    13.5980    12.1270    11.5670    23.9390 
  239.2500   -10.1310     2.2580    76.6960    14.2620    12.4820    11.8290    23.9750 
  239.3750   -10.1510     2.2670    77.1820    15.2080    13.1400    12.0990    24.0220 
  239.5000   -10.2200     2.2820    73.0340    16.3130    13.9930    12.7500    24.0490 
  239.6250   -10.3260     2.3010    66.7620    17.4770    14.9420    13.5310    24.0380 
  239.7500   -10.4510     2.3230    62.3730    18.5870    15.8810    14.4110    23.9620 
  239.8750   -10.5780     2.3380    60.5370    19.5370    16.7020    15.4810    23.7910 
  240.0000   -10.6940     2.3390    61.1700    20.2380    17.3070    16.4960    23.5470 
  240.1250   -10.7920     2.3240    64.0880    20.6400    17.6340    16.8320    23.3520 
  240.2500   -10.8990     2.2970    67.1980    20.7830    17.7000    16.1670    23.4860 
  240.3750   -11.0070     2.2730    67.8450    20.8410    17.6580    16.1340    23.7660 
  240.5000   -11.1180     2.2590    66.3650    20.9400    17.6190    16.9840    23.9570 
  240.6250   -11.2220     2.2540    64.5760    21.1500    17.6550    17.9190    24.0430 
  240.7500   -11.3060     2.2510    63.2800    21.4620    17.7840    18.3890    24.0960 
  240.8750   -11.3680     2.2480    62.6690    21.7790    17.9580    18.6330    24.1160 
  241.0000   -11.4060     2.2460    61.1720    22.0160    18.1280    18.8310    24.1250 
  241.1250   -11.4310     2.2460    57.5930    22.1350    18.2630    19.1050    24.1400 
  241.2500   -11.4310     2.2480    55.0350    22.1770    18.3730    19.2970    24.0870 
  241.3750   -11.4260     2.2500    58.0370    22.2400    18.5040    19.3570    23.9990 
  241.5000   -11.4340     2.2510    64.4360    22.3900    18.6890    19.3190    24.0120 
  241.6250   -11.4350     2.2530    66.9400    22.6460    18.9340    19.3700    24.0780 
  241.7500   -11.4270     2.2560    63.5640    22.9720    19.2150    19.6430    24.0990 
  241.8750   -11.4200     2.2610    61.0160    23.2720    19.4740    19.9620    24.0640 
  242.0000   -11.4180     2.2640    61.1800    23.4330    19.6360    19.8540    23.9820 
  242.1250   -11.4200     2.2650    61.8460    23.2780    19.5560    19.2310    23.8240 
  242.2500   -11.4290     2.2650    61.3140    22.5530    19.0180    18.6180    23.5960 
  242.3750   -11.4320     2.2670    59.8190    21.2420    17.9890    18.2720    23.4510 
  242.5000   -11.4130     2.2710    57.0450    19.5190    16.6000    17.7310    23.4840 
  242.6250   -11.3920     2.2770    55.8130    17.7810    15.1630    15.9560    23.6330 
  242.7500   -11.3770     2.2840    59.8200    16.5370    14.0680    13.3200    23.7360 
  242.8750   -11.3450     2.2880    65.6530    16.0560    13.5280    11.8390    23.6990 
  243.0000   -11.2960     2.2850    68.8590    16.3930    13.6240    12.4100    23.7000 
  243.1250   -11.2420     2.2740    67.7380    17.4080    14.3360    14.6430    23.8030 
  243.2500   -11.1840     2.2620    63.8210    18.7930    15.5330    16.7740    23.9400 
  243.3750   -11.1090     2.2530    58.8470    20.0550    16.8210    18.3360    24.0270 
  243.5000   -11.0180     2.2500    53.9810    20.8090    17.8120    18.7370    24.0520 
  243.6250   -10.9330     2.2490    51.8290    20.8010    18.1730    17.8930    24.0190 
  243.7500   -10.8650     2.2510    54.1300    19.9890    17.7680    16.6730    23.9240 
  243.8750   -10.8170     2.2540    59.1110    18.7140    16.8690    15.9650    23.8190 
  244.0000   -10.7890     2.2600    63.3050    17.2490    15.7080    15.0830    23.7860 
  244.1250   -10.7650     2.2670    64.9000    15.8620    14.5290    13.5940    23.8580 
  244.2500   -10.7320     2.2730    64.8860    14.8000    13.5710    12.6050    23.9650 
  244.3750   -10.7010     2.2700    64.2380    14.1790    12.9620    11.6090    24.0390 
  244.5000   -10.6850     2.2620    63.0810    14.1070    12.7910    11.2700    24.0660 
  244.6250   -10.6760     2.2530    63.3940    14.6780    13.1370    11.7310    24.0720 
  244.7500   -10.6620     2.2470    67.1910    15.8850    14.0290    12.7600    24.0830 
  244.8750   -10.6510     2.2460    71.6460    17.3170    15.2000    13.8430    24.1230 
  245.0000   -10.6500     2.2480    74.0870    18.4360    16.2390    15.2510    24.2040 
  245.1250   -10.6610     2.2450    73.3900    18.6200    16.5570    17.8150    24.3130 
