~V
VERS. 2.00: Ver 2.00
~W
STRT.M 45.0000:
STOP.M 268.0000:
STEP.M 0.1250:
NULL. -999.2500:
UWI. F11184:
~C
DEPT.M :
SP.MV :
GR.API :
RI. :
RML.OHMM :
RXO.OHMM :
DEN.GM/CC :
~A
# ...
  251.0000    -8.0900    65.6120    12.0700    12.8730    13.8570     2.1690 
  251.1250    -8.1020    65.1290    12.0200    12.8210    14.7440     2.2110 
  251.2500    -8.1610    64.6880    13.0940    13.9490    18.4690     2.2710 
  251.3750    -8.2370    65.3290    15.4030    16.3730    27.4910     2.3130 
  251.5000    -8.3020    65.8630    19.0760    20.2300    32.3500     2.3340 
  251.6250    -8.3370    65.2740    23.1300    24.4860    31.9810     2.3640 
  251.7500    -8.3480    64.4580    25.9350    27.4320    39.7870     2.4040 
  251.8750    -8.3450    65.2260    26.7820    28.3210    47.8730     2.4170 
  252.0000    -8.3430    67.4130    26.0340    27.5360    40.2540     2.4010 
  252.1250    -8.3440    69.7550    24.0600    25.4630    23.3180     2.3880 
  252.2500    -8.3360    71.1600    22.7060    24.0410    16.6220     2.3850 
  252.3750    -8.2950    71.1200    21.7260    23.0120    19.3120     2.3760 
  252.5000    -8.2160    70.5310    21.4550    22.7280    19.6980     2.3660 
  252.6250    -8.1150    69.7750    21.9110    23.2070    20.0540     2.3770 
  252.7500    -8.0370    69.2390    22.3340    23.6510    21.1400     2.4030 
  252.8750    -8.0140    68.8260    22.5850    23.9140    17.7730     2.4360 
  253.0000    -8.0290    68.3560    22.5630    23.8910    10.3140     2.4640 
  253.1250    -8.0300    67.5910    22.5110    23.8360     4.3090     2.4410 
  253.2500    -7.9760    66.4670    22.9320    24.2790     2.1360     2.3630 
  253.3750    -7.8670    65.1950    24.1880    25.5970     1.8630     2.2940 
  253.5000    -7.7470    63.8550    25.9190    27.4150     1.9690     2.3020 
  253.6250    -7.6590    62.9140    24.4810    25.9050     3.1520     2.3610 
  253.7500    -7.6120    63.2250    19.9570    21.1550     5.4700     2.3880 
  253.8750    -7.5960    64.3330    13.3410    14.2080     6.1790     2.3610 
  254.0000    -7.5920    65.3870     6.9030     7.4490     4.4090     2.3150 
  254.1250    -7.5920    65.5210     3.8620     4.2550     2.8060     2.2820 
  254.2500    -7.5920    64.8790     2.3650     2.6830     2.3230     2.2620 
  254.3750    -7.5920    64.3880     1.8270     2.1190     2.2200     2.2540 
  254.5000    -7.5920    64.5310     1.5940     1.8740     2.2550     2.2500 
  254.6250    -7.5920    65.0800     1.5450     1.8220     2.3310     2.2510 
  254.7500    -7.5920    64.2060     1.6020     1.8820     2.4000     2.2600 
  254.8750    -7.5920    61.8910     1.6600     1.9440     2.4590     2.2770 
  255.0000    -7.5920    60.4490     1.7070     1.9920     2.4310     2.2870 
  255.1250    -7.5920    61.4710     1.7360     2.0230     2.3740     2.2800 
  255.2500    -7.5920    63.1810     1.7520     2.0400     2.3720     2.2690 
  255.3750    -7.5920    63.3830     1.7570     2.0440     2.3390     2.2670 
  255.5000    -7.5920    63.0040     1.7540     2.0410     2.3310     2.2720 
  255.6250    -7.5920    63.8060     1.7490     2.0370     2.3690     2.2750 
  255.7500    -7.5920    65.0450     1.7480     2.0350     2.3180     2.2780 
  255.8750    -7.5920    64.8100     1.7500     2.0370     2.2930     2.2750 
  256.0000    -7.5920    63.6700     1.7520     2.0390     2.4580     2.2610 
  256.1250    -7.5920    63.6020     1.7510     2.0390     2.6930     2.2490 
  256.2500    -7.5920    63.5350     1.7510     2.0390     2.9180     2.2510 
  256.3750    -7.5920    62.9670     1.7510     2.0390     2.9730     2.2650 
  256.5000    -7.5920    62.4800     1.7510     2.0390     2.7640     2.2760 
  256.6250    -7.5920    62.7550     1.7510     2.0390     2.6290     2.2780 
  256.7500    -7.5920    63.2280     1.7510     2.0390     2.6370     2.2740 
  256.8750    -7.5920    63.3450     1.7500     2.0380     2.6830     2.2730 
  257.0000    -7.5920    63.1900     1.7490     2.0360     2.7830     2.2760 
  257.1250    -7.5920    62.6430     1.7480     2.0360     2.8010     2.2780 
  257.2500    -7.5920    62.5810     1.7460     2.0330     2.8900     2.2780 
  257.3750    -7.5920    63.3060     1.7450     2.0320     3.1280     2.2780 
  257.5000    -7.5920    63.6940     1.7410     2.0280     3.1050     2.2800 
  257.6250    -7.5920    63.6880     1.7420     2.0290     2.9530     2.2780 
  257.7500    -7.5920    64.4980     1.7460     2.0330     2.9580     2.2750 
  257.8750    -7.5920    65.1180     1.7420     2.0290     2.9990     2.2710 
  258.0000    -7.5920    64.2070     1.7410     2.0280     3.0750     2.2670 
  258.1250    -7.5920    63.0250     1.7380     2.0240     2.9980     2.2640 
  258.2500    -7.5920    63.2000     1.7300     2.0170     2.8140     2.2670 
  258.3750    -7.5920    64.5220     1.7360     2.0220     2.8300     2.2880 
  258.5000    -7.5920    65.7440     1.7310     2.0180     3.2430     2.3320 
  258.6250    -7.5920    66.4650     1.7350     2.0220     4.2240     2.3770 
  258.7500    -7.5920    66.0590     1.7350     2.0220     4.5030     2.3740 
  258.8750    -7.5920    63.6490     1.7400     2.0270     3.3930     2.3140 
  259.0000    -7.5920    60.6970     1.7350     2.0220     2.5950     2.2520 
  259.1250    -7.5920    58.7190     1.7300     2.0160     2.5990     2.2330 
  259.2500    -7.5920    58.0840     1.7290     2.0150     2.4890     2.2390 
  259.3750    -7.5920    58.0750     1.7260     2.0130     2.2190     2.2310 
  259.5000    -7.5920    58.1150     1.7300     2.0170     2.2230     2.2050 
  259.6250    -7.5920    58.1080     1.7340     2.0200     2.3500     2.1840 
  259.7500    -7.5920    58.1080     1.7370     2.0240     2.3740     2.1860 
  259.8750    -7.5920    58.1080     1.7410     2.0280     2.4020     2.1960 
  260.0000    -7.5920    58.1080     1.7420     2.0290     2.4130     2.1920 
  260.1250    -7.5920    58.1080     1.7370     2.0240     2.4720     2.1750 
  260.2500    -7.5920    58.1080     1.7330     2.0200     2.5600     2.1630 
  260.3750    -7.5920    58.1080     1.7400     2.0270     2.5820     2.1590 
  260.5000    -7.5920    58.1080     1.7370     2.0240     2.5520     2.1580 
  260.6250    -7.5920    58.1080     1.7360     2.0230     2.5940     2.1580 
  260.7500    -7.5920    58.1080     1.7340     2.0210     2.6810     2.1580 
  260.8750    -7.5920    58.1080     1.7280     2.0140     2.6080     2.1510 
  261.0000    -7.5920    58.1080     1.7350     2.0220     2.5130     2.1350 
  261.1250    -7.5920    58.1080     1.7410     2.0280     2.5490     2.1210 
  261.2500    -7.5920    58.1080     1.7480     2.0350     2.6150     2.1150 
  261.3750    -7.5920    58.1080     1.7500     2.0370     2.8040     2.1130 
  261.5000    -7.5920    58.1080     1.7500     2.0370     3.0620     2.1010 
  261.6250    -7.5920    58.1080     1.7500     2.0370     3.0180     2.0830 
  261.7500    -7.5920    58.1080     1.7500     2.0370     2.8590     2.0740 
  261.8750    -7.5920    58.1080     1.7500     2.0370     2.9070     2.0740 
  262.0000    -7.5920    58.1080     1.7500     2.0370     2.9600     2.0680 
  262.1250    -7.5920    58.1080     1.7500     2.0370     2.9670     2.0520 
  262.2500    -7.5920    58.1080     1.7500     2.0370     2.9550     2.0330 
  262.3750    -7.5920    58.1080     1.7500     2.0370     2.9300     2.0130 
  262.5000    -7.5920    58.1080     1.7500     2.0370     2.8790     1.9840 
  262.6250    -7.5920    58.1080     1.7500     2.0370     2.8420     1.9530 
  262.7500    -7.5920    58.1080     1.7500     2.0370     3.0520     1.9300 
  262.8750    -7.5920    58.1080     1.7500     2.0370     3.1100     1.9180 
  263.0000    -7.5920    58.1080     1.7500     2.0370     2.8480     1.9080 
  263.1250    -7.5920    58.1080     1.7500     2.0370     2.7480     1.9010 
  263.2500    -7.5920    58.1080     1.7500     2.0370     2.8110     1.8990 
  263.3750    -7.5920    58.1080     1.7500     2.0370     2.8430     1.8990 
  263.5000    -7.5920    58.1080     1.7500     2.0370     2.8030     1.9000 
  263.6250    -7.5920    58.1080     1.7500     2.0370     2.7570     1.9020 
  263.7500    -7.5920    58.1080     1.7500     2.0370     2.7520     1.9030 
