~V
VERS. 2.00: Ver 2.00
~W
STRT.M 51.0000:
STOP.M 249.0000:
STEP.M 0.1250:
NULL. -999.2500:
UWI. F11143:
~C
DEPT.M :
GR.API :
RML.OHMM :
RI. :
RXO.OHMM :
CALI.CM :
SP.MV :
DEN.GM/CC :
~A
# ...
  107.2500    74.8740     9.1190     7.7540    10.5390    23.0730   -21.9090     2.2120 
  107.3750    73.3880     9.3400     7.8490    11.3290    23.0390   -21.7460     2.1980 
  107.5000    68.9620     9.5840     8.0050    11.6470    22.9840   -21.6340     2.1940 
  107.6250    66.7150     9.7430     8.1390    11.0900    22.9410   -21.6050     2.2070 
  107.7500    68.1630     9.8050     8.1970    10.3480    22.9460   -21.6280     2.2230 
  107.8750    71.4400     9.8040     8.1710    10.0220    23.0000   -21.6550     2.2290 
  108.0000    72.5360     9.7780     8.0840    10.0650    23.0320   -21.6950     2.2270 
  108.1250    71.9370     9.7260     7.9590    10.0360    23.0160   -21.7800     2.2260 
  108.2500    70.7720     9.6410     7.8220     9.9110    22.9870   -21.9330     2.2310 
  108.3750    68.5850     9.5630     7.7090    10.0180    22.9790   -22.1220     2.2390 
  108.5000    68.0110     9.5840     7.6770    10.2680    23.0110   -22.3290     2.2450 
  108.6250    73.1790     9.8160     7.8010    10.2440    23.0790   -22.5710     2.2540 
  108.7500    78.8160    10.2250     8.0630     9.8270    23.0870   -22.8660     2.2630 
  108.8750    78.5590    10.7140     8.4160    10.4650    22.9610   -23.1690     2.2690 
  109.0000    73.6530    11.1300     8.7740    12.8830    22.7910   -23.4150     2.2620 
  109.1250    71.4960    11.2970     9.0150    14.8840    22.7230   -23.4920     2.2350 
  109.2500    70.3370    11.2530     9.1150    14.2060    22.7680   -23.4300     2.2020 
  109.3750    66.5720    11.1270     9.1230    12.6780    22.8620   -23.2250     2.1730 
  109.5000    63.5250    11.0740     9.1300    12.0130    23.0480   -22.8160     2.1530 
  109.6250    65.9610    11.2020     9.2290    12.0730    23.5450   -22.1310     2.1250 
  109.7500    69.6390    11.4100     9.3970    12.2940    24.2950   -21.2040     2.0910 
  109.8750    70.3870    11.5050     9.5180    12.6950    24.7580   -20.0580     2.0740 
  110.0000    69.2090    11.2720     9.4140    13.1920    24.4820   -18.7020     2.1010 
  110.1250    70.9780    10.5200     8.8800    13.5860    24.0230   -17.1750     2.1800 
  110.2500    76.6110     9.4220     8.0210    12.7890    23.8270   -15.5910     2.2680 
  110.3750    84.1910     8.1960     7.0150    10.1980    23.8250   -14.0300     2.3310 
  110.5000    91.7820     7.0780     6.0520     7.8970    23.9400   -12.5910     2.3540 
  110.6250    96.4770     6.2990     5.3170     6.4870    24.2710   -11.3610     2.3340 
  110.7500    97.6060     5.8750     4.8390     5.3720    24.6370   -10.3300     2.2990 
  110.8750    98.5260     5.7660     4.6070     5.0140    24.7490    -9.5270     2.2740 
  111.0000   101.9950     5.8680     4.5670     4.9590    24.5880    -8.9710     2.2750 
  111.1250   105.5780     6.0320     4.6390     4.8770    24.4920    -8.6690     2.2960 
  111.2500   106.0880     6.1200     4.7110     4.8740    24.4750    -8.5190     2.3080 
  111.3750   103.7310     6.1000     4.7350     5.0680    24.4590    -8.4610     2.3110 
  111.5000   100.3160     6.0210     4.7140     5.0650    24.4420    -8.4520     2.3110 
  111.6250    97.3610     6.0110     4.7180     4.9550    24.4490    -8.4470     2.3130 
  111.7500    96.8740     6.1450     4.8120     4.9680    24.4420    -8.4210     2.3140 
  111.8750    97.6260     6.4160     5.0120     5.3690    24.4160    -8.3450     2.3150 
  112.0000    97.5270     6.7430     5.2770     6.1410    24.4130    -8.2500     2.3200 
  112.1250    97.2250     6.9760     5.5040     6.6570    24.4340    -8.1810     2.3360 
  112.2500    98.5140     7.0120     5.5880     6.7820    24.4680    -8.1270     2.3590 
  112.3750    99.5230     6.8270     5.4900     6.4580    24.5110    -8.0740     2.3730 
  112.5000   100.1650     6.4860     5.2420     5.6570    24.5760    -8.0110     2.3700 
  112.6250   100.6520     6.1050     4.9240     5.2310    24.5820    -7.9420     2.3610 
  112.7500   100.4870     5.7750     4.6230     5.1040    24.5760    -7.8550     2.3590 
  112.8750    99.8080     5.5170     4.3750     5.0570    24.6410    -7.7860     2.3630 
  113.0000    98.2100     5.3220     4.1910     4.7000    24.7830    -7.7540     2.3670 
  113.1250    95.0500     5.1870     4.0800     4.5070    24.7340    -7.7770     2.3710 
  113.2500    95.2140     5.1100     4.0250     4.4630    24.6020    -7.8150     2.3720 
  113.3750   101.4750     5.1110     4.0240     4.5140    24.6040    -7.8530     2.3650 
  113.5000   110.6520     5.2090     4.0850     4.5810    24.6900    -7.8820     2.3530 
  113.6250   113.1720     5.4110     4.2220     4.6610    24.6400    -7.9470     2.3530 
  113.7500   108.3750     5.6610     4.4080     4.8050    24.5590    -8.0520     2.3730 
  113.8750   100.6610     5.9060     4.6120     5.1340    24.5080    -8.1620     2.4040 
  114.0000    95.8980     6.0820     4.7840     5.7340    24.4920    -8.2350     2.4310 
  114.1250    98.6710     6.1090     4.8550     6.3340    24.4940    -8.2320     2.4360 
  114.2500   103.5710     6.0010     4.8200     6.0840    24.5280    -8.1920     2.4230 
  114.3750   104.9960     5.8180     4.7120     5.4890    24.5840    -8.1470     2.4030 
  114.5000   104.0820     5.6460     4.5930     5.0770    24.6600    -8.1180     2.3890 
  114.6250   102.4900     5.5660     4.5260     4.8860    24.6940    -8.0690     2.3840 
  114.7500   100.7640     5.5690     4.5210     4.9290    24.6660    -8.0260     2.3810 
  114.8750    99.8870     5.6040     4.5570     5.0930    24.6070    -7.9970     2.3770 
  115.0000   100.8200     5.6160     4.5970     5.2480    24.6170    -7.9830     2.3730 
  115.1250   101.3630     5.5780     4.6110     5.1140    24.6970    -8.0090     2.3700 
  115.2500    98.9090     5.5230     4.6040     4.8430    24.7500    -8.0720     2.3650 
  115.3750    98.7320     5.4830     4.5910     4.6840    24.7630    -8.1710     2.3630 
  115.5000   104.7880     5.4720     4.5800     4.7880    24.7440    -8.2940     2.3700 
  115.6250   109.9730     5.4710     4.5690     4.9960    24.5990    -8.4310     2.3870 
  115.7500   108.6270     5.4470     4.5450     5.0340    24.5730    -8.5380     2.3950 
  115.8750   103.6980     5.3890     4.5030     4.9320    24.7010    -8.6220     2.3860 
  116.0000   101.5520     5.3040     4.4510     4.8540    24.8400    -8.6960     2.3680 
  116.1250   102.9500     5.2180     4.4040     4.8350    24.7260    -8.7740     2.3530 
  116.2500   103.7940     5.1560     4.3750     4.8030    24.5460    -8.8820     2.3430 
  116.3750   103.5480     5.1310     4.3660     4.7740    24.4550    -9.0180     2.3380 
  116.5000   103.8530     5.1400     4.3710     4.7330    24.4310    -9.1530     2.3400 
  116.6250   105.0380     5.1730     4.3730     4.7410    24.3860    -9.2650     2.3450 
  116.7500   105.7640     5.2140     4.3660     4.7910    24.3530    -9.3880     2.3470 
  116.8750   105.8370     5.2500     4.3550     4.8330    24.3410    -9.5480     2.3470 
  117.0000   106.0180     5.2680     4.3480     4.8930    24.3420    -9.7330     2.3460 
  117.1250   105.4190     5.2790     4.3610     5.0190    24.3580    -9.9460     2.3460 
  117.2500   104.7160     5.3460     4.4250     5.2670    24.3830   -10.1620     2.3440 
  117.3750   104.7920     5.5600     4.5920     5.7770    24.4030   -10.3380     2.3370 
  117.5000   103.3970     6.0110     4.9190     6.4890    24.4090   -10.4830     2.3280 
  117.6250    98.3330     6.7750     5.4860     7.5820    24.3880   -10.6260     2.3380 
  117.7500    92.6150     7.7220     6.2370     9.2150    24.3170   -10.7720     2.3820 
  117.8750    87.1220     8.6940     7.0810    12.5400    24.1700   -10.8860     2.4550 
  118.0000    80.8450     9.5550     7.8890    16.2120    24.0450   -10.9400     2.5270 
  118.1250    78.3190    10.3260     8.5760    18.2150    24.0080   -10.9000     2.5500 
  118.2500    80.4080    11.2500     9.2530    17.4850    24.0530   -10.7900     2.5300 
  118.3750    79.7740    12.5000    10.0660    16.5490    24.1360   -10.6570     2.5000 
