~V
VERS. 2.00: Ver 2.00
~W
STRT.M 63.0000:
STOP.M 208.0000:
STEP.M 0.1250:
NULL. -999.2500:
UWI. F11108:
~C
DEPT.M :
GR.API :
RML.OHMM :
RI. :
RXO.OHMM :
CALI.CM :
SP.MV :
DEN.GM/CC :
~A
   63.0000    54.8750     1.0370     0.1690     0.3300    25.7810   109.5240     2.0560 
   63.1250    56.3180     1.0270     0.1510     0.3300    25.7820    98.7440     2.0280 
   63.2500    56.8170     0.8330     0.1320     0.3300    25.7800    89.6540     2.0240 
   63.3750    55.0440     0.4720     0.1110     0.3300    25.7770    82.2080     2.0720 
   63.5000    52.1140     0.0910     0.0880     0.3300    25.7760    76.4920     2.1870 
   63.6250    51.2210    -0.1420     0.0710     0.3310    25.7850    72.3660     2.3610 
   63.7500    52.5740    -0.2370     0.0700     0.3500    25.8080    68.7220     2.5290 
   63.8750    53.3980    -0.2390     0.0970     0.5530    25.8390    64.6120     2.6350 
   64.0000    53.8270    -0.1640     0.1710     1.5170    25.9740    59.2560     2.6450 
   64.1250    59.5050     0.0510     0.3510     2.9520    26.7650    52.4830     2.5580 
   64.2500    68.9400     0.4810     0.6860     4.8740    28.4510    44.9280     2.4370 
   64.3750    75.5610     1.1860     1.2300     6.3140    30.3560    36.8420     2.3240 
   64.5000    76.2780     2.0920     1.9780     7.2320    31.6710    28.4450     2.2430 
   64.6250    74.4630     2.9310     2.8310     7.4100    32.1810    20.0990     2.2050 
   64.7500    75.2880     3.4970     3.6150     7.6120    32.2110    12.3260     2.1930 
   64.8750    77.6830     3.8090     4.2500     7.8380    31.7390     5.7160     2.1980 
   65.0000    79.5830     4.0110     4.7320     7.9010    30.4280     0.7360     2.2110 
   65.1250    79.8630     4.2280     5.0800     7.8480    28.0630    -2.4490     2.2280 
   65.2500    80.2340     4.4740     5.3450     7.8200    25.4490    -4.6480     2.2430 
   65.3750    81.4850     4.7240     5.5490     7.6130    23.6690    -6.2700     2.2560 
   65.5000    82.9460     4.9670     5.7170     7.1830    22.8980    -7.5410     2.2650 
   65.6250    84.4190     5.2150     5.8750     6.9550    22.6620    -8.5780     2.2650 
   65.7500    85.3780     5.4750     6.0320     7.0200    22.5720    -9.4790     2.2540 
   65.8750    84.7440     5.7350     6.1780     7.1310    22.5280   -10.2640     2.2320 
   66.0000    82.0970     5.9630     6.2950     7.4030    22.5330   -10.9770     2.2050 
   66.1250    80.6770     6.1190     6.3630     7.5170    22.5890   -11.6160     2.1800 
   66.2500    81.9250     6.2030     6.3910     7.4950    22.5980   -12.2040     2.1610 
   66.3750    83.4430     6.2320     6.3920     7.3720    22.5500   -12.7550     2.1510 
   66.5000    82.8150     6.2370     6.3770     7.2350    22.4840   -13.2540     2.1470 
   66.6250    80.3360     6.2460     6.3530     7.1410    22.4110   -13.6170     2.1500 
   66.7500    78.7750     6.2620     6.3210     7.1190    22.3280   -13.8820     2.1550 
   66.8750    77.8190     6.2770     6.2810     7.0570    22.2260   -14.0790     2.1590 
   67.0000    77.3650     6.2810     6.2400     7.1700    22.1040   -14.2120     2.1600 
   67.1250    78.6160     6.2740     6.2130     7.6390    22.0410   -14.3020     2.1580 
   67.2500    80.5110     6.2760     6.2140     8.1250    22.0730   -14.3800     2.1580 
   67.3750    81.2350     6.3080     6.2530     8.3940    22.1750   -14.4440     2.1600 
   67.5000    80.0910     6.3850     6.3290     8.4080    22.2750   -14.5290     2.1650 
   67.6250    79.0380     6.5000     6.4250     8.0400    22.3930   -14.6830     2.1710 
   67.7500    78.3280     6.6000     6.4910     7.5240    22.5080   -14.8250     2.1780 
   67.8750    76.9630     6.6270     6.4810     7.2740    22.6400   -14.9030     2.1860 
   68.0000    76.7470     6.5230     6.3500     7.2310    22.8130   -14.9380     2.1980 
   68.1250    82.3090     6.2460     6.0620     6.8610    23.0100   -14.9550     2.2200 
   68.2500    92.8370     5.8690     5.6790     6.2250    23.1500   -14.9290     2.2500 
   68.3750   104.0500     5.4790     5.2710     5.8880    23.2820   -14.8340     2.2850 
   68.5000   112.1910     5.1680     4.9200     5.7770    23.5330   -14.7060     2.3160 
   68.6250   111.6180     5.0370     4.7180     5.4690    23.7200   -14.6600     2.3260 
   68.7500   104.8530     5.0880     4.6810     5.4560    23.5480   -14.7730     2.3140 
   68.8750    95.8730     5.3160     4.8140     5.9790    22.9620   -15.1060     2.2810 
   69.0000    87.9060     5.6960     5.1020     6.8790    22.4070   -15.6280     2.2360 
   69.1250    81.9200     6.1930     5.5250     6.9390    22.2230   -16.2580     2.1950 
   69.2500    79.5430     6.7120     5.9980     7.1370    22.3000   -16.9580     2.1690 
   69.3750    81.7600     7.1610     6.4390     8.1400    22.5500   -17.7090     2.1600 
   69.5000    83.9660     7.4530     6.7620    11.9220    22.9540   -18.4540     2.1640 
   69.6250    81.0530     7.4900     6.8630    19.6160    23.0940   -19.1340     2.1710 
   69.7500    77.7440     7.3260     6.7670    19.1120    22.9310   -19.7230     2.1750 
   69.8750    77.5770     7.0400     6.5280    12.1930    22.6400   -20.2120     2.1760 
   70.0000    78.6320     6.7300     6.2270     8.8710    22.4310   -20.6510     2.1750 
   70.1250    77.6400     6.4900     5.9540     8.3260    22.3100   -21.1230     2.1760 
   70.2500    76.9310     6.3360     5.7480     8.2770    22.2080   -21.6370     2.1780 
   70.3750    77.9070     6.2530     5.6090     8.2060    22.1370   -22.1970     2.1820 
   70.5000    78.5130     6.2180     5.5230     8.1090    22.0810   -22.7750     2.1850 
   70.6250    78.4120     6.2340     5.4890     7.9410    22.1030   -23.3370     2.1880 
   70.7500    80.1700     6.3100     5.5080     7.6600    22.1450   -23.8280     2.1910 
   70.8750    82.9940     6.4540     5.5900     7.2310    22.2260   -24.2280     2.1940 
   71.0000    84.0630     6.6460     5.7250     7.4460    22.3240   -24.5450     2.1910 
   71.1250    83.2090     6.8240     5.8790     7.8650    22.3800   -24.7660     2.1770 
   71.2500    81.3040     6.9240     5.9970     8.1780    22.4110   -24.8930     2.1510 
   71.3750    79.8750     6.9180     6.0440     8.2100    22.4020   -24.9330     2.1220 
   71.5000    80.3610     6.8210     6.0170     8.1660    22.3630   -24.9170     2.0990 
   71.6250    79.9960     6.6940     5.9380     8.1100    22.2880   -24.8610     2.0940 
   71.7500    76.0910     6.6060     5.8640     8.1580    22.2620   -24.8500     2.1050 
   71.8750    71.3230     6.5940     5.8300     8.4170    22.2420   -24.9170     2.1260 
   72.0000    70.3960     6.6590     5.8560     8.7180    22.2260   -25.0030     2.1490 
   72.1250    72.3850     6.7830     5.9520     8.6060    22.2200   -25.0640     2.1670 
   72.2500    72.6090     6.9190     6.0850     8.5890    22.2470   -25.1340     2.1780 
   72.3750    72.2920     7.0350     6.2210     8.4220    22.3190   -25.2450     2.1840 
   72.5000    72.5280     7.1090     6.3250     8.3570    22.3960   -25.3930     2.1880 
   72.6250    73.8510     7.1160     6.3560     8.6880    22.4180   -25.4620     2.1900 
   72.7500    74.8820     7.0580     6.3130     9.0380    22.4000   -25.3870     2.1870 
   72.8750    74.4990     6.9400     6.1990     8.9470    22.4330   -25.1840     2.1800 
   73.0000    74.1470     6.7670     6.0250     8.3460    22.5200   -24.9420     2.1680 
   73.1250    76.1480     6.5390     5.8000     7.7740    22.6010   -24.6640     2.1570 
   73.2500    78.7340     6.2720     5.5450     7.3940    22.5940   -24.3160     2.1510 
   73.3750    78.9000     5.9870     5.2780     7.2170    22.5310   -23.8900     2.1510 
   73.5000    78.5690     5.7510     5.0340     7.1820    22.4690   -23.3980     2.1550 
   73.6250    80.3350     5.7700     4.9180     7.0950    22.4530   -22.8970     2.1580 
   73.7500    82.4770     6.2910     5.0710     7.1600    22.4490   -22.3880     2.1620 
   73.8750    81.9080     7.6350     5.7180     7.3810    22.4960   -21.7630     2.1750 
   74.0000    79.3560    10.1050     7.1590     8.4180    22.6470   -20.9320     2.2120 
   74.1250    78.1540    13.8900     9.8630    13.7300    22.9910   -19.9310     2.2880 
