~V
VERS. 2.00: Ver 2.00
~W
STRT.M 55.0000:
STOP.M 207.0000:
STEP.M 0.1250:
NULL. -999.2500:
UWI. F11112:
~C
DEPT.M :
SP.MV :
RML.OHMM :
RI. :
RXO.OHMM :
CALI.CM :
DEN.GM/CC :
GR.API :
~A
# ...
  100.0000   -24.4460     7.9090     6.4420     8.9530    25.2770     2.1150    68.1970 
  100.1250   -24.4750     8.3810     6.8230     9.1570    25.1870     2.1140    67.4340 
  100.2500   -24.4650     8.8330     7.2330     9.3330    25.0890     2.1220    64.8650 
  100.3750   -24.3920     9.1940     7.5980     9.5710    24.9760     2.1370    63.4380 
  100.5000   -24.2360     9.4270     7.8670    10.0370    24.8700     2.1550    64.5900 
  100.6250   -24.0460     9.5340     8.0180    10.7820    24.7510     2.1710    66.4170 
  100.7500   -23.8680     9.5610     8.0620    11.6970    24.6400     2.1820    66.6940 
  100.8750   -23.7130     9.6000     8.0800    12.4030    24.5440     2.1890    67.7570 
  101.0000   -23.5820     9.7060     8.1330    12.6680    24.4930     2.1900    70.5910 
  101.1250   -23.4840     9.8870     8.2500    12.9130    24.4780     2.1890    72.5670 
  101.2500   -23.4560    10.1000     8.4140    13.5630    24.4810     2.1890    71.1140 
  101.3750   -23.5010    10.2590     8.5610    14.7130    24.4930     2.1860    68.4100 
  101.5000   -23.6610    10.3100     8.6370    15.6250    24.5350     2.1830    65.9080 
  101.6250   -23.9160    10.2510     8.6260    15.1960    24.6260     2.1800    63.7640 
  101.7500   -24.2330    10.1390     8.5560    13.8540    24.7220     2.1840    63.2610 
  101.8750   -24.5500    10.0730     8.5040    12.8940    24.8300     2.1930    64.2480 
  102.0000   -24.8900    10.0980     8.5190    12.9800    24.9300     2.2020    65.6510 
  102.1250   -25.2510    10.1990     8.6090    13.9250    25.0060     2.2050    66.8410 
  102.2500   -25.6930    10.3020     8.7360    14.9370    25.0530     2.1990    67.7480 
  102.3750   -26.1570    10.3280     8.8300    15.5070    25.0880     2.1890    68.9010 
  102.5000   -26.6160    10.2400     8.8490    15.4410    25.1300     2.1790    69.9820 
  102.6250   -27.0320    10.0400     8.7720    14.6090    25.1950     2.1700    70.4420 
  102.7500   -27.4520     9.7330     8.5870    13.8700    25.2710     2.1670    69.1740 
  102.8750   -27.9170     9.3550     8.3220    13.7110    25.3280     2.1720    67.6550 
  103.0000   -28.4640     8.9140     7.9840    13.4790    25.3670     2.1820    68.6110 
  103.1250   -29.0150     8.4340     7.5920    12.5800    25.4830     2.1890    71.9360 
  103.2500   -29.4680     7.9650     7.1790    11.0990    25.8320     2.1790    73.3950 
  103.3750   -29.8170     7.5740     6.8070    10.0440    26.4690     2.1480    72.4290 
  103.5000   -30.0610     7.3060     6.5230     9.5410    27.3770     2.0910    71.4500 
  103.6250   -30.2160     7.1770     6.3540     9.3140    28.2980     2.0230    70.5280 
  103.7500   -30.3000     7.1810     6.3150     9.2660    28.6950     1.9810    68.2430 
  103.8750   -30.3250     7.2470     6.3550     9.4140    28.4220     1.9820    65.6040 
  104.0000   -30.2500     7.3320     6.4310     9.5870    27.8910     2.0150    63.3190 
  104.1250   -30.1170     7.4040     6.5060     9.6840    27.5030     2.0480    61.7180 
  104.2500   -29.8940     7.4330     6.5470     9.7140    27.3480     2.0530    63.2560 
  104.3750   -29.6040     7.4140     6.5470     9.7840    27.1250     2.0440    66.5240 
  104.5000   -29.1990     7.3470     6.5040     9.8760    26.8040     2.0380    66.5480 
  104.6250   -28.7060     7.2470     6.4250     9.9160    26.5050     2.0480    62.4650 
  104.7500   -28.1700     7.1510     6.3220     9.8240    26.3230     2.0750    59.9270 
  104.8750   -27.6160     7.1020     6.2260     9.7290    26.1580     2.1090    60.8530 
  105.0000   -27.0660     7.1340     6.1640     9.7160    25.9050     2.1420    62.8730 
  105.1250   -26.5560     7.2680     6.1670     9.9240    25.5940     2.1700    64.5800 
  105.2500   -26.1000     7.5320     6.2870    10.3400    25.4180     2.1920    66.8860 
  105.3750   -25.7100     7.8910     6.5240    11.0150    25.3900     2.2100    69.4840 
  105.5000   -25.4680     8.3020     6.8630    11.7880    25.4450     2.2300    70.5740 
  105.6250   -25.3890     8.7040     7.2580    12.7420    25.5300     2.2520    69.2380 
  105.7500   -25.4700     9.0060     7.6310    14.1200    25.6050     2.2780    67.2220 
  105.8750   -25.6330     9.1760     7.9220    15.3890    25.6020     2.3010    66.7880 
  106.0000   -25.8690     9.2170     8.1040    15.6190    25.4500     2.3030    67.5290 
  106.1250   -26.1270     9.1620     8.1820    14.4760    25.2290     2.2690    67.2580 
  106.2500   -26.4300     9.0380     8.1630    13.4020    25.1260     2.2130    66.0240 
  106.3750   -26.7270     8.8620     8.0720    13.3190    25.1050     2.1680    65.9870 
  106.5000   -26.9700     8.6230     7.9030    13.5500    25.1160     2.1400    67.9870 
  106.6250   -27.1020     8.3110     7.6530    13.3510    25.1530     2.1200    70.5330 
  106.7500   -27.1020     7.9360     7.3280    12.2760    25.2330     2.1030    70.6840 
  106.8750   -26.9830     7.5570     6.9760    10.9550    25.3200     2.0930    68.2520 
  107.0000   -26.7260     7.2280     6.6460    10.0090    25.3790     2.0960    65.3290 
  107.1250   -26.3140     6.9860     6.3780     9.5670    25.4250     2.1070    64.3430 
  107.2500   -25.7000     6.8510     6.2020     9.3400    25.4880     2.1200    66.6070 
  107.3750   -24.9340     6.7770     6.0920     8.9740    25.5740     2.1340    70.3760 
  107.5000   -24.0890     6.7220     6.0150     8.5410    25.6640     2.1530    73.8950 
  107.6250   -23.1870     6.6580     5.9410     8.2950    25.7480     2.1780    76.4100 
  107.7500   -22.1500     6.6090     5.8690     8.2890    25.7400     2.2060    77.1670 
  107.8750   -21.0840     6.6640     5.8560     8.4240    25.7410     2.2300    77.0950 
  108.0000   -20.1520     6.9480     5.9970     8.3840    25.8710     2.2450    77.1390 
  108.1250   -19.5000     7.5820     6.4010     8.9370    26.0970     2.2500    78.3830 
  108.2500   -19.2170     8.7050     7.2220    11.1580    26.2020     2.2450    80.3550 
  108.3750   -19.2270    10.1790     8.4170    14.4510    26.1250     2.2350    81.8500 
  108.5000   -19.4620    11.7960     9.8830    17.5300    25.9430     2.2280    83.0510 
  108.6250   -19.9380    13.2510    11.3980    19.0680    25.7070     2.2290    83.3670 
  108.7500   -20.7020    14.1100    12.5690    19.4510    25.4390     2.2310    79.8980 
  108.8750   -21.6370    14.2770    13.1540    19.6110    25.2580     2.2150    74.1580 
  109.0000   -22.5720    13.8520    13.1120    19.3700    25.1920     2.1800    69.3070 
  109.1250   -23.3850    13.1330    12.6430    18.5350    25.1750     2.1420    67.2620 
  109.2500   -24.0430    12.4960    12.0770    17.0750    25.1480     2.1240    67.2970 
  109.3750   -24.6300    12.1310    11.6710    16.0610    25.1030     2.1220    67.7210 
  109.5000   -25.1570    12.0320    11.4820    16.2490    25.0450     2.1270    68.7650 
  109.6250   -25.5570    12.0770    11.4550    17.3570    24.9870     2.1330    70.1200 
  109.7500   -25.8110    12.0560    11.4380    17.9880    24.9530     2.1370    71.2900 
  109.8750   -25.9290    11.8190    11.2690    17.6370    24.9460     2.1430    71.1490 
  110.0000   -25.9410    11.3310    10.8750    16.6710    24.9640     2.1540    70.1090 
  110.1250   -25.8360    10.6670    10.2860    15.3810    25.0060     2.1700    70.5570 
  110.2500   -25.5980    10.0070     9.6320    13.9680    25.0800     2.1900    73.0860 
  110.3750   -25.2440     9.5150     9.0830    12.8600    25.1710     2.2060    75.6930 
  110.5000   -24.8030     9.2620     8.7240    12.4020    25.2700     2.2060    78.1980 
  110.6250   -24.3280     9.2450     8.5780    12.7070    25.3500     2.1910    80.6340 
  110.7500   -23.8450     9.4590     8.6580    13.4380    25.3790     2.1820    80.2660 
  110.8750   -23.3960     9.8550     8.9170    14.1500    25.3880     2.1860    75.8810 
  111.0000   -23.0300    10.4510     9.3650    14.6310    25.4040     2.1940    71.0320 
  111.1250   -22.8010    11.2730    10.0250    14.3840    25.4530     2.1980    69.3840 
