~V
VERS. 2.00: Ver 2.00
~W
STRT.M 53.0000:
STOP.M 252.0000:
STEP.M 0.1250:
NULL. -999.2500:
UWI. F11141:
~C
DEPT.M :
SP.MV :
DEN.GM/CC :
GR.API :
RML.OHMM :
RI. :
RXO.OHMM :
CALI.CM :
~A
# ...
  154.2500    -8.4750     2.3140   102.6210     5.7010     4.8310     5.8770    23.7700 
  154.3750    -8.3560     2.3000   103.4940     5.8540     4.8960     5.4810    23.8970 
  154.5000    -8.2580     2.2790   101.2260     6.6650     5.3450     5.4160    24.0060 
  154.6250    -8.2900     2.2530    93.3480     8.5000     6.4600     7.2720    24.0740 
  154.7500    -8.4440     2.2260    83.8230    11.1930     8.2720    12.3240    24.1310 
  154.8750    -8.6170     2.2060    77.7960    14.3720    10.6920    18.9760    24.1910 
  155.0000    -8.7770     2.1930    77.5110    17.7870    13.2900    22.0380    24.2920 
  155.1250    -9.0220     2.1890    77.3340    19.3910    15.1950    19.8090    24.3150 
  155.2500    -9.3660     2.1900    75.3770    19.7460    16.1070    18.4100    24.2980 
  155.3750    -9.7870     2.1940    73.6070    19.3980    16.2540    17.2900    24.2990 
  155.5000   -10.1930     2.2010    72.0720    18.8850    16.0190    16.6210    24.3240 
  155.6250   -10.4740     2.2100    72.5090    18.3790    15.5900    16.2880    24.3540 
  155.7500   -10.7420     2.2190    76.7500    17.7810    15.0230    16.4750    24.3380 
  155.8750   -11.1250     2.2270    81.9700    17.0770    14.3670    15.6620    24.3170 
  156.0000   -11.6270     2.2300    82.9620    16.4110    13.7460    12.7200    24.3040 
  156.1250   -12.1400     2.2300    78.9800    16.0530    13.3600    10.5140    24.2790 
  156.2500   -12.6130     2.2300    77.5080    16.0840    13.2780    10.9970    24.2220 
  156.3750   -13.0540     2.2360    79.9980    16.4690    13.5000    12.6680    24.1340 
  156.5000   -13.5380     2.2470    83.8030    17.0710    13.9620    13.9590    24.0140 
  156.6250   -14.0690     2.2620    85.5410    17.7070    14.5460    14.6380    23.9750 
  156.7500   -14.5110     2.2740    83.1900    18.2160    15.0830    15.8560    24.0380 
  156.8750   -14.7980     2.2790    78.3280    18.5480    15.4800    17.6170    24.1670 
  157.0000   -14.9410     2.2780    72.4380    18.7500    15.7350    17.2260    24.2160 
  157.1250   -14.9700     2.2750    67.6580    18.8910    15.8900    13.8950    24.1710 
  157.2500   -14.8930     2.2740    66.9080    18.9430    15.9620    13.6490    24.0830 
  157.3750   -14.6870     2.2740    70.3380    18.7900    15.8870    14.3320    24.0070 
  157.5000   -14.3550     2.2700    76.0200    18.3540    15.6100    14.4800    24.0390 
  157.6250   -13.9970     2.2590    79.6330    17.6310    15.1220    17.4330    24.1340 
  157.7500   -13.7390     2.2440    79.6700    16.8520    14.5770    16.2660    24.1530 
  157.8750   -13.5680     2.2320    76.9330    16.2850    14.1610    14.0040    24.1900 
  158.0000   -13.3910     2.2270    74.3740    16.1820    14.0570    12.5020    24.3710 
  158.1250   -13.2350     2.2290    76.0480    16.6990    14.4210    13.8190    24.4860 
  158.2500   -13.2080     2.2370    78.6030    17.5210    15.0880    15.3670    24.5250 
  158.3750   -13.2950     2.2470    76.4350    18.2080    15.7810    16.9950    24.5110 
  158.5000   -13.4150     2.2600    70.6680    18.2330    16.0790    18.4240    24.4910 
  158.6250   -13.4950     2.2740    68.8930    17.1240    15.4920    17.2630    24.4470 
  158.7500   -13.5070     2.2870    73.8100    15.3630    14.2730    14.9990    24.3980 
  158.8750   -13.5010     2.2970    81.1330    13.5720    12.8780    11.9970    24.3150 
  159.0000   -13.5440     2.3070    86.3370    12.2490    11.7240    10.1270    24.2140 
  159.1250   -13.5800     2.3160    85.8010    11.6760    11.0720     9.1430    24.0840 
  159.2500   -13.5010     2.3230    81.8070    11.5660    10.7730     8.9300    23.9890 
  159.3750   -13.3120     2.3210    77.8750    11.5410    10.5800     9.2500    24.0510 
  159.5000   -13.0860     2.3050    76.7780    11.1840    10.1690     9.8700    24.1910 
  159.6250   -12.7870     2.2740    78.5510    10.1570     9.2530     8.8760    24.3410 
  159.7500   -12.3110     2.2420    81.3440     8.7190     8.0200     6.9030    24.4670 
  159.8750   -11.6150     2.2230    85.0280     7.2650     6.7880     5.3960    24.5260 
  160.0000   -10.8150     2.2240    90.8060     6.1940     5.8640     4.5690    24.5140 
  160.1250   -10.0740     2.2450    98.5060     5.9700     5.5700     4.1240    24.4470 
  160.2500    -9.4090     2.2660   103.8940     6.7170     5.9840     4.3860    24.4080 
  160.3750    -8.7980     2.2750   102.1000     8.5410     7.2420     6.2460    24.3680 
  160.5000    -8.2520     2.2670    92.1800    11.2940     9.3990    11.4530    24.2970 
  160.6250    -7.8000     2.2510    82.7080    14.1280    12.0690    18.5560    24.2210 
  160.7500    -7.4400     2.2450    80.9710    15.5400    13.8530    20.7130    24.1830 
  160.8750    -7.1810     2.2530    84.0430    15.8680    13.6920    15.2950    24.1920 
  161.0000    -6.9950     2.2750    86.8590    13.5750    11.9500     8.3340    24.2580 
  161.1250    -6.8710     2.3020    88.1120    10.8740     9.9910     6.1850    24.3340 
  161.2500    -6.7660     2.3250    89.2770     9.2640     8.6800     5.8800    24.3360 
  161.3750    -6.6280     2.3370    88.8360     8.8400     8.1430     6.3420    24.3000 
  161.5000    -6.4640     2.3370    86.3530     9.3280     8.2830     7.0130    24.2560 
  161.6250    -6.3460     2.3260    82.7050    10.3090     8.9250     7.8640    24.1620 
  161.7500    -6.2960     2.3110    80.3960    11.1670     9.6280     8.8450    24.0020 
  161.8750    -6.2730     2.3030    83.3470    11.5310    10.0520     9.6130    23.8610 
  162.0000    -6.2010     2.3040    89.4080    11.2860    10.0190     8.6340    23.8170 
  162.1250    -6.0320     2.3120    89.4010    10.6100     9.5900     6.9640    23.7880 
  162.2500    -5.8990     2.3190    84.2060    10.0270     9.1540     6.4030    23.8630 
  162.3750    -5.8760     2.3190    81.1960     9.9240     9.0040     7.3080    24.0850 
  162.5000    -5.8780     2.3100    82.2070    10.4950     9.3280     8.8140    24.3530 
  162.6250    -5.8930     2.2950    82.1180    11.7090    10.2170    10.2870    24.5190 
  162.7500    -6.0240     2.2780    81.2430    13.0170    11.3440    11.1310    24.6070 
  162.8750    -6.3060     2.2680    81.0790    13.8540    12.2590    15.0630    24.6270 
  163.0000    -6.6530     2.2710    81.3680    13.8130    12.5170    19.6230    24.6380 
  163.1250    -7.0310     2.2940    84.0860    12.8540    11.9490    16.5410    24.6040 
  163.2500    -7.4860     2.3310    90.5440    11.6840    11.1030    11.1750    24.5620 
  163.3750    -8.0090     2.3670    97.0190    10.8500    10.4210     8.8280    24.5360 
  163.5000    -8.5630     2.3890    99.1580    10.6840    10.1900     9.3830    24.5320 
  163.6250    -9.1580     2.3860    97.6670    11.4230    10.6550    10.5370    24.5450 
  163.7500    -9.7870     2.3670    93.9590    12.8130    11.7210    11.5990    24.5080 
  163.8750   -10.4160     2.3430    88.7120    14.5610    13.2220    14.0160    24.4350 
  164.0000   -11.0600     2.3260    83.7160    16.2820    14.8450    15.4880    24.3610 
  164.1250   -11.7100     2.3240    83.2500    17.5030    16.1250    16.6630    24.2330 
  164.2500   -12.3380     2.3350    86.7760    18.0000    16.7760    14.9250    24.0220 
  164.3750   -13.0080     2.3520    90.5600    17.6770    16.6510    13.6600    23.8020 
  164.5000   -13.7150     2.3710    92.8800    16.7120    15.8780    13.1650    23.6860 
  164.6250   -14.3100     2.3810    91.3280    15.6990    14.9460    13.8510    23.6960 
  164.7500   -14.8650     2.3770    88.4660    15.4350    14.5060    13.3510    23.7140 
  164.8750   -15.5350     2.3580    87.4670    16.6930    15.1040    11.4440    23.6820 
  165.0000   -16.3820     2.3280    87.5020    20.2990    17.4080    11.7890    23.6320 
  165.1250   -17.3740     2.2950    86.5240    27.8150    22.9830    21.1670    23.6140 
  165.2500   -18.3960     2.2690    83.1010    39.6210    32.7070    37.9130    23.6060 
  165.3750   -19.4460     2.2500    78.5640    55.9370    47.2930    53.6050    23.5670 
