~V
VERS. 2.00: Ver 2.00
~W
STRT.M 20.0000:
STOP.M 279.0000:
STEP.M 0.1250:
NULL. -999.2500:
UWI. F11153:
~C
DEPT.M :
DEN.GM/CC :
GR.API :
RML.OHMM :
RI. :
RXO.OHMM :
CALI.CM :
SP.MV :
~A
# ...
  110.0000     2.3110    91.5390     4.8330     3.8410     4.8340    25.3690   -19.0620 
  110.1250     2.3090    89.9340     4.9970     3.8980     4.9080    25.3660   -19.6920 
  110.2500     2.3040    87.3830     5.2040     4.0200     5.0060    25.3640   -20.5100 
  110.3750     2.2960    85.3490     5.4310     4.1880     5.1880    25.3740   -21.4410 
  110.5000     2.2820    83.9430     5.6760     4.3940     5.4580    25.3820   -22.4460 
  110.6250     2.2550    82.6430     6.2100     4.6460     5.9320    25.3750   -23.4290 
  110.7500     2.2240    80.2110     6.6150     4.9650     6.5880    25.3460   -24.2910 
  110.8750     2.2010    76.9110     7.1710     5.3850     7.3640    25.2980   -24.9460 
  111.0000     2.1880    72.8850     7.8870     5.9240     8.2780    25.2770   -25.2930 
  111.1250     2.1790    67.8770     8.6730     6.5500     8.9980    25.2500   -25.2120 
  111.2500     2.1770    64.1220     9.2710     7.0930    10.6950    25.1810   -24.7730 
  111.3750     2.1940    61.9220     9.3940     7.3460    13.1550    25.0870   -23.9860 
  111.5000     2.2270    62.3720     8.8890     7.1570    13.5760    25.0490   -22.8980 
  111.6250     2.2530    66.5730     7.8830     6.5270    10.4420    25.0610   -21.6070 
  111.7500     2.2580    71.8720     6.8700     5.7770     7.4310    25.0630   -20.2900 
  111.8750     2.2570    75.0510     6.1210     5.1270     5.3320    25.0290   -19.0360 
  112.0000     2.2660    77.0060     5.7150     4.6890     4.3540    24.9190   -17.9140 
  112.1250     2.2760    81.5010     5.6280     4.5090     4.1210    24.7560   -16.9900 
  112.2500     2.2800    86.3470     5.6770     4.4820     4.1660    24.5820   -16.2430 
  112.3750     2.2820    88.6230     5.7490     4.5200     4.2760    24.4400   -15.7020 
  112.5000     2.2930    89.1460     5.7600     4.5410     4.2990    24.3220   -15.4020 
  112.6250     2.3200    89.7580     5.6620     4.4850     4.2570    24.2390   -15.2480 
  112.7500     2.3530    90.6360     5.4900     4.3680     4.3360    24.1940   -15.1290 
  112.8750     2.3770    92.7000     5.2860     4.2240     4.3670    24.1410   -15.0840 
  113.0000     2.3780    96.2740     5.1010     4.0880     4.3580    24.0770   -15.1550 
  113.1250     2.3590    98.7090     4.9770     3.9920     4.1870    24.0310   -15.2870 
  113.2500     2.3390    98.1950     4.9180     3.9360     4.0510    24.0090   -15.3980 
  113.3750     2.3240    96.2770     4.9210     3.9210     3.9830    23.9740   -15.5410 
  113.5000     2.3140    97.6680     4.9710     3.9500     3.9270    23.9350   -15.7080 
  113.6250     2.3070   103.6050     5.0600     4.0270     3.9110    23.9210   -15.8810 
  113.7500     2.2990   106.5450     5.1790     4.1390     4.0350    23.9040   -16.0390 
  113.8750     2.2890   103.0260     5.3240     4.2730     4.2320    23.8670   -16.2010 
  114.0000     2.2810    96.7810     5.4680     4.4030     4.5010    23.8420   -16.3330 
  114.1250     2.2790    94.9180     5.5400     4.4740     4.6190    23.8380   -16.4240 
  114.2500     2.2840    96.2300     5.4940     4.4510     4.4090    23.8390   -16.5550 
  114.3750     2.2950    99.1900     5.3220     4.3250     4.0980    23.8310   -16.7120 
  114.5000     2.3090   102.4150     5.0690     4.1210     3.9220    23.8020   -16.8860 
  114.6250     2.3240   101.7700     4.8060     3.8820     3.8190    23.7360   -17.0850 
  114.7500     2.3410    98.7190     4.5850     3.6600     3.6860    23.6790   -17.3330 
  114.8750     2.3610    95.6890     4.4300     3.4790     3.6580    23.6570   -17.6260 
  115.0000     2.3790    95.3660     4.3540     3.3560     3.7180    23.6540   -18.0120 
  115.1250     2.3850    99.4060     4.3830     3.3180     3.8180    23.6540   -18.5450 
  115.2500     2.3780   103.8810     4.5190     3.3670     3.8060    23.6540   -19.1550 
  115.3750     2.3620   106.3960     4.7980     3.5210     3.8790    23.6540   -19.8330 
  115.5000     2.3410   104.7270     5.2620     3.8050     4.1870    23.6540   -20.6090 
  115.6250     2.3210    99.1120     5.9730     4.2640     4.8340    23.6570   -21.5170 
  115.7500     2.3010    95.0950     6.8430     4.8560     5.5710    23.6800   -22.5020 
  115.8750     2.2830    93.6730     7.7370     5.5050     6.7840    23.7800   -23.5380 
  116.0000     2.2640    91.1820     8.4660     6.0940     8.9160    24.0170   -24.6280 
  116.1250     2.2330    82.0330     8.7970     6.4560    11.3380    24.4280   -25.7610 
  116.2500     2.1910    72.4690     8.7700     6.5670    10.7780    24.7890   -26.8790 
  116.3750     2.1500    68.8180     8.5150     6.4780     8.2270    24.9880   -27.8960 
  116.5000     2.1240    68.7010     8.2010     6.2900     6.8440    25.0930   -28.7870 
  116.6250     2.1150    69.2920     7.9720     6.1110     6.8730    25.1810   -29.4900 
  116.7500     2.1070    70.6350     7.8680     6.0030     7.0800    25.1620   -30.0040 
  116.8750     2.0950    72.5980     7.8910     5.9860     6.9090    24.9360   -30.2880 
  117.0000     2.0900    72.9830     8.0240     6.0550     6.7360    24.5410   -30.2980 
  117.1250     2.1010    69.9490     8.2150     6.1780     6.8570    24.3540   -29.9980 
  117.2500     2.1140    65.9140     8.3510     6.2860     7.1560    24.3880   -29.3990 
  117.3750     2.1120    62.4790     8.3200     6.3090     7.3440    24.4680   -28.5120 
  117.5000     2.1010    61.7940     8.0430     6.1870     7.5240    24.4210   -27.4260 
  117.6250     2.1070    66.1820     7.5210     5.8870     7.3800    24.2760   -26.2580 
  117.7500     2.1400    72.2500     6.9580     5.5120     6.5750    24.1070   -25.0930 
  117.8750     2.1880    75.5220     6.5280     5.1710     5.6390    23.8780   -23.9700 
  118.0000     2.2310    75.2570     6.3230     4.9550     5.3340    23.5200   -22.9190 
  118.1250     2.2490    76.4560     6.3660     4.9220     5.3370    23.1710   -21.9900 
  118.2500     2.2510    82.0300     6.5310     5.0080     5.4160    22.9780   -21.2180 
  118.3750     2.2490    86.9040     6.7030     5.1370     5.5750    22.9220   -20.6000 
  118.5000     2.2500    87.4180     6.7570     5.2140     5.6850    22.9190   -20.0900 
  118.6250     2.2520    88.2080     6.5800     5.1450     5.3240    22.9340   -19.6680 
  118.7500     2.2560    92.8660     6.2440     4.9570     4.8250    22.9800   -19.3190 
  118.8750     2.2640    97.5900     5.8650     4.7180     4.5700    23.0590   -19.0490 
  119.0000     2.2750    96.3580     5.5620     4.5110     4.4760    23.1380   -18.8360 
  119.1250     2.2850    90.2730     5.4460     4.4190     4.3060    23.1930   -18.6310 
  119.2500     2.2920    86.1570     5.4960     4.4430     4.2140    23.2170   -18.5020 
  119.3750     2.2950    85.9450     5.6730     4.5630     4.3280    23.2260   -18.5150 
  119.5000     2.2950    88.1860     5.9260     4.7380     4.6000    23.2260   -18.6010 
  119.6250     2.2890    87.8650     6.1950     4.9150     4.8680    23.2270   -18.6730 
  119.7500     2.2830    84.5850     6.4020     5.0380     5.0730    23.2270   -18.7700 
  119.8750     2.2800    81.1110     6.4720     5.0700     5.2100    23.2270   -18.8850 
  120.0000     2.2810    81.7380     6.3560     4.9920     5.3410    23.2340   -18.9820 
  120.1250     2.2810    87.1010     6.0470     4.8060     4.9790    23.2510   -19.1140 
  120.2500     2.2790    92.1860     5.6920     4.5870     4.6400    23.2720   -19.2980 
  120.3750     2.2800    93.2540     5.4690     4.4220     4.4500    23.2760   -19.5280 
  120.5000     2.2860    89.4880     5.5620     4.4120     4.4840    23.2570   -19.8090 
  120.6250     2.3010    84.8410     6.1900     4.7190     4.7620    23.2000   -20.2170 
  120.7500     2.3300    82.0760     7.2900     5.3720     5.3210    23.1320   -20.7390 
  120.8750     2.3780    77.2500     8.7050     6.3400     6.6540    23.0850   -21.4110 
  121.0000     2.4390    68.2560    10.0660     7.4250     9.3880    23.1330   -22.2780 
  121.1250     2.4880    63.1540    10.6510     8.1150    11.4220    23.3350   -23.3300 
