~V
VERS. 2.00: Ver 2.00
~W
STRT.M 50.0000:
STOP.M 221.0000:
STEP.M 0.1250:
NULL. -999.2500:
UWI. F11120:
~C
DEPT.M :
DEN.GM/CC :
GR.API :
RML.OHMM :
RI. :
RXO.OHMM :
CALI.CM :
SP.MV :
~A
# ...
  162.5000     2.1570    48.9520   171.8610   158.8980    96.4820    33.1200   -33.4160 
  162.6250     2.1500    48.4690   215.9200   195.4440    86.2470    33.2010   -33.7800 
  162.7500     2.1410    47.6530   254.6870   227.1200    74.0750    33.2250   -34.1390 
  162.8750     2.1340    47.7160   282.4820   250.5280    74.6650    33.2270   -34.4830 
  163.0000     2.1310    47.5040   300.7770   266.6640    75.8050    33.2270   -34.8130 
  163.1250     2.1250    45.6610   313.9470   278.0950    64.1950    33.1970   -35.1330 
  163.2500     2.1130    43.5320   325.2530   287.1800    49.4350    33.1110   -35.4620 
  163.3750     2.0970    42.4800   334.9410   294.1570    45.1440    32.9930   -35.8080 
  163.5000     2.0860    43.1390   342.8650   299.2980    54.8690    32.9280   -36.1600 
  163.6250     2.0890    45.1430   348.5700   303.1860    73.9570    32.9730   -36.4900 
  163.7500     2.1040    47.5140   352.9910   307.1160    88.5370    33.0550   -36.7910 
  163.8750     2.1240    49.0260   357.6420   312.1400    88.6510    33.1380   -37.0670 
  164.0000     2.1360    48.5280   364.4680   319.1760    78.5900    33.2010   -37.3200 
  164.1250     2.1340    47.8380   374.9950   329.0140    62.6830    33.2220   -37.5470 
  164.2500     2.1270    46.7760   385.6730   339.5520    54.1520    33.2270   -37.7440 
  164.3750     2.1250    44.7640   389.2620   346.2010    54.7710    33.2170   -37.9030 
  164.5000     2.1280    43.1060   378.2920   343.0610    51.5300    33.1790   -38.0200 
  164.6250     2.1280    43.7060   351.0430   325.8410    43.6220    33.0860   -38.0890 
  164.7500     2.1240    45.9360   319.9690   302.0950    42.4160    33.0010   -38.1230 
  164.8750     2.1170    48.1240   293.7410   279.7710    46.5360    32.9570   -38.1240 
  165.0000     2.1110    49.9740   275.3950   263.8210    52.1930    32.9580   -38.0980 
  165.1250     2.1050    49.8450   262.1240   253.8770    70.8540    32.9800   -38.0440 
  165.2500     2.0990    46.4610   246.6700   243.2490    97.5840    32.9630   -37.9690 
  165.3750     2.0940    42.3530   225.7160   227.5640   137.0330    32.8860   -37.8790 
  165.5000     2.0910    41.0170   200.8180   206.7180   168.4740    32.7410   -37.7850 
  165.6250     2.0920    44.4750   177.2790   184.7820   161.2800    32.5750   -37.6820 
  165.7500     2.1000    49.2730   158.6220   166.1440   119.5050    32.4620   -37.5600 
  165.8750     2.1150    53.3610   145.1900   152.0250   117.1230    32.3960   -37.4040 
  166.0000     2.1340    55.3890   135.3400   141.3740   135.8450    32.2880   -37.2070 
  166.1250     2.1510    56.4170   126.7700   132.1810   144.3210    32.0250   -36.9630 
  166.2500     2.1590    57.3030   118.1820   123.0760   120.4300    31.7470   -36.6890 
  166.3750     2.1600    56.5150   110.5050   114.7320    92.0460    31.5030   -36.3880 
  166.5000     2.1600    54.1990   105.7230   108.9250    75.1860    31.2900   -36.0700 
  166.6250     2.1610    54.6020   106.9940   108.7180    65.0680    31.0520   -35.7660 
  166.7500     2.1610    56.5490   115.1770   115.0900    63.4260    30.8520   -35.4880 
  166.8750     2.1550    55.5780   131.3360   129.0480    85.8350    30.6760   -35.2320 
  167.0000     2.1380    51.0750   155.9910   151.0100   123.6070    30.5150   -34.9820 
  167.1250     2.1170    48.3780   187.3270   179.3700   163.3800    30.3040   -34.7110 
  167.2500     2.1090    48.5910   211.3930   202.5590   167.0510    30.0670   -34.4040 
  167.3750     2.1190    49.8420   207.0250   202.9940   199.9980    29.8840   -34.0490 
  167.5000     2.1440    51.0350   166.5340   169.7010   241.6860    29.7280   -33.6450 
  167.6250     2.1820    52.8350   113.5980   116.9410   260.2550    29.5740   -33.1880 
  167.7500     2.2340    57.5990    73.3300    73.2110   129.6860    29.3910   -32.7010 
  167.8750     2.2950    65.5070    48.0480    45.4540    48.0170    29.2360   -32.2050 
  168.0000     2.3460    73.2710    33.6600    30.4470    21.4880    29.1510   -31.7050 
  168.1250     2.3660    75.1920    26.6420    23.7110    17.4320    29.0570   -31.2090 
  168.2500     2.3630    72.7570    23.0100    20.2870    17.9590    28.9250   -30.7250 
  168.3750     2.3530    71.1850    21.2990    18.5830    18.7970    28.7920   -30.2690 
  168.5000     2.3510    71.9550    20.5950    17.7980    17.2690    28.6750   -29.8510 
  168.6250     2.3610    75.0940    20.3210    17.4780    16.1590    28.5730   -29.4710 
  168.7500     2.3720    79.2700    20.0980    17.2620    15.8260    28.5060   -29.1150 
  168.8750     2.3730    83.0960    19.8740    17.0640    15.8880    28.4580   -28.7790 
  169.0000     2.3640    83.1770    19.6980    16.8980    15.5730    28.4090   -28.4690 
  169.1250     2.3570    78.6460    19.6300    16.8060    15.3030    28.3720   -28.2010 
  169.2500     2.3540    75.5050    19.6420    16.7740    15.3750    28.3330   -27.9740 
  169.3750     2.3530    75.7920    19.6990    16.7740    15.8170    28.2990   -27.7930 
  169.5000     2.3520    77.1440    19.7990    16.7930    16.1200    28.2580   -27.6630 
  169.6250     2.3550    76.5920    19.9670    16.8320    15.9990    28.2180   -27.5920 
  169.7500     2.3610    75.8410    20.1440    16.8430    15.5610    28.1870   -27.5620 
  169.8750     2.3680    76.7020    20.2150    16.7380    15.1220    28.1760   -27.5540 
  170.0000     2.3770    76.6610    20.0440    16.4330    15.6650    28.1750   -27.5680 
  170.1250     2.3890    74.7040    19.4870    15.8590    17.1230    28.1770   -27.6200 
  170.2500     2.3990    73.7450    18.6430    15.1140    16.7980    28.1790   -27.7200 
  170.3750     2.4010    76.2650    17.6830    14.3260    13.8460    28.1810   -27.8730 
  170.5000     2.3870    80.3080    16.8190    13.6250    12.0010    28.1820   -28.0710 
  170.6250     2.3640    82.1550    16.2480    13.1260    11.9420    28.1790   -28.3040 
  170.7500     2.3470    81.5840    15.9500    12.8190    12.0370    28.1780   -28.5530 
  170.8750     2.3420    79.4980    15.8670    12.6830    11.9610    28.1780   -28.8100 
  171.0000     2.3460    77.2340    15.9260    12.6820    11.7660    28.1780   -29.0600 
  171.1250     2.3530    76.6860    16.1160    12.7950    12.1830    28.1780   -29.2960 
  171.2500     2.3620    78.4980    16.4620    13.0060    12.6820    28.1780   -29.5150 
  171.3750     2.3680    81.5000    17.0160    13.3390    13.0820    28.1770   -29.7100 
  171.5000     2.3660    81.7480    17.7850    13.8060    13.5380    28.1690   -29.8790 
  171.6250     2.3530    78.6770    18.7210    14.3930    14.1070    28.1350   -30.0280 
  171.7500     2.3390    76.7870    19.6900    15.0140    14.5290    28.0890   -30.1700 
  171.8750     2.3280    77.5140    20.6010    15.5930    14.9060    28.0840   -30.3160 
  172.0000     2.3240    79.3680    21.3870    16.0660    15.6260    28.1430   -30.4730 
  172.1250     2.3300    80.5850    22.0180    16.3940    16.6250    28.2170   -30.6320 
  172.2500     2.3390    81.2580    22.5820    16.6420    17.5370    28.2470   -30.7780 
  172.3750     2.3470    80.6500    23.1580    16.8810    18.0700    28.2530   -30.9090 
  172.5000     2.3480    79.3330    23.8360    17.1830    18.2690    28.2530   -31.0270 
  172.6250     2.3380    78.7920    24.8030    17.6720    18.4880    28.2530   -31.1360 
  172.7500     2.3220    77.5900    26.2280    18.4550    19.4140    28.2530   -31.2500 
  172.8750     2.3070    75.8470    28.2940    19.6610    20.2650    28.2520   -31.3810 
  173.0000     2.2980    73.9420    31.1010    21.4000    20.7280    28.2440   -31.5430 
  173.1250     2.2920    72.4970    34.7460    23.8560    26.2430    28.2200   -31.7510 
  173.2500     2.2810    70.6550    38.9820    26.9500    36.0920    28.1900   -31.9940 
  173.3750     2.2620    68.0920    43.7170    30.6860    45.2290    28.1770   -32.2600 
  173.5000     2.2440    64.9090    48.9710    35.1210    45.8460    28.1720   -32.5350 
  173.6250     2.2340    61.9060    54.6820    40.4070    42.0690    28.1650   -32.8080 
