~V
VERS. 2.00: Ver 2.00
~W
STRT.M 55.0000:
STOP.M 201.0000:
STEP.M 0.1250:
NULL. -999.2500:
UWI. F11111:
~C
DEPT.M :
GR.API :
RML.OHMM :
RI. :
RXO.OHMM :
CALI.CM :
SP.MV :
DEN.GM/CC :
~A
   55.0000  -999.2500  -999.2500  -999.2500  -999.2500  -999.2500    19.6160  -999.2500 
   55.1250  -999.2500  -999.2500  -999.2500  -999.2500  -999.2500    20.6740  -999.2500 
   55.2500  -999.2500  -999.2500  -999.2500  -999.2500  -999.2500    21.8410  -999.2500 
   55.3750  -999.2500  -999.2500  -999.2500  -999.2500  -999.2500    23.0270  -999.2500 
   55.5000  -999.2500  -999.2500  -999.2500  -999.2500  -999.2500    24.2370  -999.2500 
   55.6250  -999.2500  -999.2500  -999.2500  -999.2500  -999.2500    25.3960  -999.2500 
   55.7500  -999.2500  -999.2500  -999.2500  -999.2500  -999.2500    26.4070  -999.2500 
   55.8750  -999.2500  -999.2500  -999.2500  -999.2500  -999.2500    27.1720  -999.2500 
   56.0000  -999.2500  -999.2500  -999.2500  -999.2500  -999.2500    27.6200  -999.2500 
   56.1250  -999.2500  -999.2500  -999.2500  -999.2500  -999.2500    27.6440  -999.2500 
   56.2500  -999.2500  -999.2500  -999.2500  -999.2500  -999.2500    27.3210  -999.2500 
   56.3750  -999.2500  -999.2500  -999.2500  -999.2500  -999.2500    26.7180  -999.2500 
   56.5000  -999.2500  -999.2500  -999.2500  -999.2500  -999.2500    25.8810  -999.2500 
   56.6250  -999.2500  -999.2500  -999.2500  -999.2500  -999.2500    24.9090  -999.2500 
   56.7500  -999.2500  -999.2500  -999.2500  -999.2500  -999.2500    23.9190  -999.2500 
   56.8750  -999.2500  -999.2500  -999.2500  -999.2500  -999.2500    22.9800  -999.2500 
   57.0000    40.6970     0.1940     0.2020     0.0790    25.3170    22.1590  -999.2500 
   57.1250    40.6970     0.1940     0.2020     0.0790    25.3170    21.5180  -999.2500 
   57.2500    40.8940     0.1910     0.2010     0.0820    25.3190    21.0420  -999.2500 
   57.3750    41.7710     0.1820     0.2030     0.0870    25.3250    20.7220  -999.2500 
   57.5000    42.9360     0.1690     0.2100     0.0750    25.2970    20.5180  -999.2500 
   57.6250    43.1020     0.1500     0.2150     0.0630    25.3300    20.3810  -999.2500 
   57.7500    42.4740     0.1210     0.2130     0.0620    25.3330    20.2680  -999.2500 
   57.8750    41.8420     0.0850     0.2060     0.0660    25.3350    20.1740  -999.2500 
   58.0000    40.2080     0.0510     0.1980     0.0550    25.3340    20.1040  -999.2500 
   58.1250    39.0780     0.0310     0.1950     0.0480    25.3290    20.0830  -999.2500 
   58.2500    40.2820     0.0220     0.1970     0.0500    25.3260    20.1020  -999.2500 
   58.3750    43.1450     0.0210     0.2000     0.0550    25.3330    20.1840  -999.2500 
   58.5000    46.9480     0.0210     0.1980     0.0490    25.3350    20.3310  -999.2500 
   58.6250    50.2410     0.0230     0.1920     0.0380    25.3350    20.5160  -999.2500 
   58.7500    52.1940     0.0300     0.1870     0.0420    25.3350    20.7370  -999.2500 
   58.8750    51.9210     0.0460     0.1890     0.0530    25.3350    21.0050  -999.2500 
   59.0000    49.1610     0.0690     0.1970     0.0580    25.3350    21.3080  -999.2500 
   59.1250    44.3770     0.0970     0.2090     0.0550    25.3350    21.6000  -999.2500 
   59.2500    40.4660     0.1230     0.2190     0.0530    25.3350    21.8700  -999.2500 
   59.3750    40.5780     0.1390     0.2260     0.0570    25.3350    22.0580     2.2390 
   59.5000    44.7490     0.1370     0.2320     0.0540    25.3350    22.1210     2.2390 
   59.6250    49.2460     0.1150     0.2400     0.0440    25.3330    22.0160     2.1870 
   59.7500    52.2180     0.0880     0.2470     0.0360    25.3240    21.7860     2.1270 
   59.8750    54.5360     0.0680     0.2500     0.0470    25.2880    21.4780     2.0790 
   60.0000    55.3740     0.0640     0.2480     0.0670    25.2720    21.1330     2.0510 
   60.1250    52.2230     0.0750     0.2410     0.0670    25.2690    20.7970     2.0450 
   60.2500    49.4060     0.0880     0.2310     0.0560    25.2690    20.4260     2.0490 
   60.3750    51.4400     0.0910     0.2220     0.0570    25.2680    20.0100     2.0540 
   60.5000    55.4120     0.0770     0.2160     0.0690    25.2610    19.5480     2.0540 
   60.6250    54.8120     0.0520     0.2170     0.0700    25.2620    19.0720     2.0490 
   60.7500    51.5580     0.0300     0.2240     0.0580    25.2680    18.5960     2.0420 
   60.8750    48.5160     0.0180     0.2360     0.0560    25.2680    18.1020     2.0340 
   61.0000    46.2770     0.0140     0.2470     0.0620    25.2600    17.5590     2.0220 
   61.1250    44.7120     0.0150     0.2510     0.0580    25.2590    16.9410     2.0050 
   61.2500    44.3700     0.0170     0.2470     0.0470    25.2640    16.3200     1.9860 
   61.3750    43.6660     0.0180     0.2410     0.0410    25.2680    15.7360     1.9720 
   61.5000    42.4440     0.0180     0.2390     0.0470    25.2670    15.1980     1.9670 
   61.6250    44.0710     0.0160     0.2430     0.0540    25.2600    14.6950     1.9750 
   61.7500    48.7460     0.0120     0.2450     0.0540    25.2610    14.1420     1.9920 
   61.8750    54.1120     0.0070     0.2330     0.0600    25.2510    13.4300     2.0160 
   62.0000    55.3130     0.0030     0.2010     0.0790    25.1940    12.4280     2.0510 
   62.1250    51.2330     0.0030     0.1540     0.1010    25.1850    10.9140     2.1030 
   62.2500    48.4880     0.0150     0.1080     0.1350    25.1800     8.9010     2.1600 
   62.3750    48.8720     0.0370     0.0730     0.2530    25.1700     6.3280     2.1930 
   62.5000    50.1610     0.0620     0.0520     0.5790    25.1010     3.2000     2.1690 
   62.6250    50.0300     0.0800     0.0480     1.3860    25.0090    -0.3200     2.0820 
   62.7500    50.6960     0.0960     0.0710     2.2770    25.0070    -4.0260     1.9750 
   62.8750    52.5030     0.1320     0.1590     3.3710    26.2000    -7.7820     1.8740 
   63.0000    54.0840     0.2340     0.3720     4.4390    29.1240   -11.3920     1.7980 
   63.1250    55.9590     0.5420     0.8540     5.3730    32.0940   -14.5430     1.7540 
   63.2500    58.9190     1.1790     1.6590     5.7900    33.3150   -17.1960     1.7250 
   63.3750    61.5570     2.1360     2.7340     5.9710    33.7090   -19.2730     1.7000 
   63.5000    62.2440     3.0600     3.8260     6.0520    34.0570   -20.7720     1.6730 
   63.6250    62.1540     3.5200     4.5880     5.8760    34.1920   -21.8740     1.6570 
   63.7500    63.2940     3.7260     5.0650     5.3360    33.6360   -22.7430     1.6690 
   63.8750    66.3180     3.9060     5.4220     4.6770    31.3890   -23.4110     1.7200 
   64.0000    71.1530     4.1580     5.7930     4.4620    25.6720   -23.9390     1.8100 
   64.1250    76.5530     4.4790     6.2060     5.2570    22.5370   -24.4070     1.9180 
   64.2500    78.3410     4.7900     6.5910     6.1640    21.7210   -24.8810     2.0100 
   64.3750    73.5000     5.0250     6.8670     6.5200    21.7980   -25.3880     2.0670 
   64.5000    64.5630     5.1470     6.9820     6.4410    22.2330   -25.9150     2.0890 
   64.6250    60.7980     5.1580     6.9230     6.3730    22.1630   -26.4740     2.0910 
   64.7500    65.4190     5.1380     6.7870     6.3690    21.9080   -27.0620     2.0910 
   64.8750    71.9080     5.1420     6.6490     6.4720    21.8150   -27.6740     2.0930 
   65.0000    75.2280     5.2040     6.5630     6.4990    21.7360   -28.3010     2.0990 
   65.1250    78.8910     5.3370     6.5650     6.5970    21.3360   -28.9860     2.1060 
   65.2500    84.2480     5.5070     6.6290     6.8720    20.9320   -29.7130     2.1140 
   65.3750    84.7100     5.6800     6.7230     7.4560    20.8750   -30.4730     2.1180 
   65.5000    78.7440     5.8260     6.8100     7.7290    20.9560   -31.2720     2.1140 
   65.6250    72.2940     5.9270     6.8590     7.7360    21.0860   -32.0650     2.1000 
   65.7500    68.0270     6.0060     6.8800     7.6640    21.2510   -32.8310     2.0830 
   65.8750    65.6420     6.1040     6.9110     7.6650    21.0590   -33.5790     2.0700 
   66.0000    64.5710     6.2660     7.0030     7.6130    20.5330   -34.2920     2.0680 
   66.1250    65.4520     6.5330     7.2070     7.6940    20.1590   -34.9150     2.0770 
