~V
VERS. 2.00: Ver 2.00
~W
STRT.M 62.0000:
STOP.M 217.0000:
STEP.M 0.1250:
NULL. -999.2500:
UWI. F11126:
~C
DEPT.M :
DEN.GM/CC :
SP.MV :
GR.API :
RML.OHMM :
RI. :
RXO.OHMM :
CALI.CM :
~A
# ...
  152.0000     2.2730    -8.1010    76.2460    11.1860     9.7290     8.9750    26.4060 
  152.1250     2.2910    -8.1700    74.8910    11.4510    10.0540     9.6900    26.3570 
  152.2500     2.3210    -8.1930    72.1320    11.4860    10.1740    10.6860    26.2480 
  152.3750     2.3600    -8.1820    69.2840    11.1760     9.9530    11.4520    26.1650 
  152.5000     2.3910    -8.1110    67.9490    10.5260     9.3330    11.4420    26.1480 
  152.6250     2.3970    -8.0310    69.0750     9.8630     8.5890    10.2000    26.1470 
  152.7500     2.3770    -7.9450    72.2020     9.5280     8.0260     8.3250    26.1350 
  152.8750     2.3440    -7.8480    74.8190     9.7860     7.9050     7.3510    26.0900 
  153.0000     2.3070    -7.7130    75.1680    10.8120     8.4610     8.2240    26.0420 
  153.1250     2.2730    -7.5250    75.8330    12.2740     9.5390    10.1560    26.0120 
  153.2500     2.2470    -7.2970    76.6250    13.7610    10.8870    12.7680    26.0450 
  153.3750     2.2320    -7.0500    74.7890    14.7680    12.0990    14.9530    26.0930 
  153.5000     2.2390    -6.7890    71.5930    14.6970    12.5580    15.3640    26.1180 
  153.6250     2.2630    -6.5440    71.6840    13.6440    12.1010    14.1220    26.0720 
  153.7500     2.2920    -6.3440    74.2330    11.9910    10.9130    12.1000    25.9630 
  153.8750     2.3150    -6.1900    76.0670    10.3210     9.4870     9.9550    25.8320 
  154.0000     2.3240    -6.1240    78.6350     9.2530     8.4220     8.0890    25.7490 
  154.1250     2.3260    -6.1330    82.7250     8.9310     7.9520     7.1810    25.6930 
  154.2500     2.3230    -6.2070    84.1450     9.3260     8.1240     7.6280    25.6790 
  154.3750     2.3220    -6.3380    80.7270    10.2560     8.8470     9.1740    25.7550 
  154.5000     2.3260    -6.4910    75.4210    11.3280     9.8750    11.7180    25.9100 
  154.6250     2.3340    -6.5920    72.4320    11.9740    10.7000    14.0310    26.0220 
  154.7500     2.3380    -6.6240    72.3360    11.7880    10.8820    14.8430    26.0490 
  154.8750     2.3360    -6.6200    74.9490    10.6430    10.1590    13.7800    26.0110 
  155.0000     2.3290    -6.5730    77.9570     8.8060     8.6200    10.9300    25.9530 
  155.1250     2.3180    -6.5290    80.1260     7.0220     6.9740     8.0990    25.8950 
  155.2500     2.3100    -6.5310    83.4900     5.7050     5.6510     5.6370    25.8100 
  155.3750     2.3080    -6.5360    88.6140     4.9700     4.8150     4.1920    25.6920 
  155.5000     2.3110    -6.5470    90.4760     4.8140     4.5150     4.0150    25.5530 
  155.6250     2.3120    -6.5850    87.9610     5.0950     4.5920     4.2310    25.4970 
  155.7500     2.3120    -6.6650    85.8460     5.7770     4.9900     4.5240    25.4830 
  155.8750     2.3120    -6.7630    86.6810     6.8390     5.6690     4.9540    25.4830 
  156.0000     2.3130    -6.8590    87.6980     8.2090     6.6120     5.8300    25.4870 
  156.1250     2.3120    -6.9620    87.5820     9.6390     7.6780     7.2490    25.5000 
  156.2500     2.3080    -7.0190    86.8280    10.5940     8.7090     9.0120    25.5300 
  156.3750     2.3030    -7.0390    85.6820    11.2050     9.5020    10.4650    25.6000 
  156.5000     2.2980    -7.0820    82.8710    11.2280     9.7750    11.3840    25.6570 
  156.6250     2.2960    -7.1680    80.7290    10.7550     9.5380    11.3400    25.6860 
  156.7500     2.2970    -7.2440    81.2090     9.9800     8.9310    10.0390    25.7010 
  156.8750     2.3000    -7.2660    83.4920     9.1850     8.2140     8.6580    25.7230 
  157.0000     2.3020    -7.1850    84.7290     8.6600     7.6720     7.7450    25.7370 
  157.1250     2.3010    -7.0590    83.2240     8.4580     7.4030     7.3090    25.7470 
  157.2500     2.2960    -6.9100    80.0130     8.5290     7.3940     7.2510    25.7690 
  157.3750     2.2910    -6.7670    76.9600     8.7380     7.5590     7.5840    25.8230 
  157.5000     2.2910    -6.6420    75.6840     8.8970     7.7460     7.9050    25.8760 
  157.6250     2.2900    -6.5350    76.6470     8.8790     7.8040     7.6950    25.9190 
  157.7500     2.2870    -6.4750    79.1490     8.6640     7.6710     7.3440    25.9530 
  157.8750     2.2810    -6.4870    82.7090     8.3320     7.3740     7.1170    25.9960 
  158.0000     2.2820    -6.6280    84.9360     8.0600     7.0370     6.6980    26.0720 
  158.1250     2.2850    -6.8450    83.5380     7.9950     6.8210     6.2540    26.1280 
  158.2500     2.2850    -7.1760    79.5360     8.2110     6.8200     6.2400    26.1710 
  158.3750     2.2830    -7.6180    76.2640     8.7400     7.0810     6.8530    26.2200 
  158.5000     2.2840    -8.1520    77.2600     9.7120     7.6920     7.9690    26.2970 
  158.6250     2.2880    -8.7560    80.5020    11.2440     8.6840     9.3500    26.3790 
  158.7500     2.2880    -9.4110    83.1000    13.6610    10.2400    10.9630    26.4470 
  158.8750     2.2780   -10.1090    82.7250    17.4800    12.7350    13.4200    26.5000 
  159.0000     2.2550   -10.8310    78.1870    23.9280    17.2580    18.4430    26.5700 
  159.1250     2.2260   -11.5780    73.3620    33.6630    24.6810    28.1690    26.6400 
  159.2500     2.2010   -12.3150    70.0600    47.4670    36.0210    45.6310    26.7000 
  159.3750     2.1860   -13.0090    67.3320    65.4440    51.6510    72.8200    26.7950 
  159.5000     2.1850   -13.6280    64.1700    86.3930    70.7210   104.4930    26.9760 
  159.6250     2.1940   -14.1640    61.8550   106.3900    89.4190   133.4220    27.1810 
  159.7500     2.2050   -14.6220    62.4370   121.6050   104.0990   141.4040    27.3430 
  159.8750     2.2130   -15.0000    64.7680   129.4200   112.4010   120.7480    27.3940 
  160.0000     2.2180   -15.3330    65.7630   129.8180   114.1080   102.1500    27.4280 
  160.1250     2.2220   -15.6210    65.5660   127.6320   113.1200    93.5090    27.5380 
  160.2500     2.2270   -15.8760    65.8290   125.2390   111.6180    89.7810    27.7430 
  160.3750     2.2330   -16.1430    66.8980   123.2300   110.4380    85.7340    27.9410 
  160.5000     2.2380   -16.4350    66.9420   121.4080   109.5890    81.3350    27.9930 
  160.6250     2.2400   -16.7750    66.3890   119.9060   109.0200    76.5490    27.8490 
  160.7500     2.2360   -17.1570    66.2410   119.2960   108.9990    73.2550    27.7070 
  160.8750     2.2300   -17.5660    66.4700   119.9700   109.7760    72.6270    27.8240 
  161.0000     2.2230   -17.9940    66.7120   122.1110   111.3300    76.9800    28.1720 
  161.1250     2.2170   -18.4460    66.2080   124.7730   112.8520    82.5270    28.4740 
  161.2500     2.2120   -18.8750    64.8420   125.9420   113.4250    85.7930    28.6120 
  161.3750     2.2110   -19.2830    63.4110   125.0900   112.2250    85.2000    28.6940 
  161.5000     2.2120   -19.6740    63.3820   121.3100   108.5750    78.0140    28.8200 
  161.6250     2.2110   -20.0000    64.6350   115.4980   103.4150    72.0820    28.8890 
  161.7500     2.2100   -20.2590    65.9210   109.3440    97.9890    70.2660    28.8960 
  161.8750     2.2090   -20.4860    65.9130   105.0830    93.7670    69.8040    28.8580 
  162.0000     2.2060   -20.6350    65.1140   104.3300    92.5050    66.7590    28.8340 
  162.1250     2.1990   -20.7520    65.8600   106.9320    94.4160    64.6530    28.8180 
  162.2500     2.1890   -20.8840    67.6810   112.5250    99.3620    67.6000    28.8390 
  162.3750     2.1810   -21.0060    67.9260   120.1440   106.5590    76.2430    28.9170 
  162.5000     2.1740   -21.1410    66.5350   128.0280   114.4630    84.9430    29.0210 
  162.6250     2.1690   -21.3180    66.3630   134.0270   120.9440    93.0940    29.0630 
  162.7500     2.1650   -21.5690    68.8870   136.6390   124.4880    97.8140    29.0680 
  162.8750     2.1650   -21.8380    71.6480   135.3330   124.4270    98.6630    29.0790 
  163.0000     2.1680   -22.1770    71.3070   130.6000   120.9060    95.3880    29.1030 
  163.1250     2.1720   -22.5160    69.4110   124.8590   115.9990    90.0970    29.1000 
