~V
VERS. 2.00: Ver 2.00
~W
STRT.M 50.0000:
STOP.M 245.0000:
STEP.M 0.1250:
NULL. -999.2500:
UWI. F11135:
~C
DEPT.M :
GR.API :
RML.OHMM :
RI. :
RXO.OHMM :
CALI.CM :
SP.MV :
DEN.GM/CC :
~A
# ...
  218.7500    34.8530     7.8590     6.7050     8.0740    24.4160   -27.8940     2.3790 
  218.8750    36.2930     7.6840     6.5750     7.9530    24.4140   -27.9920     2.3730 
  219.0000    37.0560     7.5540     6.4240     7.5170    24.3980   -28.1230     2.3690 
  219.1250    36.8230     7.5240     6.3190     7.3200    24.3420   -28.3270     2.3650 
  219.2500    35.9040     7.6130     6.3180     7.0970    24.3340   -28.5430     2.3580 
  219.3750    35.6300     7.8150     6.4410     7.3270    24.3320   -28.7690     2.3470 
  219.5000    36.0280     8.0820     6.6610     7.8750    24.3320   -28.9880     2.3340 
  219.6250    35.8630     8.3400     6.9070     8.1330    24.3320   -29.2180     2.3230 
  219.7500    35.4640     8.5100     7.0910     8.3200    24.3300   -29.4390     2.3170 
  219.8750    36.5010     8.5360     7.1570     8.4940    24.3240   -29.6370     2.3170 
  220.0000    38.7980     8.4130     7.0910     8.3500    24.3140   -29.7800     2.3220 
  220.1250    40.9670     8.2020     6.9170     8.1870    24.3190   -29.8210     2.3280 
  220.2500    43.0810     8.0270     6.7340     8.2810    24.3150   -29.8070     2.3320 
  220.3750    45.6060     7.9670     6.6160     7.9790    24.2920   -29.7340     2.3320 
  220.5000    48.5000     8.0440     6.6030     7.6240    24.1950   -29.6390     2.3280 
  220.6250    50.9480     8.2200     6.7010     7.3810    23.8320   -29.5090     2.3220 
  220.7500    53.1560     8.3870     6.8390     7.6530    23.7670   -29.3790     2.3150 
  220.8750    57.3200     8.4730     6.9560     8.6950    23.6720   -29.2300     2.3080 
  221.0000    64.8650     8.4360     7.0000     9.2050    23.6310   -29.0940     2.3030 
  221.1250    72.1620     8.2700     6.9220     8.4380    23.6370   -28.9870     2.3030 
  221.2500    73.4930     8.0570     6.7540     7.4430    23.7140   -28.8830     2.3110 
  221.3750    69.6420     7.8540     6.5300     7.7000    23.9460   -28.7610     2.3250 
  221.5000    66.1060     7.6880     6.2980     8.0420    24.2900   -28.6050     2.3410 
  221.6250    66.6560     7.5650     6.1060     7.3700    24.3770   -28.4580     2.3520 
  221.7500    65.2610     7.4770     5.9750     6.7160    24.3920   -28.3360     2.3570 
  221.8750    58.6580     7.4270     5.9120     6.7040    24.3970   -28.2590     2.3570 
  222.0000    50.8520     7.4340     5.9160     7.0890    24.4090   -28.2010     2.3550 
  222.1250    47.9880     7.5190     5.9970     7.2410    24.4630   -28.1560     2.3540 
  222.2500    48.6590     7.6490     6.1270     7.0880    24.4660   -28.1120     2.3530 
  222.3750    51.0670     7.7910     6.2840     7.0000    24.4640   -28.0900     2.3540 
  222.5000    57.3110     7.9310     6.4500     7.1510    24.4640   -28.0960     2.3560 
  222.6250    67.6710     8.0630     6.6060     7.5750    24.4660   -28.0960     2.3580 
  222.7500    76.8850     8.1660     6.7320     7.8250    24.4340   -28.0650     2.3590 
  222.8750    82.9680     8.2120     6.8100     7.8060    24.3950   -27.9840     2.3570 
  223.0000    85.9820     8.1890     6.8300     7.7370    24.3810   -27.8810     2.3520 
  223.1250    84.1330     8.1100     6.7950     7.6890    24.3520   -27.7510     2.3460 
  223.2500    79.2110     8.0400     6.7440     7.6350    24.3070   -27.6360     2.3410 
  223.3750    75.0700     8.0190     6.7020     7.6210    24.2740   -27.5260     2.3380 
  223.5000    76.1590     8.0560     6.6870     7.5870    24.2210   -27.4160     2.3390 
  223.6250    82.6550     8.1200     6.7160     7.5510    24.2050   -27.3180     2.3440 
  223.7500    87.1840     8.1710     6.7820     7.5020    24.1950   -27.2380     2.3500 
  223.8750    85.7500     8.2060     6.8730     7.5090    24.2080   -27.1820     2.3540 
  224.0000    81.5730     8.2390     6.9690     7.5630    24.2200   -27.1340     2.3540 
  224.1250    79.2810     8.2890     7.0400     7.6180    24.2200   -27.0990     2.3500 
  224.2500    76.3250     8.3560     7.0680     7.6490    24.2360   -27.0480     2.3440 
  224.3750    73.1360     8.4210     7.0510     7.6800    24.2570   -27.0020     2.3390 
  224.5000    75.2020     8.4590     6.9930     7.7300    24.3060   -26.9800     2.3370 
  224.6250    82.8460     8.4380     6.8890     7.8620    24.2930   -26.9650     2.3400 
  224.7500    87.1680     8.3440     6.7410     7.9300    24.2530   -26.9210     2.3480 
  224.8750    86.9020     8.1790     6.5530     8.0020    24.2450   -26.8460     2.3590 
  225.0000    85.3570     7.9940     6.3650     8.0690    24.2430   -26.7650     2.3700 
  225.1250    84.7730     7.9620     6.3050     7.9410    24.2290   -26.7020     2.3770 
  225.2500    84.3310     8.2850     6.5010     7.9490    24.1920   -26.6520     2.3780 
  225.3750    82.5020     9.1590     7.0680     8.3180    24.1190   -26.5870     2.3750 
  225.5000    77.6790    10.7330     8.1110     9.8810    24.1050   -26.4590     2.3680 
  225.6250    72.4850    13.1440     9.8370    14.1900    24.1530   -26.2070     2.3610 
  225.7500    71.2500    16.0160    12.1520    20.7830    24.1730   -25.8390     2.3560 
  225.8750    73.0780    18.7760    14.7910    24.0610    24.2130   -25.3650     2.3580 
  226.0000    72.3600    20.6130    17.1390    23.0240    24.2390   -24.7730     2.3690 
  226.1250    65.4790    20.5730    18.1690    21.2400    24.2410   -24.0660     2.3850 
  226.2500    58.4970    19.0900    17.7630    22.8400    24.2350   -23.3080     2.3950 
  226.3750    54.9640    16.9330    16.3590    23.6290    24.2340   -22.5310     2.3960 
  226.5000    53.6970    14.8570    14.6320    19.2420    24.2340   -21.7630     2.3920 
  226.6250    51.9470    13.3710    13.1450    13.8060    24.2350   -21.0820     2.3970 
  226.7500    51.5110    12.4160    12.0480    12.1750    24.2460   -20.4930     2.4150 
  226.8750    54.3390    11.7820    11.2730    14.3480    24.2820   -19.9860     2.4400 
  227.0000    60.2580    11.1760    10.6340    17.7080    24.2770   -19.5890     2.4570 
  227.1250    67.7540    10.3430     9.9030    15.1120    24.1880   -19.2820     2.4550 
  227.2500    72.9970     9.3340     9.0430    10.8020    24.1640   -19.0390     2.4450 
  227.3750    72.5980     8.3250     8.1720     7.9280    24.1650   -18.8650     2.4350 
  227.5000    68.9750     7.5400     7.4520     6.8320    24.1680   -18.7450     2.4330 
  227.6250    67.4270     7.1620     7.0380     7.0660    24.1680   -18.6210     2.4320 
  227.7500    68.1830     7.0570     6.8620     7.5710    24.1690   -18.5370     2.4260 
  227.8750    69.3470     7.0520     6.7950     7.7970    24.1720   -18.5400     2.4110 
  228.0000    71.3730     6.9760     6.6810     7.2200    24.1880   -18.5730     2.3910 
  228.1250    76.6140     6.7360     6.4130     7.1470    24.2390   -18.5800     2.3760 
  228.2500    79.7270     6.4540     6.0850     7.1410    24.2700   -18.5630     2.3730 
  228.3750    78.5190     6.3020     5.8440     6.6690    24.3170   -18.5280     2.3850 
  228.5000    75.5090     6.4260     5.8250     6.2040    24.3960   -18.4560     2.4090 
  228.6250    72.6850     6.9630     6.1520     6.6590    24.4770   -18.3700     2.4400 
  228.7500    69.8320     7.8540     6.7570     8.3950    24.6110   -18.2780     2.4640 
  228.8750    67.3010     8.9830     7.5480    10.8250    24.6750   -18.1500     2.4750 
  229.0000    65.7930    10.1370     8.3960    12.2620    24.6990   -17.9850     2.4710 
  229.1250    63.7730    11.0530     9.1700    11.8150    24.7100   -17.8180     2.4560 
  229.2500    60.8240    11.7010     9.8480    12.1460    24.7540   -17.6730     2.4370 
  229.3750    59.2530    12.1750    10.4610    13.0950    24.9050   -17.5320     2.4180 
  229.5000    60.1900    12.6150    11.0530    13.6210    24.9700   -17.4220     2.3990 
  229.6250    61.3740    13.0550    11.5870    13.7550    24.9570   -17.3610     2.3790 
  229.7500    62.3590    13.3620    11.9720    13.6180    24.9450   -17.3600     2.3630 
  229.8750    64.3670    13.4310    12.1350    13.8970    24.9090   -17.3780     2.3540 
