~V
VERS. 2.00: Ver 2.00
~W
STRT.M 55.0000:
STOP.M 210.0000:
STEP.M 0.1250:
NULL. -999.2500:
UWI. F11105:
~C
DEPT.M :
DEN.GM/CC :
GR.API :
RML.OHMM :
RI. :
RXO.OHMM :
CALI.CM :
SP.MV :
~A
# ...
  201.2500     2.3890    61.8580    12.4800    10.1590     9.1150    22.8510   -16.0870 
  201.3750     2.3550    61.8580    12.7610    10.4610     9.7530    22.2940   -16.0550 
  201.5000     2.3060    61.8580    12.9180    10.6670     9.9960    22.4680   -16.0360 
  201.6250     2.2620    61.8580    12.9390    10.7340    10.7070    22.9210   -16.1140 
  201.7500     2.2390    61.8580    12.9100    10.7170    11.7210    22.9300   -16.2540 
  201.8750     2.2440    61.8580    12.8980    10.6770    11.7140    22.5140   -16.4750 
  202.0000     2.2720    61.8580    12.9460    10.6700    11.6250    22.7270   -16.7280 
  202.1250     2.3110    61.8580    13.0610    10.7330    11.3510    23.3120   -16.9300 
  202.2500     2.3430    61.8580    13.1800    10.8390    11.1160    23.3480   -17.0890 
  202.3750     2.3600    61.8580    13.2440    10.9440    10.6020    23.2880   -17.2120 
  202.5000     2.3600    61.8580    13.2250    11.0030    10.2900    23.3260   -17.3950 
  202.6250     2.3460    61.8580    13.1030    10.9730    10.3760    23.2450   -17.4840 
  202.7500     2.3220    61.8580    12.9020    10.8710    10.4740    23.2540   -17.4820 
  202.8750     2.2920    61.8580    12.6340    10.7260    10.3330    23.3620   -17.4100 
  203.0000     2.2590    61.8580    12.3150    10.5770    10.0430    23.7000   -17.2810 
  203.1250     2.2360    61.8580    12.0030    10.4700    10.5330    23.6150   -17.1380 
  203.2500     2.2290    61.8580    11.7780    10.4080    11.3850    23.6890   -17.0440 
  203.3750     2.2370    61.8580    11.6810    10.3760    11.7660    23.5080   -16.9680 
  203.5000     2.2510    61.8580    11.6810    10.3550    11.1610    23.2350   -16.8190 
  203.6250     2.2610    61.8580    11.7210    10.3330     9.7600    22.8520   -16.7760 
  203.7500     2.2690    61.8580    11.7730    10.3140     8.1390    22.5530   -16.6950 
  203.8750     2.2840    61.8580    11.8280    10.3070     7.9750    22.7280   -16.6840 
  204.0000     2.3140    61.8580    11.8710    10.3180     9.0130    22.7580   -16.7730 
  204.1250     2.3560    61.8580    11.8820    10.3440     9.1800    22.7800   -16.7620 
  204.2500     2.3990    61.8580    11.8630    10.3720     8.6490    22.6720   -16.6790 
  204.3750     2.4300    61.8580    11.8260    10.3910     8.5420    22.6710   -16.5860 
  204.5000     2.4450    61.8580    11.7910    10.3950     9.3460    22.6660   -16.4820 
  204.6250     2.4460    61.8580    11.7720    10.3820     9.2470    22.8020   -16.3240 
  204.7500     2.4380    61.8580    11.7640    10.3620     8.6100    22.7710   -16.2540 
  204.8750     2.4230    61.8580    11.7610    10.3420     7.9650    22.7430   -16.1430 
  205.0000     2.4090    61.8580    11.7580    10.3250     7.7040    22.7200   -15.9950 
  205.1250     2.4000    61.8580    11.7540    10.3180     8.2460    22.8510   -15.9790 
  205.2500     2.3940    61.8580    11.7590    10.3200     8.9440    22.8060   -15.9630 
  205.3750     2.3830    61.8580    11.7630    10.3220     9.5070    22.7700   -15.9700 
  205.5000     2.3590    61.8580    11.7630    10.3220    10.5970    22.8170   -16.0040 
  205.6250     2.3200    61.8580    11.7630    10.3220    10.6300    22.9140   -16.0070 
  205.7500     2.2860    61.8580    11.7630    10.3220    11.1240    22.9200   -15.9960 
  205.8750     2.2760    61.8580    11.7630    10.3220    11.9770    22.6390   -16.0300 
  206.0000     2.3010    61.8580    11.7630    10.3220    12.9700    22.6420   -16.0670 
  206.1250     2.3550    61.8580    11.7630    10.3220    13.1750    22.7100   -16.0670 
  206.2500     2.4110    61.8580    11.7630    10.3220    12.4640    22.7320   -16.1140 
  206.3750     2.4480    61.8580    11.7630    10.3220    11.5610    22.5870   -16.1960 
  206.5000     2.4580    61.8580    11.7630    10.3220    11.1650    22.5670   -16.2460 
  206.6250     2.4460    61.8580    11.7630    10.3220    10.5890    22.6980   -16.3000 
  206.7500     2.4230    61.8580    11.7630    10.3220     9.6920    22.7950   -16.3720 
  206.8750     2.3920    61.8580    11.7630    10.3220     9.1530    22.7080   -16.4030 
  207.0000     2.3570    61.8580    11.7630    10.3220     9.7070    22.6580   -16.4190 
  207.1250     2.3270    61.8580    11.7630    10.3220    11.2850    22.8940   -16.4700 
  207.2500     2.3050    61.8580    11.7630    10.3220    12.6790    22.7580   -16.5880 
  207.3750     2.2890    61.8580    11.7630    10.3220    12.7210    22.1470   -16.7060 
  207.5000     2.2700    61.8580    11.7630    10.3220    10.7040    21.0250   -16.8110 
  207.6250     2.2410    61.8580    11.7630    10.3220     8.8400    18.7550   -16.9050 
  207.7500     2.2080    61.8580    11.7630    10.3220     8.0640    15.2910   -17.0230 
  207.8750     2.1780    61.8580    11.7630    10.3220     7.6970    12.6880   -17.1640 
  208.0000     2.1570    61.8580    11.7630    10.3220     7.5550    12.2310   -17.3020 
  208.1250     2.1470    61.8580    11.7630    10.3220     7.5540    12.2240   -17.3970 
  208.2500     2.1430    61.8580    11.7630    10.3220     7.5410    12.2250   -17.4130 
  208.3750     2.1420    61.8580    11.7630    10.3220     7.5430    12.2310   -17.4280 
  208.5000     2.1430    61.8580    11.7630    10.3220     7.5450    12.2280  -999.2500 
  208.6250     2.1450    61.8580    11.7630    10.3220     7.5460    12.2290  -999.2500 
  208.7500     2.1470    61.8580    11.7630    10.3220     7.5460    12.2230  -999.2500 
  208.8750     2.1480    61.8580    11.7630    10.3220     7.5460    12.2220  -999.2500 
  209.0000     2.1480    61.8580    11.7630    10.3220     7.5460    12.2220  -999.2500 
  209.1250     2.1480    61.8580    11.7630    10.3220     7.5440    12.2220  -999.2500 
  209.2500     2.1470    61.8580    11.7630    10.3220     7.5430    12.2220  -999.2500 
  209.3750     2.1480    61.8580    11.7630    10.3220     7.5440    12.2220  -999.2500 
  209.5000     2.1480    61.8580    11.7630    10.3220     7.5450    12.2220  -999.2500 
  209.6250     2.1480    61.8580    11.7630    10.3220     7.5460    12.2220  -999.2500 
  209.7500     2.1480    61.8580    11.7630    10.3220     7.5430    12.2220  -999.2500 
  209.8750     2.1480    61.8580    11.7630    10.3220     7.5430    12.2220  -999.2500 
  210.0000     2.1470    61.8580    11.7630    10.3220     7.5440    12.2220  -999.2500 
