~V
VERS. 2.00: Ver 2.00
~W
STRT.M 49.0000:
STOP.M 247.0000:
STEP.M 0.1250:
NULL. -999.2500:
UWI. F11144:
~C
DEPT.M :
DEN.GM/CC :
SP.MV :
GR.API :
RML.OHMM :
RI. :
RXO.OHMM :
CALI.CM :
~A
# ...
  139.0000     2.2480   -15.8260    81.7290     6.1330     5.2020     6.2650    22.9030 
  139.1250     2.2530   -15.8390    84.3210     6.0600     5.1730     6.3520    22.7260 
  139.2500     2.2500   -15.8290    84.4250     5.9130     5.0670     6.2610    22.6500 
  139.3750     2.2400   -15.7990    83.6950     5.7440     4.9220     5.9480    22.6450 
  139.5000     2.2260   -15.7360    84.2970     5.6000     4.7740     5.6780    22.7100 
  139.6250     2.2140   -15.6740    85.3130     5.5150     4.6560     5.5520    22.8940 
  139.7500     2.2100   -15.5590    83.0090     5.5030     4.5910     5.4950    23.0420 
  139.8750     2.2090   -15.4300    78.7920     5.5240     4.5640     5.4850    23.1230 
  140.0000     2.2040   -15.3140    76.9200     5.5420     4.5480     5.5310    23.1550 
  140.1250     2.1930   -15.1490    77.5760     5.5450     4.5290     5.6280    23.1640 
  140.2500     2.1800   -14.9920    77.4060     5.5770     4.5280     5.6610    23.1460 
  140.3750     2.1700   -14.8410    76.1770     5.7170     4.5970     5.7090    23.1190 
  140.5000     2.1620   -14.6850    75.6440     6.0430     4.7960     5.8460    23.1080 
  140.6250     2.1620   -14.5450    75.6460     6.6020     5.1710     6.2040    23.1250 
  140.7500     2.1740   -14.4070    77.5020     7.3950     5.7540     6.9360    23.1720 
  140.8750     2.1890   -14.2670    79.6730     8.2440     6.4350     7.8800    23.2120 
  141.0000     2.2010   -14.1400    79.3960     8.9470     7.0780     8.5690    23.2620 
  141.1250     2.2070   -14.0690    75.3150     9.3110     7.5240     8.8750    23.3420 
  141.2500     2.2080   -13.9790    70.3560     9.2000     7.6100     8.7590    23.4400 
  141.3750     2.2040   -13.8790    68.4760     8.8150     7.4270     8.4370    23.5010 
  141.5000     2.1960   -13.8030    71.0240     8.3560     7.1090     8.0890    23.5350 
  141.6250     2.1890   -13.7080    75.7790     7.9790     6.7870     7.8450    23.5470 
  141.7500     2.1860   -13.6140    78.2070     7.7970     6.5760     7.6260    23.5470 
  141.8750     2.1870   -13.5500    77.6310     7.7890     6.5000     7.4680    23.5460 
  142.0000     2.1900   -13.4950    75.4700     7.9120     6.5470     7.5720    23.5420 
  142.1250     2.1930   -13.4400    74.1670     8.0900     6.6710     7.6630    23.5290 
  142.2500     2.1900   -13.4200    74.7640     8.2230     6.7980     7.6610    23.5090 
  142.3750     2.1840   -13.3700    76.1820     8.2350     6.8560     7.7190    23.4830 
  142.5000     2.1810   -13.3100    75.6710     8.0920     6.7980     7.8000    23.4720 
  142.6250     2.1840   -13.2260    73.1370     7.8110     6.6180     7.6580    23.4700 
  142.7500     2.1920   -13.1210    71.8970     7.4600     6.3500     7.2520    23.4700 
  142.8750     2.1990   -13.0160    73.0530     7.1420     6.0780     6.9060    23.4730 
  143.0000     2.2040   -12.8920    74.9220     6.9180     5.8580     6.6970    23.4970 
  143.1250     2.2040   -12.7380    75.6060     6.8220     5.7270     6.6070    23.5750 
  143.2500     2.2040   -12.6100    74.9070     6.8840     5.7300     6.6400    23.6820 
  143.3750     2.2080   -12.5120    74.7520     7.0590     5.8410     6.7540    23.7060 
  143.5000     2.2180   -12.4010    73.7940     7.2970     6.0290     6.8530    23.6400 
  143.6250     2.2380   -12.3350    71.1620     7.5210     6.2370     6.9720    23.5420 
  143.7500     2.2690   -12.2920    71.9170     7.6180     6.3680     7.1800    23.4380 
  143.8750     2.2890   -12.2220    77.4650     7.5350     6.3610     7.3530    23.3170 
  144.0000     2.2780   -12.1380    82.2430     7.2760     6.2020     7.1470    23.2570 
  144.1250     2.2420   -12.0540    82.8480     6.9110     5.9310     6.6760    23.2500 
  144.2500     2.2130   -11.8900    82.6460     6.5590     5.6370     6.3640    23.2700 
  144.3750     2.2000   -11.7280    83.3730     6.3080     5.4030     6.3030    23.2950 
  144.5000     2.1980   -11.6070    82.2030     6.1840     5.2640     6.2110    23.3250 
  144.6250     2.2040   -11.4680    78.0080     6.1710     5.2250     6.1400    23.3480 
  144.7500     2.2150   -11.3830    74.4230     6.2140     5.2620     6.2140    23.3210 
  144.8750     2.2200   -11.3920    75.2030     6.2430     5.3120     6.3950    23.2690 
  145.0000     2.2200   -11.4330    79.8660     6.2280     5.3410     6.4200    23.2420 
  145.1250     2.2210   -11.5540    83.6340     6.1610     5.3280     6.2720    23.2330 
  145.2500     2.2270   -11.7130    84.7160     6.0370     5.2570     6.0700    23.2140 
  145.3750     2.2350   -11.8680    88.0330     5.8720     5.1390     5.9490    23.1920 
  145.5000     2.2380   -12.0190    92.8220     5.6790     4.9930     5.8750    23.1800 
  145.6250     2.2370   -12.1700    93.4660     5.4720     4.8350     5.7940    23.1780 
  145.7500     2.2360   -12.3060    89.2080     5.2720     4.6800     5.4740    23.1450 
  145.8750     2.2400   -12.3720    87.8540     5.0950     4.5400     5.2080    23.0270 
  146.0000     2.2550   -12.4280    91.1970     4.9460     4.4170     5.1050    22.8570 
  146.1250     2.2760   -12.4210    92.4260     4.8200     4.3050     5.0440    22.7400 
  146.2500     2.2950   -12.3990    89.2620     4.7110     4.2040     4.8920    22.6890 
  146.3750     2.3070   -12.3630    88.4480     4.6140     4.1130     4.8140    22.6510 
  146.5000     2.3150   -12.2710    91.2160     4.5290     4.0310     4.7800    22.6290 
  146.6250     2.3190   -12.1580    92.6500     4.4620     3.9640     4.7450    22.6530 
  146.7500     2.3130   -11.9980    91.4620     4.4190     3.9200     4.7480    22.7120 
  146.8750     2.3020   -11.7980    92.6870     4.3910     3.8990     4.7690    22.7700 
  147.0000     2.2930   -11.5710    96.5220     4.3700     3.8940     4.7720    22.8060 
  147.1250     2.2890   -11.3220    98.4310     4.3530     3.8990     4.7720    22.8570 
  147.2500     2.2880   -11.0700    96.5380     4.3470     3.9060     4.7910    22.9270 
  147.3750     2.2840   -10.8150    94.3680     4.3530     3.9110     4.8200    22.9900 
  147.5000     2.2730   -10.5700    94.3970     4.3740     3.9190     4.8270    23.0230 
  147.6250     2.2600   -10.3520    95.7440     4.4070     3.9390     4.8350    23.0500 
  147.7500     2.2510   -10.1850    97.1530     4.4560     3.9820     4.8520    23.0510 
  147.8750     2.2490   -10.0590    99.0660     4.5180     4.0460     4.8920    22.9970 
  148.0000     2.2520    -9.9590    99.5510     4.5970     4.1280     4.9670    22.9140 
  148.1250     2.2530    -9.9240    96.2430     4.6940     4.2260     5.0670    22.8610 
  148.2500     2.2460    -9.9030    91.6950     4.8090     4.3360     5.1670    22.8330 
  148.3750     2.2400    -9.9090    90.6540     4.9260     4.4450     5.2600    22.7570 
  148.5000     2.2450    -9.9520    91.2240     5.0330     4.5370     5.3790    22.6260 
  148.6250     2.2620    -9.9910    91.1170     5.1200     4.6000     5.5350    22.5050 
  148.7500     2.2760   -10.0480    92.6010     5.1920     4.6330     5.6130    22.5190 
  148.8750     2.2800   -10.1290    94.0250     5.2840     4.6680     5.6180    22.7430 
  149.0000     2.2740   -10.2420    93.1000     5.4240     4.7330     5.6300    23.1480 
  149.1250     2.2630   -10.3640    89.7910     5.6080     4.8370     5.7250    23.5140 
  149.2500     2.2510   -10.5580    87.0860     5.8190     4.9700     6.0080    23.6490 
  149.3750     2.2430   -10.7940    86.7570     6.0860     5.1400     6.4460    23.6710 
  149.5000     2.2360   -11.0670    86.5030     6.5390     5.4210     6.7500    23.6730 
  149.6250     2.2310   -11.4140    84.2700     7.3690     5.9440     6.6530    23.6540 
  149.7500     2.2380   -11.7520    78.8380     8.8520     6.9540     6.5060    23.5350 
  149.8750     2.2540   -12.1180    74.6330    10.8790     8.4920     7.3130    23.3220 
  150.0000     2.2580   -12.4850    73.1840    13.1180    10.4510    10.3790    23.1590 
  150.1250     2.2380   -12.8110    71.7580    14.9340    12.4020    15.7830    23.1810 
