~V
VERS. 2.00: Ver 2.00
~W
STRT.M 49.0000:
STOP.M 247.0000:
STEP.M 0.1250:
NULL. -999.2500:
UWI. F11144:
~C
DEPT.M :
DEN.GM/CC :
SP.MV :
GR.API :
RML.OHMM :
RI. :
RXO.OHMM :
CALI.CM :
~A
# ...
  172.7500     2.2460   -27.8950    63.4000   104.1280    97.6420    36.7550    22.9130 
  172.8750     2.2530   -27.7650    62.8600    94.3550    88.0660    38.1160    23.0750 
  173.0000     2.2570   -27.6350    62.6730    88.6000    82.1730    35.3730    23.2520 
  173.1250     2.2580   -27.5630    63.9910    85.9470    79.2790    32.1240    23.3770 
  173.2500     2.2520   -27.4860    66.3160    84.9020    78.1720    34.2550    23.3880 
  173.3750     2.2410   -27.4600    67.1840    83.0050    76.5480    39.0080    23.2780 
  173.5000     2.2290   -27.4700    65.6370    78.6750    72.8420    40.9250    23.1770 
  173.6250     2.2270   -27.4780    64.0110    71.6400    66.6240    34.1970    23.0810 
  173.7500     2.2360   -27.5410    65.5500    63.3230    58.9240    27.5500    22.9110 
  173.8750     2.2490   -27.6060    69.0650    56.2730    51.9790    25.1690    22.8360 
  174.0000     2.2590   -27.6810    72.1550    52.0750    47.2190    24.3110    22.8110 
  174.1250     2.2650   -27.7830    74.2120    51.6350    45.4870    23.4230    22.7700 
  174.2500     2.2670   -27.9200    76.0320    56.2850    47.9820    24.4720    22.7610 
  174.3750     2.2620   -28.0520    75.4260    65.8220    54.6910    26.9770    22.8180 
  174.5000     2.2480   -28.1830    71.8500    80.6390    66.1420    31.7160    22.9380 
  174.6250     2.2290   -28.3260    67.3430   100.5930    82.4440    36.4320    22.9930 
  174.7500     2.2140   -28.4440    65.0220   123.7580   102.3950    41.8900    22.9820 
  174.8750     2.2070   -28.5370    64.0180   143.0970   120.5210    41.7410    22.8770 
  175.0000     2.2050   -28.6250    63.6520   149.4580   129.7040    38.6910    22.7020 
  175.1250     2.2060   -28.6860    64.4210   136.6100   123.8400    38.0330    22.6240 
  175.2500     2.2080   -28.6850    64.5040   108.2400   102.6000    39.0290    22.7390 
  175.3750     2.2150   -28.7020    63.6490    80.8720    78.1520    39.3940    22.9640 
  175.5000     2.2270   -28.6680    63.9590    60.1810    58.0300    33.3930    23.2260 
  175.6250     2.2440   -28.6440    65.4390    46.5980    44.8250    23.7660    23.4100 
  175.7500     2.2590   -28.6180    68.6040    40.7360    38.6530    19.0740    23.5250 
  175.8750     2.2660   -28.5770    72.3760    39.2900    36.7370    23.0690    23.6160 
  176.0000     2.2630   -28.5990    75.1880    40.6840    37.7990    30.6150    23.6650 
  176.1250     2.2560   -28.6130    75.2720    43.3880    40.6850    34.3240    23.7030 
  176.2500     2.2510   -28.6650    72.4610    45.1060    43.4650    29.3970    23.7810 
  176.3750     2.2470   -28.7320    70.5410    43.9090    43.6990    25.9570    23.8810 
  176.5000     2.2360   -28.7990    71.0120    39.3270    40.2360    24.3260    23.9230 
  176.6250     2.2190   -28.9000    72.9680    32.6570    34.0190    25.4600    23.9060 
  176.7500     2.2110   -29.0440    75.6010    26.3340    27.5490    20.7540    23.7750 
  176.8750     2.2270   -29.2240    77.9270    21.9270    22.7010    13.0020    23.5030 
  177.0000     2.2640   -29.4360    80.2840    19.8000    19.9000     9.5190    22.9980 
  177.1250     2.3060   -29.6690    80.6170    19.7700    18.9910     9.1360    22.2720 
  177.2500     2.3320   -29.9360    78.1600    21.7400    19.9250    11.0560    21.7890 
  177.3750     2.3400   -30.2610    76.1610    25.0510    22.1630    13.5100    21.6680 
  177.5000     2.3360   -30.6500    75.8620    29.4700    25.4630    13.7420    21.6170 
  177.6250     2.3270   -31.0670    75.8380    35.2150    29.7570    12.3470    21.4830 
  177.7500     2.3100   -31.5320    74.7200    44.1590    36.1370    12.1120    21.3870 
  177.8750     2.2850   -32.0280    72.8230    58.2500    46.2580    13.3910    21.3240 
  178.0000     2.2570   -32.5380    70.5130    77.9750    62.4750    16.4080    21.3310 
  178.1250     2.2280   -33.0750    67.8870   107.3310    86.7260    23.9510    21.5090 
  178.2500     2.2030   -33.6210    65.6690   145.3260   118.8780    37.7970    21.8710 
  178.3750     2.1860   -34.1280    64.5500   180.4710   149.5550    53.2930    22.3470 
  178.5000     2.1800   -34.5790    64.8610   199.4440   167.5740    62.1290    22.7740 
  178.6250     2.1800   -35.0280    67.2980   196.6590   167.4120    61.6310    22.9920 
  178.7500     2.1790   -35.3820    71.7560   178.7830   152.8390    57.5580    23.0260 
  178.8750     2.1770   -35.6870    72.7470   159.3380   135.4030    53.5010    23.0260 
  179.0000     2.1780   -35.9370    67.9750   143.4020   120.2090    49.6940    22.9850 
  179.1250     2.1870   -36.1080    62.9720   132.8530   109.3590    44.3280    22.8320 
  179.2500     2.2010   -36.2640    66.1200   129.3650   104.4300    37.5010    22.4650 
  179.3750     2.2120   -36.3710    71.5130   131.8560   104.6240    32.2790    21.9850 
  179.5000     2.2170   -36.5000    71.6080   139.5500   109.4370    28.6150    21.6620 
  179.6250     2.2180   -36.5780    66.2620   150.9740   117.8400    25.3020    21.4800 
  179.7500     2.2150   -36.6100    60.7830   164.0560   128.4030    24.2620    21.5140 
  179.8750     2.2090   -36.6520    57.5760   176.5910   139.1580    26.3110    21.8050 
  180.0000     2.2000   -36.6010    58.2050   188.0770   149.5020    32.6810    22.2790 
  180.1250     2.1890   -36.5050    61.9640   198.5700   159.4000    44.6890    22.9910 
  180.2500     2.1810   -36.3280    63.1750   205.2500   166.9980    63.4950    23.6900 
  180.3750     2.1800   -36.0560    60.2980   202.6110   168.1650    83.8980    24.2230 
  180.5000     2.1860   -35.7120    56.6210   186.0740   158.7180    99.7430    24.4530 
  180.6250     2.1950   -35.3270    55.9490   157.6370   138.5510   109.9010    24.5130 
  180.7500     2.2090   -34.8830    59.1010   126.6870   113.3610    95.4560    24.5220 
  180.8750     2.2310   -34.4080    63.5550   102.1000    91.4350    67.5730    24.5020 
  181.0000     2.2560   -33.9660    68.3070    86.2970    76.0690    47.6210    24.4940 
  181.1250     2.2720   -33.5690    71.6600    78.7620    67.6410    39.3640    24.5230 
  181.2500     2.2630   -33.2430    70.0730    78.9980    66.1150    39.3800    24.5590 
  181.3750     2.2390   -32.9800    65.1330    84.4650    69.4410    41.1300    24.5500 
  181.5000     2.2130   -32.7770    61.6920    94.0690    76.8300    43.5450    24.5140 
  181.6250     2.1960   -32.5990    61.8570   106.4820    87.2750    47.7630    24.4940 
  181.7500     2.1880   -32.5420    62.3620   119.7110    99.2460    55.5750    24.5090 
  181.8750     2.1840   -32.4860    61.3480   130.9980   110.2230    61.9380    24.5630 
  182.0000     2.1820   -32.4340    60.8530   138.0750   118.1150    65.7680    24.6510 
  182.1250     2.1760   -32.3970    62.4850   139.5620   121.4060    68.3510    24.7090 
  182.2500     2.1680   -32.2710    64.2970   135.1590   119.2000    68.6680    24.7230 
  182.3750     2.1640   -32.1560    64.3500   128.1870   113.9410    65.5930    24.7150 
  182.5000     2.1680   -31.9960    63.3730   121.1290   107.7520    59.2820    24.7150 
  182.6250     2.1760   -31.7990    61.1030   115.4520   102.2160    53.9850    24.7670 
  182.7500     2.1750   -31.5690    58.0770   111.2700    97.9060    52.6700    24.8600 
  182.8750     2.1650   -31.2960    56.6240   106.9530    93.7990    53.1080    24.9100 
  183.0000     2.1520   -31.0090    59.0540   100.9830    88.6770    53.3950    24.8760 
  183.1250     2.1470   -30.7010    62.3260    92.7510    81.8290    51.4980    24.7350 
  183.2500     2.1620   -30.3920    62.7420    83.5300    73.8900    45.5800    24.5160 
  183.3750     2.1860   -30.0990    63.0570    76.1610    67.0260    38.9450    24.3180 
  183.5000     2.2050   -29.8160    65.2550    72.7100    62.9960    33.9370    24.1850 
  183.6250     2.2080   -29.5780    66.4470    74.2580    62.9220    29.2510    24.1310 
  183.7500     2.1990   -29.3880    66.5170    81.6110    67.9880    29.6560    24.1160 
  183.8750     2.1830   -29.2480    66.2840    92.4910    76.8550    37.4030    24.0550 
