~V
VERS. 2.00: Ver 2.00
~W
STRT.M 59.0000:
STOP.M 247.0000:
STEP.M 0.1250:
NULL. -999.2500:
UWI. F11130:
~C
DEPT.M :
DEN.GM/CC :
SP.MV :
GR.API :
RML.OHMM :
RI. :
RXO.OHMM :
CALI.CM :
~A
# ...
  194.0000     2.7590   -13.5820    59.6050    46.7850    52.2610    56.2430    24.2990 
  194.1250     2.7090   -13.6940    64.1240    33.2250    36.7130    41.0420    24.6080 
  194.2500     2.6540   -13.7600    71.3330    24.0060    26.0720    27.6410    24.9250 
  194.3750     2.6000   -13.8110    77.4800    17.9150    19.0950    19.4650    25.1250 
  194.5000     2.5510   -13.7280    81.9660    13.9900    14.6480    15.4220    25.2620 
  194.6250     2.5060   -13.5620    88.6760    11.7630    12.1190    12.4020    25.5370 
  194.7500     2.4670   -13.2010    93.7480    10.5680    10.7320    10.2820    25.8390 
  194.8750     2.4460   -12.7650    94.1220    10.1340    10.1820    10.3190    25.9900 
  195.0000     2.4570   -12.2490    91.2290    10.1840    10.1890    11.7250    25.9940 
  195.1250     2.5130   -11.6430    86.9210    10.4150    10.5000    12.9670    25.8470 
  195.2500     2.5850   -10.9130    81.6090    10.4960    10.7760    13.8170    25.6640 
  195.3750     2.6450   -10.1260    75.1810    10.2430    10.7660    12.8140    25.4970 
  195.5000     2.6640    -9.4380    68.7250     9.6110    10.3230     9.8230    25.3490 
  195.6250     2.6300    -8.8460    62.3270     8.7060     9.4830     6.9800    25.0950 
  195.7500     2.5690    -8.4410    56.6030     7.8200     8.5530     6.1500    24.8770 
  195.8750     2.5060    -8.0700    54.3030     7.1480     7.7310     5.7810    24.7050 
  196.0000     2.4580    -7.7690    55.2610     6.7680     7.1170     5.6160    24.4550 
  196.1250     2.4270    -7.5120    57.3670     6.6620     6.7470     5.8980    24.1290 
  196.2500     2.4030    -7.3560    56.8470     6.6690     6.5320     6.2290    23.8780 
  196.3750     2.3810    -7.3060    53.6530     6.7150     6.4160     6.4560    23.7770 
  196.5000     2.3660    -7.2990    51.8430     6.7930     6.3670     6.6680    23.9920 
  196.6250     2.3650    -7.3660    54.4280     6.9620     6.3980     6.5300    24.5660 
  196.7500     2.3740    -7.3880    56.8770     7.2370     6.5160     7.3400    24.8920 
  196.8750     2.3850    -7.5390    56.2560     7.5870     6.7240     8.2930    24.9280 
  197.0000     2.3930    -7.8010    52.1620     7.9480     6.9990     7.7740    24.8440 
  197.1250     2.3930    -8.2040    48.0410     8.2470     7.3070     7.8060    24.7980 
  197.2500     2.3900    -8.6680    47.1140     8.4800     7.6120     8.2260    24.7810 
  197.3750     2.3900    -9.1270    48.2900     8.6930     7.8900     8.4560    24.7570 
  197.5000     2.3960    -9.5790    49.8950     8.9510     8.1360     8.4240    24.7730 
  197.6250     2.4040    -9.9310    49.8590     9.3130     8.3730     9.0670    24.7770 
  197.7500     2.4080   -10.3030    47.9480     9.7420     8.6370     9.8630    24.7560 
  197.8750     2.4060   -10.5840    44.6850    10.1620     8.9480     9.9120    24.7170 
  198.0000     2.3990   -10.8360    42.7560    10.4930     9.2970     9.6220    24.6590 
  198.1250     2.3970   -11.0280    44.2750    10.6560     9.6180    10.1050    24.5210 
  198.2500     2.4050   -11.1510    46.7510    10.6710     9.8050    11.2570    24.3110 
  198.3750     2.4200   -11.2060    48.9350    10.5540     9.7820    10.7810    24.1230 
  198.5000     2.4320   -11.1290    51.6930    10.3230     9.5380     9.1530    24.0830 
  198.6250     2.4300   -10.9140    53.6480     9.9830     9.1010     8.3370    24.1370 
  198.7500     2.4150   -10.6050    52.3000     9.5910     8.6020     8.1920    24.1200 
  198.8750     2.3990   -10.3910    48.6050     9.2120     8.1360     7.9230    23.9830 
  199.0000     2.3910   -10.2530    45.8280     8.9140     7.7720     7.6990    23.7910 
  199.1250     2.3930   -10.2360    46.0340     8.7670     7.5600     7.3210    23.6260 
  199.2500     2.3950   -10.2310    47.3820     8.7590     7.4810     6.9450    23.5930 
  199.3750     2.3880   -10.2210    49.1810     8.8770     7.5410     6.8800    23.8040 
  199.5000     2.3710   -10.3420    50.6480     9.1050     7.7410     7.1080    24.2360 
  199.6250     2.3500   -10.6370    51.1640     9.4280     8.0650     7.7310    24.7120 
  199.7500     2.3330   -11.0720    50.9610     9.7660     8.4160     8.6150    25.0660 
  199.8750     2.3240   -11.4830    51.1630    10.0210     8.6970     9.7420    25.1760 
  200.0000     2.3220   -11.7900    52.2380    10.0960     8.8120    10.3300    25.1890 
  200.1250     2.3310   -11.9140    52.5630     9.9000     8.6670    10.1650    25.3050 
  200.2500     2.3520   -11.9650    50.7910     9.5130     8.3210     9.5460    25.4830 
  200.3750     2.3800   -11.9960    47.7940     9.0320     7.8590     9.0830    25.5980 
  200.5000     2.4030   -11.9170    45.5640     8.5650     7.3870     9.1430    25.6130 
  200.6250     2.4000   -11.8240    47.2640     8.2240     7.0130    12.9430    25.5510 
  200.7500     2.3690   -11.6600    53.0860     8.0360     6.7600    21.4730    25.3930 
  200.8750     2.3200   -11.4680    63.2020     7.9890     6.6140    24.7410    25.1990 
  201.0000     2.2730   -11.2700    74.8640     8.0300     6.5480    14.0100    25.0110 
  201.1250     2.2570   -11.1270    84.5660     8.0890     6.5450     9.3500    24.9570 
  201.2500     2.2770   -11.1210    92.4590     8.1220     6.5780     6.9690    24.8230 
  201.3750     2.3230   -11.2240    97.7410     8.1370     6.6340     6.7040    24.7920 
  201.5000     2.3790   -11.5120    98.9210     8.1550     6.6920     7.1600    24.8090 
  201.6250     2.4240   -11.8890    97.0120     8.1880     6.7320     7.4450    24.8870 
  201.7500     2.4510   -12.3690    95.2470     8.2340     6.7560     7.3270    24.9280 
  201.8750     2.4600   -12.8670    94.0030     8.3030     6.7930     7.1660    24.9500 
  202.0000     2.4540   -13.4040    92.4090     8.4260     6.8800     7.2750    24.9680 
  202.1250     2.4340   -13.9730    89.9470     8.6670     7.0660     7.6330    24.9970 
  202.2500     2.4070   -14.4510    87.1700     9.0210     7.3490     8.0560    24.9870 
  202.3750     2.3780   -14.8910    84.7710     9.4400     7.6940     8.3430    24.9060 
  202.5000     2.3500   -15.1940    84.1820     9.8330     8.0210     8.7240    24.7820 
  202.6250     2.3280   -15.2920    83.8400    10.0820     8.2190     9.1420    24.6560 
  202.7500     2.3140   -15.1470    82.8150    10.1990     8.2780     9.6310    24.6450 
  202.8750     2.3100   -14.8440    82.1400    10.2910     8.2740     9.9260    24.7140 
  203.0000     2.3150   -14.4260    81.9930    10.5660     8.3490    10.0750    24.8000 
  203.1250     2.3340   -13.8140    82.5490    11.3890     8.7520    11.4780    24.8000 
  203.2500     2.3630   -13.1600    83.0700    12.8920     9.6520    14.5450    24.7650 
  203.3750     2.4030   -12.3490    82.6330    15.0410    11.1900    15.2170    24.7080 
  203.5000     2.4550   -11.3420    79.3530    17.4650    13.3720    17.0040    24.6030 
  203.6250     2.5130   -10.2640    74.3290    19.1780    15.7090    21.1320    24.4620 
  203.7500     2.5590    -9.2060    71.5930    19.3610    17.0110    25.2830    24.3510 
  203.8750     2.5780    -8.1670    71.5920    17.7990    16.4090    26.1470    24.2830 
  204.0000     2.5650    -7.0890    74.4300    15.0620    14.1600    22.5830    24.2680 
  204.1250     2.5270    -6.0500    80.1020    12.2590    11.4640    13.9000    24.3340 
  204.2500     2.4900    -4.9570    83.3960    10.1970     9.3320     8.7820    24.4320 
  204.3750     2.4670    -3.9780    82.9240     9.0360     7.9980     7.6650    24.5720 
  204.5000     2.4560    -3.2110    80.7370     8.6340     7.4210     7.9810    24.6880 
  204.6250     2.4440    -2.5700    80.8020     8.7820     7.5280     8.3250    24.7430 
  204.7500     2.4200    -2.0590    82.2150     9.1050     7.9700     9.2490    24.7620 
  204.8750     2.3890    -1.5480    84.4100     9.3870     8.4620    10.1430    24.7580 
  205.0000     2.3630    -1.0410    88.7490     9.5200     8.7740    10.7790    24.7640 
  205.1250     2.3560    -0.4490    92.9030     9.5280     8.8790    10.6380    24.7120 
