~V
VERS. 2.00: Ver 2.00
~W
STRT.M 52.0000:
STOP.M 240.0000:
STEP.M 0.1250:
NULL. -999.2500:
UWI. F11139:
~C
DEPT.M :
GR.API :
RML.OHMM :
RI. :
RXO.OHMM :
CALI.CM :
SP.MV :
DEN.GM/CC :
~A
# ...
  130.7500    71.6720    19.0470    17.6990    17.3910    23.9300    -2.0570     2.4670 
  130.8750    75.0540    19.7080    18.0370    18.7660    23.6210    -2.1850     2.4630 
  131.0000    78.1440    20.9580    18.8660    20.9760    23.5230    -2.3620     2.4610 
  131.1250    80.6640    22.8970    20.3550    24.2580    23.6920    -2.5670     2.4540 
  131.2500    82.0600    25.2280    22.3050    27.6130    23.6420    -2.8050     2.4400 
  131.3750    81.3930    27.6390    24.4740    30.7760    23.7110    -3.0560     2.4160 
  131.5000    80.5690    29.7780    26.5460    33.4930    23.8870    -3.3450     2.3810 
  131.6250    80.9200    31.2120    28.1060    35.2040    24.2430    -3.6740     2.3310 
  131.7500    81.5540    31.8890    29.0150    34.9200    24.7520    -4.0220     2.2770 
  131.8750    83.5090    31.8490    29.2480    32.8460    25.3140    -4.3840     2.2400 
  132.0000    87.4440    31.2330    28.8940    31.7290    25.6890    -4.6690     2.2350 
  132.1250    89.6310    30.1330    28.0230    31.2700    25.7000    -4.9090     2.2550 
  132.2500    87.4440    28.7360    26.8370    29.6990    25.5710    -5.0810     2.2760 
  132.3750    83.7340    27.1530    25.4490    26.2940    25.4580    -5.2120     2.2950 
  132.5000    82.0240    25.5250    23.9870    23.3380    25.4280    -5.2920     2.3150 
  132.6250    83.1210    24.0460    22.6120    22.0540    25.5120    -5.3800     2.3350 
  132.7500    84.7580    22.8330    21.4350    21.0320    25.7010    -5.4440     2.3540 
  132.8750    85.0500    21.9350    20.5130    20.1770    25.9370    -5.5040     2.3790 
  133.0000    83.6710    21.3320    19.8510    19.7620    26.2030    -5.5970     2.4100 
  133.1250    81.0040    20.9870    19.4410    19.9760    26.5610    -5.7050     2.4280 
  133.2500    78.5630    20.7730    19.1810    20.6760    27.1040    -5.8290     2.4240 
  133.3750    77.9110    20.6000    18.9910    21.0280    27.7260    -5.9660     2.4040 
  133.5000    78.5480    20.3700    18.7770    20.7670    28.2490    -6.0790     2.3800 
  133.6250    79.7120    19.9690    18.4260    20.5030    28.5690    -6.1230     2.3580 
  133.7500    79.9420    19.3890    17.9140    20.0890    28.7870    -6.1100     2.3360 
  133.8750    80.1090    18.6770    17.2720    19.2480    28.9370    -6.0180     2.3160 
  134.0000    80.4100    17.9360    16.5830    17.7810    28.9880    -5.8470     2.3000 
  134.1250    80.7530    17.3250    15.9810    16.4930    28.9540    -5.6010     2.2870 
  134.2500    81.1420    16.9320    15.5570    16.0790    28.7770    -5.3340     2.2890 
  134.3750    80.9570    16.7970    15.3580    16.1710    28.3120    -5.0400     2.3210 
  134.5000    81.3620    16.9090    15.3910    16.8840    27.6510    -4.7910     2.3790 
  134.6250    83.2980    17.2280    15.6470    17.5460    27.1100    -4.5350     2.4390 
  134.7500    84.6410    17.5890    15.9930    18.0090    26.7480    -4.3580     2.4770 
  134.8750    84.4080    17.8060    16.2740    17.6430    26.4920    -4.2590     2.4950 
  135.0000    84.8470    17.6500    16.2740    16.8170    26.3000    -4.2180     2.5050 
  135.1250    86.6680    16.7830    15.6540    16.2110    26.1110    -4.2340     2.5120 
  135.2500    86.2610    15.2470    14.3810    15.8920    25.9850    -4.3000     2.5080 
  135.3750    84.2720    13.2280    12.5750    14.5370    25.9790    -4.3700     2.4810 
  135.5000    83.3180    11.0810    10.5450    11.9410    26.0300    -4.3700     2.4360 
  135.6250    85.3430     9.2130     8.7150     8.9230    26.0110    -4.3090     2.3900 
  135.7500    88.1400     7.8310     7.3000     6.6990    25.8940    -4.1470     2.3490 
  135.8750    89.8290     6.9300     6.3480     5.7630    25.9020    -3.9080     2.3090 
  136.0000    89.0860     6.3550     5.8050     5.5720    26.0100    -3.6320     2.2730 
  136.1250    87.5010     6.2530     5.6080     5.6110    26.0790    -3.3400     2.2530 
  136.2500    87.3160     6.2660     5.5890     5.6550    26.0140    -3.0430     2.2440 
  136.3750    87.5860     6.3200     5.6610     5.7810    25.9290    -2.7540     2.2380 
  136.5000    86.3200     6.3760     5.7580     5.9960    25.8880    -2.5020     2.2330 
  136.6250    83.8320     6.4140     5.8350     6.1220    25.8970    -2.3220     2.2320 
  136.7500    82.1800     6.4260     5.8720     6.1110    25.9400    -2.2000     2.2350 
  136.8750    82.9050     6.4010     5.8560     6.1110    26.0140    -2.1150     2.2380 
  137.0000    85.4380     6.3280     5.7780     6.0680    26.0110    -2.0510     2.2400 
  137.1250    87.0350     6.2040     5.6350     5.9310    25.9360    -1.9620     2.2390 
  137.2500    86.5470     6.0500     5.4540     5.6670    25.8420    -1.8890     2.2390 
  137.3750    86.2180     5.8740     5.2570     5.3580    25.7340    -1.8160     2.2430 
  137.5000    86.7210     5.6930     5.0640     5.0990    25.6320    -1.8010     2.2520 
  137.6250    85.4930     5.5010     4.8970     5.0470    25.5790    -1.8040     2.2560 
  137.7500    83.9350     5.3010     4.7590     5.0580    25.5700    -1.8520     2.2530 
  137.8750    85.9420     5.1720     4.6470     4.9610    25.5680    -1.9650     2.2520 
  138.0000    90.3830     5.1160     4.5700     4.9030    25.5320    -2.1360     2.2550 
  138.1250    91.7700     5.2070     4.5690     4.9640    25.4790    -2.3650     2.2610 
  138.2500    89.7870     5.4740     4.6840     5.0930    25.4690    -2.6180     2.2630 
  138.3750    87.6760     5.9320     4.9620     5.4300    25.4920    -2.9540     2.2600 
  138.5000    86.5450     6.5830     5.4230     6.1640    25.5030    -3.3390     2.2470 
  138.6250    84.8120     7.3820     6.0660     7.5280    25.4550    -3.7830     2.2190 
  138.7500    81.5630     8.1880     6.7840     9.0870    25.3360    -4.2480     2.1870 
  138.8750    78.5100     8.8940     7.4790    10.2300    25.0670    -4.6680     2.1650 
  139.0000    77.3710     9.4310     8.0640    10.5490    24.6460    -5.0110     2.1640 
  139.1250    78.2700     9.7830     8.4760    10.3570    24.1960    -5.2890     2.1800 
  139.2500    79.4700    10.0330     8.7630    10.2860    23.9680    -5.5150     2.1970 
  139.3750    80.3280    10.2060     8.9580    10.4990    23.8500    -5.6350     2.2060 
  139.5000    80.7280    10.2580     9.0460    10.9180    23.6980    -5.6270     2.2100 
  139.6250    80.3170    10.0400     8.9190    11.2090    23.4460    -5.4570     2.2110 
  139.7500    79.7260     9.5210     8.5330    10.8740    23.2210    -5.1510     2.2120 
  139.8750    80.1430     8.7540     7.8980     9.9870    23.2360    -4.8000     2.2100 
  140.0000    80.9840     7.8880     7.1210     8.7710    23.5380    -4.4860     2.2060 
  140.1250    81.9850     7.1490     6.3830     7.5080    24.0920    -4.2470     2.2050 
  140.2500    83.0530     6.6530     5.8200     6.4950    24.6700    -3.9980     2.2110 
  140.3750    84.1910     6.4150     5.4770     6.0220    25.0330    -3.7950     2.2190 
  140.5000    85.3970     6.3810     5.3370     6.1140    25.1150    -3.6680     2.2180 
  140.6250    85.2830     6.4690     5.3570     6.2180    25.0780    -3.6530     2.2000 
  140.7500    83.0990     6.5710     5.4380     6.3430    25.1020    -3.7660     2.1780 
  140.8750    79.4800     6.6400     5.5240     6.4030    25.1410    -3.9470     2.1570 
  141.0000    76.6740     6.6610     5.5850     6.3620    25.1620    -4.1500     2.1360 
  141.1250    77.6570     6.6500     5.6150     6.2980    25.1990    -4.3210     2.1230 
  141.2500    80.8360     6.6350     5.6320     6.2660    25.2610    -4.5070     2.1310 
  141.3750    82.6240     6.6260     5.6460     6.3730    25.2960    -4.6520     2.1590 
  141.5000    81.8170     6.6120     5.6520     6.5150    25.2460    -4.7360     2.1950 
  141.6250    81.0010     6.5570     5.6260     6.5270    25.0200    -4.7640     2.2230 
  141.7500    81.9170     6.4420     5.5520     6.3920    24.6860    -4.7270     2.2450 
  141.8750    84.2280     6.2620     5.4200     6.2390    24.4060    -4.6310     2.2620 
