~V
VERS. 2.00: Ver 2.00
~W
STRT.M 55.0000:
STOP.M 207.0000:
STEP.M 0.1250:
NULL. -999.2500:
UWI. F11112:
~C
DEPT.M :
SP.MV :
RML.OHMM :
RI. :
RXO.OHMM :
CALI.CM :
DEN.GM/CC :
GR.API :
~A
# ...
  190.0000    -6.3560     6.3530     5.5860     5.7270    24.4030     2.2950    66.1240 
  190.1250    -6.3900     6.4070     5.5430     5.9020    24.4180     2.2980    66.1880 
  190.2500    -6.4000     6.6020     5.6570     6.1160    24.4040     2.2940    68.0820 
  190.3750    -6.4230     6.8470     5.8460     6.2120    24.4040     2.2920    71.1780 
  190.5000    -6.5090     7.0930     6.0620     6.0900    24.4220     2.2980    72.8950 
  190.6250    -6.6200     7.3140     6.2750     6.0800    24.4470     2.3160    72.2060 
  190.7500    -6.7390     7.4940     6.4670     6.2400    24.5010     2.3320    71.6650 
  190.8750    -6.8000     7.6360     6.6370     6.4750    24.5800     2.3370    73.6410 
  191.0000    -6.8100     7.7290     6.7740     6.7630    24.6410     2.3430    77.0960 
  191.1250    -6.8630     7.7560     6.8650     7.0390    24.6200     2.3610    79.3520 
  191.2500    -7.0020     7.6970     6.8850     7.0780    24.5120     2.3860    78.6210 
  191.3750    -7.1800     7.5820     6.8440     7.0750    24.4370     2.3990    76.4950 
  191.5000    -7.3310     7.4480     6.7620     6.8880    24.3450     2.3900    74.9960 
  191.6250    -7.5270     7.3350     6.6690     6.4460    24.2190     2.3630    74.0630 
  191.7500    -7.7350     7.2740     6.5990     6.2810    24.2120     2.3300    72.8500 
  191.8750    -7.9080     7.2420     6.5500     6.2870    24.2750     2.3100    74.1850 
  192.0000    -8.0220     7.1930     6.4970     6.5040    24.3230     2.3100    77.9880 
  192.1250    -8.0940     7.0710     6.3940     6.7320    24.3270     2.3260    80.5960 
  192.2500    -8.0450     6.8210     6.1880     6.8180    24.3130     2.3490    79.1270 
  192.3750    -7.9250     6.4830     5.8930     6.6030    24.2780     2.3640    76.8310 
  192.5000    -7.7790     6.1290     5.5580     6.0730    24.2370     2.3610    73.8880 
  192.6250    -7.4880     5.8510     5.2620     5.3490    24.2180     2.3420    68.8760 
  192.7500    -7.0990     5.7660     5.1130     4.6910    24.1970     2.3250    63.4630 
  192.8750    -6.7490     5.8790     5.1400     4.3630    24.1790     2.3190    61.0590 
  193.0000    -6.4090     6.1670     5.3440     4.6180    24.1970     2.3180    62.3250 
  193.1250    -6.1260     6.5770     5.6900     5.2220    24.2240     2.3160    66.2660 
  193.2500    -6.0270     7.0310     6.1140     6.0780    24.2530     2.3200    70.3030 
  193.3750    -6.0460     7.4510     6.5240     6.9110    24.2580     2.3330    73.1320 
  193.5000    -6.1390     7.7980     6.8650     7.4940    24.2960     2.3520    75.6100 
  193.6250    -6.3390     8.0570     7.1170     7.8790    24.3260     2.3710    77.3480 
  193.7500    -6.5840     8.2200     7.2720     7.9580    24.3270     2.3900    77.0840 
  193.8750    -6.8200     8.3100     7.3630     7.6720    24.3240     2.4050    76.2640 
  194.0000    -7.0890     8.3350     7.4020     7.4490    24.3250     2.4110    76.1920 
  194.1250    -7.3750     8.3100     7.3960     7.3630    24.3130     2.4060    75.7870 
  194.2500    -7.6100     8.2630     7.3560     7.3090    24.3100     2.3990    74.7070 
  194.3750    -7.7680     8.2360     7.3140     7.2900    24.2890     2.3990    74.6020 
  194.5000    -7.8810     8.2590     7.3030     7.5100    24.2690     2.4050    75.8800 
  194.6250    -7.9660     8.3530     7.3560     7.8820    24.2730     2.4140    76.9690 
  194.7500    -8.0600     8.5340     7.5010     8.5360    24.2680     2.4220    77.6140 
  194.8750    -8.1330     8.7630     7.7130     8.8550    24.2590     2.4280    77.9900 
  195.0000    -8.1790     8.9970     7.9540     8.4490    24.2640     2.4310    78.1480 
  195.1250    -8.1600     9.1810     8.1740     8.0600    24.2740     2.4320    78.1310 
  195.2500    -8.0390     9.2470     8.3020     8.1960    24.2670     2.4300    78.2580 
  195.3750    -7.8940     9.1920     8.3200     8.6040    24.2770     2.4240    78.5580 
  195.5000    -7.7120     9.0340     8.2290     8.8170    24.2750     2.4170    77.7210 
  195.6250    -7.4940     8.8110     8.0510     8.7390    24.2660     2.4090    75.8870 
  195.7500    -7.2800     8.5740     7.8230     8.5550    24.2670     2.4020    76.5450 
  195.8750    -7.1360     8.3680     7.5970     8.3700    24.2510     2.3940    79.9760 
  196.0000    -7.0610     8.2150     7.4000     8.0660    24.2300     2.3860    82.6120 
  196.1250    -7.0280     8.1170     7.2510     7.5790    24.1900     2.3760    81.7560 
  196.2500    -7.1110     8.0700     7.1630     7.0980    24.1700     2.3640    79.2810 
  196.3750    -7.2230     8.0490     7.1210     6.9440    24.1800     2.3480    78.4950 
  196.5000    -7.3080     8.0440     7.1140     7.1070    24.2040     2.3330    78.8940 
  196.6250    -7.2960     8.0540     7.1310     7.4420    24.2050     2.3230    79.6560 
  196.7500    -7.1810     8.0800     7.1610     7.7190    24.1690     2.3290    79.4910 
  196.8750    -7.0420     8.1140     7.1970     7.7270    24.1690     2.3480    79.4910 
  197.0000    -6.9070     8.1550     7.2410     7.5530    24.1860     2.3720    79.4910 
  197.1250    -6.7700     8.2040     7.2970     7.4840    24.2150     2.3910    79.4910 
  197.2500    -6.5650     8.2680     7.3660     7.5160    24.2370     2.4030    79.4910 
  197.3750    -6.3140     8.3370     7.4350     7.4530    24.2440     2.4110    79.4910 
  197.5000    -6.1740     8.3910     7.4900     7.3730    24.2560     2.4140    79.4910 
  197.6250    -6.2380     8.4020     7.5130     7.2720    24.2690     2.4110    79.4910 
  197.7500    -6.3880     8.3330     7.4850     7.2030    24.2960     2.3980    79.4910 
  197.8750    -6.4630     8.2030     7.4090     7.1770    24.3110     2.3800    79.4910 
  198.0000    -6.4730     8.0480     7.2970     7.1860    24.3040     2.3710    79.4910 
  198.1250    -6.5290     7.9150     7.1740     7.0750    24.2740     2.3790    79.4910 
  198.2500    -6.5980     7.8730     7.0860     6.8350    24.2640     2.3960    79.4910 
  198.3750    -6.6570     7.9360     7.0640     6.7620    24.2920     2.4030    79.4910 
  198.5000    -6.6570     8.0910     7.1160     6.8890    24.3160     2.3930    79.4910 
  198.6250    -6.6500     8.3000     7.2290     7.1320    24.3230     2.3760    79.4910 
  198.7500    -6.7310     8.4960     7.3710     7.4990    24.3200     2.3570    79.4910 
  198.8750    -6.8790     8.6240     7.4980     7.7110    24.3160     2.3350    79.4910 
  199.0000    -6.9900     8.6610     7.5830     7.7890    24.3150     2.3160    79.4910 
  199.1250    -7.0090     8.6180     7.6140     7.7990    24.3310     2.3120    79.4910 
  199.2500    -7.0780     8.5290     7.5940     7.5740    24.3290     2.3320    79.4910 
  199.3750    -7.2560     8.4500     7.5610     7.4230    24.3340     2.3540    79.4910 
  199.5000    -7.5160     8.4190     7.5480     7.3660    24.3470     2.3580    79.4910 
  199.6250    -7.7590     8.4460     7.5780     7.5000    24.3690     2.3470    79.4910 
  199.7500    -7.8880     8.5070     7.6540     7.8390    24.3960     2.3400    79.4910 
  199.8750    -7.8620     8.5450     7.7400     8.2820    24.3970     2.3420    79.4910 
  200.0000    -7.7900     8.5160     7.7950     8.7150    24.3720     2.3490    79.4910 
  200.1250    -7.7510     8.3910     7.7750     8.9500    24.3540     2.3620    79.4910 
  200.2500    -7.7450     8.1560     7.6260     8.7430    24.4050     2.3820    79.4910 
  200.3750    -7.7320     7.8430     7.3640     7.8610    24.5460     2.3930    79.4910 
  200.5000    -7.6740     7.4710     7.0110     6.8920    24.7430     2.3850    79.4910 
  200.6250    -7.6160     7.0690     6.6090     6.1690    24.9010     2.3620    79.4910 
  200.7500    -7.6160     6.6920     6.2090     5.7520    25.1060     2.3260    79.4910 
  200.8750    -7.7770     6.3910     5.8590     5.3220    25.4140     2.2760    79.4910 
  201.0000    -8.0350     6.1870     5.5880     4.8790    25.7120     2.2010    79.4910 
  201.1250    -8.2310     6.0750     5.4080     4.5740    25.7420     2.1080    79.4910 
