~V
VERS. 2.00: Ver 2.00
~W
STRT.M 51.0000:
STOP.M 277.0000:
STEP.M 0.1250:
NULL. -999.2500:
UWI. F11147:
~C
DEPT.M :
DEN.GM/CC :
GR.API :
RML.OHMM :
RI. :
RXO.OHMM :
CALI.CM :
SP.MV :
~A
# ...
   84.7500     2.2800    65.9600    11.6840     8.0720    10.8660    24.0630   -31.9030 
   84.8750     2.3110    65.9060    13.6230     9.2700    12.0450    24.2480   -30.3400 
   85.0000     2.3520    67.6210    15.3920    10.5570    15.7550    24.3260   -28.7660 
   85.1250     2.4020    70.5530    16.1290    11.3610    22.5760    24.3000   -27.2370 
   85.2500     2.4430    74.7320    15.2200    11.1430    23.0900    24.2690   -25.7810 
   85.3750     2.4330    78.5440    12.9020     9.8450    13.6210    24.2890   -24.4830 
   85.5000     2.3780    80.8570    10.5500     8.3250     8.2750    24.3410   -23.3550 
   85.6250     2.3190    82.0760     8.8890     7.1050     6.8700    24.3800   -22.3880 
   85.7500     2.2880    82.9730     8.1070     6.3990     6.9830    24.4130   -21.5820 
   85.8750     2.2880    84.4520     8.1130     6.2630     7.0390    24.5310   -20.9810 
   86.0000     2.2980    86.4980     8.4180     6.4330     6.9500    24.6680   -20.5080 
   86.1250     2.3120    87.2540     8.6920     6.6870     7.4370    24.7860   -20.1310 
   86.2500     2.3270    85.3240     8.7110     6.8320     8.2810    24.8570   -19.8610 
   86.3750     2.3340    82.1790     8.3810     6.7390     8.9550    24.9140   -19.6640 
   86.5000     2.3260    84.2630     7.8720     6.4820     7.3570    24.9830   -19.5340 
   86.6250     2.3100    93.9590     7.3390     6.1480     6.0870    24.9950   -19.5050 
   86.7500     2.3030   105.0770     6.8910     5.8200     5.4830    24.9010   -19.5980 
   86.8750     2.3140   107.2970     6.5900     5.5570     5.3960    24.7660   -19.8320 
   87.0000     2.3300   102.7050     6.4000     5.3640     5.3780    24.6680   -20.1870 
   87.1250     2.3390   100.3170     6.3020     5.2380     5.3800    24.6190   -20.6570 
   87.2500     2.3410   102.4410     6.2980     5.1800     5.3430    24.5730   -21.2220 
   87.3750     2.3400   101.7800     6.4170     5.2050     5.2950    24.4780   -21.8990 
   87.5000     2.3390    98.0030     6.6150     5.2920     5.2370    24.3560   -22.6530 
   87.6250     2.3350    95.5860     6.8140     5.3950     5.4620    24.2220   -23.4660 
   87.7500     2.3320    95.8500     6.9260     5.4580     5.9240    24.1060   -24.3350 
   87.8750     2.3370    96.8420     6.9280     5.4550     5.9700    24.0170   -25.2840 
   88.0000     2.3530    97.8750     6.9450     5.4470     5.7680    23.9210   -26.3090 
   88.1250     2.3710    99.2870     7.1040     5.5030     5.5420    23.7950   -27.4540 
   88.2500     2.3800    99.5690     7.4690     5.6660     5.7470    23.6570   -28.6860 
   88.3750     2.3700    93.9550     7.9920     5.9350     7.4620    23.5520   -29.9300 
   88.5000     2.3480    84.2200     8.4460     6.2030    10.5510    23.5410   -31.1070 
   88.6250     2.3150    75.5690     8.6290     6.3580    11.0630    23.6790   -32.1410 
   88.7500     2.2730    72.8180     8.4600     6.3320     9.3990    23.8850   -32.9590 
   88.8750     2.2390    73.8150     8.0400     6.1450     8.3610    24.2050   -33.4120 
   89.0000     2.2220    72.1340     7.6550     5.9470     8.2630    24.5610   -33.4960 
   89.1250     2.2120    69.1500     7.4860     5.8650     8.3670    24.8810   -33.1270 
   89.2500     2.1940    68.0250     7.6020     5.9730     8.5470    25.1750   -32.3000 
   89.3750     2.1670    69.2670     7.9570     6.2740     8.6880    25.4810   -31.0530 
   89.5000     2.1520    70.2500     8.3480     6.6270     8.4520    25.5620   -29.6110 
   89.6250     2.1730    72.2470     8.6220     6.9080     7.7810    25.2410   -28.1370 
   89.7500     2.2270    77.0080     8.6600     7.0100     7.1870    24.7620   -26.7390 
   89.8750     2.2750    81.7950     8.3850     6.8540     6.5970    24.5850   -25.5490 
   90.0000     2.2810    82.3780     7.9670     6.5550     6.2840    24.5650   -24.6000 
   90.1250     2.2560    78.3690     7.5830     6.2390     6.2510    24.6160   -23.9300 
   90.2500     2.2350    73.1550     7.3650     6.0130     6.4630    24.7090   -23.5410 
   90.3750     2.2330    70.1830     7.3720     5.9470     6.4400    24.8390   -23.4620 
   90.5000     2.2360    69.5230     7.4980     5.9830     6.4230    24.9490   -23.5560 
   90.6250     2.2370    72.1080     7.6320     6.0500     6.7920    25.0140   -23.7240 
   90.7500     2.2340    78.5940     7.6840     6.0710     7.4150    25.0780   -23.9070 
   90.8750     2.2320    83.6160     7.6020     5.9950     7.3370    25.1200   -24.0770 
   91.0000     2.2370    85.3860     7.4460     5.8570     6.6530    25.0240   -24.2580 
   91.1250     2.2530    87.6580     7.2800     5.7030     5.9030    24.8230   -24.4860 
   91.2500     2.2770    92.7110     7.1600     5.5750     5.5830    24.6240   -24.8050 
   91.3750     2.2980    95.1840     7.1510     5.5160     5.6840    24.4790   -25.2200 
   91.5000     2.3110    91.9560     7.2740     5.5440     5.8370    24.3900   -25.7480 
   91.6250     2.3180    86.7140     7.5530     5.6800     6.0710    24.4150   -26.3900 
   91.7500     2.3250    82.3850     8.0000     5.9410     6.4470    24.6120   -27.1610 
   91.8750     2.3290    78.9050     8.6210     6.3440     6.9290    24.8570   -28.0670 
   92.0000     2.3310    74.9480     9.3070     6.8290     7.4440    24.9040   -29.0440 
   92.1250     2.3310    72.5200     9.9120     7.3120     8.5220    24.6970   -30.0380 
   92.2500     2.3250    72.5130    10.2770     7.6750     9.8500    24.3580   -30.9940 
   92.3750     2.3020    71.6890    10.2730     7.7980    10.5080    24.3230   -31.8400 
   92.5000     2.2690    69.0330    10.0490     7.7290    10.6440    24.6270   -32.5530 
   92.6250     2.2340    67.1570     9.7600     7.5520    10.6100    24.9390   -33.1370 
   92.7500     2.2020    66.8370     9.5310     7.3620    10.3970    25.0250   -33.5570 
   92.8750     2.1840    62.2800     9.4130     7.2310    10.0990    24.8900   -33.7540 
   93.0000     2.1810    57.7110     9.3300     7.1460    10.0360    24.8500   -33.7580 
   93.1250     2.1820    58.3730     9.2120     7.0600     9.9560    24.9410   -33.5710 
   93.2500     2.1750    63.2700     9.0320     6.9380     9.6890    25.0010   -33.2150 
   93.3750     2.1700    67.6000     8.8340     6.7780     9.3230    24.9550   -32.7670 
   93.5000     2.1810    71.1320     8.7030     6.6280     9.0740    24.8690   -32.2840 
   93.6250     2.2040    74.9490     8.7070     6.5400     8.5840    24.7440   -31.7980 
   93.7500     2.2270    77.7080     8.8740     6.5490     7.9200    24.5550   -31.3600 
   93.8750     2.2430    77.0610     9.1680     6.6520     7.9300    24.2720   -30.9940 
   94.0000     2.2490    74.2500     9.4320     6.7630     8.6420    23.9290   -30.6760 
   94.1250     2.2440    72.5170     9.5180     6.7970     9.3310    23.7170   -30.4230 
   94.2500     2.2370    75.4220     9.3140     6.6860     9.5250    23.7030   -30.2430 
   94.3750     2.2430    81.2380     8.8290     6.4170     9.3390    23.7530   -30.1470 
   94.5000     2.2630    82.5210     8.4030     6.1600     8.9690    23.7230   -30.1020 
   94.6250     2.2910    76.9770     8.4500     6.1400     8.9640    23.6640   -30.0720 
   94.7500     2.3220    68.1680     9.3980     6.6290     9.5410    23.6190   -30.0410 
   94.8750     2.3660    61.6830    11.8120     8.0880    11.3200    23.6640   -30.0440 
   95.0000     2.4300    58.6410    15.5550    10.6270    16.2570    23.8190   -30.1180 
   95.1250     2.5050    58.2890    20.0490    14.1060    29.4250    24.0040   -30.2920 
   95.2500     2.5680    57.8340    23.4960    17.4410    48.5420    24.0480   -30.5790 
   95.3750     2.5860    56.4780    22.6660    18.0130    50.0500    23.9030   -30.9190 
   95.5000     2.5500    56.3050    18.5420    15.7500    32.1830    23.7420   -31.2830 
   95.6250     2.4620    58.4090    13.9060    12.4670    17.3160    23.5920   -31.6480 
   95.7500     2.3490    62.3610    10.5670     9.6950    11.5750    23.5900   -31.9880 
   95.8750     2.2520    65.2640     8.9720     8.0230    10.6480    24.1830   -32.2420 
