~V
VERS. 2.00: Ver 2.00
~W
STRT.M 50.0000:
STOP.M 206.0000:
STEP.M 0.1250:
NULL. -999.2500:
UWI. F11107:
~C
DEPT.M :
DEN.GM/CC :
GR.API :
RML.OHMM :
RI. :
RXO.OHMM :
CALI.CM :
SP.MV :
~A
# ...
  162.5000     2.4000   108.5360    10.5650    10.4120     9.0290    24.8100   -15.0780 
  162.6250     2.3770   102.4500    10.0770     9.7620     8.4680    25.0680   -15.2270 
  162.7500     2.3700   102.1050    10.0210     9.5630     9.2260    25.2890   -15.4100 
  162.8750     2.3770   106.1170    10.2050     9.6580    10.8540    25.3980   -15.5710 
  163.0000     2.3880   108.7300    10.4740     9.9000    11.9870    25.4190   -15.8290 
  163.1250     2.3920   106.0430    10.6980    10.1560    12.3010    25.4160   -16.1980 
  163.2500     2.3850   101.8890    10.8200    10.3400    12.4420    25.4190   -16.4760 
  163.3750     2.3730    98.2070    10.8360    10.4230    12.6170    25.4010   -16.6940 
  163.5000     2.3630    94.7560    10.7760    10.4110    12.8710    25.3640   -16.9460 
  163.6250     2.3610    95.2990    10.7050    10.3400    13.1740    25.3260   -17.1550 
  163.7500     2.3660   101.7420    10.6980    10.2760    13.5370    25.2700   -17.3210 
  163.8750     2.3730   105.9830    10.8180    10.2760    13.8090    25.2150   -17.5280 
  164.0000     2.3770   102.5050    11.1130    10.3950    14.2320    25.1980   -17.7210 
  164.1250     2.3770    97.0740    11.6520    10.7030    15.4090    25.1900   -17.7530 
  164.2500     2.3770    96.0600    12.3980    11.1950    16.0550    25.1550   -17.7240 
  164.3750     2.3820    96.6420    13.3160    11.8610    16.1310    25.0650   -17.6580 
  164.5000     2.3890    95.6420    14.3390    12.6570    16.1300    24.9620   -17.5440 
  164.6250     2.3950    95.3380    15.3510    13.5010    16.3830    24.9030   -17.3640 
  164.7500     2.3970    95.2630    16.2170    14.2640    16.5960    24.8920   -17.1130 
  164.8750     2.3940    94.4140    16.8300    14.8350    17.1390    24.8870   -16.8080 
  165.0000     2.3910    94.0450    17.1530    15.1430    17.7650    24.9450   -16.4630 
  165.1250     2.3910    94.9780    17.2660    15.1870    17.4300    25.0330   -16.1550 
  165.2500     2.3920    94.7130    17.4950    15.1900    16.9430    25.1200   -15.9050 
  165.3750     2.3910    92.3910    18.2120    15.4200    15.6020    25.1800   -15.6820 
  165.5000     2.3840    90.3580    19.8200    16.1940    14.1290    25.2080   -15.4990 
  165.6250     2.3700    89.1970    22.9030    18.0360    14.6930    25.2130   -15.4000 
  165.7500     2.3560    86.5600    27.4080    21.1040    19.9660    25.2100   -15.3800 
  165.8750     2.3450    82.6340    33.1560    25.4780    30.5350    25.2110   -15.4010 
  166.0000     2.3400    78.8620    39.6150    30.8980    43.7160    25.2190   -15.4750 
  166.1250     2.3380    77.8780    45.7950    36.6120    47.4500    25.2210   -15.5680 
  166.2500     2.3340    79.2600    50.8490    41.6040    50.3770    25.1850   -15.6420 
  166.3750     2.3270    80.9370    54.4800    45.3470    57.3180    25.0740   -15.7400 
  166.5000     2.3150    80.4430    56.9850    47.8860    59.4470    24.9430   -15.8290 
  166.6250     2.3030    78.2310    59.2040    49.7850    52.6610    24.8890   -15.8580 
  166.7500     2.2920    78.2810    62.1930    52.0310    51.9740    24.9940   -15.9050 
  166.8750     2.2850    79.5140    66.7260    55.3910    55.5840    25.1810   -16.0160 
  167.0000     2.2800    78.8240    73.3790    60.5540    64.8940    25.3560   -16.1830 
  167.1250     2.2760    77.2540    82.6950    68.3940    73.0960    25.4410   -16.4390 
  167.2500     2.2710    77.5160    93.3590    78.1430    88.5740    25.4710   -16.7040 
  167.3750     2.2650    77.3130   103.0740    88.1080   108.9780    25.4990   -16.9520 
  167.5000     2.2610    74.3600   108.6000    95.5040   130.7680    25.5350   -17.2080 
  167.6250     2.2610    71.4920   106.0970    96.5030   147.1220    25.5510   -17.5150 
  167.7500     2.2680    71.8020    97.1440    91.3540   148.7720    25.5560   -17.8000 
  167.8750     2.2800    74.2840    84.6950    81.9070   120.0500    25.5670   -18.0030 
  168.0000     2.2950    76.9310    72.1400    71.0330    70.9840    25.5980   -18.1360 
  168.1250     2.3090    78.8190    62.2200    61.5520    49.7950    25.6540   -18.2300 
  168.2500     2.3230    79.9170    55.1920    54.4120    50.3410    25.6830   -18.3340 
  168.3750     2.3340    80.3400    50.8530    49.6860    50.1230    25.7140   -18.4200 
  168.5000     2.3420    80.0870    48.9450    47.2130    41.5180    25.7610   -18.5320 
  168.6250     2.3420    80.8640    49.7670    47.2830    37.2430    25.7960   -18.6820 
  168.7500     2.3350    81.1800    53.0290    49.6560    37.9010    25.7890   -18.8380 
  168.8750     2.3220    80.4870    58.9100    54.5710    42.9090    25.7460   -19.0760 
  169.0000     2.3080    78.2300    67.5380    62.2570    48.2040    25.7590   -19.3750 
  169.1250     2.2970    74.8550    79.1740    73.1040    62.1910    25.8690   -19.6360 
  169.2500     2.2870    72.9220    92.6740    85.9770    81.0440    25.9830   -19.9480 
  169.3750     2.2780    72.4070   106.9080    99.7130    94.2200    26.0550   -20.3670 
  169.5000     2.2660    72.2590   120.5340   112.9200   114.9560    26.0830   -20.7110 
  169.6250     2.2540    71.4620   131.9620   123.9990   154.0300    26.0800   -20.9160 
  169.7500     2.2420    71.8670   140.8450   132.6330   161.2480    26.1080   -21.1600 
  169.8750     2.2320    74.4390   146.9710   138.7360   151.5820    26.1460   -21.4000 
  170.0000     2.2230    76.0610   149.9290   142.1250   145.1170    26.1650   -21.5780 
  170.1250     2.2150    74.0280   147.9430   141.4390   151.2570    26.1710   -21.7310 
  170.2500     2.2120    70.5030   140.7340   136.2860   158.9370    26.2030   -21.8770 
  170.3750     2.2150    68.7370   128.6460   126.5810   148.3130    26.2340   -21.9870 
  170.5000     2.2280    69.4540   113.6190   113.5650   113.2630    26.2590   -22.0480 
  170.6250     2.2470    71.9750    99.0740    99.9130    88.2320    26.2950   -22.0630 
  170.7500     2.2660    75.8180    87.8540    88.6150    73.0160    26.2720   -22.0360 
  170.8750     2.2790    78.4660    81.2570    81.3650    61.8320    26.2090   -21.9850 
  171.0000     2.2840    77.7050    79.5630    78.8470    58.1450    26.1650   -21.9440 
  171.1250     2.2820    75.0780    82.1350    81.4780    66.4920    26.1490   -21.8950 
  171.2500     2.2780    73.7360    88.6810    87.2750    79.3770    26.1300   -21.7760 
  171.3750     2.2740    72.2940   100.2910    94.4490    94.5820    26.1390   -21.6210 
  171.5000     2.2710    69.7950   114.1340   100.9350   110.2300    26.1250   -21.5110 
  171.6250     2.2720    70.0830   122.4200   104.4910   117.0470    26.0590   -21.4320 
  171.7500     2.2730    72.6680   123.1400   105.0130   116.8770    25.9730   -21.3460 
  171.8750     2.2750    74.7820   119.6280   103.2000   107.2520    25.8720   -21.2790 
  172.0000     2.2750    75.6240   115.4250   100.1970   105.4390    25.7840   -21.1750 
  172.1250     2.2730    74.9820   111.2790    97.0220   108.9320    25.8780   -21.0530 
  172.2500     2.2690    74.3570   107.5600    94.1840   113.3670    26.0150   -21.0040 
  172.3750     2.2640    73.5590   104.2880    91.7630   111.4310    26.0610   -20.9140 
  172.5000     2.2590    72.1240   101.4060    89.7240    99.6060    26.0920   -20.7420 
  172.6250     2.2540    71.2490    98.9030    88.0410    87.9740    26.1950   -20.6440 
  172.7500     2.2500    72.7880    96.6840    86.6100    81.3130    26.2580   -20.5980 
  172.8750     2.2470    74.8550    94.7350    85.4320    83.5740    26.2660   -20.4610 
  173.0000     2.2480    74.1370    93.0130    84.4970    94.5290    26.2640   -20.3150 
  173.1250     2.2530    72.9150    91.3380    83.6780    94.4150    26.2660   -20.2720 
  173.2500     2.2600    73.3550    89.3360    82.6050    83.7630    26.2480   -20.1960 
  173.3750     2.2670    74.9630    86.6270    80.8680    80.7730    26.2150   -20.1150 
  173.5000     2.2720    76.9140    82.9960    78.1690    84.8200    26.1790   -20.1130 
  173.6250     2.2750    78.8670    78.5790    74.4720    88.4310    26.1100   -20.1470 
