~V
VERS. 2.00: Ver 2.00
~W
STRT.M 47.0000:
STOP.M 248.0000:
STEP.M 0.1250:
NULL. -999.2500:
UWI. F11134:
~C
DEPT.M :
GR.API :
RML.OHMM :
RI. :
RXO.OHMM :
CALI.CM :
SP.MV :
DEN.GM/CC :
~A
# ...
  204.5000    61.6570     9.6190     7.8100     7.3650    25.2090   -22.5580     2.4080 
  204.6250    62.7880    10.5730     8.4320     8.5900    25.2520   -22.5750     2.4020 
  204.7500    63.1670    11.3950     9.0980    11.3170    25.2490   -22.6140     2.4030 
  204.8750    64.3870    11.6240     9.4460    14.7370    25.1970   -22.5600     2.4180 
  205.0000    66.9490    11.3210     9.4280    14.8920    25.1710   -22.3490     2.4370 
  205.1250    70.1160    11.0100     9.3330    11.7340    25.1810   -21.9480     2.4500 
  205.2500    72.0260    11.2040     9.5170     9.2850    25.1850   -21.3390     2.4550 
  205.3750    71.0570    12.1590    10.2300    10.2420    25.1600   -20.5300     2.4670 
  205.5000    67.1660    13.5250    11.3090    15.8090    25.1180   -19.5740     2.4890 
  205.6250    62.2800    14.5210    12.2020    24.4570    25.0680   -18.5330     2.5170 
  205.7500    59.7670    14.3720    12.2630    26.6610    25.0190   -17.4670     2.5360 
  205.8750    62.0960    12.8200    11.1980    19.3510    25.0120   -16.4460     2.5310 
  206.0000    66.8160    10.6420     9.5490    10.9060    25.0350   -15.5160     2.5000 
  206.1250    68.9370     8.7660     8.0260     6.7630    25.0500   -14.7080     2.4540 
  206.2500    67.4870     7.5870     6.9630     5.9520    25.0480   -14.0350     2.4120 
  206.3750    66.8080     7.1320     6.4470     6.1610    25.0500   -13.5130     2.3910 
  206.5000    69.0030     7.1340     6.3280     6.1740    25.0560   -13.1410     2.3860 
  206.6250    72.5830     7.2950     6.4010     5.9160    25.0590   -12.9380     2.3850 
  206.7500    76.2460     7.4310     6.5170     5.7750    25.0600   -12.9030     2.3830 
  206.8750    78.9980     7.4520     6.5840     5.9150    25.0590   -13.0300     2.3800 
  207.0000    79.6210     7.3740     6.5840     6.0720    25.0520   -13.2770     2.3760 
  207.1250    79.0840     7.2490     6.5370     6.0540    25.0330   -13.6000     2.3700 
  207.2500    79.2790     7.1210     6.4720     5.9370    25.0220   -13.9700     2.3640 
  207.3750    79.1220     7.0570     6.4350     5.9630    25.0400   -14.3530     2.3570 
  207.5000    77.3360     7.1300     6.4880     6.1320    25.0760   -14.7010     2.3500 
  207.6250    74.9260     7.3990     6.6850     6.3220    25.1080   -14.9810     2.3450 
  207.7500    72.4990     7.8860     7.0540     6.7810    25.1270   -15.1840     2.3420 
  207.8750    70.4000     8.5530     7.5850     7.8440    25.1350   -15.3330     2.3370 
  208.0000    69.7110     9.2690     8.1850     9.2080    25.1440   -15.4550     2.3290 
  208.1250    70.3340     9.8790     8.7310    10.2500    25.1660   -15.5510     2.3220 
  208.2500    70.4090    10.2820     9.1230    10.6430    25.1910   -15.6230     2.3210 
  208.3750    68.7560    10.4630     9.3160    10.3380    25.2110   -15.6830     2.3270 
  208.5000    66.8320    10.5440     9.3880     9.8950    25.2300   -15.7530     2.3360 
  208.6250    66.1920    10.6930     9.4700     9.9400    25.2500   -15.8470     2.3420 
  208.7500    67.3550    11.0300     9.6680    10.4880    25.2600   -15.9650     2.3420 
  208.8750    69.7470    11.6070    10.0500    11.5350    25.2560   -16.0840     2.3390 
  209.0000    70.8550    12.3490    10.5810    12.9640    25.2590   -16.2010     2.3350 
  209.1250    69.1480    13.1140    11.1710    14.4540    25.2720   -16.3180     2.3290 
  209.2500    66.6550    13.7980    11.7440    15.4900    25.2820   -16.4300     2.3210 
  209.3750    65.9410    14.3720    12.2760    15.8210    25.2830   -16.5330     2.3120 
  209.5000    66.6630    14.9330    12.8240    15.5010    25.2760   -16.6320     2.3060 
  209.6250    67.6110    15.6100    13.4740    15.2920    25.2520   -16.7230     2.3000 
  209.7500    68.8260    16.4660    14.2780    16.1590    25.2080   -16.7920     2.2910 
  209.8750    70.0430    17.4470    15.2120    18.4130    25.1500   -16.8190     2.2780 
  210.0000    69.1640    18.3600    16.1330    20.3880    25.0970   -16.7990     2.2690 
  210.1250    65.6820    18.9880    16.8520    20.7990    25.0690   -16.7630     2.2670 
  210.2500    62.6580    19.2000    17.2260    20.1340    25.0610   -16.7340     2.2690 
  210.3750    62.8550    18.9680    17.1870    19.3780    25.0600   -16.6980     2.2740 
  210.5000    64.4090    18.4240    16.8240    18.8040    25.0630   -16.6370     2.2780 
  210.6250    64.6380    17.7060    16.2590    18.2480    25.0730   -16.5560     2.2790 
  210.7500    64.7350    16.8730    15.5570    17.6240    25.0950   -16.4920     2.2780 
  210.8750    66.7680    16.0040    14.7960    16.8840    25.1110   -16.4930     2.2760 
  211.0000    68.9790    15.2710    14.1320    16.0480    25.1160   -16.5660     2.2740 
  211.1250    69.2510    14.9160    13.7740    15.1870    25.1080   -16.7020     2.2750 
  211.2500    68.3240    15.1780    13.9230    14.7430    25.0930   -16.8870     2.2800 
  211.3750    66.2100    16.3140    14.8300    16.0780    25.0800   -17.1130     2.2870 
  211.5000    61.9880    18.3060    16.5670    20.6050    25.0760   -17.3830     2.2900 
  211.6250    57.3770    21.1320    19.0130    27.0210    25.0830   -17.7100     2.2860 
  211.7500    55.4950    24.1250    21.8670    31.3700    25.1020   -18.0790     2.2800 
  211.8750    56.4390    26.3940    24.4950    32.2200    25.1200   -18.4570     2.2800 
  212.0000    56.9020    27.6060    26.2940    31.5790    25.1270   -18.8300     2.2820 
  212.1250    55.9760    27.8170    27.0430    30.9960    25.1210   -19.1860     2.2810 
  212.2500    55.8140    27.3250    26.9120    30.2570    25.1010   -19.5290     2.2760 
  212.3750    56.7910    26.5140    26.2470    29.3710    25.0880   -19.8610     2.2750 
  212.5000    57.4560    25.6700    25.3900    28.0840    25.0870   -20.1820     2.2790 
  212.6250    57.7230    24.9320    24.5530    26.4920    25.0880   -20.4970     2.2870 
  212.7500    58.5190    24.3680    23.8460    25.5270    25.0970   -20.8100     2.2920 
  212.8750    60.0280    24.0750    23.3910    25.2110    25.1140   -21.1350     2.2960 
  213.0000    61.1860    24.1630    23.2930    25.4490    25.1260   -21.4920     2.2970 
  213.1250    61.0410    24.8190    23.7030    26.2590    25.1310   -21.8790     2.2960 
  213.2500    59.6150    26.3630    24.8770    27.6250    25.1340   -22.2920     2.2910 
  213.3750    58.1780    29.4370    27.3780    29.7210    25.1350   -22.7360     2.2820 
  213.5000    57.6270    34.5700    31.7770    34.5450    25.1350   -23.2050     2.2710 
  213.6250    57.0710    42.6800    38.5500    45.6880    25.1350   -23.6960     2.2580 
  213.7500    55.7510    53.1350    47.8080    67.8100    25.1350   -24.2220     2.2410 
  213.8750    55.0140    64.1830    58.5770    93.0030    25.1350   -24.7870     2.2230 
  214.0000    55.4920    73.7160    68.5350   108.9820    25.1360   -25.3690     2.2120 
  214.1250    55.7390    80.0770    75.6410   110.7390    25.1370   -25.9330     2.2110 
  214.2500    54.3900    83.5990    79.7880    99.5930    25.1400   -26.4650     2.2200 
  214.3750    52.8500    86.7600    83.0530    86.9520    25.1410   -26.9730     2.2250 
  214.5000    53.0080    92.0130    87.9140    93.5530    25.1480   -27.4830     2.2190 
  214.6250    53.4820   100.0140    95.2600   117.5440    25.1690   -27.9840     2.2010 
  214.7500    51.7860   109.5690   104.1130   139.7480    25.1860   -28.4550     2.1830 
  214.8750    49.1020   117.6710   111.8200   147.3110    25.1820   -28.8890     2.1760 
  215.0000    48.3870   121.6150   115.9410   142.2430    25.1600   -29.2800     2.1820 
  215.1250    49.5110   120.9420   115.8690   129.6250    25.1450   -29.6180     2.1930 
  215.2500    50.2690   117.3560   112.8500   115.4530    25.1500   -29.8900     2.2010 
  215.3750    50.1990   113.5130   109.1510   113.4310    25.1740   -30.0730     2.2080 
  215.5000    50.5460   111.4090   106.7450   116.6190    25.1940   -30.1670     2.2130 
  215.6250    51.4380   112.1030   106.8210   115.7350    25.2020   -30.1860     2.2160 
