~V
VERS. 2.00: Ver 2.00
~W
STRT.M 60.0000:
STOP.M 281.0000:
STEP.M 0.1250:
NULL. -999.2500:
UWI. F11154:
~C
DEPT.M :
DEN.GM/CC :
GR.API :
RML.OHMM :
RI. :
RXO.OHMM :
CALI.CM :
SP.MV :
~A
   60.0000     2.0830    46.1710     9.2630     0.9980 11506.8620    25.2700    88.1790 
   60.1250     2.0550    46.7710     9.1390     0.9980 11506.8620    25.2690    86.9070 
   60.2500     2.0210    46.4860     9.0260     1.0020 11506.8620    25.2680    85.3780 
   60.3750     1.9880    45.0320     8.9070     1.0110 11506.8620    25.2600    83.7760 
   60.5000     1.9640    42.5390     8.7740     1.0230 11506.8620    25.2420    82.2530 
   60.6250     1.9560    40.8460     8.6220     1.0380 11506.8620    25.2330    80.9400 
   60.7500     1.9630    40.8780     8.4560     1.0510 11506.8620    25.2310    79.7230 
   60.8750     1.9780    42.0130     8.2790     1.0620 11506.8620    25.2320    78.5650 
   61.0000     1.9950    43.7210     8.0910     1.0680 11506.8620    25.2340    77.5650 
   61.1250     2.0120    44.6090     7.8970     1.0690 11506.8620    25.2390    76.7920 
   61.2500     2.0310    44.7270     7.7100     1.0660 11506.8620    25.2480    76.2680 
   61.3750     2.0520    45.2970     7.5400     1.0620 11506.8620    25.2550    75.9190 
   61.5000     2.0730    46.6700     7.3940     1.0580 11506.8620    25.2560    75.5880 
   61.6250     2.0850    46.8410     7.2700     1.0580 11506.8620    25.2590    75.1360 
   61.7500     2.0880    45.5500     7.1550     1.0590 11506.8620    25.2700    74.7060 
   61.8750     2.0770    43.9000     7.0440     1.0610 11506.8620    25.2820    74.4040 
   62.0000     2.0490    42.8850     6.9380     1.0620 11506.8620    25.2840    74.1780 
   62.1250     2.0170    42.7060     6.8510     1.0630 11506.8620    25.2780    74.1270 
   62.2500     2.0000    43.6960     6.7890     1.0650 11506.8620    25.2750    74.1440 
   62.3750     2.0010    45.3440     6.7570     1.0650 10730.1700    25.2750    74.2800 
   62.5000     2.0110    45.9530     6.7440     1.0600  9390.6120    25.2720    74.5990 
   62.6250     2.0220    45.5290     6.6860     1.0360  6650.6120    25.2570    75.1940 
   62.7500     2.0340    46.7070     6.4550     0.9810  2793.6070    25.2380    75.8990 
   62.8750     2.0540    49.2770     5.9060     0.8820   369.9570    25.2280    76.5990 
   63.0000     2.0930    51.1630     4.9300     0.7340    18.1080    25.2210    77.2600 
   63.1250     2.1600    51.0580     3.5270     0.5440     3.8660    25.2070    77.3230 
   63.2500     2.2450    50.4530     2.1270     0.3580     1.1080    25.1690    76.3630 
   63.3750     2.3370    50.5540     1.1080     0.2180     0.5100    25.0940    73.8970 
   63.5000     2.4300    51.2760     0.5830     0.1440     0.4220    25.0050    69.3680 
   63.6250     2.4900    52.5060     0.5350     0.1570     0.8630    24.9930    62.0680 
   63.7500     2.4700    53.4810     0.7970     0.2630     1.7590    25.2330    52.8460 
   63.8750     2.3600    54.6350     1.3110     0.5000     3.0520    26.0100    42.6120 
   64.0000     2.2230    56.6230     2.0180     0.9190     4.6120    27.5900    32.0700 
   64.1250     2.1540    57.7330     2.8660     1.6170     5.6220    29.8020    21.7490 
   64.2500     2.1730    58.2110     3.7860     2.5940     6.1940    31.3360    12.1020 
   64.3750     2.2550    59.5170     4.8170     3.8640     7.2640    30.8450     3.5630 
   64.5000     2.3540    62.6340     6.0760     5.4140    10.1040    28.0120    -3.4160 
   64.6250     2.4410    66.3060     7.6830     7.1870    14.9570    25.5660    -8.1740 
   64.7500     2.5010    67.8240     9.4200     8.9290    20.3000    24.4130   -11.2710 
   64.8750     2.5210    65.7010    10.9220    10.3260    24.3420    24.1190   -13.5490 
   65.0000     2.4950    61.2360    11.7600    11.0570    22.7760    24.0800   -15.5990 
   65.1250     2.4300    58.4670    11.5580    10.8830    16.0550    24.1180   -17.4400 
   65.2500     2.3490    59.3470    10.7840    10.2210    11.2670    24.2100   -19.0680 
   65.3750     2.2690    60.8740     9.9660     9.4800     9.5970    24.3210   -20.5550 
   65.5000     2.2070    60.5240     9.4540     8.9350     9.2150    24.4030   -21.7330 
   65.6250     2.1760    60.9700     9.3560     8.6960     9.1850    24.4370   -22.4710 
   65.7500     2.1620    63.5620     9.4710     8.6380     9.2910    24.4400   -23.0300 
   65.8750     2.1550    65.4110     9.6480     8.6610     9.4070    24.4530   -23.4320 
   66.0000     2.1520    63.7780     9.7810     8.6880     9.3940    24.5170   -23.7530 
   66.1250     2.1520    60.4530     9.8270     8.6860     9.2550    24.6070   -24.0630 
   66.2500     2.1470    58.2890     9.8550     8.6870     9.1560    24.6420   -24.3510 
   66.3750     2.1300    57.2130     9.9510     8.7410     9.1190    24.6030   -24.6070 
   66.5000     2.1030    57.6570    10.1880     8.8990     9.2040    24.5140   -24.8390 
   66.6250     2.0770    58.6110    10.5960     9.1930     9.7720    24.4960   -25.1230 
   66.7500     2.0590    58.3770    11.0570     9.5430    11.0790    24.5790   -25.3790 
   66.8750     2.0550    58.3240    11.4280     9.8420    12.8190    24.7380   -25.5950 
   67.0000     2.0730    60.7440    11.5670     9.9750    14.8020    24.8490   -25.7850 
   67.1250     2.1170    64.4370    11.3440     9.8190    15.5650    24.7370   -25.8540 
   67.2500     2.1590    67.3940    10.8690     9.4290    14.1010    24.4420   -25.9410 
   67.3750     2.1790    70.4120    10.2930     8.9050    11.3200    24.0860   -25.9270 
   67.5000     2.1800    74.0600     9.7750     8.3730     9.7790    23.8130   -25.8100 
   67.6250     2.1810    76.9340     9.4560     7.9660     9.3350    23.6650   -25.6830 
   67.7500     2.1870    78.9700     9.3410     7.7280     9.0440    23.5890   -25.5440 
   67.8750     2.1910    80.5120     9.4130     7.6720     8.8700    23.5810   -25.4240 
   68.0000     2.1910    81.2540     9.6330     7.7840     9.0030    23.6110   -25.3210 
   68.1250     2.1860    80.0620     9.9590     8.0400     9.5570    23.6710   -25.3550 
   68.2500     2.1780    76.8710    10.3110     8.3630    10.4930    23.7530   -25.4100 
   68.3750     2.1730    72.8820    10.6300     8.6970    11.4540    23.8470   -25.5380 
   68.5000     2.1760    71.2670    10.8700     8.9910    12.0980    23.9370   -25.7240 
   68.6250     2.1820    72.4250    10.9920     9.1920    12.2900    23.9820   -25.9170 
   68.7500     2.1860    72.1560    11.0270     9.2990    12.1920    23.9970   -26.1000 
   68.8750     2.1870    69.3270    10.9950     9.3190    11.9470    23.9820   -26.2190 
   69.0000     2.1860    67.1650    10.9110     9.2620    11.6030    23.9420   -26.3100 
   69.1250     2.1750    67.3830    10.7620     9.1270    11.3030    23.8820   -26.3590 
   69.2500     2.1550    66.7720    10.5530     8.9370    11.1000    23.8340   -26.3650 
   69.3750     2.1410    65.4460    10.3050     8.7120    10.8560    23.8230   -26.3030 
   69.5000     2.1500    66.4060    10.0680     8.4880    10.4650    23.8560   -26.2610 
   69.6250     2.1830    70.8600     9.9230     8.3220    10.0100    23.8820   -26.2450 
   69.7500     2.2140    73.4730     9.9070     8.2430     9.6280    23.8740   -26.3010 
   69.8750     2.2230    71.2770    10.0170     8.2580     9.6960    23.8360   -26.5090 
   70.0000     2.2090    66.7570    10.2080     8.3480    10.3300    23.7870   -26.8230 
   70.1250     2.1900    63.9860    10.3860     8.4680    10.9730    23.7620   -27.2270 
   70.2500     2.1760    62.8850    10.4630     8.5510    11.1940    23.7820   -27.7320 
   70.3750     2.1610    62.1460    10.4050     8.5650    11.2680    23.8260   -28.3470 
   70.5000     2.1420    61.8830    10.2460     8.5120    11.5460    23.8620   -29.0200 
   70.6250     2.1260    63.0530    10.1060     8.4480    11.7130    23.9120   -29.6610 
   70.7500     2.1210    63.8820    10.1270     8.4660    11.8630    24.0270   -30.1980 
   70.8750     2.1280    62.7990    10.3910     8.6310    12.3860    24.1800   -30.6070 
   71.0000     2.1470    59.8320    10.8800     8.9530    14.3240    24.3350   -30.8940 
   71.1250     2.1840    56.1470    11.4540     9.3670    18.8270    24.5020   -31.0530 
