~V
VERS. 2.00: Ver 2.00
~W
STRT.M 50.0000:
STOP.M 206.0000:
STEP.M 0.1250:
NULL. -999.2500:
UWI. F11107:
~C
DEPT.M :
DEN.GM/CC :
GR.API :
RML.OHMM :
RI. :
RXO.OHMM :
CALI.CM :
SP.MV :
~A
# ...
  128.7500     2.4850    50.1310    14.7680    13.1310    11.1700    24.7850    -9.2800 
  128.8750     2.5100    50.9410    14.8110    13.1480    11.7450    24.6180    -9.2090 
  129.0000     2.5290    54.0370    14.7910    13.1550    13.2180    24.7740    -9.1940 
  129.1250     2.5330    57.3590    14.6700    13.0960    13.6210    25.1130    -9.1570 
  129.2500     2.5270    60.2150    14.4990    12.9750    12.5430    25.2840    -9.1030 
  129.3750     2.5130    62.7680    14.3530    12.8350    11.0820    25.3340    -9.0930 
  129.5000     2.4990    64.2800    14.2990    12.7300    10.3450    25.3330    -9.1030 
  129.6250     2.4890    66.3630    14.3870    12.7120    10.7110    25.2510    -9.0520 
  129.7500     2.4840    68.0340    14.5580    12.7620    12.5630    25.1600    -9.0410 
  129.8750     2.4850    67.8510    14.7440    12.8420    14.9470    25.0580    -9.0810 
  130.0000     2.4910    66.8490    14.8920    12.9080    14.9150    24.9770    -9.1210 
  130.1250     2.5040    64.9610    14.9990    12.9460    13.6640    24.8370    -9.1390 
  130.2500     2.5190    62.0590    15.1260    12.9870    13.3610    24.7590    -9.1390 
  130.3750     2.5330    59.4200    15.3250    13.0740    13.7560    24.8230    -9.1390 
  130.5000     2.5430    59.5390    15.6060    13.2280    14.2350    24.8860    -9.1330 
  130.6250     2.5470    61.0360    15.9200    13.4380    13.9600    24.7910    -9.0990 
  130.7500     2.5490    60.7290    16.1760    13.6380    13.5290    24.6880    -9.0570 
  130.8750     2.5500    60.2780    16.3260    13.7820    13.4390    24.7940    -9.0140 
  131.0000     2.5500    61.6040    16.3670    13.8490    13.7230    24.9390    -8.9260 
  131.1250     2.5500    62.9240    16.3550    13.8560    13.6700    24.8360    -8.8000 
  131.2500     2.5500    63.3410    16.3960    13.8770    13.6800    24.6160    -8.7000 
  131.3750     2.5530    64.0740    16.5750    13.9910    13.6710    24.6150    -8.6130 
  131.5000     2.5610    66.2560    16.9410    14.2690    14.1510    24.9920    -8.5470 
  131.6250     2.5720    68.5750    17.4480    14.7430    14.5560    25.3250    -8.5580 
  131.7500     2.5790    72.2570    17.8310    15.2290    15.2260    25.3070    -8.6050 
  131.8750     2.5790    77.2990    17.7430    15.4280    16.1150    25.1090    -8.6390 
  132.0000     2.5630    80.4410    16.8770    15.0110    16.5760    24.9640    -8.6750 
  132.1250     2.5250    80.7560    15.0600    13.7220    16.3590    24.9530    -8.7420 
  132.2500     2.4700    83.9460    12.8000    11.9370    14.5390    25.0690    -8.8890 
  132.3750     2.4090    89.0210    10.6050    10.0810    11.1270    25.2450    -9.0630 
  132.5000     2.3560    92.6690     8.8900     8.5340     6.8160    25.3180    -9.1820 
  132.6250     2.3250    95.8540     7.9480     7.5960     5.4940    25.3400    -9.2730 
  132.7500     2.3140    98.3200     7.6070     7.1900     5.2430    25.1780    -9.4050 
  132.8750     2.3130    97.3790     7.7020     7.2180     5.4320    24.7980    -9.5180 
  133.0000     2.3120    94.7410     8.0290     7.5250     5.7330    24.4060    -9.5910 
  133.1250     2.3020    95.3560     8.3280     7.8770     6.3040    24.3630    -9.7100 
  133.2500     2.2880    96.1450     8.3770     8.0150     6.5860    24.6040    -9.7770 
  133.3750     2.2800    94.9020     8.0840     7.7950     6.1920    24.8330    -9.7480 
  133.5000     2.2820    94.4120     7.4830     7.2110     5.6360    24.9740    -9.7070 
  133.6250     2.2920    97.4550     6.7280     6.3840     5.2070    24.9920    -9.6990 
  133.7500     2.3000   100.8130     6.0720     5.5880     4.6530    24.9040    -9.6920 
  133.8750     2.3000   103.2150     5.7250     5.0250     4.0260    24.6460    -9.6880 
  134.0000     2.2920   104.1660     5.9070     4.8640     3.4750    24.3150    -9.7130 
  134.1250     2.2770   102.9940     7.0760     5.4040     3.5950    24.2890    -9.7860 
  134.2500     2.2600    98.1970     9.4930     6.8240     5.1900    24.9230    -9.9510 
  134.3750     2.2420    90.6160    13.4530     9.4650    10.0010    25.6270   -10.2070 
  134.5000     2.2260    84.1960    18.9050    13.5880    20.8850    26.0570   -10.4820 
  134.6250     2.2130    82.1510    25.0190    19.0270    31.0830    26.1920   -10.7920 
  134.7500     2.2060    82.3290    30.0020    24.2390    36.0630    26.2310   -11.1010 
  134.8750     2.2040    82.9030    32.5240    27.6910    36.9520    26.1940   -11.3650 
  135.0000     2.2070    83.9670    32.3000    28.5860    36.7430    26.1520   -11.6110 
  135.1250     2.2120    84.7580    30.1880    27.2270    32.2770    26.3920   -11.7910 
  135.2500     2.2170    82.4750    28.0590    25.3460    26.0620    26.6720   -11.8640 
  135.3750     2.2210    77.9440    26.8590    23.9270    23.8890    26.8450   -11.8870 
  135.5000     2.2200    74.3340    26.9520    23.4420    25.0500    26.9050   -11.9470 
  135.6250     2.2160    74.3390    28.5040    24.1880    24.0110    26.9310   -12.0080 
  135.7500     2.2100    75.5870    31.0330    25.8870    23.6750    26.9400   -12.0380 
  135.8750     2.2050    74.7660    34.1280    28.2850    25.5480    26.9310   -12.1050 
  136.0000     2.2030    71.4680    37.2330    30.9630    30.9640    26.9310   -12.2400 
  136.1250     2.2030    69.3830    39.5150    33.2470    35.4360    26.9480   -12.3710 
  136.2500     2.2040    71.4090    40.5220    34.6130    38.0300    27.0040   -12.4660 
  136.3750     2.2050    75.2920    40.1060    34.7980    38.2610    27.0680   -12.5240 
  136.5000     2.2050    76.9790    38.5270    33.8830    37.8280    27.0850   -12.5510 
  136.6250     2.2050    75.2440    36.3500    32.2230    35.8250    27.0970   -12.5140 
  136.7500     2.2040    73.7680    34.3440    30.5060    31.7630    27.1000   -12.4230 
  136.8750     2.2040    74.7580    32.8970    29.1220    27.7320    27.0950   -12.3590 
  137.0000     2.2030    76.0790    32.1470    28.2710    26.5120    27.0690   -12.3130 
  137.1250     2.2020    76.8310    32.0970    28.0540    28.2960    27.0330   -12.2310 
  137.2500     2.2030    77.5970    32.4120    28.2550    29.3050    27.0030   -12.1660 
  137.3750     2.2040    78.7230    32.8170    28.6700    28.5490    26.9710   -12.1250 
  137.5000     2.2060    78.9180    33.0230    29.0360    28.3250    26.9420   -12.0930 
  137.6250     2.2090    78.0530    32.6810    29.0050    29.3560    26.9370   -12.0760 
  137.7500     2.2190    78.2280    31.7630    28.4760    30.9460    26.9130   -12.1050 
  137.8750     2.2350    78.3760    30.3750    27.5000    30.6880    26.8970   -12.1890 
  138.0000     2.2540    75.9340    28.7550    26.2670    27.7870    26.9730   -12.2890 
  138.1250     2.2640    74.1580    27.2180    25.0420    24.4860    27.1690   -12.3710 
  138.2500     2.2630    73.9360    25.9470    24.0030    21.8690    27.2620   -12.4690 
  138.3750     2.2520    73.5320    24.9620    23.1850    21.8200    27.2230   -12.6300 
  138.5000     2.2380    72.8580    24.1730    22.5270    22.4700    27.1210   -12.7710 
  138.6250     2.2320    74.6610    23.4220    21.9000    22.6430    27.0340   -12.8650 
  138.7500     2.2370    78.2400    22.5630    21.1670    20.8000    26.9200   -12.9970 
  138.8750     2.2500    79.9420    21.5450    20.2590    18.2800    26.7780   -13.0270 
  139.0000     2.2660    79.6860    20.3860    19.1750    17.3080    26.5950   -12.9230 
  139.1250     2.2770    78.7540    19.1650    17.9700    17.5320    26.4160   -12.8820 
  139.2500     2.2800    76.2850    18.0290    16.7870    16.7790    26.3810   -12.8740 
  139.3750     2.2790    74.4120    17.1350    15.7720    15.3120    26.4380   -12.8030 
  139.5000     2.2780    75.7460    16.6760    15.0890    14.7710    26.5180   -12.6970 
  139.6250     2.2820    79.3160    17.0210    15.0300    14.4720    26.6520   -12.6330 
  139.7500     2.2890    80.3650    18.3000    15.7140    15.1560    26.7380   -12.5510 
  139.8750     2.2920    77.3270    20.6570    17.3150    17.3810    26.7200   -12.4960 
