~V
VERS. 2.00: Ver 2.00
~W
STRT.M 58.0000:
STOP.M 208.0000:
STEP.M 0.1250:
NULL. -999.2500:
UWI. F11103:
~C
DEPT.M :
DEN.GM/CC :
SP.MV :
GR.API :
RML.OHMM :
RI. :
RXO.OHMM :
CALI.CM :
~A
# ...
  193.0000     2.3420   -13.7830    70.0430     9.1240     8.9650     9.0260    24.6550 
  193.1250     2.3530   -13.7540    71.9340     8.9760     8.8260     8.8180    24.4560 
  193.2500     2.3640   -13.7440    71.9010     8.8640     8.6730     8.6810    24.2800 
  193.3750     2.3760   -13.7370    70.6480     8.8210     8.5540     8.9190    23.9360 
  193.5000     2.3840   -13.7070    69.8230     8.8710     8.5130     9.8230    23.7630 
  193.6250     2.3870   -13.6370    68.8070     8.9910     8.5380    11.0970    23.7140 
  193.7500     2.3860   -13.5540    67.2340     9.1310     8.5920    11.9420    23.7570 
  193.8750     2.3820   -13.5010    65.5570     9.2240     8.6270    12.4560    23.6780 
  194.0000     2.3770   -13.4220    63.9630     9.2090     8.6030    12.3030    23.6260 
  194.1250     2.3700   -13.3350    61.7790     9.1450     8.5630    11.9030    23.5370 
  194.2500     2.3640   -13.1960    60.9590     9.1420     8.5830    11.0330    23.5250 
  194.3750     2.3590   -13.0520    64.4290     9.3220     8.7480    10.4560    23.6560 
  194.5000     2.3590   -12.9560    71.1600     9.7840     9.1480    10.5720    23.7220 
  194.6250     2.3630   -12.8670    75.3220    10.3970     9.7140    11.8200    23.6470 
  194.7500     2.3710   -12.7960    75.1410    10.9530    10.3080    13.4750    23.5800 
  194.8750     2.3830   -12.7120    70.9310    11.2020    10.7100    14.1370    23.4740 
  195.0000     2.3930   -12.6730    65.3570    10.8800    10.6210    14.5720    23.5830 
  195.1250     2.3990   -12.6860    63.6700    10.1320    10.0720    14.1860    23.6030 
  195.2500     2.4000   -12.7310    66.0760     9.2100     9.2390    12.2470    23.7170 
  195.3750     2.3960   -12.7880    67.7670     8.4040     8.3910     9.0150    23.7560 
  195.5000     2.3850   -12.8480    65.2310     7.9720     7.8110     7.1470    23.9220 
  195.6250     2.3720   -12.9200    62.2530     7.9150     7.5760     7.1570    24.0750 
  195.7500     2.3590   -13.0020    62.6000     8.1840     7.6930     7.7110    24.1180 
  195.8750     2.3490   -13.0590    65.6350     8.6760     8.1070     8.1350    24.1210 
  196.0000     2.3430   -13.0870    68.3980     9.2380     8.7050     8.7630    24.1030 
  196.1250     2.3410   -13.1120    70.1390     9.6860     9.2660     9.5070    24.1490 
  196.2500     2.3420   -13.1320    70.5080     9.9170     9.6340    10.0500    24.1150 
  196.3750     2.3430   -13.1650    68.7270     9.9050     9.7330    10.1410    23.7880 
  196.5000     2.3420   -13.2170    65.1110     9.6810     9.5500     9.5580    23.9280 
  196.6250     2.3390   -13.2720    63.2930     9.3740     9.2260     8.6330    24.1990 
  196.7500     2.3350   -13.3280    63.3510     9.0500     8.8560     7.7340    24.5640 
  196.8750     2.3320   -13.4170    63.3510     8.7410     8.5020     7.4620    24.3730 
  197.0000     2.3320   -13.5260    63.3510     8.4500     8.1910     7.4800    23.6320 
  197.1250     2.3350   -13.6230    63.3510     8.1650     7.9080     7.3530    23.8320 
  197.2500     2.3380   -13.7470    63.3510     7.8890     7.6400     7.2260    23.9680 
  197.3750     2.3400   -13.8710    63.3510     7.6550     7.4010     7.1330    24.2560 
  197.5000     2.3390   -13.9680    63.3510     7.5410     7.2570     7.2300    24.5300 
  197.6250     2.3360   -14.0980    63.3510     7.5820     7.2470     7.3980    24.6870 
  197.7500     2.3340   -14.2140    63.3510     7.7850     7.3930     8.1590    24.5770 
  197.8750     2.3330   -14.3370    63.3510     8.1150     7.6740     9.3770    24.4860 
  198.0000     2.3360   -14.5010    63.3510     8.5010     8.0280     9.8340    24.2630 
  198.1250     2.3410   -14.6620    63.3510     8.8540     8.3590    10.4060    23.8930 
  198.2500     2.3450   -14.8360    63.3510     9.1400     8.6220    11.0170    23.8050 
  198.3750     2.3460   -15.0230    63.3510     9.3560     8.8130    12.2210    24.1730 
  198.5000     2.3440   -15.2160    63.3510     9.5180     8.9490    11.7660    24.4450 
  198.6250     2.3390   -15.3780    63.3510     9.6630     9.0730    10.3940    24.5220 
  198.7500     2.3340   -15.5040    63.3510     9.8000     9.1930    10.0040    24.4760 
  198.8750     2.3290   -15.5990    63.3510     9.9050     9.2850     9.8490    24.3320 
  199.0000     2.3220   -15.7000    63.3510     9.9140     9.3020     9.0050    24.1140 
  199.1250     2.3140   -15.8010    63.3510     9.7990     9.2340     7.9740    23.8930 
  199.2500     2.3030   -15.8390    63.3510     9.5690     9.0840     7.2790    23.8110 
  199.3750     2.2920   -15.8330    63.3510     9.2830     8.8750     6.9820    23.7930 
  199.5000     2.2890   -15.8110    63.3510     9.0430     8.6530     7.3230    23.7150 
  199.6250     2.2970   -15.7880    63.3510     8.9180     8.4860     8.2460    23.5120 
  199.7500     2.3180   -15.8160    63.3510     8.9280     8.4190     8.9340    23.2010 
  199.8750     2.3490   -15.8350    63.3510     9.0620     8.4690     8.9390    22.9070 
  200.0000     2.3810   -15.7870    63.3510     9.2850     8.6180     8.4020    22.8890 
  200.1250     2.4080   -15.7020    63.3510     9.5070     8.7850     8.1200    23.0150 
  200.2500     2.4240   -15.6040    63.3510     9.6740     8.9170     8.2110    23.2550 
  200.3750     2.4290   -15.4710    63.3510     9.7620     8.9840     8.3490    23.3800 
  200.5000     2.4250   -15.2900    63.3510     9.7820     8.9740     7.8980    23.3400 
  200.6250     2.4200   -15.1220    63.3510     9.7800     8.9140     7.7400    23.1700 
  200.7500     2.4170   -14.9300    63.3510     9.7670     8.8280     7.9620    23.2060 
  200.8750     2.4160   -14.7600    63.3510     9.7340     8.7420     8.1550    23.3760 
  201.0000     2.4150   -14.6140    63.3510     9.6650     8.6790     8.2910    23.4290 
  201.1250     2.4130   -14.5320    63.3510     9.5830     8.6420     8.4370    23.4400 
  201.2500     2.4080   -14.5090    63.3510     9.5180     8.6220     8.5470    23.4050 
  201.3750     2.3990   -14.5420    63.3510     9.4880     8.6060     8.6520    23.3530 
  201.5000     2.3880   -14.6360    63.3510     9.4850     8.5870     9.1020    23.3670 
  201.6250     2.3740   -14.7110    63.3510     9.4870     8.5730     9.7950    23.2530 
  201.7500     2.3590   -14.7820    63.3510     9.4930     8.5700    10.3330    22.4750 
  201.8750     2.3460   -14.8560    63.3510     9.5140     8.5870    10.2340    20.9550 
  202.0000     2.3380   -14.9460    63.3510     9.5510     8.6350     9.5010    22.6750 
  202.1250     2.3350   -14.9820    63.3510     9.5860     8.6990     8.5810    23.0770 
  202.2500     2.3370   -14.9490    63.3510     9.6060     8.7640     7.9890    23.2330 
  202.3750     2.3440   -14.9190    63.3510     9.6090     8.8130     7.7070    23.3580 
  202.5000     2.3530   -14.9380    63.3510     9.6030     8.8380     7.6700    23.3030 
  202.6250     2.3630   -14.9840    63.3510     9.5990     8.8450     7.6260    23.1990 
  202.7500     2.3750   -15.0350    63.3510     9.5990     8.8450     7.6720    23.1760 
  202.8750     2.3870   -15.0800    63.3510     9.5990     8.8450     7.6470    23.3070 
  203.0000     2.3950   -15.0960    63.3510     9.5990     8.8450     6.6400    23.3640 
  203.1250     2.3960   -15.1120    63.3510     9.5990     8.8450     5.7120    23.4610 
  203.2500     2.3890   -15.1520    63.3510     9.5990     8.8450     5.1770    23.5520 
  203.3750     2.3760   -15.2550    63.3510     9.5990     8.8450     5.0070    23.8450 
  203.5000     2.3590   -15.3300    63.3510     9.5990     8.8450     5.5250    23.9360 
  203.6250     2.3440   -15.3510    63.3510     9.5990     8.8450     6.9060    23.8650 
  203.7500     2.3340   -15.3710    63.3510     9.5990     8.8450     9.1120    23.7750 
  203.8750     2.3290   -15.3750    63.3510     9.5990     8.8450    10.5330    23.7270 
  204.0000     2.3290  -999.2500    63.3510     9.5990     8.8450    10.1900    23.7060 
  204.1250     2.3310  -999.2500    63.3510     9.5990     8.8450     9.9250    23.6360 
