~V
VERS. 2.00: Ver 2.00
~W
STRT.M 50.0000:
STOP.M 253.0000:
STEP.M 0.1250:
NULL. -999.2500:
UWI. F11132:
~C
DEPT.M :
DEN.GM/CC :
GR.API :
RML.OHMM :
RI. :
RXO.OHMM :
CALI.CM :
SP.MV :
~A
# ...
  140.0000     2.3310    69.6850     6.5030     5.3340     5.7750    25.6030    -4.2270 
  140.1250     2.3260    73.0840     6.6560     5.4480     5.7530    25.6390    -4.1900 
  140.2500     2.3380    74.2880     6.7510     5.5710     5.7200    25.6520    -4.1540 
  140.3750     2.3650    72.1320     6.7630     5.6530     5.7740    25.6550    -4.1130 
  140.5000     2.3790    68.5460     6.7170     5.6850     5.9830    25.6550    -4.0630 
  140.6250     2.3710    66.2590     6.6470     5.6740     5.9280    25.6530    -3.9930 
  140.7500     2.3530    65.4420     6.5780     5.6400     5.9020    25.6400    -3.9100 
  140.8750     2.3440    64.0460     6.5140     5.5920     5.8980    25.6100    -3.8330 
  141.0000     2.3420    61.7480     6.4580     5.5340     5.9560    25.5800    -3.7830 
  141.1250     2.3390    63.0190     6.4230     5.4750     5.9660    25.5490    -3.7940 
  141.2500     2.3310    66.4680     6.4090     5.4250     5.9730    25.5030    -3.8470 
  141.3750     2.3230    68.7890     6.4140     5.3870     5.9630    25.4460    -3.8960 
  141.5000     2.3200    68.1110     6.4270     5.3630     5.9170    25.3810    -3.9240 
  141.6250     2.3140    66.0150     6.4360     5.3440     5.8800    25.3350    -3.9710 
  141.7500     2.3000    64.6290     6.4320     5.3180     5.8770    25.3130    -4.0590 
  141.8750     2.2820    64.5410     6.4090     5.2770     5.8170    25.3240    -4.1500 
  142.0000     2.2720    64.9030     6.3640     5.2200     5.6630    25.3450    -4.2180 
  142.1250     2.2820    64.8310     6.3060     5.1560     5.4810    25.3690    -4.2350 
  142.2500     2.3100    65.5820     6.2580     5.1010     5.4230    25.3990    -4.2240 
  142.3750     2.3380    67.8790     6.2380     5.0660     5.4710    25.4260    -4.2410 
  142.5000     2.3520    69.4180     6.2500     5.0560     5.5390    25.4420    -4.2860 
  142.6250     2.3500    68.5220     6.2890     5.0690     5.5670    25.4610    -4.3120 
  142.7500     2.3360    66.0360     6.3300     5.0910     5.5790    25.4940    -4.3040 
  142.8750     2.3150    64.0190     6.3580     5.1120     5.6330    25.5330    -4.2970 
  143.0000     2.3060    63.4400     6.3670     5.1240     5.7390    25.5750    -4.3290 
  143.1250     2.3220    63.9400     6.3540     5.1260     5.7110    25.5860    -4.3940 
  143.2500     2.3540    64.9170     6.3330     5.1190     5.6980    25.5510    -4.4640 
  143.3750     2.3790    65.6530     6.3120     5.1070     5.7040    25.5190    -4.5160 
  143.5000     2.3850    66.4850     6.2980     5.0950     5.8160    25.5180    -4.5310 
  143.6250     2.3790    66.9010     6.2920     5.0870     5.8760    25.5580    -4.5530 
  143.7500     2.3760    68.1990     6.2910     5.0840     5.8470    25.6290    -4.6050 
  143.8750     2.3860    69.0340     6.2990     5.0900     5.8330    25.7070    -4.6850 
  144.0000     2.3990    68.0400     6.3210     5.1080     5.8820    25.7760    -4.7580 
  144.1250     2.4020    68.2860     6.3680     5.1410     5.8960    25.8310    -4.8120 
  144.2500     2.3900    71.0390     6.4290     5.1820     5.8900    25.9050    -4.8530 
  144.3750     2.3730    72.6920     6.4930     5.2280     5.9520    25.9720    -4.8950 
  144.5000     2.3690    71.3410     6.5440     5.2730     6.0510    25.9900    -4.9910 
  144.6250     2.3810    69.8630     6.5680     5.3040     6.0130    25.9600    -5.1350 
  144.7500     2.3990    69.2190     6.5690     5.3190     5.9300    25.9060    -5.2540 
  144.8750     2.4120    67.9780     6.5520     5.3150     5.8980    25.7770    -5.3500 
  145.0000     2.4220    67.4010     6.5180     5.2920     5.9330    25.5590    -5.4680 
  145.1250     2.4230    69.5340     6.4560     5.2460     5.9550    25.4170    -5.6360 
  145.2500     2.4060    71.2770     6.3650     5.1820     5.9020    25.3670    -5.8310 
  145.3750     2.3840    70.5940     6.2490     5.1070     5.7610    25.3550    -6.0270 
  145.5000     2.3840    69.1870     6.1260     5.0290     5.6120    25.3370    -6.1890 
  145.6250     2.4030    69.6170     6.0230     4.9630     5.4740    25.3100    -6.3190 
  145.7500     2.4130    69.5850     5.9510     4.9140     5.3870    25.3130    -6.4910 
  145.8750     2.3960    68.5140     5.9070     4.8850     5.3460    25.3450    -6.7100 
  146.0000     2.3770    68.9340     5.8770     4.8690     5.3370    25.3700    -6.9340 
  146.1250     2.3720    70.7180     5.8530     4.8650     5.4110    25.3220    -7.1220 
  146.2500     2.3830    70.7730     5.8290     4.8660     5.4520    25.2500    -7.2920 
  146.3750     2.3940    70.0330     5.8060     4.8700     5.3910    25.1890    -7.4610 
  146.5000     2.3890    71.4060     5.7860     4.8730     5.3740    25.1500    -7.6310 
  146.6250     2.3760    74.7290     5.7670     4.8770     5.4350    25.1260    -7.8070 
  146.7500     2.3740    75.7490     5.7490     4.8820     5.4760    25.0980    -7.9670 
  146.8750     2.3890    75.3960     5.7330     4.8880     5.4800    25.0770    -8.0860 
  147.0000     2.3960    76.9290     5.7230     4.8930     5.4830    25.0690    -8.1440 
  147.1250     2.3830    78.6500     5.7160     4.8960     5.5240    25.0690    -8.1810 
  147.2500     2.3590    77.8860     5.7030     4.9000     5.5500    25.0690    -8.2420 
  147.3750     2.3410    75.1800     5.6780     4.9080     5.5410    25.0690    -8.3220 
  147.5000     2.3320    72.6650     5.6460     4.9210     5.5320    25.0690    -8.4260 
  147.6250     2.3280    71.0340     5.6230     4.9440     5.5230    25.0750    -8.5310 
  147.7500     2.3240    70.6660     5.6210     4.9790     5.5280    25.0900    -8.6130 
  147.8750     2.3210    70.9370     5.6450     5.0270     5.5580    25.1090    -8.6750 
  148.0000     2.3180    69.5500     5.6890     5.0860     5.6260    25.1200    -8.7870 
  148.1250     2.3150    67.5530     5.7380     5.1480     5.6740    25.1080    -8.9350 
  148.2500     2.3150    67.9520     5.7770     5.1990     5.7600    25.0930    -9.0530 
  148.3750     2.3190    69.9800     5.7940     5.2260     5.7850    25.0870    -9.1660 
  148.5000     2.3210    72.5130     5.7830     5.2190     5.7950    25.0910    -9.2940 
  148.6250     2.3240    74.4840     5.7430     5.1770     5.8080    25.1070    -9.4550 
  148.7500     2.3330    75.6360     5.6920     5.1180     5.8850    25.1280    -9.6580 
  148.8750     2.3430    74.8910     5.6420     5.0540     5.8760    25.1370    -9.8890 
  149.0000     2.3460    72.9370     5.5880     4.9860     5.9540    25.1380   -10.0890 
  149.1250     2.3410    69.5140     5.4930     4.8940     6.2390    25.1380   -10.2980 
  149.2500     2.3330    66.3240     5.3750     4.7880     6.5880    25.1450   -10.5530 
  149.3750     2.3290    66.6260     5.3440     4.7490     6.7450    25.1720   -10.8220 
  149.5000     2.3260    68.4270     5.6090     4.9290     6.5320    25.2290   -11.0780 
  149.6250     2.3260    65.9020     6.5760     5.6370     7.0030    25.2590   -11.3210 
  149.7500     2.3300    59.4440     8.4250     7.0480     9.9370    25.2430   -11.5390 
  149.8750     2.3420    53.6600    11.2130     9.3300    17.7030    25.1900   -11.7300 
  150.0000     2.3670    50.7230    14.5820    12.3820    30.9780    25.1390   -11.9270 
  150.1250     2.3960    48.8540    17.2300    15.2460    33.0330    25.2000   -12.1280 
  150.2500     2.4020    49.2740    17.9080    16.5020    25.3750    25.3860   -12.2820 
  150.3750     2.3650    52.8730    16.5720    15.7980    17.5120    25.5130   -12.3900 
  150.5000     2.3260    56.2860    14.3370    14.0330    11.9700    25.5290   -12.4590 
  150.6250     2.3160    54.6060    12.5530    12.4000    12.6380    25.4940   -12.5170 
  150.7500     2.3300    51.7870    11.6740    11.4150    13.0600    25.4970   -12.6000 
  150.8750     2.3330    53.3460    11.7130    11.1810    12.8370    25.5040   -12.7190 
  151.0000     2.3170    57.6540    12.6350    11.7440    13.0450    25.5060   -12.8320 
  151.1250     2.2900    58.4340    14.6810    13.3830    15.2580    25.5110   -12.9200 
