~V
VERS. 2.00: Ver 2.00
~W
STRT.M 62.0000:
STOP.M 217.0000:
STEP.M 0.1250:
NULL. -999.2500:
UWI. F11126:
~C
DEPT.M :
DEN.GM/CC :
SP.MV :
GR.API :
RML.OHMM :
RI. :
RXO.OHMM :
CALI.CM :
~A
# ...
  174.5000     2.3500   -21.7640    86.8980    19.0900    16.5850    10.5570    23.1710 
  174.6250     2.3230   -21.8270    87.3480    19.5180    16.9650    11.0920    23.2380 
  174.7500     2.3000   -21.8760    87.3840    20.2790    17.6240    11.8810    23.4350 
  174.8750     2.2860   -21.9100    87.6300    21.3050    18.4750    12.7030    23.6620 
  175.0000     2.2810   -21.9660    87.8140    22.4510    19.3950    13.2470    23.9990 
  175.1250     2.2840   -21.9810    86.7800    23.4890    20.2370    13.3630    24.2250 
  175.2500     2.2910   -21.9050    84.6980    24.2500    20.8980    13.2060    24.0870 
  175.3750     2.2950   -21.7410    82.3350    24.6520    21.3250    13.0050    23.6040 
  175.5000     2.2980   -21.5580    80.8520    24.6840    21.4930    13.1930    23.2780 
  175.6250     2.3040   -21.3840    81.6130    24.5040    21.4940    13.5800    23.2120 
  175.7500     2.3150   -21.2430    83.2580    24.1860    21.3680    13.7470    23.2940 
  175.8750     2.3250   -21.1320    84.1690    23.7740    21.1380    13.4740    23.4270 
  176.0000     2.3290   -21.0220    83.2700    23.3100    20.8290    13.0320    23.5470 
  176.1250     2.3260   -20.9060    81.7210    22.8970    20.5300    12.6620    23.3750 
  176.2500     2.3210   -20.7820    81.4730    22.6520    20.3350    12.1720    23.2270 
  176.3750     2.3160   -20.6260    82.0260    22.6640    20.3330    11.6090    23.1690 
  176.5000     2.3150   -20.4750    82.1190    22.9310    20.5490    11.4330    23.1560 
  176.6250     2.3170   -20.4310    82.1020    23.2110    20.7910    11.3890    23.1340 
  176.7500     2.3190   -20.4520    83.4330    23.2720    20.8320    11.3590    23.0400 
  176.8750     2.3230   -20.4870    86.3590    22.9870    20.4950    11.2100    22.9280 
  177.0000     2.3250   -20.5210    88.2770    22.5450    19.7780    10.8330    22.8530 
  177.1250     2.3210   -20.5910    87.2850    22.6600    19.1840    10.2860    22.8000 
  177.2500     2.3100   -20.7490    84.4180    24.3360    19.4430     9.9250    22.7830 
  177.3750     2.2950   -21.0130    80.6530    28.8180    21.5250    10.0550    22.8770 
  177.5000     2.2780   -21.3900    76.9340    38.4720    27.4900    10.8760    23.0260 
  177.6250     2.2650   -21.6940    75.3040    54.2700    38.7080    12.2310    23.2070 
  177.7500     2.2590   -21.9160    74.4910    77.3380    56.7540    13.7640    23.3340 
  177.8750     2.2580   -22.0580    71.2650   107.4550    81.9990    14.8570    23.5490 
  178.0000     2.2560   -22.2110    66.2080   141.5260   112.3760    15.7490    23.6660 
  178.1250     2.2520   -22.4490    64.2270   171.6600   140.6370    17.5050    23.6220 
  178.2500     2.2430   -22.6830    64.5130   190.0170   159.4980    21.4280    23.4700 
  178.3750     2.2260   -22.8590    62.9420   191.2170   163.8720    28.0870    23.6530 
  178.5000     2.1990   -22.9690    60.0280   175.3540   152.7590    36.8000    24.3060 
  178.6250     2.1850   -23.0460    58.7960   154.5030   135.4420    45.2790    25.0620 
  178.7500     2.1960   -23.0670    58.0440   136.3420   118.6520    49.8180    25.3600 
  178.8750     2.2230   -23.1350    58.0790   124.5830   106.6050    48.6390    24.9480 
  179.0000     2.2370   -23.2390    60.5270   120.7570   101.6920    47.7990    24.1090 
  179.1250     2.2270   -23.1960    64.1490   122.3140   102.1510    52.7780    23.4890 
  179.2500     2.2040   -23.1040    67.5720   127.4240   106.4920    62.3210    23.2360 
  179.3750     2.1810   -23.0750    69.8320   134.1720   112.9930    74.3540    23.2030 
  179.5000     2.1690   -23.0330    70.2760   140.6310   119.8560    86.1390    23.2660 
  179.6250     2.1720   -23.0120    68.6260   145.6410   125.6570    95.5390    23.4040 
  179.7500     2.1900   -23.1460    65.6770   148.9420   129.8840   101.6130    23.5700 
  179.8750     2.2150   -23.4670    62.8460   150.8490   132.6310   104.6780    23.6770 
  180.0000     2.2340   -23.7400    61.3440   151.7050   134.1310   106.8790    23.6680 
  180.1250     2.2380   -23.9990    61.5240   151.8810   134.8360   105.7510    23.5140 
  180.2500     2.2240   -24.3940    61.5270   151.4490   134.8510   100.9740    23.8650 
  180.3750     2.2000   -24.8230    60.8620   150.5990   134.3530    95.3160    24.8670 
  180.5000     2.1760   -25.2170    60.6980   149.6590   133.6050    94.2630    25.9060 
  180.6250     2.1560   -25.6600    60.8340   149.0120   132.9710    98.2640    26.6280 
  180.7500     2.1350   -26.0800    61.1680   149.1060   132.8660   103.5350    27.0580 
  180.8750     2.1150   -26.2220    62.1680   150.6090   133.9380   112.9100    27.3030 
  181.0000     2.1080   -26.2830    63.3880   154.8590   137.5380   124.2280    27.5550 
  181.1250     2.1190   -26.5100    63.2250   162.3460   144.3040   125.9010    27.7080 
  181.2500     2.1380   -26.6530    62.1500   173.5100   154.8210   124.1010    27.6470 
  181.3750     2.1580   -26.6440    61.7650   188.1800   169.0790   133.4000    27.4090 
  181.5000     2.1760   -26.5270    61.6610   205.2860   186.2150   158.3680    27.1160 
  181.6250     2.1920   -26.1780    61.6040   221.7310   203.1710   184.3750    26.7850 
  181.7500     2.2030   -25.5960    62.1080   234.4230   216.9270   200.2650    26.4660 
  181.8750     2.2070   -25.0040    63.0370   240.5550   224.7320   201.7930    26.2110 
  182.0000     2.2050   -24.4530    63.1300   237.4140   223.8140   201.6650    26.1280 
  182.1250     2.1970   -23.8050    62.7150   227.5240   216.0910   186.1760    26.0610 
  182.2500     2.1840   -23.0840    62.8980   213.6010   203.6660   162.2090    25.9800 
  182.3750     2.1700   -22.4230    64.6520   198.8710   189.3020   142.1530    25.9240 
  182.5000     2.1670   -21.9050    67.7020   187.6810   176.9260   126.3440    25.9450 
  182.6250     2.1840   -21.5480    69.2750   183.2220   170.1310   111.9820    25.9650 
  182.7500     2.2400   -21.3380    68.3070   188.0580   171.8600   103.2520    25.9120 
  182.8750     2.3510   -21.1980    65.7920   203.7530   183.9730   116.9340    25.7380 
  183.0000     2.5150   -21.0670    63.4850   231.9210   208.1510   165.9370    25.2650 
  183.1250     2.6660   -20.8320    62.0070   267.4570   239.6190   226.6570    24.5820 
  183.2500     2.7430   -20.5330    62.0270   303.9840   272.7030   281.1750    23.9710 
  183.3750     2.7540   -20.1310    63.3580   333.0020   299.9650   291.4060    23.6550 
  183.5000     2.7430   -19.5560    64.1530   343.4520   311.8600   245.8690    23.5580 
  183.6250     2.7370   -18.9510    62.7220   336.5400   308.7640   234.4830    23.5810 
  183.7500     2.7380   -18.2950    60.7590   319.0300   295.6460   258.6530    23.6300 
  183.8750     2.7420   -17.6720    60.3740   299.6390   280.2190   297.8600    23.6780 
  184.0000     2.7440   -17.1390    60.3490   281.7230   267.6790   328.1630    23.7040 
  184.1250     2.7460   -16.7210    58.8250   260.0050   254.4660   354.6400    23.7030 
  184.2500     2.7490   -16.4130    56.8050   227.4900   233.0870   400.7100    23.6770 
  184.3750     2.7450   -16.2760    55.5120   179.7480   196.5630   435.0670    23.8350 
  184.5000     2.7180   -16.3660    54.4240   121.8250   143.0460   449.2670    24.0380 
  184.6250     2.6560   -16.5270    52.6370    72.3480    89.0070   376.4460    24.0530 
  184.7500     2.5550   -16.8020    52.5040    39.8550    48.6220   189.0900    23.7100 
  184.8750     2.4400   -17.1380    55.1970    21.9000    25.0890    45.3020    23.4860 
  185.0000     2.3630   -17.4390    58.2510    13.8390    14.7140    16.5250    23.2900 
  185.1250     2.3310   -17.6820    59.5890     9.4950     9.8710     8.6110    22.9520 
  185.2500     2.3230   -17.8650    58.9800     7.8710     7.6830     7.0040    22.9820 
  185.3750     2.3260   -17.9570    56.3550     7.2440     6.7410     6.7140    23.4440 
  185.5000     2.3380   -17.9910    53.8720     7.1330     6.4770     6.4680    23.9380 
  185.6250     2.3620   -18.0000    53.9170     7.1740     6.4810     6.3950    24.0370 
