~V
VERS. 2.00: Ver 2.00
~W
STRT.M 50.0000:
STOP.M 240.0000:
STEP.M 0.1250:
NULL. -999.2500:
UWI. F11117:
~C
DEPT.M :
DEN.GM/CC :
GR.API :
RML.OHMM :
RI. :
RXO.OHMM :
CALI.CM :
SP.MV :
~A
# ...
   72.5000     2.3240    99.7750     4.8690     4.0510     4.1880    28.5800    -5.7170 
   72.6250     2.3770    92.4120     6.2650     5.0410     5.4580    28.9580    -6.5660 
   72.7500     2.4360    83.8220     8.0670     6.4370     9.3620    29.0840    -7.7140 
   72.8750     2.4700    75.5740     9.8430     7.9920    18.5900    28.9490    -9.0960 
   73.0000     2.4560    67.5360    10.8740     9.1740    23.4340    28.6890   -10.6330 
   73.1250     2.3910    61.3140    10.4520     9.2760    16.7620    28.2420   -12.2730 
   73.2500     2.3090    60.5910     9.2220     8.5750    10.5250    27.6470   -13.9060 
   73.3750     2.2340    63.1170     7.9740     7.6310     8.2810    27.0410   -15.4760 
   73.5000     2.1780    62.8780     7.2060     6.8960     7.6850    26.4970   -16.9540 
   73.6250     2.1440    58.7070     7.0770     6.6050     7.6570    26.4180   -18.2650 
   73.7500     2.1230    55.6940     7.2930     6.6270     7.9010    26.3990   -19.4030 
   73.8750     2.1130    56.1450     7.6220     6.8090     7.9780    26.3200   -20.3570 
   74.0000     2.1090    59.2470     7.8680     6.9910     8.0530    26.2410   -21.1380 
   74.1250     2.1110    62.7330     7.9030     7.0360     8.0780    26.2350   -21.7350 
   74.2500     2.1150    64.1100     7.7980     6.9530     8.0360    26.2820   -22.2350 
   74.3750     2.1200    63.3300     7.6590     6.8110     7.8610    26.3750   -22.6470 
   74.5000     2.1300    62.2130     7.5880     6.6920     7.6100    26.4280   -23.0270 
   74.6250     2.1440    61.4520     7.6540     6.6710     7.6090    26.5720   -23.3910 
   74.7500     2.1600    60.6990     7.8100     6.7380     7.9940    26.5920   -23.7390 
   74.8750     2.1730    60.2930     7.9930     6.8550     8.6500    26.6380   -24.1200 
   75.0000     2.1780    61.8120     8.1270     6.9690     9.1910    26.6590   -24.5250 
   75.1250     2.1740    63.8030     8.1530     7.0210     9.1740    26.6970   -25.0040 
   75.2500     2.1660    63.6990     8.0990     7.0160     8.8050    26.7310   -25.5280 
   75.3750     2.1570    61.5100     8.0160     6.9800     8.7040    26.6860   -26.0790 
   75.5000     2.1510    58.4900     7.9570     6.9480     8.8270    26.6420   -26.6030 
   75.6250     2.1470    55.9900     7.9590     6.9460     8.8670    26.5460   -27.0500 
   75.7500     2.1410    54.0610     8.0030     6.9660     8.8480    26.4510   -27.4380 
   75.8750     2.1340    53.3890     8.0580     6.9920     8.9130    26.3910   -27.7350 
   76.0000     2.1260    55.6230     8.0910     7.0030     8.7750    26.3210   -27.9430 
   76.1250     2.1210    57.5920     8.0730     6.9810     8.6340    26.3870   -28.0260 
   76.2500     2.1180    56.3110     8.0140     6.9300     8.6060    26.4780   -28.0030 
   76.3750     2.1170    53.9440     7.9380     6.8630     8.7640    26.6770   -27.9010 
   76.5000     2.1180    54.6120     7.8780     6.7980     8.7960    26.8030   -27.7270 
   76.6250     2.1240    57.8840     7.8680     6.7620     8.7150    26.7970   -27.5280 
   76.7500     2.1370    58.1800     7.9020     6.7610     8.7070    26.7270   -27.3380 
   76.8750     2.1570    55.3640     7.9600     6.7900     8.9310    26.7320   -27.1340 
   77.0000     2.1780    51.9400     8.0170     6.8360     9.3000    26.7420   -26.9180 
   77.1250     2.1880    51.5000     8.0480     6.8770     9.2980    26.7050   -26.7040 
   77.2500     2.1830    53.6470     8.0530     6.9000     8.9680    26.6150   -26.5080 
   77.3750     2.1670    55.8800     8.0420     6.9070     8.6450    26.5740   -26.3210 
   77.5000     2.1480    56.2450     8.0210     6.9100     8.5650    26.5670   -26.1460 
   77.6250     2.1340    56.6430     7.9780     6.9130     8.6860    26.5640   -25.9610 
   77.7500     2.1310    59.2290     7.8980     6.9070     8.7200    26.5140   -25.7450 
   77.8750     2.1340    60.5930     7.7770     6.8810     8.7860    26.4310   -25.5240 
   78.0000     2.1390    58.9000     7.6330     6.8370     8.8370    26.4250   -25.3130 
   78.1250     2.1400    55.5530     7.5070     6.7990     8.7260    26.4780   -25.0670 
   78.2500     2.1370    52.5380     7.4430     6.8060     8.4110    26.4910   -24.7350 
   78.3750     2.1310    50.6830     7.4680     6.8910     8.1560    26.5090   -24.3160 
   78.5000     2.1260    50.4930     7.5830     7.0710     8.1400    26.6140   -23.7900 
   78.6250     2.1250    53.0390     7.7790     7.3450     8.4330    26.5930   -23.0830 
   78.7500     2.1290    54.5740     7.9920     7.6520     8.5700    26.4740   -22.1680 
   78.8750     2.1340    53.8410     8.1450     7.9120     8.3930    26.4410   -21.0110 
   79.0000     2.1360    53.2640     8.1380     8.0220     8.1800    26.6020   -19.6130 
   79.1250     2.1350    54.8100     7.8430     7.8390     7.9580    27.1030   -17.9470 
   79.2500     2.1350    59.1900     7.2950     7.3760     7.6870    27.7470   -16.1320 
   79.3750     2.1440    66.8250     6.5760     6.7000     6.9760    28.5460   -14.2480 
   79.5000     2.1670    75.5320     5.8120     5.9270     6.0640    29.0110   -12.3890 
   79.6250     2.2050    81.9660     5.1490     5.2010     4.8910    29.0860   -10.7270 
   79.7500     2.2450    86.9000     4.6420     4.6050     4.3260    29.0130    -9.3480 
   79.8750     2.2720    90.7790     4.3130     4.1760     4.0610    28.8740    -8.3270 
   80.0000     2.2740    91.9420     4.2090     3.9510     4.0080    28.7740    -7.7050 
   80.1250     2.2530    89.3090     4.5210     4.0600     4.0610    28.6350    -7.6160 
   80.2500     2.2360    86.3090     5.4750     4.6190     4.3800    28.4530    -7.9630 
   80.3750     2.2480    82.7130     7.4920     5.9130     5.4470    28.2590    -8.7030 
   80.5000     2.3050    76.1790    11.0620     8.3900     8.8360    28.2290    -9.7890 
   80.6250     2.4030    65.6570    16.8040    12.9030    20.6870    28.4280   -11.1740 
   80.7500     2.4980    54.1410    23.6990    19.1040    54.3620    28.5640   -12.7300 
   80.8750     2.5450    45.8300    29.1560    25.1200    96.7450    28.5910   -14.4270 
   81.0000     2.5240    44.1090    29.4480    27.2200    80.3460    28.4570   -16.2070 
   81.1250     2.4400    48.6190    23.4960    23.1330    42.8820    27.6740   -17.9640 
   81.2500     2.3360    53.2200    16.7040    17.3470    21.8100    26.7690   -19.6540 
   81.3750     2.2360    55.0640    11.7860    12.6370    12.3590    26.2470   -21.2250 
   81.5000     2.1550    55.1710     9.0000     9.6310     8.8740    25.9140   -22.6130 
   81.6250     2.1030    55.7120     7.8580     8.1230     8.1120    25.8060   -23.7500 
   81.7500     2.0730    57.0090     7.4920     7.4150     8.0340    25.7990   -24.6740 
   81.8750     2.0600    57.2140     7.5390     7.2150     8.0580    25.8690   -25.3510 
   82.0000     2.0580    56.3800     7.7520     7.2980     8.0810    26.0070   -25.8140 
   82.1250     2.0610    55.8620     7.9630     7.4880     8.1030    26.0380   -26.0800 
   82.2500     2.0670    54.7200     8.1160     7.6660     8.1180    26.1070   -26.1940 
   82.3750     2.0760    52.6210     8.2240     7.8070     8.1240    26.1630   -26.2070 
   82.5000     2.0880    51.4760     8.3090     7.9170     8.1420    26.1880   -26.1470 
   82.6250     2.1020    54.9420     8.3790     7.9970     8.1410    26.2360   -26.0360 
   82.7500     2.1160    60.0040     8.4290     8.0450     8.0680    26.2630   -25.9320 
   82.8750     2.1260    62.7580     8.4540     8.0540     7.9660    26.3190   -25.8360 
   83.0000     2.1330    62.8470     8.4490     8.0170     7.8560    26.3600   -25.7470 
   83.1250     2.1380    59.7290     8.4140     7.9320     7.7660    26.3370   -25.6790 
   83.2500     2.1410    56.0230     8.3660     7.8260     7.7620    26.1600   -25.5960 
   83.3750     2.1420    54.1560     8.3180     7.7220     7.8220    26.0040   -25.5080 
   83.5000     2.1410    54.2260     8.2830     7.6400     7.8760    26.1300   -25.4150 
   83.6250     2.1360    54.4990     8.2770     7.5970     7.8180    25.9610   -25.3090 
