~V
VERS. 2.00: Ver 2.00
~W
STRT.M 50.0000:
STOP.M 265.0000:
STEP.M 0.1250:
NULL. -999.2500:
UWI. F11185:
~C
DEPT.M :
SP.MV :
GR.API :
RI. :
RML.OHMM :
RXO.OHMM :
DEN.GM/CC :
~A
# ...
  217.3750  -106.3440    75.6190     1.9000     2.2760     2.6850     2.3590 
  217.5000  -106.8310    73.1640     2.1510     2.5370     3.1190     2.3590 
  217.6250  -107.5020    70.5780     2.5800     2.9840     4.2010     2.3630 
  217.7500  -108.5390    70.0920     3.2490     3.6790     5.6230     2.3770 
  217.8750  -109.9080    68.5580     4.1750     4.6410     7.3710     2.3890 
  218.0000  -111.4210    63.9790     5.3580     5.8720     9.0420     2.3830 
  218.1250  -112.9310    58.7600     6.5220     7.0830     9.3310     2.3650 
  218.2500  -114.3030    55.6020     7.4180     8.0150     8.7290     2.3550 
  218.3750  -115.4470    53.9980     7.9420     8.5590     8.9710     2.3360 
  218.5000  -116.3800    52.7520     8.2540     8.8850     9.4000     2.2830 
  218.6250  -116.9970    51.9270     8.4320     9.0690     8.7110     2.2040 
  218.7500  -117.3310    53.1210     8.5220     9.1630     7.7000     2.1370 
  218.8750  -117.5380    55.5800     8.4720     9.1110     7.1830     2.1060 
  219.0000  -117.7710    57.3960     8.3470     8.9810     6.9480     2.1040 
  219.1250  -118.0200    57.3700     8.2620     8.8920     6.8940     2.1200 
  219.2500  -118.2610    56.2970     8.1480     8.7740     7.1260     2.1370 
  219.3750  -118.5200    56.0900     7.9310     8.5480     7.4910     2.1440 
  219.5000  -118.7930    56.8110     7.6040     8.2090     7.6820     2.1490 
  219.6250  -119.1180    57.6170     7.1790     7.7660     7.6530     2.1550 
  219.7500  -119.4540    57.3900     6.6250     7.1900     7.4730     2.1560 
  219.8750  -119.7560    57.0160     6.0510     6.5930     7.1730     2.1540 
  220.0000  -120.0440    57.0860     5.5420     6.0640     6.8490     2.1540 
  220.1250  -120.3790    57.1290     5.1510     5.6570     6.5110     2.1560 
  220.2500  -120.7850    55.8360     4.9030     5.3990     6.2050     2.1520 
  220.3750  -121.2350    55.0090     4.7090     5.1980     6.0370     2.1460 
  220.5000  -121.6580    55.4290     4.4830     4.9620     5.9180     2.1430 
  220.6250  -121.9650    55.7680     4.2540     4.7250     5.7040     2.1450 
  220.7500  -122.1990    56.4920     4.0460     4.5080     5.3880     2.1480 
  220.8750  -122.4420    57.8350     3.8870     4.3420     5.1120     2.1520 
  221.0000  -122.6790    58.0820     3.8090     4.2610     5.0890     2.1540 
  221.1250  -122.8680    57.3460     3.7620     4.2130     5.2500     2.1510 
  221.2500  -122.9930    57.6390     3.7100     4.1590     5.2980     2.1450 
  221.3750  -123.1730    58.7780     3.6250     4.0700     5.1810     2.1400 
  221.5000  -123.4190    58.2050     3.5040     3.9440     5.0220     2.1400 
  221.6250  -123.6490    56.9160     3.3730     3.8080     4.9020     2.1480 
  221.7500  -123.7640    55.5260     3.2870     3.7190     4.8820     2.1560 
  221.8750  -123.6600    55.1960     3.2730     3.7030     4.9510     2.1550 
  222.0000  -123.3760    55.2800     3.3520     3.7860     5.0360     2.1500 
  222.1250  -123.0580    55.2720     3.5260     3.9670     5.1460     2.1490 
  222.2500  -122.8640    56.0780     3.7550     4.2050     5.3080     2.1470 
  222.3750  -122.8310    58.9890     4.0300     4.4910     5.4810     2.1400 
  222.5000  -122.9000    61.5970     4.2930     4.7650     5.6640     2.1360 
  222.6250  -123.1030    60.3140     4.4970     4.9770     5.9200     2.1390 
  222.7500  -123.3460    56.9670     4.6120     5.0970     6.1820     2.1390 
  222.8750  -123.5660    55.3810     4.6170     5.1020     6.3000     2.1340 
  223.0000  -123.7320    56.0750     4.5430     5.0250     6.2560     2.1310 
  223.1250  -123.8360    56.8630     4.4500     4.9280     6.0960     2.1300 
  223.2500  -123.9110    55.8370     4.3770     4.8520     5.8820     2.1300 
  223.3750  -124.0290    54.4860     4.3540     4.8280     5.7410     2.1270 
  223.5000  -124.1710    54.4200     4.3820     4.8570     5.7910     2.1260 
  223.6250  -124.3050    55.9970     4.4380     4.9150     5.9590     2.1290 
  223.7500  -124.4580    55.7980     4.4850     4.9650     6.0660     2.1350 
  223.8750  -124.6560    55.0860     4.5150     4.9950     6.0650     2.1410 
  224.0000  -124.8800    55.1740     4.5190     5.0000     6.0240     2.1430 
  224.1250  -125.0650    55.5010     4.5240     5.0050     6.0370     2.1450 
  224.2500  -125.1780    55.3630     4.5580     5.0400     6.1390     2.1500 
  224.3750  -125.1560    55.5420     4.6190     5.1040     6.3450     2.1600 
  224.5000  -125.0340    56.9440     4.7410     5.2310     6.5860     2.1680 
  224.6250  -124.8990    57.6260     4.9190     5.4160     6.6790     2.1690 
  224.7500  -124.8060    57.1630     5.1560     5.6620     6.6750     2.1660 
  224.8750  -124.7170    56.8550     5.3980     5.9140     6.8800     2.1690 
  225.0000  -124.6230    58.1380     5.5760     6.0990     7.2920     2.1720 
  225.1250  -124.5500    59.7610     5.6600     6.1870     7.5060     2.1700 
  225.2500  -124.4960    59.5700     5.6300     6.1550     7.2760     2.1670 
  225.3750  -124.4180    58.5050     5.5540     6.0760     6.7880     2.1620 
  225.5000  -124.2730    58.3000     5.5130     6.0340     6.4190     2.1540 
  225.6250  -124.0790    57.5430     5.5420     6.0640     6.2810     2.1450 
  225.7500  -123.9170    57.2340     5.6360     6.1620     6.2600     2.1430 
  225.8750  -123.8600    58.1680     5.7070     6.2360     6.2310     2.1600 
  226.0000  -123.8430    58.7880     5.6960     6.2240     6.0730     2.1930 
  226.1250  -123.7550    57.8940     5.5890     6.1130     5.8030     2.2210 
  226.2500  -123.5810    59.9230     5.4160     5.9330     5.5670     2.2170 
  226.3750  -123.4370    66.1410     5.2180     5.7260     5.4480     2.1960 
  226.5000  -123.4130    70.5260     5.0220     5.5230     5.4090     2.1900 
  226.6250  -123.5590    69.6750     4.8630     5.3570     5.3550     2.2050 
  226.7500  -123.8100    67.3750     4.7560     5.2460     5.2120     2.2210 
  226.8750  -124.0340    66.0160     4.7180     5.2070     5.0620     2.2270 
  227.0000  -124.2640    65.8710     4.8070     5.2990     5.1170     2.2290 
  227.1250  -124.5300    66.4240     5.0920     5.5960     5.4380     2.2230 
  227.2500  -124.7460    65.5320     5.6690     6.1960     5.8150     2.2150 
  227.3750  -124.8420    63.4580     6.4320     6.9890     6.4130     2.2120 
  227.5000  -124.8410    61.1780     7.3620     7.9560     7.4990     2.2080 
  227.6250  -124.8330    58.9570     8.3610     8.9950     8.6280     2.1870 
  227.7500  -124.8620    54.6910     9.1580     9.8240     9.2150     2.1540 
  227.8750  -124.8720    51.2670     9.6290    10.3140     9.2410     2.1330 
  228.0000  -124.7590    51.2890     9.6310    10.3160     9.0410     2.1350 
  228.1250  -124.4400    52.7720     9.3210     9.9940     8.9120     2.1470 
  228.2500  -124.1110    53.0540     8.9050     9.5620     8.8510     2.1460 
  228.3750  -123.9520    52.2080     8.5080     9.1480     8.6300     2.1300 
  228.5000  -123.9000    53.0550     8.1160     8.7410     8.2640     2.1230 
  228.6250  -123.8630    55.6650     7.7760     8.3870     7.8710     2.1400 
  228.7500  -123.7940    57.7180     7.5320     8.1330     7.4700     2.1610 
  228.8750  -123.7300    57.4100     7.4550     8.0530     7.0660     2.1730 
  229.0000  -123.7130    55.8380     7.4700     8.0680     6.7530     2.2010 
  229.1250  -123.7090    54.9780     7.4620     8.0600     6.6760     2.2690 
  229.2500  -123.6480    56.4950     7.3930     7.9880     6.7720     2.3410 
  229.3750  -123.5480    57.9320     7.2130     7.8010     6.8870     2.3510 
  229.5000  -123.4400    56.6710     6.9200     7.4970     6.8980     2.2950 
  229.6250  -123.3700    52.5700     6.5570     7.1200     6.7750     2.2290 
  229.7500  -123.2840    50.9880     6.1930     6.7410     6.7040     2.1940 
  229.8750  -123.1790    53.8410     5.8970     6.4330     6.7790     2.1880 
  230.0000  -123.0830    56.5670     5.7050     6.2330     6.8500     2.1850 
  230.1250  -123.0440    56.3340     5.5630     6.0860     6.8530     2.1800 
