~V
VERS. 2.00: Ver 2.00
~W
STRT.M 45.0000:
STOP.M 250.0000:
STEP.M 0.1250:
NULL. -999.2500:
UWI. F11133:
~C
DEPT.M :
SP.MV :
DEN.GM/CC :
GR.API :
RML.OHMM :
RI. :
RXO.OHMM :
CALI.CM :
~A
# ...
  202.5000   -35.4670     2.5330    66.2800    24.7380    19.4210    26.8530    24.4300 
  202.6250   -34.6920     2.5150    68.5860    23.0040    18.3410    27.4670    24.3710 
  202.7500   -33.8860     2.4870    70.0380    19.4000    15.7790    23.3110    24.2670 
  202.8750   -33.0800     2.4550    71.6400    15.4420    12.8340    15.5800    24.1180 
  203.0000   -32.2910     2.4340    72.0010    12.3510    10.4270    10.0380    23.9700 
  203.1250   -31.5410     2.4290    70.2010    10.3660     8.7670     8.0760    23.8530 
  203.2500   -30.8660     2.4350    69.2290     9.3480     7.8130     7.7520    23.8110 
  203.3750   -30.3120     2.4450    71.3660     9.0720     7.4490     8.2080    23.8580 
  203.5000   -29.9020     2.4510    74.4550     9.2980     7.5180     9.0140    23.9230 
  203.6250   -29.6190     2.4490    75.8290     9.8980     7.9250     9.5740    23.9630 
  203.7500   -29.4280     2.4360    76.0890    10.7360     8.5610     9.9490    23.9990 
  203.8750   -29.2950     2.4130    77.1420    11.6570     9.3010    11.3060    24.0690 
  204.0000   -29.1890     2.3920    77.6420    12.4890    10.0110    14.2500    24.2010 
  204.1250   -29.0860     2.3800    75.6250    13.0410    10.5430    15.6220    24.3310 
  204.2500   -28.9350     2.3800    72.3790    13.0570    10.6880    13.5880    24.3950 
  204.3750   -28.7040     2.3940    70.7230    12.4040    10.3160    12.2220    24.3800 
  204.5000   -28.4140     2.4180    69.9720    11.2580     9.5310    12.5650    24.2930 
  204.6250   -28.1000     2.4420    67.4470     9.9360     8.5540    12.1380    24.1710 
  204.7500   -27.8000     2.4560    65.1150     8.8210     7.6630     9.5770    24.0780 
  204.8750   -27.5540     2.4600    66.4790     8.1180     7.0310     7.4770    24.0720 
  205.0000   -27.3920     2.4560    70.2440     7.7490     6.6480     6.9650    24.1560 
  205.1250   -27.3220     2.4480    73.2750     7.5790     6.4530     7.0860    24.2690 
  205.2500   -27.3580     2.4370    74.9080     7.4750     6.3680     7.1390    24.3440 
  205.3750   -27.4940     2.4290    76.6080     7.3480     6.3120     6.9150    24.3660 
  205.5000   -27.6730     2.4220    77.4650     7.1690     6.2240     6.5260    24.4020 
  205.6250   -27.8590     2.4130    75.6710     6.9600     6.1010     6.1060    24.4690 
  205.7500   -28.0400     2.4000    71.5550     6.7620     5.9770     5.8180    24.4820 
  205.8750   -28.2290     2.3880    67.9630     6.6030     5.8810     5.7830    24.3970 
  206.0000   -28.4220     2.3740    67.0340     6.4830     5.8140     5.8970    24.3460 
  206.1250   -28.6120     2.3540    68.4500     6.3900     5.7590     5.8840    24.4280 
  206.2500   -28.7890     2.3360    70.6840     6.3060     5.6910     5.7160    24.5790 
  206.3750   -28.9550     2.3240    71.7630     6.2020     5.6010     5.6140    24.6550 
  206.5000   -29.1220     2.3020    70.5620     6.0750     5.5060     5.5950    24.6910 
  206.6250   -29.2900     2.2620    68.7080     5.9650     5.4450     5.5920    24.7870 
  206.7500   -29.4300     2.2330    68.7440     5.9530     5.4650     5.7200    24.8670 
  206.8750   -29.5150     2.2460    69.9660     6.0980     5.5870     6.1370    24.7640 
  207.0000   -29.5590     2.2940    70.0860     6.4090     5.8060     6.7890    24.5280 
  207.1250   -29.5920     2.3400    70.1010     6.8650     6.1160     7.6460    24.3750 
  207.2500   -29.6260     2.3520    70.8810     7.4130     6.4960     8.4820    24.3430 
  207.3750   -29.6500     2.3350    70.5770     7.9590     6.8990     8.8920    24.3530 
  207.5000   -29.6610     2.3180    68.7100     8.4020     7.2500     9.1260    24.3450 
  207.6250   -29.6680     2.3130    68.2890     8.6830     7.4920     9.5250    24.3280 
  207.7500   -29.6950     2.3160    70.7000     8.8060     7.6080    10.0400    24.3100 
  207.8750   -29.7470     2.3170    72.9100     8.8810     7.6640    10.1040    24.2900 
  208.0000   -29.7980     2.3150    72.7420     9.0810     7.7820     9.8780    24.2520 
  208.1250   -29.8290     2.3130    71.9380     9.5360     8.0600     9.9950    24.1750 
  208.2500   -29.8390     2.3100    72.0320    10.3390     8.5740    10.9400    24.0750 
  208.3750   -29.8340     2.3000    71.7170    11.4830     9.3490    12.5760    23.9980 
  208.5000   -29.8180     2.2860    70.1380    12.8300    10.3240    14.2540    23.9640 
  208.6250   -29.7890     2.2720    68.9090    14.2140    11.4090    15.4520    23.9800 
  208.7500   -29.7400     2.2680    69.1730    15.4380    12.4630    16.1310    24.0600 
  208.8750   -29.6600     2.2720    69.6710    16.3690    13.3520    16.8260    24.1940 
  209.0000   -29.5510     2.2740    69.3090    17.0130    14.0240    17.6750    24.3130 
  209.1250   -29.4310     2.2670    67.9890    17.4260    14.4860    18.4020    24.3740 
  209.2500   -29.3160     2.2530    66.4000    17.6680    14.7710    18.5730    24.3890 
  209.3750   -29.2140     2.2400    65.9180    17.7900    14.9200    18.3960    24.3890 
  209.5000   -29.1230     2.2320    67.8480    17.8130    14.9620    18.1900    24.3890 
  209.6250   -29.0480     2.2320    72.2730    17.6930    14.8810    17.8430    24.3860 
  209.7500   -28.9960     2.2360    76.6810    17.3310    14.6080    17.2540    24.3710 
  209.8750   -28.9750     2.2400    77.7040    16.6520    14.0930    16.5690    24.3440 
  210.0000   -28.9870     2.2400    75.0920    15.7430    13.3950    16.0030    24.3180 
  210.1250   -29.0330     2.2400    71.4340    14.8240    12.6670    15.4390    24.3080 
  210.2500   -29.1090     2.2440    69.4930    14.2460    12.1630    14.6470    24.2890 
  210.3750   -29.2170     2.2530    70.5260    14.2920    12.1060    13.9110    24.1870 
  210.5000   -29.3530     2.2590    73.7890    14.9810    12.5630    14.1170    23.9450 
  210.6250   -29.5180     2.2610    76.1240    16.2010    13.5130    15.9080    23.6440 
  210.7500   -29.7070     2.2610    74.2040    17.7130    14.8390    18.7590    23.5270 
  210.8750   -29.9210     2.2640    70.4360    19.1960    16.3110    20.5870    23.6740 
  211.0000   -30.1590     2.2680    70.1570    20.3880    17.6450    20.4800    23.8540 
  211.1250   -30.4090     2.2700    72.8960    21.1980    18.6690    20.0520    23.9020 
  211.2500   -30.6690     2.2690    73.3310    21.6790    19.3180    20.9190    23.8500 
  211.3750   -30.9500     2.2640    68.5000    21.9930    19.6770    22.4970    23.8690 
  211.5000   -31.2520     2.2570    62.4600    22.3180    19.9310    23.1280    24.0240 
  211.6250   -31.5650     2.2500    60.5640    22.7340    20.2040    22.9770    24.2200 
  211.7500   -31.8880     2.2410    64.2670    23.2710    20.5800    23.4310    24.3340 
  211.8750   -32.2150     2.2280    69.7330    23.9530    21.1080    25.0330    24.3440 
  212.0000   -32.5340     2.2130    72.2740    24.8500    21.8300    26.9270    24.2840 
  212.1250   -32.8360     2.2020    71.9180    26.1210    22.8520    28.3540    24.1880 
  212.2500   -33.1060     2.2010    70.6270    28.0650    24.4060    28.9230    24.0870 
  212.3750   -33.3340     2.2100    69.6240    31.0180    26.7730    29.2960    24.0110 
  212.5000   -33.5270     2.2160    68.7490    35.1790    30.1480    30.2760    23.9380 
  212.6250   -33.6980     2.2110    67.0550    40.6680    34.6910    31.7640    23.7690 
  212.7500   -33.8630     2.1960    63.6430    47.3520    40.3960    34.9810    23.5100 
  212.8750   -34.0400     2.1770    59.5100    54.6510    46.8550    42.1120    23.3780 
  213.0000   -34.2340     2.1580    57.6520    61.7220    53.3030    51.4730    23.5080 
  213.1250   -34.4520     2.1430    59.0790    68.1300    59.2440    58.4460    23.7390 
  213.2500   -34.6940     2.1400    60.3960    74.1110    64.7290    60.3320    23.8320 
  213.3750   -34.9480     2.1540    59.0140    80.5650    70.4890    60.4680    23.7530 
  213.5000   -35.2150     2.1780    57.7740    88.3860    77.4520    64.4930    23.6270 
  213.6250   -35.4790     2.1950    58.7240    97.7960    86.0410    75.7540    23.5050 
