~V
VERS. 2.00: Ver 2.00
~W
STRT.M 55.0000:
STOP.M 201.0000:
STEP.M 0.1250:
NULL. -999.2500:
UWI. F11111:
~C
DEPT.M :
GR.API :
RML.OHMM :
RI. :
RXO.OHMM :
CALI.CM :
SP.MV :
DEN.GM/CC :
~A
# ...
  178.7500    43.4910     8.7950     7.7190     7.2740    23.0260   -22.2300     2.3180 
  178.8750    45.1130     8.5880     7.4410     6.9990    23.1850   -22.2190     2.3250 
  179.0000    45.8800     8.6910     7.3870     7.2860    23.2970   -22.2200     2.3440 
  179.1250    46.2000     9.1880     7.6530     7.8220    23.2680   -22.2400     2.3670 
  179.2500    47.4420     9.9420     8.1630     8.7040    23.1220   -22.2680     2.3850 
  179.3750    48.9600    10.7980     8.8190    10.1860    23.2380   -22.3290     2.3930 
  179.5000    50.0260    11.5520     9.4630    11.4710    23.3500   -22.4270     2.3900 
  179.6250    49.3610    11.9470     9.8680    11.0930    23.2470   -22.5240     2.3790 
  179.7500    47.4030    11.9610     9.9620    10.4890    23.0630   -22.5850     2.3660 
  179.8750    46.2610    11.6780     9.7770    10.1360    22.8960   -22.6090     2.3530 
  180.0000    46.7120    11.2640     9.4330     9.8420    22.4760   -22.5720     2.3420 
  180.1250    48.0850    10.9340     9.1010     9.6400    21.9540   -22.4850     2.3360 
  180.2500    48.8970    10.8090     8.9110     9.6110    22.0110   -22.3950     2.3340 
  180.3750    49.6720    10.9150     8.9060     9.8910    22.5550   -22.3000     2.3370 
  180.5000    50.2460    11.1990     9.0580    10.6780    23.0820   -22.2230     2.3380 
  180.6250    48.9120    11.5580     9.2960    12.1790    23.3950   -22.1740     2.3310 
  180.7500    47.3170    11.8740     9.5130    13.4020    23.5020   -22.1160     2.3150 
  180.8750    47.0210    12.1050     9.6690    13.2670    23.4950   -22.0440     2.2980 
  181.0000    48.5990    12.2800     9.7820    12.1550    23.5560   -21.9960     2.2890 
  181.1250    49.5090    12.4830     9.9170    11.9640    23.6210   -21.9790     2.2940 
  181.2500    47.7380    12.7460    10.1040    12.8490    23.6100   -21.9710     2.3050 
  181.3750    44.5150    12.9930    10.3060    13.9190    23.5360   -21.9680     2.3130 
  181.5000    42.1860    13.0670    10.4190    14.0330    23.5620   -21.9470     2.3140 
  181.6250    42.1000    12.7540    10.2800    13.3300    23.6240   -21.9080     2.3100 
  181.7500    42.2940    12.1410     9.9070    12.5220    23.6190   -21.8880     2.3080 
  181.8750    42.3700    11.4680     9.4280    11.2560    23.5560   -21.8820     2.3140 
  182.0000    43.9480    11.0630     9.0480     9.9930    23.5180   -21.8910     2.3280 
  182.1250    45.5490    11.2790     9.0270     9.3520    23.2360   -21.9130     2.3490 
  182.2500    45.2090    12.0400     9.3930    10.1180    22.7990   -21.9570     2.3680 
  182.3750    45.0180    13.1210    10.0630    12.4250    22.5920   -22.0200     2.3780 
  182.5000    47.6630    14.1330    10.8100    15.1460    22.4030   -22.0790     2.3740 
  182.6250    51.2290    14.5330    11.2390    16.9060    22.6510   -22.1000     2.3560 
  182.7500    52.4400    14.2220    11.1710    14.8300    23.1050   -22.0940     2.3340 
  182.8750    53.0160    13.4300    10.6880    10.9510    23.6540   -22.0830     2.3160 
  183.0000    53.6330    12.5740    10.0570     9.3650    23.8850   -22.0530     2.3070 
  183.1250    52.3330    12.0320     9.5670     9.8330    24.0700   -21.9870     2.3070 
  183.2500    49.3160    11.8350     9.3100    10.9240    24.0950   -21.9120     2.3090 
  183.3750    45.8160    11.8880     9.2710    11.2320    23.9670   -21.8240     2.3110 
  183.5000    43.8810    12.0390     9.3850    10.3320    23.7170   -21.7230     2.3140 
  183.6250    44.4520    12.1870     9.5820     9.9580    23.6680   -21.6370     2.3200 
  183.7500    44.4700    12.3470     9.8080    10.1420    23.6180   -21.5540     2.3280 
  183.8750    43.1030    12.5590    10.0480    11.5520    23.5510   -21.4670     2.3340 
  184.0000    43.1670    12.8100    10.2810    13.2440    23.4740   -21.3860     2.3380 
  184.1250    46.8540    13.0280    10.4700    14.1660    23.3790   -21.2990     2.3410 
  184.2500    50.6520    13.1750    10.6150    13.6100    23.2560   -21.1660     2.3440 
  184.3750    53.0430    13.2480    10.7230    13.5610    23.2160   -21.0050     2.3500 
  184.5000    54.9380    13.2550    10.7870    13.5040    23.3250   -20.8420     2.3560 
  184.6250    55.2340    13.1330    10.7430    14.0700    23.3180   -20.6680     2.3550 
  184.7500    54.6310    12.7680    10.5150    14.8840    23.2310   -20.4720     2.3420 
  184.8750    54.9600    12.0800    10.0380    14.3980    23.2770   -20.2440     2.3170 
  185.0000    56.7040    11.1380     9.3370    12.1050    23.4610   -19.9990     2.2870 
  185.1250    55.3730    10.1960     8.5430     8.7520    23.9180   -19.7720     2.2660 
  185.2500    52.5200     9.5120     7.8380     6.7010    24.1680   -19.5860     2.2610 
  185.3750    53.4760     9.1720     7.3140     6.2280    24.1350   -19.4500     2.2700 
  185.5000    57.4020     9.1440     7.0060     6.7590    24.1730   -19.3870     2.2830 
  185.6250    58.2460     9.3520     6.9300     7.4430    24.0290   -19.4420     2.2900 
  185.7500    56.1310     9.6610     7.0230     7.5160    23.8030   -19.6190     2.2900 
  185.8750    55.4290    10.0440     7.2780     7.4280    23.8240   -19.9190     2.2890 
  186.0000    56.8610    10.5340     7.7070     7.7610    24.1430   -20.3140     2.2940 
  186.1250    57.3580    11.1860     8.3460     9.1420    24.2130   -20.7530     2.3100 
  186.2500    55.9140    11.9250     9.1080    11.1910    24.1220   -21.1830     2.3290 
  186.3750    54.1580    12.6110     9.8690    13.5310    23.9700   -21.5630     2.3400 
  186.5000    55.1260    13.0510    10.4470    14.8300    23.7640   -21.8330     2.3380 
  186.6250    60.4730    12.9720    10.5880    13.1080    23.6320   -21.9470     2.3210 
  186.7500    64.5460    12.4470    10.3160    10.5470    23.6820   -21.9510     2.2970 
  186.8750    62.8180    11.7080     9.7800     8.8510    23.8270   -21.8590     2.2770 
  187.0000    57.2240    11.0650     9.2120     8.1600    23.9250   -21.6730     2.2660 
  187.1250    52.8510    10.8150     8.8660     7.8640    24.0430   -21.4390     2.2690 
  187.2500    51.2540    10.9780     8.8180     8.0630    24.0560   -21.2020     2.2780 
  187.3750    51.7240    11.4710     9.0570     9.0560    23.7720   -20.9750     2.2890 
  187.5000    55.2230    12.0590     9.4590    10.7440    23.5870   -20.7440     2.2990 
  187.6250    61.2780    12.3210     9.7550    11.8650    23.5510   -20.5060     2.3080 
  187.7500    64.6290    12.0740     9.7360    11.1970    23.5360   -20.2740     2.3180 
  187.8750    63.2230    11.4540     9.3990    10.1250    23.4640   -20.0320     2.3310 
  188.0000    60.7370    10.8400     8.9440     9.4650    23.6260   -19.7790     2.3440 
  188.1250    60.8450    10.7020     8.6980     8.4420    23.6220   -19.5630     2.3530 
  188.2500    59.9840    11.0910     8.7970     8.9180    23.3530   -19.4090     2.3540 
  188.3750    55.7460    11.8580     9.2140     9.8860    23.0440   -19.3330     2.3470 
  188.5000    51.4340    12.7570     9.8130    10.1840    22.9340   -19.3380     2.3340 
  188.6250    50.4170    13.5690    10.4310    10.3390    23.2140   -19.4620     2.3180 
  188.7500    50.7290    14.2330    10.9770    11.5170    23.6070   -19.6340     2.3040 
  188.8750    51.1910    14.7140    11.4140    13.8540    24.0060   -19.7920     2.2900 
  189.0000    52.1250    14.9070    11.6660    15.4320    23.9610   -19.8990     2.2710 
  189.1250    52.4130    14.5600    11.5320    15.3880    23.8550   -19.8330     2.2410 
  189.2500    51.4250    13.7050    11.0010    14.2290    23.7780   -19.5810     2.2070 
  189.3750    50.6780    12.5320    10.1840    12.1670    23.7210   -19.1870     2.1800 
  189.5000    51.5410    11.3610     9.3030     8.4840    24.1930   -18.7200     2.1640 
  189.6250    53.4920    10.5620     8.6300     7.6030    25.7950   -18.1920     2.1600 
  189.7500    56.2990    10.2110     8.2570     8.5950    26.1350   -17.6420     2.1560 
  189.8750    57.8890    10.2730     8.1920     9.1140    25.5860   -17.1200     2.1480 
