~V
VERS. 2.00: Ver 2.00
~W
STRT.M 50.0000:
STOP.M 248.0000:
STEP.M 0.1250:
NULL. -999.2500:
UWI. F11129:
~C
DEPT.M :
SP.MV :
DEN.GM/CC :
GR.API :
RML.OHMM :
RI. :
RXO.OHMM :
CALI.CM :
~A
# ...
  230.0000   -12.8610     2.3390    56.4830     6.1070     5.1220     8.6970    23.5920 
  230.1250   -12.8870     2.3420    58.4650     6.1650     5.1360     8.7890    23.5870 
  230.2500   -12.9890     2.3480    61.7830     6.2040     5.1460     7.5460    23.5810 
  230.3750   -13.1540     2.3650    64.5040     6.2310     5.1670     6.4390    23.5450 
  230.5000   -13.3290     2.3910    65.9240     6.2830     5.2190     6.0330    23.4390 
  230.6250   -13.5150     2.4170    64.6580     6.4060     5.3290     5.9840    23.2460 
  230.7500   -13.7290     2.4320    60.4120     6.6370     5.5200     6.2260    23.0810 
  230.8750   -13.9180     2.4360    56.5880     6.9770     5.7970     7.0110    23.0810 
  231.0000   -14.0330     2.4400    57.5960     7.3720     6.1340     8.2220    23.2130 
  231.1250   -14.0900     2.4500    62.5950     7.7590     6.4870     9.5780    23.4300 
  231.2500   -14.1010     2.4600    66.9140     8.0650     6.7990    10.5500    23.6250 
  231.3750   -14.0470     2.4590    67.7290     8.2500     7.0310    10.6800    23.7130 
  231.5000   -13.9600     2.4400    66.6900     8.3340     7.1850    10.4850    23.7170 
  231.6250   -13.8510     2.4120    65.3210     8.3710     7.2910    10.1910    23.7100 
  231.7500   -13.7170     2.3910    63.6320     8.4300     7.3930    10.1780    23.7440 
  231.8750   -13.5930     2.3840    61.6730     8.5570     7.5270    10.5420    23.8160 
  232.0000   -13.4840     2.3890    60.9340     8.7470     7.7060    10.8700    23.8720 
  232.1250   -13.3950     2.4030    62.5670     8.9700     7.9190    10.9090    23.8870 
  232.2500   -13.3270     2.4170    65.7040     9.1740     8.1330    10.7310    23.8440 
  232.3750   -13.2790     2.4230    68.7180     9.3080     8.3100    10.6300    23.7640 
  232.5000   -13.2500     2.4230    70.9610     9.3430     8.4160    10.9270    23.6780 
  232.6250   -13.2390     2.4220    72.6220     9.2830     8.4400    11.3240    23.6030 
  232.7500   -13.2450     2.4230    72.6890     9.1680     8.3960    11.2240    23.5560 
  232.8750   -13.2590     2.4240    69.8600     9.0600     8.3240    10.8430    23.5710 
  233.0000   -13.2790     2.4250    66.7030     9.0140     8.2780    10.8450    23.6440 
  233.1250   -13.3010     2.4290    65.9310     9.0600     8.3010    10.9810    23.7480 
  233.2500   -13.3160     2.4340    65.8050     9.2300     8.4330    11.1100    23.8440 
  233.3750   -13.3310     2.4380    63.7180     9.5390     8.6950    11.4880    23.9130 
  233.5000   -13.3560     2.4470    62.0280     9.9670     9.0690    12.1210    23.9530 
  233.6250   -13.4080     2.4600    63.3660    10.4820     9.5290    12.8000    23.9580 
  233.7500   -13.4910     2.4700    65.8160    11.0170    10.0270    13.5130    23.9270 
  233.8750   -13.6020     2.4720    66.9910    11.4810    10.4950    14.2040    23.8540 
  234.0000   -13.7450     2.4660    68.1710    11.7940    10.8630    14.4060    23.7110 
  234.1250   -13.9150     2.4560    70.5370    11.9090    11.0750    13.9990    23.5380 
  234.2500   -14.1110     2.4400    72.6830    11.8060    11.0960    13.1690    23.4340 
  234.3750   -14.3220     2.4190    71.5500    11.5290    10.9450    12.1800    23.4280 
  234.5000   -14.5240     2.3960    66.8580    11.1880    10.6980    11.4300    23.4580 
  234.6250   -14.6840     2.3800    62.3560    10.8720    10.4280    11.3560    23.4620 
  234.7500   -14.7760     2.3790    62.3130    10.6450    10.2020    11.6630    23.4210 
  234.8750   -14.8130     2.3890    66.2300    10.5280    10.0570    11.5680    23.3930 
  235.0000   -14.8070     2.4030    68.8900    10.4800     9.9850    11.2850    23.4630 
  235.1250   -14.7630     2.4150    66.8130    10.4400     9.9470    11.4660    23.5740 
  235.2500   -14.6940     2.4250    61.9390    10.3420     9.8820    11.8240    23.5920 
  235.3750   -14.5940     2.4290    59.0040    10.1510     9.7430    11.8950    23.4710 
  235.5000   -14.4860     2.4300    59.2820     9.9000     9.5430    11.6710    23.2750 
  235.6250   -14.3780     2.4320    60.9520     9.6500     9.3340    11.2220    23.0550 
  235.7500   -14.2780     2.4390    63.3960     9.4860     9.2000    10.7870    22.9770 
  235.8750   -14.2020     2.4500    66.3440     9.4690     9.2060    10.8000    23.1760 
  236.0000   -14.1640     2.4560    67.6090     9.5980     9.3540    11.3580    23.4900 
  236.1250   -14.1580     2.4590    66.2560     9.8340     9.6110    12.2520    23.7130 
  236.2500   -14.1820     2.4610    64.6840    10.0910     9.8990    12.7780    23.7610 
  236.3750   -14.2560     2.4610    64.3140    10.2520    10.1040    12.6340    23.7280 
  236.5000   -14.3470     2.4560    64.3140    10.2300    10.1400    12.6670    23.7510 
  236.6250   -14.4680     2.4400    64.3140    10.0070     9.9810    12.6240    23.8460 
  236.7500   -14.6430     2.4160    64.3140     9.6290     9.6540    11.9880    23.9220 
  236.8750   -14.8360     2.3940    64.3140     9.1950     9.2390    10.8450    23.9160 
  237.0000   -15.0310     2.3820    64.3140     8.8140     8.8330     9.6340    23.8070 
  237.1250   -15.2270     2.3790    64.3140     8.5580     8.5050     9.0280    23.6260 
  237.2500   -15.3930     2.3790    64.3140     8.4950     8.3330     9.1450    23.4640 
  237.3750   -15.5050     2.3760    64.3140     8.6830     8.3890     9.5890    23.4520 
  237.5000   -15.5660     2.3810    64.3140     9.1360     8.6980    10.1180    23.6630 
  237.6250   -15.5580     2.4090    64.3140     9.8390     9.2640    10.9400    23.9300 
  237.7500   -15.5040     2.4610    64.3140    10.7060    10.0390    12.6520    24.0440 
  237.8750   -15.4320     2.5070    64.3140    11.5620    10.8840    15.7450    24.0090 
  238.0000   -15.3240     2.5190    64.3140    12.1930    11.6020    19.7700    23.9320 
  238.1250   -15.1850     2.5050    64.3140    12.4610    12.0350    23.4310    23.8790 
  238.2500   -15.0650     2.4860    64.3140    12.3280    12.0930    24.6400    23.8380 
  238.3750   -14.9660     2.4710    64.3140    11.9030    11.8260    22.6620    23.7750 
  238.5000   -14.8600     2.4530    64.3140    11.3860    11.4020    19.1890    23.7430 
  238.6250   -14.7720     2.4330    64.3140    10.9010    10.9400    15.8880    23.7670 
  238.7500   -14.6830     2.4220    64.3140    10.5110    10.5180    14.0020    23.7900 
  238.8750   -14.5620     2.4250    64.3140    10.2240    10.1700    12.9490    23.7480 
  239.0000   -14.4210     2.4350    64.3140    10.0110     9.8920    12.2580    23.6830 
  239.1250   -14.2810     2.4400    64.3140     9.8630     9.6900    11.3320    23.6090 
  239.2500   -14.1330     2.4390    64.3140     9.7810     9.5720    10.3100    23.4920 
  239.3750   -13.9980     2.4360    64.3140     9.7620     9.5390     9.7930    23.3520 
  239.5000   -13.9140     2.4340    64.3140     9.7790     9.5670     9.9730    23.3250 
  239.6250   -13.8630     2.4370    64.3140     9.8070     9.6290    10.3410    23.4690 
  239.7500   -13.8320     2.4420    64.3140     9.8210     9.6920    10.6200    23.6530 
  239.8750   -13.8260     2.4470    64.3140     9.8070     9.7330    11.1680    23.7730 
  240.0000   -13.8470     2.4520    64.3140     9.7730     9.7460    12.1070    23.8290 
  240.1250   -13.8810     2.4580    64.3140     9.7430     9.7450    12.9070    23.8550 
  240.2500   -13.9000     2.4620    64.3140     9.7510     9.7600    13.1810    23.8590 
  240.3750   -13.8870     2.4650    64.3140     9.8260     9.8190    13.0200    23.8580 
  240.5000   -13.8670     2.4720    64.3140     9.9790     9.9300    12.8530    23.9000 
  240.6250   -13.8590     2.4810    64.3140    10.2230    10.0880    12.9480    23.9780 
  240.7500   -13.8470     2.4910    64.3140    10.5720    10.2770    13.2970    24.0200 
  240.8750   -13.8370     2.4960    64.3140    11.0060    10.4680    13.7830    24.0180 
  241.0000   -13.8340     2.4960    64.3140    11.4480    10.6340    14.3260    24.0110 
  241.1250   -13.8280     2.4910    64.3140    11.8170    10.7550    14.5630    24.0090 
