~V
VERS. 2.00: Ver 2.00
~W
STRT.M 55.0000:
STOP.M 240.0000:
STEP.M 0.1250:
NULL. -999.2500:
UWI. F11138:
~C
DEPT.M :
SP.MV :
DEN.GM/CC :
GR.API :
RML.OHMM :
RI. :
RXO.OHMM :
CALI.CM :
~A
# ...
  122.5000   -10.1010     2.5790    54.2890    42.0940    37.1900    33.3110    21.9860 
  122.6250    -9.9430     2.5550    51.8440    42.1060    37.8600    32.0390    21.9770 
  122.7500    -9.7930     2.5350    51.3930    41.0080    37.2300    31.8060    21.9620 
  122.8750    -9.6710     2.5320    52.9440    39.5550    35.9850    31.6680    21.9360 
  123.0000    -9.6130     2.5430    54.7330    38.0650    34.5040    31.4610    21.9150 
  123.1250    -9.6480     2.5520    54.4840    36.6190    32.9620    30.9850    21.9370 
  123.2500    -9.7530     2.5520    52.6170    35.2960    31.5190    29.9740    21.9660 
  123.3750    -9.9040     2.5510    51.6570    34.2390    30.3420    27.9040    21.9390 
  123.5000   -10.0460     2.5540    52.7880    33.5870    29.5790    25.6340    21.8510 
  123.6250   -10.1380     2.5610    53.8270    33.4670    29.3720    23.9910    21.7390 
  123.7500   -10.1930     2.5650    52.6230    33.7260    29.5880    23.5370    21.6810 
  123.8750   -10.2290     2.5640    50.5410    34.2250    30.0990    23.6690    21.6560 
  124.0000   -10.2420     2.5500    50.3720    34.7770    30.7300    23.8600    21.6430 
  124.1250   -10.1910     2.5190    52.6050    35.0970    31.2180    24.6720    21.6940 
  124.2500   -10.0770     2.4860    54.1870    34.9560    31.3320    26.0990    21.8150 
  124.3750    -9.9350     2.4700    54.3110    34.1990    30.9150    27.4590    21.9860 
  124.5000    -9.8210     2.4710    53.6690    32.8200    29.9380    28.1620    22.0890 
  124.6250    -9.7880     2.4710    54.2070    30.9930    28.5090    27.4170    22.0560 
  124.7500    -9.8390     2.4630    56.3230    29.2100    27.0340    24.7110    22.0220 
  124.8750    -9.9580     2.4560    58.9570    27.8530    25.8350    22.0690    22.0490 
  125.0000   -10.1070     2.4560    60.2970    27.1550    25.1310    20.7600    22.0270 
  125.1250   -10.2890     2.4660    58.9290    27.2120    25.0540    21.0350    22.0290 
  125.2500   -10.4950     2.4850    56.0990    27.6840    25.3700    21.9430    21.9830 
  125.3750   -10.6920     2.5060    53.3350    28.2640    25.8540    23.2390    21.8890 
  125.5000   -10.8520     2.5160    51.9940    28.6540    26.2490    24.2180    21.8410 
  125.6250   -10.9100     2.5160    51.1300    28.5520    26.2670    24.4960    21.9020 
  125.7500   -10.8640     2.5150    49.2920    27.9690    25.8610    23.3360    21.9220 
  125.8750   -10.7450     2.5170    47.4620    27.0070    25.0870    22.3900    21.8720 
  126.0000   -10.5830     2.5210    46.9400    25.8760    24.1110    22.4240    21.8310 
  126.1250   -10.3790     2.5260    48.4840    24.9110    23.2190    21.6340    21.8450 
  126.2500   -10.1380     2.5360    50.9290    24.3710    22.6590    20.3230    21.8870 
  126.3750    -9.8650     2.5490    52.8760    24.3740    22.5480    19.0640    21.8780 
  126.5000    -9.5760     2.5630    54.1510    24.8580    22.8620    18.6520    21.8050 
  126.6250    -9.3110     2.5690    55.0660    25.5790    23.4320    19.5620    21.7620 
  126.7500    -9.1190     2.5670    55.7060    26.1450    23.9350    20.9390    21.7320 
  126.8750    -9.0450     2.5610    54.4970    26.3430    24.1670    21.1620    21.6690 
  127.0000    -9.0700     2.5560    51.5230    26.1660    24.0810    20.2900    21.5840 
  127.1250    -9.1610     2.5590    49.9220    25.8520    23.8220    18.9590    21.5410 
  127.2500    -9.2990     2.5710    49.8970    25.7340    23.6660    18.5070    21.5470 
  127.3750    -9.4730     2.5900    50.5300    25.9200    23.7250    18.9820    21.6120 
  127.5000    -9.6620     2.6090    50.5160    26.3050    23.9530    20.3140    21.7050 
  127.6250    -9.8660     2.6160    50.0130    26.6120    24.1610    21.8450    21.7520 
  127.7500   -10.0520     2.6090    50.1830    26.6250    24.1720    22.4570    21.7520 
  127.8750   -10.1930     2.5940    51.2870    26.3040    23.9330    22.0960    21.7700 
  128.0000   -10.3030     2.5800    53.2900    25.7660    23.5080    20.9740    21.8510 
  128.1250   -10.3910     2.5690    55.0720    25.2600    23.0700    20.2090    21.9710 
  128.2500   -10.4310     2.5580    56.7210    24.9890    22.7910    20.6590    22.0200 
  128.3750   -10.4610     2.5430    58.2190    25.0210    22.7470    21.0970    21.9820 
  128.5000   -10.4610     2.5250    58.2200    25.3210    22.9360    20.4310    21.9760 
  128.6250   -10.4080     2.5130    55.8580    25.7530    23.2770    19.8670    21.9960 
  128.7500   -10.3000     2.5140    54.0010    26.0620    23.5680    20.2370    21.9350 
  128.8750   -10.1230     2.5250    55.3410    26.0280    23.6200    21.1040    21.8400 
  129.0000    -9.8750     2.5360    58.5840    25.4980    23.2850    21.5230    21.8120 
  129.1250    -9.5630     2.5400    59.5160    24.4020    22.4640    21.7130    21.8300 
  129.2500    -9.2440     2.5410    58.5690    23.0450    21.3800    20.8580    21.8230 
  129.3750    -8.9160     2.5460    57.3440    21.7280    20.2720    18.6720    21.7710 
  129.5000    -8.6360     2.5560    56.9520    20.6980    19.3570    16.9020    21.7580 
  129.6250    -8.4320     2.5630    57.8040    20.1110    18.7910    16.2010    21.8420 
  129.7500    -8.2820     2.5610    58.9720    19.8020    18.4720    16.2740    21.8880 
  129.8750    -8.1790     2.5530    59.7980    19.5900    18.2680    16.9720    21.8320 
  130.0000    -8.1120     2.5440    60.1780    19.3090    18.0400    17.2280    21.7820 
  130.1250    -8.0840     2.5410    60.8060    18.8660    17.6920    16.8500    21.7870 
  130.2500    -8.0870     2.5440    61.6470    18.3640    17.2800    16.3100    21.8040 
  130.3750    -8.1310     2.5510    61.7410    17.9480    16.9100    15.7690    21.8610 
  130.5000    -8.1420     2.5560    60.9840    17.7410    16.6880    15.0860    21.9790 
  130.6250    -8.1190     2.5550    58.6760    17.8170    16.6910    14.5570    22.0550 
  130.7500    -8.0960     2.5490    55.7070    18.0590    16.8460    14.5290    22.0800 
  130.8750    -8.0870     2.5440    53.6300    18.3570    17.0710    14.8580    22.0800 
  131.0000    -8.1360     2.5440    52.9690    18.6100    17.2860    15.1770    22.0520 
  131.1250    -8.2750     2.5460    52.1450    18.7430    17.4190    15.3210    21.9570 
  131.2500    -8.4410     2.5440    50.4680    18.7780    17.4710    15.2020    21.8220 
  131.3750    -8.5850     2.5370    49.5240    18.7470    17.4620    15.2790    21.7160 
  131.5000    -8.7650     2.5270    50.9890    18.6670    17.4100    15.3700    21.5990 
  131.6250    -8.9920     2.5160    53.4030    18.4970    17.2850    15.3330    21.5910 
  131.7500    -9.2500     2.5050    54.4190    18.1890    17.0470    15.2290    21.7130 
  131.8750    -9.5030     2.4990    54.7640    17.7150    16.6650    15.1720    21.8820 
  132.0000    -9.7110     2.5000    56.6660    17.1190    16.1620    15.2830    21.9770 
  132.1250    -9.8190     2.5040    61.2450    16.5500    15.6530    15.2070    21.9930 
  132.2500    -9.8750     2.5070    65.5230    16.2020    15.3060    14.6400    22.0010 
  132.3750    -9.9360     2.5090    67.6770    16.2230    15.2570    13.9230    21.9910 
  132.5000    -9.9790     2.5130    68.9500    16.6750    15.5800    13.9320    21.9530 
  132.6250    -9.9930     2.5170    72.6680    17.5360    16.3020    14.6220    21.9250 
  132.7500    -9.9640     2.5140    78.1670    18.5280    17.2070    15.6220    21.9540 
  132.8750    -9.9260     2.5000    82.1440    19.4020    18.0830    16.8740    22.0050 
  133.0000    -9.8750     2.4790    83.5050    19.9360    18.7070    18.0910    22.0420 
  133.1250    -9.8250     2.4660    82.7870    19.9510    18.8560    18.4880    22.0270 
  133.2500    -9.7810     2.4610    80.1740    19.5990    18.6150    18.1670    22.0090 
  133.3750    -9.7410     2.4580    76.5720    19.0690    18.1340    17.5360    21.9730 
  133.5000    -9.7530     2.4470    75.0030    18.5810    17.6160    16.3800    21.9230 
  133.6250    -9.8070     2.4350    77.2280    18.3710    17.2900    15.5850    21.9300 
