~V
VERS. 2.00: Ver 2.00
~W
STRT.M 53.0000:
STOP.M 212.0000:
STEP.M 0.1250:
NULL. -999.2500:
UWI. F11124:
~C
DEPT.M :
SP.MV :
DEN.GM/CC :
GR.API :
RML.OHMM :
RI. :
RXO.OHMM :
CALI.CM :
~A
# ...
   86.7500   -23.0160     2.0760    54.6320     7.5000     5.5460     8.5210    28.2810 
   86.8750   -21.7360     2.0870    56.0940     7.1490     5.3190     7.8650    28.7300 
   87.0000   -20.3960     2.0990    60.7160     6.6950     5.0020     6.8310    29.2470 
   87.1250   -19.1020     2.1350    68.5510     6.2480     4.6610     5.6720    29.2650 
   87.2500   -17.9190     2.1880    78.7950     5.9130     4.3710     4.8480    28.7510 
   87.3750   -16.8730     2.2340    86.4760     5.7360     4.1770     4.5170    28.0890 
   87.5000   -16.0160     2.2620    89.4720     5.7270     4.1000     4.5340    27.6660 
   87.6250   -15.3750     2.2710    93.1150     5.8880     4.1620     4.6690    27.4960 
   87.7500   -14.9150     2.2700    98.9910     6.1540     4.3230     4.8300    27.4170 
   87.8750   -14.6150     2.2610   100.4280     6.4840     4.5550     5.0540    27.3700 
   88.0000   -14.4430     2.2470    92.6860     6.8380     4.8270     5.3670    27.3300 
   88.1250   -14.3100     2.2350    83.9870     7.1620     5.1000     5.7380    27.1860 
   88.2500   -14.1490     2.2290    83.0620     7.3980     5.3290     6.0610    27.0040 
   88.3750   -13.9510     2.2300    87.3310     7.4960     5.4730     6.2480    26.8690 
   88.5000   -13.7130     2.2360    90.5200     7.4310     5.5040     6.2480    26.8190 
   88.6250   -13.4530     2.2450    88.4990     7.2100     5.4030     6.0650    26.8280 
   88.7500   -13.1930     2.2590    85.7290     6.9400     5.2310     5.7930    26.8470 
   88.8750   -12.9550     2.2750    86.1000     6.7120     5.0450     5.5270    26.8490 
   89.0000   -12.7580     2.2880    88.0550     6.5980     4.9080     5.3460    26.8310 
   89.1250   -12.6500     2.2940    87.3300     6.6540     4.8800     5.3060    26.8180 
   89.2500   -12.6240     2.2910    86.8680     6.8270     4.9500     5.4480    26.8120 
   89.3750   -12.6770     2.2790    87.5670     7.0530     5.0840     5.7320    26.8350 
   89.5000   -12.7720     2.2640    87.5920     7.2440     5.2250     6.0210    26.8670 
   89.6250   -12.9100     2.2570    85.5640     7.3000     5.2990     6.1280    26.9170 
   89.7500   -13.0760     2.2600    85.7480     7.2090     5.2750     5.9520    27.0380 
   89.8750   -13.2270     2.2660    88.6910     7.0060     5.1600     5.5680    27.2480 
   90.0000   -13.3790     2.2680    91.6150     6.7640     4.9920     5.1630    27.4440 
   90.1250   -13.5600     2.2610    91.0810     6.5910     4.8370     5.0130    27.5130 
   90.2500   -13.7710     2.2520    90.2460     6.5460     4.7510     5.1540    27.4160 
   90.3750   -14.0280     2.2500    89.9330     6.6510     4.7610     5.6520    27.1410 
   90.5000   -14.3520     2.2530    89.9590     6.9020     4.8760     6.4190    26.8400 
   90.6250   -14.7140     2.2560    89.7650     7.2760     5.0980     7.2770    26.7040 
   90.7500   -15.0550     2.2580    88.0670     7.6830     5.3740     7.7630    26.6580 
   90.8750   -15.3870     2.2660    82.6850     8.0530     5.6590     7.7300    26.6300 
   91.0000   -15.6660     2.2790    76.1240     8.3250     5.9030     7.5530    26.6060 
   91.1250   -15.8410     2.2810    75.6650     8.4550     6.0600     7.4790    26.5890 
   91.2500   -15.9540     2.2600    80.3630     8.4930     6.1410     7.4450    26.6150 
   91.3750   -15.9760     2.2280    83.6040     8.4910     6.1730     7.4270    26.6710 
   91.5000   -15.9010     2.2050    84.1780     8.4900     6.1850     7.4920    26.7230 
   91.6250   -15.7640     2.1990    85.6250     8.5050     6.1940     7.6570    26.7400 
   91.7500   -15.6180     2.2050    87.3420     8.5020     6.1930     7.8440    26.7440 
   91.8750   -15.4450     2.2140    85.6730     8.4330     6.1580     7.9140    26.7490 
   92.0000   -15.2870     2.2240    80.3540     8.2560     6.0590     7.7710    26.7590 
   92.1250   -15.1990     2.2340    77.9830     7.9500     5.8710     7.3850    26.7630 
   92.2500   -15.1810     2.2440    81.8170     7.5980     5.6320     6.8360    26.7550 
   92.3750   -15.2600     2.2510    87.9370     7.3010     5.4000     6.2490    26.7510 
   92.5000   -15.4660     2.2510    91.6300     7.1500     5.2400     5.8290    26.7620 
   92.6250   -15.8380     2.2390    89.5640     7.2120     5.2210     5.8500    26.7780 
   92.7500   -16.3250     2.2200    83.7870     7.4230     5.3250     6.2400    26.7370 
   92.8750   -16.9080     2.1990    77.9950     7.7050     5.5170     6.8430    26.6090 
   93.0000   -17.5320     2.1810    75.9010     7.9650     5.7370     7.4330    26.3900 
   93.1250   -18.1290     2.1710    76.2190     8.1120     5.9150     7.7520    26.1840 
   93.2500   -18.6770     2.1690    73.5990     8.1670     6.0280     7.8630    26.0350 
   93.3750   -19.1340     2.1730    69.5610     8.1870     6.0950     7.9070    25.9370 
   93.5000   -19.4570     2.1780    67.5590     8.2280     6.1540     7.9370    25.8650 
   93.6250   -19.5910     2.1790    67.3420     8.3230     6.2370     7.9200    25.8210 
   93.7500   -19.5800     2.1770    69.8440     8.4340     6.3360     7.8430    25.8090 
   93.8750   -19.4450     2.1720    74.9800     8.5110     6.4220     7.6770    25.8310 
   94.0000   -19.2210     2.1640    78.2370     8.5120     6.4550     7.4310    25.9000 
   94.1250   -18.9590     2.1580    75.2470     8.4150     6.4040     7.1880    26.0110 
   94.2500   -18.6420     2.1560    70.6670     8.2530     6.2890     7.0170    26.1080 
   94.3750   -18.3210     2.1610    68.8810     8.0510     6.1330     6.9160    26.1870 
   94.5000   -18.0450     2.1700    70.5860     7.8330     5.9600     6.8380    26.2460 
   94.6250   -17.8540     2.1780    76.0270     7.6160     5.7900     6.7440    26.2680 
   94.7500   -17.7540     2.1840    80.0790     7.4120     5.6270     6.6320    26.2700 
   94.8750   -17.7910     2.1920    79.4340     7.2330     5.4750     6.4050    26.2250 
   95.0000   -18.0050     2.2040    77.2010     7.1080     5.3510     6.0260    26.1460 
   95.1250   -18.4210     2.2110    77.8870     7.0920     5.2940     5.6920    26.0360 
   95.2500   -19.0410     2.2070    80.7890     7.2000     5.3240     5.5800    25.9490 
   95.3750   -19.8530     2.1950    83.8920     7.4260     5.4500     5.8710    25.8280 
   95.5000   -20.7970     2.1830    83.4780     7.7350     5.6600     6.5600    25.5570 
   95.6250   -21.7890     2.1790    75.5760     8.0550     5.9170     7.5810    25.1320 
   95.7500   -22.7730     2.1820    66.3420     8.3090     6.1510     8.5480    24.7670 
   95.8750   -23.7050     2.1910    61.1440     8.4620     6.3160     9.1300    24.5600 
   96.0000   -24.5280     2.2000    60.6360     8.5230     6.3950     9.3080    24.4770 
   96.1250   -25.2000     2.2070    62.6940     8.5250     6.3930     9.2950    24.4760 
   96.2500   -25.7260     2.2080    65.2030     8.5290     6.3610     9.3160    24.5090 
   96.3750   -26.0870     2.2030    65.0450     8.5580     6.3330     9.3960    24.5520 
   96.5000   -26.3250     2.1920    62.3220     8.6110     6.3220     9.5310    24.5940 
   96.6250   -26.4890     2.1770    61.8560     8.6670     6.3230     9.6620    24.6430 
   96.7500   -26.5770     2.1620    62.8490     8.7070     6.3230     9.7110    24.7440 
   96.8750   -26.5960     2.1480    62.5680     8.7220     6.3130     9.6830    24.8840 
   97.0000   -26.5780     2.1340    62.1130     8.7090     6.2900     9.6190    25.0340 
   97.1250   -26.4960     2.1250    62.6870     8.6590     6.2500     9.5650    25.2040 
   97.2500   -26.3380     2.1260    62.3940     8.5720     6.1950     9.5070    25.3670 
   97.3750   -26.1390     2.1420    62.1380     8.4520     6.1210     9.4090    25.4790 
   97.5000   -25.9150     2.1660    64.8080     8.3180     6.0330     9.2260    25.4870 
   97.6250   -25.6670     2.1840    69.1000     8.2090     5.9460     8.9670    25.3850 
   97.7500   -25.4430     2.1890    70.4140     8.1490     5.8780     8.7520    25.2410 
   97.8750   -25.2380     2.1860    67.5030     8.1460     5.8420     8.6900    25.0780 
