~V
VERS. 2.00: Ver 2.00
~W
STRT.M 20.0000:
STOP.M 279.0000:
STEP.M 0.1250:
NULL. -999.2500:
UWI. F11153:
~C
DEPT.M :
DEN.GM/CC :
GR.API :
RML.OHMM :
RI. :
RXO.OHMM :
CALI.CM :
SP.MV :
~A
# ...
   87.5000     2.3170    85.5950     8.1270     5.2850     5.6590    26.1440   -21.9700 
   87.6250     2.3440    83.2980     9.2020     5.9710     6.0980    26.1440   -23.1240 
   87.7500     2.3960    81.5310    10.1930     6.6800     7.2680    26.1440   -24.3120 
   87.8750     2.4600    81.3550    10.7960     7.2250     8.5170    26.1440   -25.4450 
   88.0000     2.5060    80.5680    10.7970     7.4230     8.4460    26.1440   -26.4470 
   88.1250     2.4840    76.1960    10.1670     7.1650     7.9700    26.1440   -27.3460 
   88.2500     2.4060    73.4800     9.3200     6.6690     7.6150    26.1440   -28.1630 
   88.3750     2.3160    76.3160     8.5640     6.1410     7.1720    26.1440   -28.7970 
   88.5000     2.2520    81.5360     8.0800     5.7360     6.8670    26.1440   -29.2210 
   88.6250     2.2220    82.0920     7.9350     5.5470     6.8710    26.1440   -29.4340 
   88.7500     2.2080    79.3200     8.0040     5.5200     6.8580    26.1420   -29.4600 
   88.8750     2.2000    78.7190     8.2060     5.6090     6.8100    26.1290   -29.3400 
   89.0000     2.1950    80.9800     8.4440     5.7500     6.9640    26.0870   -29.1080 
   89.1250     2.1940    82.7890     8.5660     5.8490     7.1020    26.0160   -28.6800 
   89.2500     2.1980    80.7520     8.4600     5.8200     7.3500    25.9990   -28.0900 
   89.3750     2.2050    77.2710     8.0660     5.6150     7.5970    26.0830   -27.4680 
   89.5000     2.2140    77.9660     7.4370     5.2420     7.1560    26.2530   -26.9320 
   89.6250     2.2240    85.4690     6.7720     4.7940     5.9490    26.4170   -26.5590 
   89.7500     2.2380    91.9590     6.3050     4.4280     5.0900    26.5610   -26.3810 
   89.8750     2.2520    92.8430     6.1470     4.2380     4.8820    26.6300   -26.4230 
   90.0000     2.2650    89.9730     6.3220     4.2680     5.1740    26.5820   -26.6540 
   90.1250     2.2610    85.9980     6.8280     4.5500     6.1570    26.4420   -26.9810 
   90.2500     2.2420    80.9950     7.5020     4.9930     7.5990    26.2630   -27.2630 
   90.3750     2.2300    76.3290     8.1850     5.5030     8.2800    26.0190   -27.3800 
   90.5000     2.2400    74.2820     8.6790     5.9470     8.5590    25.8020   -27.2190 
   90.6250     2.2540    73.2180     8.7380     6.1360     9.1830    25.7760   -26.5830 
   90.7500     2.2480    71.0300     8.3700     6.0240     9.7140    25.8800   -25.5330 
   90.8750     2.2340    71.2010     7.6900     5.6540     9.3920    26.0250   -24.1430 
   91.0000     2.2350    75.5000     6.9200     5.1600     7.9700    26.1960   -22.5710 
   91.1250     2.2550    81.9750     6.3420     4.7250     6.0540    26.3470   -21.0030 
   91.2500     2.2780    86.6200     6.0800     4.4600     4.9690    26.3970   -19.5090 
   91.3750     2.2950    87.5460     6.1610     4.4090     4.9310    26.3450   -18.1470 
   91.5000     2.3030    86.6400     6.5310     4.5700     5.3190    26.2400   -16.9890 
   91.6250     2.3160    88.8660     7.0480     4.8960     5.6920    26.0990   -16.1450 
   91.7500     2.3470    93.5630     7.4410     5.2280     6.0790    25.9480   -15.5690 
   91.8750     2.3940    95.5320     7.5150     5.4220     6.5540    25.8270   -15.1990 
   92.0000     2.4400    93.5340     7.2120     5.3850     6.6260    25.7900   -14.9540 
   92.1250     2.4560    91.9890     6.6440     5.1070     6.2640    25.9460   -14.8420 
   92.2500     2.4330    92.1960     6.0990     4.7540     5.2220    26.2900   -14.8730 
   92.3750     2.3870    92.5100     5.7610     4.4610     4.3750    26.6090   -15.0370 
   92.5000     2.3410    91.2790     5.6970     4.3150     4.1050    26.5710   -15.3600 
   92.6250     2.3210    86.6000     5.8680     4.3480     4.3700    26.1300   -15.8650 
   92.7500     2.3220    80.4660     6.0740     4.4610     4.9700    25.8010   -16.4510 
   92.8750     2.3310    77.0360     6.1550     4.5460     5.7390    25.6640   -17.0860 
   93.0000     2.3340    79.0660     6.0280     4.5210     6.1870    25.6640   -17.8350 
   93.1250     2.3260    84.3280     5.7770     4.3820     5.3740    25.7610   -18.7740 
   93.2500     2.3150    87.0630     5.6540     4.2690     4.5990    25.8360   -19.8810 
   93.3750     2.3060    84.7910     5.8270     4.3040     4.4720    25.8070   -21.0790 
   93.5000     2.2940    78.7470     6.3460     4.5570     4.9910    25.7880   -22.2990 
   93.6250     2.2720    73.4200     7.1760     5.0500     6.2440    25.8330   -23.5060 
   93.7500     2.2460    69.8660     8.0600     5.6360     7.5630    25.8840   -24.6660 
   93.8750     2.2250    66.8120     8.7460     6.1590     8.2420    25.8920   -25.7670 
   94.0000     2.2140    63.2840     9.0640     6.4880     8.0250    25.8720   -26.8010 
   94.1250     2.2140    60.7700     9.0280     6.5700     7.4820    25.8620   -27.7060 
   94.2500     2.2160    61.0400     8.9080     6.5440     7.3720    25.8550   -28.4200 
   94.3750     2.2160    63.6820     8.8600     6.5120     7.6300    25.8410   -28.9960 
   94.5000     2.2150    67.2940     8.9310     6.5290     7.8780    25.8020   -29.4770 
   94.6250     2.2140    68.5740     9.0800     6.5960     8.0220    25.7660   -29.9070 
   94.7500     2.2110    65.8380     9.2000     6.6620     8.3200    25.7280   -30.3330 
   94.8750     2.2080    61.6960     9.2420     6.6900     8.4370    25.6910   -30.7140 
   95.0000     2.2070    60.9720     9.2120     6.6670     8.4800    25.6540   -31.0120 
   95.1250     2.2060    63.8080     9.1430     6.6070     8.5380    25.6260   -31.2370 
   95.2500     2.2060    64.3670     9.0860     6.5510     8.6410    25.6260   -31.4290 
   95.3750     2.2060    62.1620     9.0750     6.5300     8.8350    25.6430   -31.5700 
   95.5000     2.2080    60.8430     9.1280     6.5630     9.2380    25.6560   -31.6680 
   95.6250     2.2120    62.2430     9.2670     6.6700     9.8040    25.6600   -31.7330 
   95.7500     2.2160    64.2060     9.4830     6.8360    10.1910    25.6600   -31.7770 
   95.8750     2.2210    65.0550     9.7650     7.0470    10.3660    25.6600   -31.8200 
   96.0000     2.2280    66.0210    10.0790     7.2800    10.4080    25.6630   -31.8670 
   96.1250     2.2330    67.6790    10.3550     7.4930    10.5620    25.6830   -31.9220 
   96.2500     2.2360    70.0660    10.5260     7.6470    10.6650    25.7230   -32.0360 
   96.3750     2.2360    73.8010    10.5450     7.7130    10.6070    25.7660   -32.1860 
   96.5000     2.2350    76.4650    10.4010     7.6770    10.5230    25.7870   -32.2970 
   96.6250     2.2270    74.2000    10.1120     7.5340    10.8060    25.7900   -32.3080 
   96.7500     2.2120    68.5070     9.7630     7.3350    10.9960    25.7940   -32.2620 
   96.8750     2.1970    63.6170     9.4050     7.1160    10.9800    25.8200   -32.1970 
   97.0000     2.1900    61.8620     9.0670     6.9030    10.7060    25.8770   -32.0920 
   97.1250     2.1940    62.4990     8.7650     6.7050    10.1220    25.9410   -31.9310 
   97.2500     2.2010    63.3280     8.5050     6.5190     9.5940    25.9600   -31.7700 
   97.3750     2.2080    63.6630     8.3080     6.3540     9.3910    25.9460   -31.6370 
   97.5000     2.2100    64.4330     8.2070     6.2410     9.0910    25.9320   -31.6130 
   97.6250     2.2070    66.2350     8.2530     6.2350     8.7930    25.9320   -31.7760 
   97.7500     2.2020    67.0400     8.4260     6.3400     8.9280    25.9440   -32.0180 
   97.8750     2.1960    66.7000     8.6850     6.5350     9.2330    25.9540   -32.2500 
   98.0000     2.1890    70.1560     8.9390     6.7580     9.8890    25.9440   -32.3980 
   98.1250     2.1830    75.0450     9.0440     6.9020    10.6370    25.9410   -32.4270 
   98.2500     2.1780    74.7110     8.9530     6.9090    10.8610    25.9510   -32.3500 
   98.3750     2.1770    71.7680     8.7070     6.7870    10.3270    25.9490   -32.1680 
   98.5000     2.1800    71.7890     8.4200     6.6050     9.1200    25.9030   -31.8940 
   98.6250     2.1850    73.1780     8.2350     6.4620     8.0710    25.8110   -31.5210 
