~V
VERS. 2.00: Ver 2.00
~W
STRT.M 62.0000:
STOP.M 217.0000:
STEP.M 0.1250:
NULL. -999.2500:
UWI. F11126:
~C
DEPT.M :
DEN.GM/CC :
SP.MV :
GR.API :
RML.OHMM :
RI. :
RXO.OHMM :
CALI.CM :
~A
# ...
  208.2500     2.4410    -3.5290    63.3530     5.9290     5.2160     6.8840    24.1470 
  208.3750     2.4650    -3.5240    63.3530     6.2780     5.5460     7.9110    24.0660 
  208.5000     2.4560    -3.4030    63.3530     6.4940     5.7490     8.2850    24.0740 
  208.6250     2.4270    -3.3910    63.3530     6.5350     5.7880     8.1480    24.1600 
  208.7500     2.3970    -3.4060    63.3530     6.4290     5.6880     7.5380    24.2930 
  208.8750     2.3750    -3.4220    63.3530     6.2560     5.5250     6.4590    24.4170 
  209.0000     2.3620    -3.5380    63.3530     6.1040     5.3810     5.9640    24.5770 
  209.1250     2.3530    -3.5320    63.3530     6.0060     5.2890     5.8360    24.7180 
  209.2500     2.3530    -3.3710    63.3530     5.9540     5.2400     5.7550    24.8030 
  209.3750     2.3640    -3.2890    63.3530     5.9170     5.2050     5.4110    24.8110 
  209.5000     2.3750    -3.3090    63.3530     5.8240     5.1440     5.1850    24.7570 
  209.6250     2.3780    -3.2470    63.3530     5.6800     5.0410     5.0410    24.7120 
  209.7500     2.3670    -3.1940    63.3530     5.4890     4.9040     4.9710    24.7040 
  209.8750     2.3450    -3.1070    63.3530     5.2470     4.7590     4.9330    24.6830 
  210.0000     2.3180    -2.9170    63.3530     5.1820     4.6550     5.0350    24.7870 
  210.1250     2.2970    -2.8670    63.3530     5.1860     4.6190     5.1770    24.8910 
  210.2500     2.2920    -2.9170    63.3530     5.2690     4.6580     5.2650    24.9330 
  210.3750     2.3070    -2.8270    63.3530     5.4360     4.7510     5.3520    24.8840 
  210.5000     2.3390    -2.6950    63.3530     5.5500     4.8580     5.3240    24.8190 
  210.6250     2.3660    -2.6600    63.3530     5.6300     4.9340     5.2170    24.7190 
  210.7500     2.3740    -2.6620    63.3530     5.6590     4.9620     5.1880    24.6030 
  210.8750     2.3650    -2.8230    63.3530     5.6480     4.9510     5.3320    24.5580 
  211.0000     2.3550    -3.1460    63.3530     5.6270     4.9310     5.7150    24.6550 
  211.1250     2.3540    -3.4430    63.3530     5.6220     4.9270     6.2940    24.8490 
  211.2500     2.3590    -3.7440    63.3530     5.6380     4.9410     7.0830    25.1130 
  211.3750     2.3700    -4.0510    63.3530     5.6600     4.9620     7.8860    25.3900 
  211.5000     2.3880    -4.1940    63.3530     5.6620     4.9640     8.2040    25.5300 
  211.6250     2.4080    -4.2860    63.3530     5.6390     4.9430     8.0750    25.5620 
  211.7500     2.4200    -4.3780    63.3530     5.6030     4.9080     7.9410    25.5790 
  211.8750     2.4150    -4.3690    63.3530     5.5690     4.8770     7.8480    25.5910 
  212.0000     2.3900    -4.2830    63.3530     5.5500     4.8580     7.4880    25.5800 
  212.1250     2.3630    -4.2630    63.3530     5.5390     4.8480     7.5030    25.5640 
  212.2500     2.3470    -4.2760    63.3530     5.5270     4.8370     8.1080    25.4880 
  212.3750     2.3560    -4.2550    63.3530     5.5110     4.8210     9.6060    25.3060 
  212.5000     2.3910    -4.4580    63.3530     5.4940     4.8060    11.5160    24.9240 
  212.6250     2.4280    -4.6730    63.3530     5.4850     4.7970    13.2370    24.6540 
  212.7500     2.4450    -4.8980    63.3530     5.4820     4.7950    13.4990    24.5580 
  212.8750     2.4350    -5.1410    63.3530     5.4820     4.7950    11.0390    24.6590 
  213.0000     2.4130    -5.3900    63.3530     5.4820     4.7950     9.4470    24.8070 
  213.1250     2.4020    -5.5500    63.3530     5.4820     4.7950     9.2190    24.9180 
  213.2500     2.4050    -5.6610    63.3530     5.4820     4.7950     9.9360    24.9430 
  213.3750     2.4070    -5.8200    63.3530     5.4820     4.7950    10.3950    24.9280 
  213.5000     2.3840    -5.8260    63.3530     5.4820     4.7950     9.7380    24.9400 
  213.6250     2.3450    -5.8320    63.3530     5.4820     4.7950     8.7240    24.9920 
  213.7500     2.3110    -5.8350    63.3530     5.4820     4.7950     7.6740    25.0600 
  213.8750     2.2970  -999.2500    63.3530     5.4820     4.7950     7.0810    25.0910 
  214.0000     2.3150  -999.2500    63.3530     5.4820     4.7950     6.9980    25.1020 
  214.1250     2.3610  -999.2500    63.3530     5.4820     4.7950     7.2020    24.9940 
  214.2500     2.4220  -999.2500    63.3530     5.4820     4.7950     7.3570    24.8310 
  214.3750     2.4670  -999.2500    63.3530     5.4820     4.7950     7.2150    24.7160 
  214.5000     2.4700  -999.2500    63.3530     5.4820     4.7950     6.8810    24.6880 
  214.6250     2.4540  -999.2500    63.3530     5.4820     4.7950     6.6030    24.6860 
  214.7500     2.4370  -999.2500    63.3530     5.4820     4.7950     6.4890    24.6980 
  214.8750     2.4260  -999.2500    63.3530     5.4820     4.7950     6.6240    24.6910 
  215.0000     2.4080  -999.2500    63.3530     5.4820     4.7950     6.9140    24.6890 
  215.1250     2.3630  -999.2500    63.3530     5.4820     4.7950     7.2100    24.7070 
  215.2500     2.2740  -999.2500    63.3530     5.4820     4.7950     7.1070    24.7680 
  215.3750     2.1470  -999.2500    63.3530     5.4820     4.7950     7.0560    24.7840 
  215.5000     2.0270  -999.2500    63.3530     5.4820     4.7950     5.4180    24.9220 
  215.6250     1.8950  -999.2500    63.3530     5.4820     4.7950     4.5510    23.9880 
  215.7500     1.7520  -999.2500    63.3530     5.4820     4.7950     3.8890    21.6060 
  215.8750     1.6620  -999.2500    63.3530     5.4820     4.7950     3.4960    18.8420 
  216.0000     1.6240  -999.2500    63.3530     5.4820     4.7950     3.3670    17.4190 
  216.1250     1.6180  -999.2500    63.3530     5.4820     4.7950     3.3620    17.2180 
  216.2500     1.6180  -999.2500    63.3530     5.4820     4.7950     3.3620    17.2190 
  216.3750     1.6160  -999.2500    63.3530     5.4820     4.7950     3.3620    17.2200 
  216.5000     1.6140  -999.2500    63.3530     5.4820     4.7950     3.3610    17.2160 
  216.6250     1.6100  -999.2500    63.3530     5.4820     4.7950     3.3610    17.2150 
  216.7500     1.6050  -999.2500    63.3530     5.4820     4.7950     3.3610    17.2170 
  216.8750     1.6000  -999.2500    63.3530     5.4820     4.7950     3.3610    17.2180 
  217.0000     1.5970  -999.2500    63.3530     5.4820     4.7950     3.3610    17.2130 
