~V
VERS. 2.00: Ver 2.00
~W
STRT.M 60.0000:
STOP.M 282.0000:
STEP.M 0.1250:
NULL. -999.2500:
UWI. F11159:
~C
DEPT.M :
GR.API :
RML.OHMM :
RI. :
RXO.OHMM :
CALI.CM :
SP.MV :
DEN.GM/CC :
~A
# ...
  161.2500    76.8770    15.8100    17.0200    24.1810    24.6770   -19.5250     2.2880 
  161.3750    86.1640    11.5790    12.5090    12.6290    24.5600   -19.5370     2.2950 
  161.5000    92.1950     9.3350     9.9050     9.0280    24.5400   -19.5920     2.3010 
  161.6250    92.7780     8.5220     8.7300     8.4070    24.5400   -19.7050     2.3080 
  161.7500    92.4800     8.3850     8.3140     8.3270    24.5430   -19.8670     2.3130 
  161.8750    93.0490     8.5750     8.3540     8.2470    24.5650   -20.0880     2.3160 
  162.0000    92.0470     8.8460     8.5940     8.0610    24.6880   -20.3430     2.3180 
  162.1250    91.2460     9.0460     8.8340     7.8430    24.8360   -20.6160     2.3260 
  162.2500    94.2780     9.1510     8.9930     8.0210    24.8470   -20.8890     2.3390 
  162.3750    97.6910     9.1640     9.0560     8.4250    24.7970   -21.1530     2.3540 
  162.5000    95.8980     9.1110     9.0370     8.8420    24.6580   -21.3930     2.3650 
  162.6250    91.2560     9.1040     9.0150     8.9960    24.6360   -21.5800     2.3650 
  162.7500    89.5120     9.3430     9.1400     9.2490    24.6290   -21.7380     2.3540 
  162.8750    88.4490    10.0570     9.5920     9.7690    24.6180   -21.8540     2.3360 
  163.0000    84.2700    11.4400    10.5520    10.7970    24.5620   -21.9360     2.3180 
  163.1250    80.5210    13.6630    12.2660    13.4600    24.5500   -21.9910     2.3050 
  163.2500    80.1630    16.3130    14.5460    18.5660    24.5420   -22.0400     2.2980 
  163.3750    81.6930    18.7150    16.9410    25.2490    24.5470   -22.0700     2.2910 
  163.5000    82.9720    19.9700    18.6180    29.5750    24.5670   -22.0950     2.2830 
  163.6250    82.4800    19.2240    18.5400    26.5000    24.7450   -22.1160     2.2770 
  163.7500    83.4200    17.2290    17.1190    22.0970    25.3930   -22.1370     2.2750 
  163.8750    86.2090    14.8900    15.1280    18.4570    26.0310   -22.1720     2.2790 
  164.0000    90.2240    12.8740    13.2280    15.6100    25.8960   -22.2230     2.2880 
  164.1250    94.6250    11.4870    11.7810    14.1930    25.6240   -22.2730     2.3000 
  164.2500    96.1770    10.5310    10.7120    12.8700    25.4900   -22.3510     2.3110 
  164.3750    94.7720     9.8490     9.9260    11.4710    25.0950   -22.4520     2.3200 
  164.5000    91.9700     9.3240     9.3350    10.1950    24.3930   -22.5710     2.3270 
  164.6250    91.8600     8.9100     8.9050     9.5450    24.2650   -22.7070     2.3310 
  164.7500    94.3210     8.6270     8.6220     9.3060    24.2350   -22.8610     2.3350 
  164.8750    97.9250     8.5880     8.5620     9.0470    24.2340   -23.0100     2.3390 
  165.0000   102.2040     8.9240     8.8290     8.8030    24.2340   -23.1440     2.3420 
  165.1250   104.6770     9.7900     9.5790     9.2270    24.2340   -23.2530     2.3430 
  165.2500   102.9910    11.0660    10.7510    10.8630    24.2340   -23.3250     2.3410 
  165.3750    98.6610    12.5620    12.2320    14.6720    24.2350   -23.3600     2.3390 
  165.5000    94.9560    13.9510    13.7420    20.7420    24.2400   -23.3580     2.3370 
  165.6250    91.4250    14.7480    14.7600    20.8230    24.2690   -23.3550     2.3350 
  165.7500    88.2130    14.8830    15.0780    17.4840    24.3160   -23.3460     2.3360 
  165.8750    87.9570    14.5200    14.7870    14.3860    24.3380   -23.3370     2.3390 
  166.0000    90.0080    13.9590    14.1720    13.3980    24.3900   -23.3460     2.3440 
  166.1250    88.9710    13.5580    13.5900    13.9230    24.4510   -23.4130     2.3500 
  166.2500    85.1580    13.5110    13.2760    15.6130    24.4630   -23.5170     2.3520 
  166.3750    84.6550    13.9020    13.3290    16.5200    24.4700   -23.6710     2.3470 
  166.5000    89.9630    14.8240    13.8220    16.2700    24.4720   -23.8830     2.3360 
  166.6250    95.4950    16.6310    15.0170    18.1240    24.4650   -24.1330     2.3200 
  166.7500    96.8180    19.5710    17.1120    23.1690    24.4630   -24.4110     2.3030 
  166.8750    93.8240    24.1100    20.5140    28.1030    24.4620   -24.7210     2.2850 
  167.0000    90.7220    30.8830    25.8740    31.9030    24.4550   -25.0550     2.2640 
  167.1250    87.2680    41.2270    34.7490    36.9980    24.4630   -25.3890     2.2390 
  167.2500    78.7690    55.0750    47.4670    52.1000    24.5070   -25.7200     2.2160 
  167.3750    68.9560    71.6730    63.6030    78.2750    24.5780   -26.0470     2.1980 
  167.5000    64.0080    88.2450    80.7500   105.5610    24.6030   -26.3430     2.1890 
  167.6250    64.7990    97.8500    92.7550   116.0970    24.6060   -26.6100     2.1920 
  167.7500    64.2600    96.7570    95.2540   104.1820    24.5730   -26.8460     2.2010 
  167.8750    62.3890    86.9410    88.4930    88.6490    24.5450   -27.0600     2.2100 
  168.0000    61.2620    74.5700    77.2370    75.3330    24.5400   -27.2520     2.2150 
  168.1250    63.5110    65.6770    67.4800    60.7080    24.5400   -27.4230     2.2100 
  168.2500    68.0330    61.8190    61.9930    43.3700    24.5410   -27.5760     2.1990 
  168.3750    71.4730    63.0490    61.4200    33.6330    24.5260   -27.7370     2.1870 
  168.5000    70.7190    68.7540    65.5260    38.1210    24.4750   -27.9240     2.1820 
  168.6250    67.2350    78.0470    73.7780    70.4960    24.4630   -28.0970     2.1880 
  168.7500    65.7330    88.3150    83.6230   120.5560    24.4460   -28.2930     2.1980 
  168.8750    66.6940    97.8200    93.1890   101.8980    24.4070   -28.4840     2.2040 
  169.0000    68.1860   106.7000   102.1980    60.2200    24.4270   -28.6620     2.1980 
  169.1250    66.4450   119.0450   114.5500    57.0710    24.6520   -28.8450     2.1780 
  169.2500    60.6780   139.3450   135.0990    81.8790    24.8230   -29.0160     2.1560 
  169.3750    55.6900   172.7630   164.3340   152.1750    24.8510   -29.1500     2.1390 
  169.5000    55.2520   214.0870   201.8180   290.2540    24.8470   -29.2480     2.1330 
  169.6250    58.6680   245.7710   230.0000   419.6900    24.8020   -29.3360     2.1390 
  169.7500    61.3970   249.9750   229.6940   356.8510    24.7480   -29.3820     2.1490 
  169.8750    61.8460   227.2370   205.0900   226.1350    24.7020   -29.4190     2.1580 
  170.0000    61.1940   194.8160   175.6120   138.0210    24.6370   -29.4310     2.1630 
  170.1250    63.1450   169.6990   155.1500   100.8130    24.6170   -29.4050     2.1630 
  170.2500    68.2470   154.3610   143.1770    90.6030    24.6100   -29.3760     2.1610 
  170.3750    71.5060   146.3280   136.9820    94.1300    24.6030   -29.3520     2.1600 
  170.5000    69.4860   142.4760   133.8160   100.9450    24.5410   -29.3150     2.1590 
  170.6250    64.6870   140.3010   131.5320   101.6800    24.4140   -29.2750     2.1580 
  170.7500    63.4030   138.0930   129.0080    90.9540    24.2090   -29.2270     2.1590 
  170.8750    65.0160   135.8170   126.5630    75.5480    24.1570   -29.1780     2.1610 
  171.0000    65.9280   134.2520   125.0970    67.2100    24.1210   -29.1440     2.1640 
  171.1250    65.1990   134.5240   125.5740    68.0310    24.0000   -29.1240     2.1640 
  171.2500    64.1810   136.3820   127.4840    70.6310    23.9190   -29.1050     2.1530 
  171.3750    63.8730   139.1400   130.0200    77.7320    23.6650   -29.0660     2.1330 
  171.5000    65.1540   141.9100   132.2500    85.1630    23.2730   -29.0340     2.1100 
  171.6250    69.0750   143.6390   133.1640    84.4430    23.5900   -29.0110     2.0970 
  171.7500    72.2400   144.0170   132.6720    74.7560    24.5470   -29.0130     2.0970 
  171.8750    70.9100   143.1010   130.9420    71.4760    25.6880   -29.0010     2.1060 
  172.0000    67.1300   141.1240   128.2290    84.2330    25.9710   -28.9670     2.1130 
  172.1250    67.1710   138.1510   124.6030   101.3190    25.9610   -28.9080     2.1030 
  172.2500    69.0610   134.3770   120.2330   112.3190    25.9550   -28.8330     2.0820 
  172.3750    68.5860   129.5350   114.8740   112.7200    25.9890   -28.7670     2.0620 
