~V
VERS. 2.00: Ver 2.00
~W
STRT.M 58.0000:
STOP.M 208.0000:
STEP.M 0.1250:
NULL. -999.2500:
UWI. F11103:
~C
DEPT.M :
DEN.GM/CC :
SP.MV :
GR.API :
RML.OHMM :
RI. :
RXO.OHMM :
CALI.CM :
~A
# ...
  170.5000     2.1920   -39.8140    55.5350   168.8160   155.9630   204.1780    25.8960 
  170.6250     2.1950   -39.8920    55.5460   166.9660   153.8290   210.7690    25.8080 
  170.7500     2.1970   -39.9060    55.1450   167.8050   154.0230   190.8820    25.7930 
  170.8750     2.1980   -39.8810    54.6260   172.4020   157.7290   163.7650    25.7920 
  171.0000     2.1960   -39.7470    52.4320   180.7150   165.4030   151.7610    25.7920 
  171.1250     2.1930   -39.5680    51.3600   188.9620   173.9430   171.7500    25.7880 
  171.2500     2.1890   -39.3290    54.5140   192.4200   179.2780   233.0040    25.7630 
  171.3750     2.1850   -39.0350    59.6100   187.2390   177.6050   317.5560    25.6180 
  171.5000     2.1810   -38.7450    62.1580   173.0400   167.2660   298.4730    25.3900 
  171.6250     2.1800   -38.3950    62.4880   156.5480   153.4320   201.0820    25.2380 
  171.7500     2.1810   -38.0310    62.4440   142.1260   140.3110   137.4750    25.1730 
  171.8750     2.1830   -37.6090    61.8940   131.3330   130.1300   118.0140    25.1630 
  172.0000     2.1880   -37.1200    61.3280   123.5310   122.9330   125.0310    25.1620 
  172.1250     2.1930   -36.6090    61.5260   116.3220   116.4580   138.1620    25.1520 
  172.2500     2.1980   -36.0300    63.0690   108.8210   109.5150   137.5300    25.0910 
  172.3750     2.2020   -35.4320    66.1220   101.6530   102.3200   119.2300    24.8910 
  172.5000     2.2050   -34.7640    69.8410    97.2260    96.9550   101.3350    24.5990 
  172.6250     2.2050   -34.1210    71.1230    97.1850    95.4140    87.3900    24.3450 
  172.7500     2.2030   -33.5370    69.0580   102.6560    99.1790    82.2430    24.3320 
  172.8750     2.1990   -32.9990    64.4970   114.0240   108.8620    92.7600    24.6020 
  173.0000     2.1900   -32.5750    59.2910   131.2320   124.4630   124.4310    24.8980 
  173.1250     2.1800   -32.1950    56.1110   150.2900   142.0840   180.0020    25.0040 
  173.2500     2.1690   -31.8910    56.5810   166.1050   157.0010   223.9760    24.8930 
  173.3750     2.1610   -31.6220    59.2970   173.7240   164.5510   204.8320    24.6570 
  173.5000     2.1630   -31.3360    59.9850   171.6960   162.5680   179.0300    24.6170 
  173.6250     2.1800   -31.0550    57.7820   166.9840   156.9780   174.9160    24.5690 
  173.7500     2.2130   -30.7160    55.4180   164.5790   152.7930   163.3190    24.2160 
  173.8750     2.2650   -30.3670    55.4510   166.7290   152.8230   137.4190    24.1180 
  174.0000     2.3350   -29.9600    57.4180   173.3150   157.5230   143.2460    23.7120 
  174.1250     2.4150   -29.5350    57.8450   180.9630   163.7260   184.6630    23.3580 
  174.2500     2.4980   -29.1140    55.7730   187.3010   169.0280   247.2310    23.3300 
  174.3750     2.5740   -28.7030    54.2790   191.6750   172.4980   264.8610    23.3370 
  174.5000     2.6340   -28.3970    55.2870   195.6110   175.2620   225.2740    23.3180 
  174.6250     2.6760   -28.1060    55.8880   200.6170   179.0380   206.2330    23.2520 
  174.7500     2.7010   -27.8610    54.8620   204.9890   183.0280   247.2210    23.1710 
  174.8750     2.7110   -27.6130    53.8010   203.0290   183.1350   386.4800    23.0700 
  175.0000     2.7070   -27.3830    53.0830   182.9700   169.6520   605.8830    23.0750 
  175.1250     2.6920   -27.1740    50.2760   144.7110   139.4600   563.6100    23.1670 
  175.2500     2.6650   -26.9290    47.6400    99.1590    98.8600   321.9620    23.2120 
  175.3750     2.6270   -26.6930    49.7960    60.3700    61.1100   149.3040    23.1320 
  175.5000     2.5760   -26.4390    53.2130    36.2030    36.5670    61.1170    23.1170 
  175.6250     2.5170   -26.2030    51.6110    22.1210    22.2680    28.2790    23.1120 
  175.7500     2.4570   -25.9950    47.3880    14.5870    14.6160    15.9330    23.1120 
  175.8750     2.4030   -25.8290    46.3250    10.9360    10.7890    10.9490    23.1120 
  176.0000     2.3640   -25.7610    48.5210     9.6540     9.2830     9.3920    23.1110 
  176.1250     2.3430   -25.7290    50.2920     9.4190     8.8640     8.6810    23.1000 
  176.2500     2.3360   -25.7850    52.1970     9.7860     9.1550     8.4710    23.0600 
  176.3750     2.3400   -25.8550    55.4110    10.3880     9.8230     8.6900    23.0620 
  176.5000     2.3450   -25.9280    56.9780    10.7840    10.4090     9.5380    23.0640 
  176.6250     2.3440   -25.9880    54.9860    10.6810    10.5090    10.3410    22.8800 
  176.7500     2.3320   -25.9750    51.3670    10.0110     9.9900    10.0280    23.1430 
  176.8750     2.3090   -25.9370    48.7460     8.9310     8.9970     8.6390    23.3760 
  177.0000     2.2790   -25.8660    48.7040     7.7850     7.8570     7.1540    23.4310 
  177.1250     2.2500   -25.8950    50.0610     6.9100     6.9110     6.5750    23.4030 
  177.2500     2.2300   -26.0160    52.8830     6.4360     6.3030     6.8820    23.4480 
  177.3750     2.2220   -26.2570    57.2640     6.3750     6.0610     7.2080    23.4850 
  177.5000     2.2280   -26.6750    62.3600     6.7130     6.1810     6.5760    23.1510 
  177.6250     2.2430   -27.2890    66.1900     7.2640     6.5080     6.6840    23.1240 
  177.7500     2.2630   -28.1640    70.2910     7.8890     6.9260     7.5460    23.2260 
  177.8750     2.2820   -29.2430    76.8200     8.4580     7.3280     8.2720    23.4090 
  178.0000     2.2970   -30.5240    85.6370     8.8900     7.6400     8.4060    23.5470 
  178.1250     2.3080   -31.8450    92.4880     9.2320     7.8780     8.2710    23.7680 
  178.2500     2.3170   -33.1790    96.2060     9.5330     8.0700     8.5060    23.8070 
  178.3750     2.3230   -34.4820    99.0360     9.8210     8.2380     8.8550    23.8320 
  178.5000     2.3280   -35.6840   100.0970    10.0910     8.3860     9.1580    23.9490 
  178.6250     2.3310   -36.6960    96.7660    10.3340     8.5050     9.4210    24.0240 
  178.7500     2.3330   -37.4610    87.7500    10.5340     8.5780     9.6450    24.0380 
  178.8750     2.3360   -37.9940    77.1700    10.6830     8.6030     9.9770    24.0470 
  179.0000     2.3410   -38.1900    75.5230    10.7650     8.5810    10.4410    24.0420 
  179.1250     2.3480   -38.1510    82.3170    10.8030     8.5390     9.9970    24.0340 
  179.2500     2.3570   -37.8510    90.4090    10.8350     8.5130     9.1390    23.9550 
  179.3750     2.3650   -37.3440    92.4260    10.9110     8.5430     8.8060    23.8480 
  179.5000     2.3740   -36.6420    88.6750    11.0770     8.6670     9.2060    23.8150 
  179.6250     2.3820   -35.8610    86.5400    11.3160     8.8600     9.8650    23.7990 
  179.7500     2.3910   -35.0670    87.1070    11.5750     9.0660    10.7670    23.8250 
  179.8750     2.3990   -34.2880    89.1380    11.7560     9.1970    11.8630    23.8820 
  180.0000     2.4070   -33.6130    91.5800    11.6810     9.1160    11.4900    23.8900 
  180.1250     2.4110   -32.9950    92.8310    11.3000     8.8060    10.0210    23.8870 
  180.2500     2.4120   -32.4920    92.4300    10.6550     8.3150     9.0760    23.8740 
  180.3750     2.4080   -32.0870    92.7100     9.9160     7.7560     8.7720    23.7610 
  180.5000     2.3990   -31.8130    95.9200     9.3710     7.3050     8.1760    23.6860 
  180.6250     2.3880   -31.6580    97.3610     9.1980     7.0880     7.5550    23.6600 
  180.7500     2.3770   -31.6440    93.2420     9.4680     7.1750     7.4420    23.7140 
  180.8750     2.3710   -31.7110    86.8110    10.1650     7.5860     8.0230    23.6700 
  181.0000     2.3730   -31.8190    84.3230    11.2780     8.3460     9.0450    23.3970 
  181.1250     2.3810   -31.9190    84.8790    12.6120     9.3260    10.6500    23.1350 
  181.2500     2.3940   -31.9640    84.9570    13.9520    10.3770    12.8670    22.8880 
  181.3750     2.4090   -31.9690    83.8470    14.9960    11.2780    13.9000    22.8690 
  181.5000     2.4190   -31.8550    81.5200    15.2900    11.6840    14.3410    22.8740 
  181.6250     2.4240   -31.6250    82.0640    14.7690    11.4930    15.0440    22.8450 
