~V
VERS. 2.00: Ver 2.00
~W
STRT.M 50.0000:
STOP.M 245.0000:
STEP.M 0.1250:
NULL. -999.2500:
UWI. F11135:
~C
DEPT.M :
GR.API :
RML.OHMM :
RI. :
RXO.OHMM :
CALI.CM :
SP.MV :
DEN.GM/CC :
~A
# ...
  106.2500    57.9610    10.9810     7.4090    10.8710    23.6960   -30.6420     2.2170 
  106.3750    61.2720    11.5350     7.7980    10.5160    23.7290   -30.7930     2.2480 
  106.5000    62.6390    11.9920     8.1310    10.0910    23.8310   -30.9440     2.2710 
  106.6250    59.9190    12.0870     8.2710    10.1660    23.9430   -31.0580     2.2670 
  106.7500    55.8520    11.8110     8.2310    10.3470    24.0240   -31.1810     2.2410 
  106.8750    53.9740    11.3110     8.0680    10.3590    24.0710   -31.2860     2.2040 
  107.0000    56.8610    10.8380     7.8530    10.2420    24.0720   -31.4000     2.1720 
  107.1250    61.2480    10.6060     7.6340    10.1270    24.0740   -31.5110     2.1530 
  107.2500    63.1640    10.5470     7.4290    10.0440    24.0800   -31.6260     2.1470 
  107.3750    63.5000    10.5160     7.2460     9.8690    24.0810   -31.7210     2.1470 
  107.5000    63.9780    10.4170     7.1040     9.3570    24.0810   -31.8320     2.1490 
  107.6250    62.3030    10.2820     7.0550     8.9040    24.0810   -31.9770     2.1490 
  107.7500    59.3380    10.2060     7.1190     9.0040    24.0810   -32.1190     2.1460 
  107.8750    57.8130    10.2390     7.2860     9.6010    24.0860   -32.2740     2.1400 
  108.0000    56.7610    10.3890     7.5200    10.2690    24.1070   -32.3990     2.1370 
  108.1250    55.6330    10.6310     7.7670    10.7670    24.1860   -32.5110     2.1390 
  108.2500    56.1030    10.8510     7.9720    11.0160    24.2310   -32.5420     2.1470 
  108.3750    56.4180    10.9060     8.0970    11.1100    24.2460   -32.5220     2.1570 
  108.5000    54.7270    10.6660     8.1060    11.0980    24.2610   -32.4400     2.1650 
  108.6250    53.1830    10.1100     7.9540    10.9550    24.3500   -32.2920     2.1650 
  108.7500    54.9200     9.4990     7.6810    10.6320    24.4850   -32.1220     2.1610 
  108.8750    58.4060     9.0690     7.3480    10.0850    24.6980   -31.9390     2.1570 
  109.0000    61.4680     8.9330     7.0440     9.1970    24.8600   -31.8230     2.1560 
  109.1250    61.5500     9.0680     6.8800     8.6160    24.9430   -31.7400     2.1610 
  109.2500    58.6690     9.2850     6.8810     8.8860    24.9710   -31.7150     2.1650 
  109.3750    54.4110     9.4890     7.0210     9.7250    25.0060   -31.6810     2.1660 
  109.5000    51.6820     9.6300     7.2320    10.2860    25.0160   -31.6570     2.1620 
  109.6250    52.5410     9.6400     7.4110    10.2750    25.0150   -31.6530     2.1520 
  109.7500    55.4030     9.5420     7.4970    10.0300    25.0240   -31.6230     2.1390 
  109.8750    57.7930     9.4130     7.4850     9.7350    25.0830   -31.5690     2.1260 
  110.0000    57.9480     9.3810     7.4120     9.5580    25.1320   -31.4240     2.1150 
  110.1250    55.6950     9.5440     7.3160     9.5270    25.1920   -31.2080     2.1080 
  110.2500    53.4350     9.7730     7.2170     9.6040    25.2390   -30.9290     2.1060 
  110.3750    52.9800     9.9310     7.1200     9.7830    25.2460   -30.6400     2.1090 
  110.5000    53.9400     9.9670     7.0380     9.7810    25.2820   -30.2690     2.1150 
  110.6250    55.1750     9.9230     7.0030     9.4160    25.3240   -29.7950     2.1240 
  110.7500    56.9920     9.8620     7.0380     8.8480    25.3310   -29.2700     2.1320 
  110.8750    59.3970     9.7670     7.1220     8.6260    25.3420   -28.6760     2.1410 
  111.0000    60.0380     9.5940     7.1540     8.7950    25.3460   -28.0400     2.1480 
  111.1250    59.8100     9.2440     6.9270     8.9680    25.3470   -27.3020     2.1550 
  111.2500    63.0930     8.7020     6.4050     8.8290    25.3490   -26.5530     2.1620 
  111.3750    69.0890     8.0580     5.6980     8.1150    25.3620   -25.8080     2.1720 
  111.5000    75.5600     7.4960     5.0090     6.7100    25.3740   -25.1940     2.1860 
  111.6250    81.9700     7.2380     4.5800     5.3000    25.3650   -24.7260     2.1980 
  111.7500    88.1070     7.3570     4.4790     5.1380    25.3680   -24.3570     2.2050 
  111.8750    90.1640     7.8490     4.7080     6.0730    25.3470   -24.0400     2.2060 
  112.0000    85.9100     8.5340     5.1980     7.2380    25.3700   -23.7400     2.2050 
  112.1250    78.7020     8.9790     5.7800     7.8190    25.4080   -23.5230     2.2070 
  112.2500    75.0680     8.8900     6.1860     7.8010    25.4380   -23.3220     2.2140 
  112.3750    75.4780     8.2900     6.2640     7.1060    25.5590   -23.1520     2.2220 
  112.5000    78.3210     7.4660     6.0510     5.9980    25.6810   -22.9700     2.2290 
  112.6250    82.0570     6.7990     5.7270     5.5750    25.7040   -22.8110     2.2290 
  112.7500    84.9030     6.4500     5.4780     5.8580    25.7310   -22.6430     2.2260 
  112.8750    84.8480     6.3630     5.3670     6.1980    25.8130   -22.5340     2.2210 
  113.0000    80.6860     6.3840     5.4020     6.1070    25.9790   -22.4870     2.2150 
  113.1250    76.1190     6.4190     5.5660     6.3090    26.0170   -22.4910     2.2080 
  113.2500    73.6350     6.4910     5.7710     6.6900    26.0160   -22.5170     2.2010 
  113.3750    71.1860     6.6350     5.9380     6.9400    26.0270   -22.5240     2.1940 
  113.5000    67.3130     6.8380     6.0030     6.9070    26.0360   -22.4670     2.1880 
  113.6250    63.3230     6.9690     5.9140     7.0100    26.0620   -22.2640     2.1870 
  113.7500    66.2160     6.8460     5.7280     6.7540    26.1430   -22.0520     2.1920 
  113.8750    76.9210     6.4610     5.5220     6.2840    26.2620   -21.8120     2.2060 
  114.0000    86.8830     6.0690     5.3800     5.7130    26.4510   -21.5990     2.2320 
  114.1250    87.7400     6.1200     5.3750     5.7310    26.6650   -21.4200     2.2720 
  114.2500    83.8720     6.6590     5.4800     6.3960    26.3920   -21.3210     2.3140 
  114.3750    79.4780     7.4600     5.6490     7.2760    25.9210   -21.3360     2.3430 
  114.5000    75.3750     8.1510     5.8090     7.0000    25.6720   -21.4760     2.3490 
  114.6250    72.8380     8.3470     5.8670     6.8760    25.6410   -21.8130     2.3280 
  114.7500    74.5930     8.1330     5.8050     6.6440    25.6270   -22.2260     2.2980 
  114.8750    78.1130     7.7710     5.6510     6.1700    25.6140   -22.7400     2.2700 
  115.0000    80.6020     7.5110     5.4720     5.9530    25.6220   -23.3180     2.2500 
  115.1250    81.0290     7.5210     5.3650     6.0350    25.7690   -24.0040     2.2320 
  115.2500    79.2860     7.8190     5.4050     6.1670    25.8250   -24.7790     2.2110 
  115.3750    75.7990     8.4410     5.6500     6.2850    25.8530   -25.6410     2.1820 
  115.5000    71.4970     9.3710     6.1300     6.6250    25.8570   -26.5880     2.1490 
  115.6250    66.6390    10.4910     6.8430     8.3140    25.8030   -27.5550     2.1220 
  115.7500    61.5070    11.4870     7.5990    11.7840    25.7680   -28.5500     2.1100 
  115.8750    56.4360    12.0480     8.1560    15.0680    25.7300   -29.4760     2.1180 
  116.0000    53.3140    11.9440     8.2900    14.0610    25.6500   -30.3040     2.1420 
  116.1250    54.7240    11.1440     7.9160    10.7690    25.3080   -30.9140     2.1690 
  116.2500    59.1600    10.1220     7.3350     8.7080    25.0840   -31.3260     2.1850 
  116.3750    63.2640     9.2240     6.7760     7.8330    25.1590   -31.5410     2.1820 
  116.5000    65.6280     8.6220     6.3670     7.2960    25.4740   -31.6330     2.1600 
  116.6250    65.1130     8.3400     6.1520     6.9550    25.5090   -31.7060     2.1260 
  116.7500    62.4200     8.2290     6.0560     6.9710    25.3880   -31.7730     2.0920 
  116.8750    60.2330     8.2130     6.0430     7.1910    25.2630   -31.9540     2.0660 
  117.0000    60.9870     8.2600     6.1050     7.4330    25.1790   -32.2670     2.0490 
  117.1250    62.3030     8.4030     6.2420     7.7330    24.9710   -32.7780     2.0440 
  117.2500    60.3440     8.6250     6.4170     7.8150    24.8760   -33.4260     2.0460 
  117.3750    56.7720     8.8540     6.5960     7.8830    24.7960   -34.1790     2.0530 
