~V
VERS. 2.00: Ver 2.00
~W
STRT.M 50.0000:
STOP.M 240.0000:
STEP.M 0.1250:
NULL. -999.2500:
UWI. F11117:
~C
DEPT.M :
DEN.GM/CC :
GR.API :
RML.OHMM :
RI. :
RXO.OHMM :
CALI.CM :
SP.MV :
~A
# ...
   61.2500     2.0560    56.1150     4.8270     6.0900     7.5190    26.3610   -21.2070 
   61.3750     2.0770    57.7290     4.9870     6.2100     7.5200    26.2650   -21.7270 
   61.5000     2.0950    60.5360     5.1050     6.2960     7.5520    26.1980   -22.1090 
   61.6250     2.1070    61.4500     5.2110     6.3550     7.5270    26.2470   -22.3780 
   61.7500     2.1120    60.6750     5.3440     6.4170     7.6750    26.2690   -22.6050 
   61.8750     2.1120    60.4100     5.5070     6.4930     7.8400    26.2700   -22.8130 
   62.0000     2.1090    61.4800     5.6860     6.5800     7.8560    26.1970   -23.0090 
   62.1250     2.1080    62.8230     5.8520     6.6600     7.8500    26.0100   -23.2220 
   62.2500     2.1100    62.3080     5.9920     6.7170     7.8970    25.8590   -23.4440 
   62.3750     2.1150    62.1910     6.1110     6.7540     7.9230    25.8310   -23.6530 
   62.5000     2.1240    65.1430     6.2170     6.7810     8.0470    26.0190   -23.8550 
   62.6250     2.1330    67.7280     6.3170     6.8140     8.8680    26.4120   -24.0680 
   62.7500     2.1400    65.5080     6.4040     6.8500    11.2330    27.1490   -24.2620 
   62.8750     2.1420    60.7120     6.4670     6.8740    14.8920    27.9620   -24.4750 
   63.0000     2.1390    58.5370     6.4940     6.8730    14.8390    28.0100   -24.6940 
   63.1250     2.1330    59.1290     6.4780     6.8350    10.8570    27.4650   -24.8930 
   63.2500     2.1280    60.6410     6.4300     6.7670     8.9680    27.0860   -25.0890 
   63.3750     2.1260    64.1700     6.3620     6.6800     8.3920    27.0290   -25.3080 
   63.5000     2.1270    67.7190     6.2900     6.5880     8.2630    27.1430   -25.5330 
   63.6250     2.1270    67.1880     6.2350     6.5090     8.1320    27.2880   -25.7720 
   63.7500     2.1230    65.6860     6.2090     6.4540     7.9250    27.3450   -26.0450 
   63.8750     2.1180    68.1260     6.2230     6.4310     7.8080    27.3620   -26.3260 
   64.0000     2.1120    71.9340     6.2740     6.4420     7.9660    27.3830   -26.6290 
   64.1250     2.1100    70.9170     6.3530     6.4880     8.2000    27.5020   -26.9260 
   64.2500     2.1120    67.3950     6.4380     6.5480     8.3870    27.6370   -27.1520 
   64.3750     2.1170    65.0370     6.5160     6.6060     8.5050    27.6580   -27.3470 
   64.5000     2.1250    64.6890     6.5840     6.6540     8.4630    27.7370   -27.5110 
   64.6250     2.1310    63.9430     6.6500     6.6880     8.3370    27.9150   -27.5850 
   64.7500     2.1370    63.3600     6.7220     6.7210     8.3300    28.0620   -27.5580 
   64.8750     2.1410    62.7020     6.7910     6.7540     8.5170    28.1200   -27.3990 
   65.0000     2.1450    61.3570     6.8320     6.7740     8.6980    28.1470   -27.0990 
   65.1250     2.1500    61.4890     6.8110     6.7500     8.6490    28.2010   -26.6380 
   65.2500     2.1530    64.2050     6.7310     6.6700     8.4950    28.3870   -26.0940 
   65.3750     2.1530    68.3770     6.6130     6.5410     8.2280    28.6240   -25.4720 
   65.5000     2.1490    73.5220     6.4900     6.3900     7.7720    28.9270   -24.8010 
   65.6250     2.1440    78.7290     6.4070     6.2590     7.5460    29.0220   -24.1670 
   65.7500     2.1390    80.0260     6.3780     6.1770     7.6160    28.9030   -23.5700 
   65.8750     2.1360    75.5720     6.3990     6.1520     7.7800    28.6620   -23.0600 
   66.0000     2.1360    70.5490     6.4600     6.1750     7.7110    28.6580   -22.6500 
   66.1250     2.1380    68.8700     6.5690     6.2470     7.7670    28.0370   -22.3780 
   66.2500     2.1440    66.5120     6.7210     6.3540     7.7840    27.7750   -22.2270 
   66.3750     2.1530    61.9730     6.9110     6.4910     7.7720    27.6860   -22.1780 
   66.5000     2.1660    58.1310     7.1240     6.6470     7.7470    27.6250   -22.1950 
   66.6250     2.1790    58.3490     7.3310     6.8090     7.8560    27.5580   -22.2250 
   66.7500     2.1840    60.6560     7.4950     6.9440     7.9500    27.4320   -22.2790 
   66.8750     2.1780    62.4350     7.5860     7.0220     7.8310    27.2220   -22.3700 
   67.0000     2.1600    62.1050     7.5970     7.0190     7.6780    27.0600   -22.4970 
   67.1250     2.1390    61.7750     7.5350     6.9280     7.5880    27.2840   -22.6770 
   67.2500     2.1240    65.1620     7.4560     6.7980     7.5060    27.3710   -22.9020 
   67.3750     2.1240    69.7900     7.4040     6.6780     7.5360    26.9680   -23.1730 
   67.5000     2.1380    70.8990     7.4090     6.6050     7.7800    26.3510   -23.5080 
   67.6250     2.1630    67.5010     7.4780     6.5990     8.2870    26.3170   -23.9340 
   67.7500     2.1870    63.3650     7.5730     6.6310     8.6550    26.3410   -24.4250 
   67.8750     2.1980    60.6010     7.6540     6.6710     8.4710    26.1550   -24.9610 
   68.0000     2.1930    60.1590     7.6750     6.6800     8.1960    25.7920   -25.5070 
   68.1250     2.1730    61.8170     7.5910     6.6140     8.1340    25.6390   -26.0410 
   68.2500     2.1520    63.6390     7.4400     6.4890     8.3160    25.6160   -26.5430 
   68.3750     2.1360    64.2980     7.2710     6.3440     8.5720    25.6540   -26.9800 
   68.5000     2.1280    63.4740     7.1400     6.2200     8.7420    25.8530   -27.3770 
   68.6250     2.1230    61.7360     7.0850     6.1580     8.7770    26.1890   -27.6990 
   68.7500     2.1110    61.5360     7.0900     6.1550     8.7440    26.2870   -27.9100 
   68.8750     2.0930    62.9250     7.1290     6.1930     8.5250    26.3610   -28.0210 
   69.0000     2.0720    62.5700     7.1810     6.2530     8.1950    26.5690   -28.0280 
   69.1250     2.0580    58.1680     7.2240     6.3160     8.2150    26.8910   -27.9370 
   69.2500     2.0540    54.8020     7.2540     6.3710     8.3730    26.8310   -27.7700 
   69.3750     2.0600    55.7450     7.2800     6.4180     8.2140    26.5680   -27.4970 
   69.5000     2.0680    59.5120     7.3200     6.4700     7.9390    26.4990   -27.1090 
   69.6250     2.0660    61.3680     7.3850     6.5380     7.7370    26.8680   -26.5790 
   69.7500     2.0500    59.0270     7.4470     6.6030     7.5860    27.2260   -25.9450 
   69.8750     2.0230    55.2310     7.4470     6.6240     7.4140    27.5410   -25.1740 
   70.0000     1.9910    55.1310     7.3200     6.5570     7.1710    27.8640   -24.3050 
   70.1250     1.9680    60.8620     7.0070     6.3530     6.8990    27.9680   -23.3290 
   70.2500     1.9650    67.2770     6.5720     6.0500     6.6670    27.6480   -22.2650 
   70.3750     1.9840    69.7020     6.1150     5.7100     6.4990    27.2320   -21.1640 
   70.5000     2.0200    70.3200     5.7580     5.4210     6.3770    27.0070   -20.0110 
   70.6250     2.0650    73.9740     5.6390     5.3010     6.2550    26.8210   -18.8580 
   70.7500     2.1060    79.9460     5.7470     5.3720     6.3190    26.5870   -17.7690 
   70.8750     2.1390    83.3120     6.0340     5.6170     6.5840    26.5890   -16.7360 
   71.0000     2.1620    80.7700     6.3940     5.9650     7.5950    26.3320   -15.7050 
   71.1250     2.1720    75.9670     6.6340     6.2580     8.7980    25.9040   -14.6060 
   71.2500     2.1740    73.3140     6.6130     6.3360     8.1380    26.1400   -13.4300 
   71.3750     2.1720    73.6210     6.2930     6.1280     6.8260    26.6900   -12.1760 
   71.5000     2.1760    76.6470     5.7520     5.6710     5.6540    27.5570   -10.8800 
   71.6250     2.1910    80.6190     5.1430     5.0840     5.1660    28.3710    -9.5790 
   71.7500     2.2150    85.0060     4.6070     4.5250     4.6390    28.7230    -8.2970 
   71.8750     2.2430    89.5110     4.1880     4.0590     4.0790    28.7610    -7.1110 
   72.0000     2.2680    95.2290     3.8820     3.7000     3.7670    28.9340    -6.1230 
   72.1250     2.2820   100.1580     3.7150     3.4690     3.7660    28.4770    -5.4720 
   72.2500     2.2880   102.5240     3.7430     3.3920     3.8550    28.5770    -5.1720 
   72.3750     2.2980   102.6920     4.0850     3.5540     3.9490    28.6850    -5.2610 
