~V
VERS. 2.00: Ver 2.00
~W
STRT.M 54.0000:
STOP.M 273.0000:
STEP.M 0.1250:
NULL. -999.2500:
UWI. F11158:
~C
DEPT.M :
SP.MV :
DEN.GM/CC :
GR.API :
RML.OHMM :
RI. :
RXO.OHMM :
CALI.CM :
~A
# ...
  110.2500   -31.7230     2.2010    70.5150    10.8780     9.0680    13.3060    25.0860 
  110.3750   -30.6270     2.2200    74.0280    11.0150     9.1030    12.3280    25.1130 
  110.5000   -29.4270     2.2310    73.7690    11.3240     9.2920    13.1810    25.1670 
  110.6250   -28.1450     2.2340    69.6790    11.5780     9.5040    14.9310    25.2810 
  110.7500   -26.7830     2.2300    66.7330    11.5200     9.5470    15.9540    25.5310 
  110.8750   -25.3890     2.2170    67.3940    11.1090     9.3410    16.2870    25.8680 
  111.0000   -24.0300     2.2010    70.3800    10.4630     8.9350    15.5680    26.1230 
  111.1250   -22.7630     2.1940    74.3550     9.7990     8.4670    12.6480    26.0520 
  111.2500   -21.5630     2.2050    80.0440     9.3070     8.0810     9.2140    25.6260 
  111.3750   -20.3480     2.2280    86.2280     9.0010     7.8220     8.6750    25.2160 
  111.5000   -19.1180     2.2530    90.1550     8.8000     7.6550     9.1630    24.9890 
  111.6250   -17.9190     2.2780    90.7870     8.5760     7.4910     9.1690    24.9140 
  111.7500   -16.8240     2.3070    89.7770     8.2000     7.2200     8.1390    24.9220 
  111.8750   -15.8740     2.3380    90.6020     7.6520     6.8020     6.9130    24.9560 
  112.0000   -15.0750     2.3590    93.7670     7.0010     6.2770     6.4520    24.9510 
  112.1250   -14.3980     2.3640    97.8050     6.3760     5.7380     6.1400    24.8170 
  112.2500   -13.8620     2.3590   102.2040     5.9150     5.2970     5.4260    24.5740 
  112.3750   -13.4880     2.3580   107.2560     5.6550     5.0000     4.7860    24.3570 
  112.5000   -13.2800     2.3650   110.9020     5.5700     4.8440     4.6270    24.2730 
  112.6250   -13.2190     2.3720   109.9200     5.5760     4.7850     4.7400    24.3070 
  112.7500   -13.2990     2.3770   105.2430     5.5650     4.7580     4.8990    24.3670 
  112.8750   -13.4570     2.3840   105.0630     5.4850     4.7050     4.9710    24.3790 
  113.0000   -13.6640     2.3950   108.7040     5.3740     4.6330     4.8770    24.3440 
  113.1250   -13.9190     2.4030   108.3580     5.3360     4.5970     4.7100    24.2830 
  113.2500   -14.2340     2.3960   101.5580     5.4920     4.6720     4.6810    24.2650 
  113.3750   -14.6210     2.3740    94.9770     5.8440     4.8820     5.0390    24.3160 
  113.5000   -15.0790     2.3420    91.4920     6.3270     5.2020     5.6800    24.4240 
  113.6250   -15.5830     2.3090    88.9620     6.8130     5.5630     6.1740    24.5140 
  113.7500   -16.1220     2.2790    86.4810     7.1550     5.8640     6.2200    24.5450 
  113.8750   -16.7200     2.2580    85.1450     7.3040     6.0450     6.0920    24.5140 
  114.0000   -17.3770     2.2450    84.1730     7.3070     6.1060     6.0190    24.4090 
  114.1250   -18.0940     2.2400    84.2400     7.2710     6.1020     6.0520    24.2470 
  114.2500   -18.8500     2.2420    84.1080     7.3120     6.1110     6.1740    24.1060 
  114.3750   -19.6110     2.2430    82.4560     7.4650     6.1770     6.3680    24.0100 
  114.5000   -20.3950     2.2340    79.6620     7.7130     6.3040     6.6380    23.9460 
  114.6250   -21.2200     2.2140    78.4150     8.0080     6.4760     7.0040    23.8960 
  114.7500   -22.1090     2.1900    80.3810     8.3050     6.6650     7.3650    23.8360 
  114.8750   -23.0170     2.1790    80.9110     8.5770     6.8450     7.5640    23.7410 
  115.0000   -23.9300     2.1880    78.2700     8.8220     7.0100     7.6010    23.6310 
  115.1250   -24.8440     2.2050    74.4630     9.0530     7.1630     7.6530    23.5520 
  115.2500   -25.7440     2.2180    73.7300     9.2760     7.3130     7.8810    23.5160 
  115.3750   -26.6290     2.2200    76.2380     9.4930     7.4630     8.2020    23.5210 
  115.5000   -27.5000     2.2120    78.2800     9.6870     7.6030     8.6140    23.5640 
  115.6250   -28.3470     2.1970    77.0080     9.8330     7.7150     9.0310    23.6580 
  115.7500   -29.1170     2.1740    72.8170     9.9040     7.7780     9.4680    23.7860 
  115.8750   -29.8060     2.1520    69.4410     9.9110     7.7950     9.8310    23.9350 
  116.0000   -30.4130     2.1340    67.9700     9.8680     7.7790    10.1590    24.0910 
  116.1250   -30.8960     2.1200    65.8200     9.8070     7.7500    10.4040    24.2460 
  116.2500   -31.2100     2.1140    63.0940     9.7670     7.7300    10.4690    24.3040 
  116.3750   -31.3790     2.1230    63.0600     9.7650     7.7310    10.4540    24.0590 
  116.5000   -31.3950     2.1430    63.9880     9.8040     7.7540    10.5470    23.7590 
  116.6250   -31.2650     2.1610    62.4940     9.8760     7.7970    10.6210    23.6510 
  116.7500   -30.9950     2.1670    60.2310     9.9660     7.8580    10.6520    23.7300 
  116.8750   -30.6130     2.1640    60.5860    10.0430     7.9210    10.6280    23.8450 
  117.0000   -30.1370     2.1620    62.5660    10.0610     7.9510    10.6010    23.9370 
  117.1250   -29.5740     2.1610    63.4180     9.9760     7.9130    10.6940    23.9820 
  117.2500   -28.9490     2.1650    63.4520     9.7660     7.7810    10.9440    23.9480 
  117.3750   -28.2990     2.1740    64.8130     9.4930     7.5940    10.8560    23.8430 
  117.5000   -27.6870     2.1900    68.7140     9.2430     7.4100     9.9520    23.7000 
  117.6250   -27.1810     2.2040    73.8170     9.1050     7.2980     8.5440    23.5630 
  117.7500   -26.8250     2.2080    75.5170     9.1330     7.3110     8.1590    23.4190 
  117.8750   -26.5760     2.2030    73.9730     9.2740     7.4360     8.9230    23.3010 
  118.0000   -26.3590     2.1950    72.7070     9.4740     7.6460     9.6420    23.2610 
  118.1250   -26.1410     2.1940    72.8040     9.6920     7.9060    10.2380    23.3310 
  118.2500   -25.8970     2.2010    71.6720     9.9280     8.1880    11.0390    23.4750 
  118.3750   -25.5960     2.2140    68.4420    10.1990     8.4740    11.8290    23.6130 
  118.5000   -25.1740     2.2300    65.1500    10.4860     8.7450    12.4760    23.6930 
  118.6250   -24.5630     2.2540    63.4390    10.6760     8.9370    12.8140    23.7190 
  118.7500   -23.7240     2.2810    63.6390    10.5840     8.9220    12.7000    23.7200 
  118.8750   -22.7370     2.3070    65.2400    10.1370     8.6390    12.0510    23.7010 
  119.0000   -21.7100     2.3270    67.7720     9.3930     8.1050    10.7410    23.6640 
  119.1250   -20.7260     2.3370    71.5480     8.5480     7.4520     8.9120    23.6170 
  119.2500   -19.8320     2.3340    77.6560     7.8510     6.8730     7.3150    23.5700 
  119.3750   -19.0590     2.3260    82.2750     7.4400     6.4970     6.5720    23.5590 
  119.5000   -18.4470     2.3170    79.7940     7.3390     6.3750     6.4500    23.6280 
  119.6250   -18.0020     2.3060    73.1290     7.5080     6.4990     6.7690    23.7950 
  119.7500   -17.7120     2.2950    71.9260     7.8580     6.8240     7.2980    24.0490 
  119.8750   -17.5330     2.2900    75.7920     8.2300     7.2130     7.3570    24.2650 
  120.0000   -17.4050     2.2900    77.6820     8.4990     7.5510     7.3480    24.3680 
  120.1250   -17.2440     2.2920    76.4350     8.5580     7.7220     7.8040    24.3880 
  120.2500   -17.0010     2.2970    76.2710     8.3550     7.6490     8.4180    24.3750 
  120.3750   -16.6830     2.3120    77.6020     7.9920     7.3950     8.3200    24.3480 
  120.5000   -16.3180     2.3340    78.7630     7.5830     7.0540     7.3810    24.2780 
  120.6250   -15.9410     2.3500    79.3070     7.2430     6.7270     6.2450    24.2060 
  120.7500   -15.5720     2.3430    77.9460     7.0580     6.5020     5.8700    24.2230 
  120.8750   -15.1820     2.3170    74.9490     7.0190     6.3950     6.5170    24.3830 
  121.0000   -14.7610     2.2800    70.8870     7.1230     6.4110     7.2940    24.6160 
  121.1250   -14.3270     2.2450    66.7030     7.4520     6.6030     7.5410    24.7500 
  121.2500   -13.8910     2.2280    65.0990     8.2390     7.1180     7.6270    24.8240 
  121.3750   -13.4720     2.2430    66.2970     9.7460     8.0890     8.1670    24.9380 
