~V
VERS. 2.00: Ver 2.00
~W
STRT.M 63.0000:
STOP.M 246.0000:
STEP.M 0.1250:
NULL. -999.2500:
UWI. F11137:
~C
DEPT.M :
DEN.GM/CC :
GR.API :
RML.OHMM :
RI. :
RXO.OHMM :
CALI.CM :
SP.MV :
~A
# ...
  141.7500     2.3270    84.1070     7.7670     6.9800     7.5380    26.0590    -2.1640 
  141.8750     2.3250    83.6480     7.7680     6.8670     7.5230    26.1010    -2.3820 
  142.0000     2.3160    81.7350     7.9000     6.9230     7.9670    26.1430    -2.6310 
  142.1250     2.3060    81.0660     7.9860     7.0010     8.8140    26.1760    -2.8430 
  142.2500     2.3000    83.0350     7.9150     6.9630     8.7740    26.2120    -2.9820 
  142.3750     2.3010    85.7970     7.6940     6.7780     7.9850    26.1950    -3.0470 
  142.5000     2.3070    87.3260     7.4280     6.5190     7.3420    26.0960    -3.1130 
  142.6250     2.3110    88.1100     7.2940     6.3320     6.7180    25.9440    -3.1850 
  142.7500     2.3100    87.6070     7.3610     6.3050     6.5900    25.7790    -3.2230 
  142.8750     2.3070    84.6400     7.6000     6.4470     7.1970    25.6180    -3.2240 
  143.0000     2.3040    80.7460     7.8960     6.6910     8.0910    25.4940    -3.1920 
  143.1250     2.3070    80.1550     8.0730     6.8930     8.5530    25.4060    -3.1600 
  143.2500     2.3130    81.5420     8.0570     6.9400     8.3430    25.3260    -3.1800 
  143.3750     2.3180    82.7920     7.8740     6.8130     7.6750    25.2310    -3.2690 
  143.5000     2.3200    83.9110     7.6220     6.5800     7.2140    25.1390    -3.3510 
  143.6250     2.3210    85.5700     7.4330     6.3540     6.9610    25.0720    -3.4200 
  143.7500     2.3250    87.1950     7.3630     6.2140     6.8990    24.9990    -3.4490 
  143.8750     2.3340    87.7090     7.3950     6.1710     6.9400    24.9050    -3.4460 
  144.0000     2.3430    85.2490     7.4770     6.1960     7.1250    24.7640    -3.4060 
  144.1250     2.3450    82.1920     7.5370     6.2300     7.3430    24.7070    -3.3740 
  144.2500     2.3370    82.2850     7.5350     6.2210     7.4840    24.8420    -3.2960 
  144.3750     2.3210    84.5540     7.4610     6.1500     7.3460    25.1040    -3.1680 
  144.5000     2.3040    85.2120     7.3270     6.0250     7.0510    25.3070    -2.9600 
  144.6250     2.2940    83.3140     7.1620     5.8660     6.7810    25.3740    -2.6980 
  144.7500     2.2920    82.2320     7.0030     5.7090     6.5240    25.4000    -2.4660 
  144.8750     2.2980    81.6260     6.8710     5.5690     6.3320    25.4220    -2.3580 
  145.0000     2.3080    80.9000     6.7780     5.4590     6.3190    25.4340    -2.3620 
  145.1250     2.3210    81.9770     6.7410     5.3940     6.2680    25.4400    -2.4070 
  145.2500     2.3330    83.4880     6.7600     5.3780     6.1630    25.4540    -2.4600 
  145.3750     2.3410    85.0630     6.8410     5.4200     6.1710    25.4480    -2.5820 
  145.5000     2.3420    86.5910     6.9730     5.5130     6.3200    25.3440    -2.8440 
  145.6250     2.3350    89.5050     7.1290     5.6410     6.5170    25.1170    -3.2150 
  145.7500     2.3270    90.9460     7.2600     5.7640     6.7460    24.9060    -3.5980 
  145.8750     2.3200    88.1860     7.3340     5.8550     6.8930    24.8050    -3.9450 
  146.0000     2.3180    83.8690     7.3380     5.9020     6.8370    24.7820    -4.2420 
  146.1250     2.3170    83.3200     7.2770     5.9000     6.7100    24.8040    -4.5460 
  146.2500     2.3160    86.6070     7.1820     5.8610     6.6290    24.7400    -4.8250 
  146.3750     2.3130    90.5020     7.0660     5.7790     6.6670    24.5230    -5.0260 
  146.5000     2.3080    91.5770     6.9310     5.6510     6.7190    24.3680    -5.1150 
  146.6250     2.3040    92.9800     6.7780     5.4820     6.5830    24.4470    -5.1390 
  146.7500     2.3040    95.7800     6.6280     5.3120     6.1440    24.6170    -5.1210 
  146.8750     2.3090    96.0340     6.5060     5.1780     5.7730    24.7970    -5.0340 
  147.0000     2.3170    92.1830     6.4420     5.1090     5.7820    24.8950    -4.8710 
  147.1250     2.3260    89.5760     6.4630     5.1200     6.0690    24.6660    -4.6240 
  147.2500     2.3330    91.5880     6.5530     5.1810     6.3120    24.1960    -4.4250 
  147.3750     2.3370    93.7940     6.6980     5.2780     6.3200    23.8480    -4.2770 
  147.5000     2.3400    92.0560     6.8720     5.4020     6.2990    23.7280    -4.1320 
  147.6250     2.3410    89.2660     7.0400     5.5470     6.2360    23.7730    -3.8970 
  147.7500     2.3390    88.6300     7.1560     5.6870     6.5140    23.8780    -3.6010 
  147.8750     2.3380    90.8480     7.1790     5.7780     7.0430    23.9820    -3.3050 
  148.0000     2.3380    94.5240     7.0910     5.7790     7.4830    24.0490    -3.0580 
  148.1250     2.3410    96.9190     6.9120     5.6670     7.1400    24.0790    -2.8870 
  148.2500     2.3450    97.0010     6.7420     5.5150     6.4040    24.1050    -2.7830 
  148.3750     2.3510    94.9240     6.6830     5.4040     5.9230    24.1460    -2.7390 
  148.5000     2.3570    92.1000     6.8150     5.4240     5.9420    24.2010    -2.7410 
  148.6250     2.3610    90.4610     7.1820     5.6690     6.5090    24.2470    -2.7770 
  148.7500     2.3630    90.8720     7.6580     6.0820     7.0200    24.2650    -2.8900 
  148.8750     2.3640    91.7790     8.0740     6.5430     7.5310    24.2650    -3.0350 
  149.0000     2.3650    88.8830     8.2430     6.8420     8.4690    24.2620    -3.1560 
  149.1250     2.3650    85.0740     7.9850     6.7110     9.2430    24.2840    -3.2030 
  149.2500     2.3640    86.6850     7.4190     6.2260     8.1570    24.3870    -3.1710 
  149.3750     2.3610    92.3590     6.7630     5.5820     6.3470    24.6080    -3.0840 
  149.5000     2.3590    94.1630     6.2360     4.9970     5.4900    24.8460    -2.9730 
  149.6250     2.3590    93.3160     5.9630     4.9230     5.4740    24.8610    -2.8810 
  149.7500     2.3590    89.4580     5.9330     4.6550     5.4160    24.8750    -2.8230 
  149.8750     2.3570    89.0800     6.2400     4.7200     5.3860    24.7270    -2.7970 
  150.0000     2.3520    92.8150     6.9970     5.1640     5.3780    24.5120    -2.8570 
  150.1250     2.3470    93.3310     8.2020     6.0630     5.4700    24.3190    -3.0000 
  150.2500     2.3450    87.0730     9.4770     7.2460     5.9510    24.2600    -3.1310 
  150.3750     2.3480    79.8960    10.4090     8.3890     7.5970    24.3250    -3.1620 
  150.5000     2.3570    78.7590    10.6410     9.0080    11.4970    24.4610    -3.1130 
  150.6250     2.3650    82.3790    10.0290     8.7080    14.6090    24.6430    -2.9960 
  150.7500     2.3680    84.6750     9.0960     7.9490    13.2710    24.8600    -2.8410 
  150.8750     2.3660    86.0730     8.3140     7.2090    10.0160    25.0930    -2.6550 
  151.0000     2.3600    88.2360     7.9850     6.7960     7.7160    25.2640    -2.4360 
  151.1250     2.3520    89.4070     8.2140     6.8640     6.6400    25.3450    -2.1640 
  151.2500     2.3450    85.9610     8.7340     7.2460     7.6320    25.3920    -1.8890 
  151.3750     2.3410    79.8520     9.3340     7.7800    10.4250    25.4150    -1.7060 
  151.5000     2.3420    75.4780     9.8630     8.3050    11.3650    25.4120    -1.6240 
  151.6250     2.3470    74.9540    10.2540     8.7240     9.9160    25.3850    -1.6860 
  151.7500     2.3540    76.5580    10.5560     9.0690     8.4110    25.3560    -1.7760 
  151.8750     2.3600    77.8740    10.7740     9.3670     8.8240    25.3210    -1.8300 
  152.0000     2.3620    77.1710    10.8450     9.5720    10.6400    25.2930    -1.8500 
  152.1250     2.3580    73.2750    10.6320     9.5010    11.4790    25.2920    -1.9060 
  152.2500     2.3510    70.7830    10.1830     9.1250    11.3590    25.3070    -2.0240 
  152.3750     2.3430    74.3230     9.6490     8.5700    10.9200    25.3230    -2.1910 
  152.5000     2.3370    83.0660     9.2460     8.0600    10.0770    25.3240    -2.3990 
  152.6250     2.3410    90.0620     9.2270     7.8400     9.9350    25.3310    -2.5960 
  152.7500     2.3530    89.2830     9.5900     7.9560     9.0030    25.3310    -2.7900 
  152.8750     2.3690    83.4460    10.2320     8.3850     8.4060    25.3030    -2.9970 
