~V
VERS. 2.00: Ver 2.00
~W
STRT.M 52.0000:
STOP.M 216.0000:
STEP.M 0.1250:
NULL. -999.2500:
UWI. F11106:
~C
DEPT.M :
DEN.GM/CC :
GR.API :
RML.OHMM :
RI. :
RXO.OHMM :
CALI.CM :
SP.MV :
~A
# ...
   74.5000     2.2410    76.9480     7.1300     5.4100     6.9950    24.3840   -16.7110 
   74.6250     2.2540    82.9790     6.6530     5.1560     5.9800    24.3850   -16.1330 
   74.7500     2.2760    86.9490     6.0920     4.7840     4.9700    24.3540   -15.5880 
   74.8750     2.3020    88.6270     5.6400     4.4110     4.4950    24.3250   -15.1110 
   75.0000     2.3260    89.0500     5.3920     4.1290     4.4470    24.3190   -14.7630 
   75.1250     2.3400    89.6150     5.3410     3.9850     4.4700    24.3190   -14.6210 
   75.2500     2.3430    90.3040     5.3730     3.9300     4.3910    24.3190   -14.6560 
   75.3750     2.3370    91.1650     5.4460     3.9360     4.2860    24.3220   -14.9010 
   75.5000     2.3280    91.1670     5.6070     4.0110     4.1880    24.3300   -15.4150 
   75.6250     2.3200    88.5730     6.0640     4.2490     4.2760    24.3750   -16.1700 
   75.7500     2.3160    84.4370     6.9530     4.7270     4.6270    24.3410   -17.0320 
   75.8750     2.3170    78.0230     8.3390     5.5080     5.5910    24.1180   -17.9990 
   76.0000     2.3230    68.7140    10.1050     6.5870     8.0510    23.8740   -19.0700 
   76.1250     2.3360    60.2120    11.7830     7.7970    12.2680    24.0260   -20.2140 
   76.2500     2.3490    57.6890    12.7060     8.7060    16.5210    24.2660   -21.3700 
   76.3750     2.3530    59.9960    12.4770     8.9390    15.9410    24.2200   -22.5040 
   76.5000     2.3390    62.2310    11.3090     8.4560    10.8920    23.6230   -23.5550 
   76.6250     2.3010    60.6080     9.9260     7.6020     8.3610    23.4470   -24.4950 
   76.7500     2.2540    56.7640     8.9140     6.8610     7.3670    23.5530   -25.3430 
   76.8750     2.2100    54.1660     8.3650     6.3900     7.0760    23.8610   -26.0260 
   77.0000     2.1760    53.1980     8.1710     6.1780     6.9330    24.2820   -26.5570 
   77.1250     2.1560    52.0500     8.1900     6.1280     7.1360    24.6340   -26.9560 
   77.2500     2.1410    51.3530     8.2600     6.1010     7.3450    24.8460   -27.2980 
   77.3750     2.1300    53.0960     8.3140     6.0550     7.1260    25.1930   -27.5610 
   77.5000     2.1200    57.4460     8.3280     6.0000     6.6350    25.3200   -27.7400 
   77.6250     2.1120    59.4990     8.2980     5.9660     6.3520    25.2670   -27.8580 
   77.7500     2.1080    57.0010     8.2640     5.9610     6.3990    25.1260   -28.0010 
   77.8750     2.1050    52.6680     8.2500     5.9820     6.6050    25.0950   -28.1900 
   78.0000     2.1030    51.3560     8.2530     6.0130     6.7750    25.0280   -28.3550 
   78.1250     2.0990    54.3510     8.2570     6.0430     6.8980    24.9690   -28.4930 
   78.2500     2.0920    55.5420     8.2500     6.0700     7.0130    24.9040   -28.6170 
   78.3750     2.0840    53.3690     8.2280     6.0850     6.9360    24.9510   -28.7400 
   78.5000     2.0790    50.5170     8.1660     6.0820     6.5020    25.2870   -28.8480 
   78.6250     2.0830    48.7350     8.0020     6.0530     6.0480    25.8200   -28.9070 
   78.7500     2.0970    46.8340     7.7820     6.0110     5.8980    26.0250   -28.8750 
   78.8750     2.1150    44.8720     7.6040     5.9670     6.0560    25.8920   -28.7830 
   79.0000     2.1310    45.1650     7.5770     5.9340     6.3450    25.7670   -28.7190 
   79.1250     2.1370    48.2900     7.7790     5.9070     6.4870    25.6650   -28.7000 
   79.2500     2.1360    51.1890     8.0830     5.8800     6.5970    25.4140   -28.6690 
   79.3750     2.1350    51.5700     8.3420     5.8530     6.7630    25.2250   -28.6110 
   79.5000     2.1400    49.4080     8.4570     5.8290     6.8900    25.1910   -28.5770 
   79.6250     2.1530    47.8110     8.4150     5.8210     6.9200    25.1900   -28.6320 
   79.7500     2.1650    48.5420     8.3240     5.8270     6.9840    25.1810   -28.7510 
   79.8750     2.1650    49.7360     8.2550     5.8460     7.1240    25.1280   -28.8880 
   80.0000     2.1510    50.0220     8.2520     5.8800     7.1660    25.0760   -29.0090 
   80.1250     2.1270    50.0680     8.3290     5.9310     7.0860    25.0890   -29.1140 
   80.2500     2.1010    50.2220     8.4520     5.9810     6.8750    25.0680   -29.2320 
   80.3750     2.0760    49.5190     8.6140     6.0150     6.5800    25.3180   -29.3400 
   80.5000     2.0560    48.2330     8.8050     6.0190     6.2540    25.4330   -29.3930 
   80.6250     2.0450    48.5050     8.9910     6.0050     6.4040    25.4560   -29.3410 
   80.7500     2.0450    48.7950     9.1440     6.0090     6.6310    25.5270   -29.2370 
   80.8750     2.0550    47.3650     9.2660     6.0650     6.7200    25.7120   -29.1010 
   81.0000     2.0770    45.5110     9.3730     6.1840     6.7620    26.0450   -28.8850 
   81.1250     2.1090    45.1040     9.4530     6.3570     7.0680    26.0510   -28.4940 
   81.2500     2.1440    46.4410     9.4670     6.5310     7.7990    25.7920   -27.9840 
   81.3750     2.1770    48.6710     9.3540     6.6410     8.8260    25.2800   -27.3780 
   81.5000     2.2010    49.8880     9.0900     6.6290     9.8040    24.8950   -26.6500 
   81.6250     2.2110    49.2730     8.7370     6.4630     8.6820    24.9650   -25.7480 
   81.7500     2.2090    50.3370     8.4320     6.2300     7.8410    25.1560   -24.6720 
   81.8750     2.1990    54.2610     8.2230     6.0080     7.3130    25.2520   -23.4270 
   82.0000     2.1860    56.5810     8.0690     5.8360     7.0070    25.2590   -22.0350 
   82.1250     2.1750    53.5960     7.8540     5.6950     6.7320    25.1960   -20.5890 
   82.2500     2.1700    50.9240     7.5010     5.5120     6.5490    25.0380   -19.1070 
   82.3750     2.1740    54.2630     6.9980     5.2390     6.0660    24.9860   -17.6530 
   82.5000     2.1880    64.2980     6.4170     4.8920     5.2760    25.0710   -16.3270 
   82.6250     2.2120    77.0150     5.9020     4.5460     4.5820    25.0870   -15.2050 
   82.7500     2.2380    88.4320     5.5450     4.2720     4.3930    25.0560   -14.2390 
   82.8750     2.2610    97.4070     5.3840     4.1040     4.3080    25.0080   -13.4600 
   83.0000     2.2800   101.6040     5.4200     4.0440     4.1960    24.9910   -12.9630 
   83.1250     2.2930    96.4200     5.6440     4.0950     4.2200    24.9330   -12.7330 
   83.2500     2.3000    89.0310     5.9670     4.2180     4.3290    24.8900   -12.6510 
   83.3750     2.3000    85.8720     6.3290     4.3930     4.4530    24.8790   -12.6500 
   83.5000     2.2910    85.3890     6.6710     4.5950     4.5940    24.8620   -12.6620 
   83.6250     2.2760    82.2820     6.9070     4.7720     4.9000    24.7610   -12.6900 
   83.7500     2.2600    79.4230     6.9850     4.8720     5.2160    24.6590   -12.7560 
   83.8750     2.2480    80.5770     6.8750     4.8760     5.3150    24.7630   -12.8000 
   84.0000     2.2430    83.4810     6.5990     4.7900     5.1670    24.7470   -12.7410 
   84.1250     2.2460    84.5010     6.2480     4.6600     4.8760    24.7320   -12.6380 
   84.2500     2.2570    85.3660     6.0340     4.5880     4.7640    24.9650   -12.5870 
   84.3750     2.2770    89.5140     6.1830     4.6720     4.7030    24.8470   -12.6010 
   84.5000     2.3040    93.9950     6.8960     5.0210     4.7580    24.5650   -12.6660 
   84.6250     2.3370    91.6360     8.3960     5.8020     5.9040    24.4450   -12.8200 
   84.7500     2.3690    85.1870    10.4420     6.9640     9.1840    24.5960   -13.0440 
   84.8750     2.3960    79.9080    12.5580     8.3230    16.8690    24.6240   -13.3730 
   85.0000     2.4100    77.0460    13.9340     9.4340    24.5190    24.6230   -13.8190 
   85.1250     2.3990    73.2460    13.5560     9.5780    18.9160    24.5290   -14.2820 
   85.2500     2.3660    69.5950    11.9430     8.8400    10.8780    24.3800   -14.6510 
   85.3750     2.3190    68.2940    10.0730     7.7160     7.6570    24.2540   -14.9380 
   85.5000     2.2700    68.6660     8.6980     6.7160     6.9930    24.2310   -15.1790 
   85.6250     2.2320    71.5330     8.0980     6.1460     7.0200    24.2290   -15.3000 
