~V
VERS. 2.00: Ver 2.00
~W
STRT.M 60.0000:
STOP.M 281.0000:
STEP.M 0.1250:
NULL. -999.2500:
UWI. F11154:
~C
DEPT.M :
DEN.GM/CC :
GR.API :
RML.OHMM :
RI. :
RXO.OHMM :
CALI.CM :
SP.MV :
~A
# ...
  172.5000     2.2540    70.9410    18.2960    16.4560    18.6040    24.3380    -7.9080 
  172.6250     2.2550    71.6360    18.0100    16.2110    17.9660    24.3710    -7.7940 
  172.7500     2.2590    69.9780    17.7090    15.9510    17.5030    24.3990    -7.5790 
  172.8750     2.2620    68.4350    17.4260    15.7100    17.1710    24.4170    -7.2490 
  173.0000     2.2640    69.1960    17.2080    15.5240    17.0060    24.4190    -6.8340 
  173.1250     2.2670    69.6550    17.1570    15.4770    17.0440    24.4140    -6.4420 
  173.2500     2.2700    67.8420    17.3550    15.6370    17.2900    24.4230    -6.1260 
  173.3750     2.2730    66.2890    17.8970    16.0810    17.3400    24.4250    -5.9020 
  173.5000     2.2710    65.9620    18.8360    16.8560    17.5680    24.4200    -5.7900 
  173.6250     2.2630    65.8590    20.1410    17.9600    18.8790    24.4160    -5.7930 
  173.7500     2.2550    65.9370    21.4880    19.1590    20.4200    24.4040    -5.8970 
  173.8750     2.2490    65.4070    22.5290    20.1820    22.0470    24.3910    -6.0470 
  174.0000     2.2440    64.3280    22.9370    20.7460    23.2710    24.3970    -6.1990 
  174.1250     2.2490    65.9350    22.4390    20.5630    22.9500    24.4080    -6.3240 
  174.2500     2.2640    70.5600    21.3680    19.8310    21.9300    24.3970    -6.3760 
  174.3750     2.2830    74.2840    20.1430    18.8630    20.2910    24.3660    -6.3640 
  174.5000     2.2950    75.0760    19.2220    18.0360    18.6600    24.3350    -6.3030 
  174.6250     2.2890    74.3430    19.0590    17.7490    17.9900    24.3240    -6.2310 
  174.7500     2.2750    72.5570    19.6380    18.0630    18.2100    24.3250    -6.1960 
  174.8750     2.2630    70.0840    20.8360    18.9490    19.4340    24.3310    -6.2390 
  175.0000     2.2520    69.5970    22.4010    20.2630    21.2870    24.3150    -6.3700 
  175.1250     2.2430    72.3540    23.9660    21.7600    22.8930    24.2580    -6.5650 
  175.2500     2.2360    74.3640    25.1990    23.0990    23.9360    24.1740    -6.8190 
  175.3750     2.2290    74.8150    25.9270    24.0580    24.4530    24.0990    -7.0770 
  175.5000     2.2250    75.0140    26.1270    24.5390    24.5270    24.0280    -7.2980 
  175.6250     2.2240    74.5900    25.8700    24.5300    24.2930    23.9880    -7.4700 
  175.7500     2.2260    73.0910    25.4370    24.2710    24.1720    23.9820    -7.6270 
  175.8750     2.2260    71.5290    25.0220    23.9370    24.2400    24.0260    -7.7710 
  176.0000     2.2210    70.8280    24.7940    23.6870    24.4020    24.0490    -7.9020 
  176.1250     2.2130    70.7430    24.9660    23.7080    24.6800    24.0400    -8.0380 
  176.2500     2.2100    70.2950    25.5720    24.0680    25.1570    24.0390    -8.1680 
  176.3750     2.2120    69.9720    26.6330    24.8140    26.0670    24.0610    -8.3110 
  176.5000     2.2190    70.6680    28.1270    25.9650    27.5570    23.9940    -8.4940 
  176.6250     2.2270    72.7840    30.0810    27.5850    29.5490    23.7920    -8.7120 
  176.7500     2.2340    74.4680    32.4290    29.6160    31.3780    23.5820    -8.9060 
  176.8750     2.2370    73.7140    35.2640    32.1250    32.8980    23.4690    -9.0680 
  177.0000     2.2350    72.1150    38.8130    35.3000    34.9030    23.4480    -9.2200 
  177.1250     2.2300    70.6890    44.5220    39.7450    38.6380    23.4950    -9.4100 
  177.2500     2.2270    69.1890    52.4800    45.9020    43.7920    23.5330    -9.6450 
  177.3750     2.2240    66.9280    63.5290    54.3770    51.3000    23.5900    -9.9620 
  177.5000     2.2180    64.0660    78.9280    65.5870    62.6040    23.7810   -10.3740 
  177.6250     2.2060    60.8160    94.8800    79.6140    80.9730    24.1440   -10.8550 
  177.7500     2.1970    57.3040   111.3050    94.3890   103.5490    24.5010   -11.3750 
  177.8750     2.1990    54.4810   124.9620   107.2390   124.1540    24.7650   -11.9180 
  178.0000     2.2130    53.2520   132.1630   115.0540   135.4680    24.9180   -12.4860 
  178.1250     2.2270    54.4120   129.3480   114.1330   128.9270    24.9760   -13.0350 
  178.2500     2.2340    56.9710   118.5950   106.0240   111.4250    24.9840   -13.5300 
  178.3750     2.2370    59.6370   104.1390    93.5950    91.4250    24.9500   -13.9190 
  178.5000     2.2450    62.4420    91.1820    80.5610    71.8870    24.9240   -14.1700 
  178.6250     2.2570    64.3320    79.8170    70.4370    52.5470    24.8730   -14.3170 
  178.7500     2.2660    64.6910    73.0680    64.1010    41.7430    24.6850   -14.4420 
  178.8750     2.2700    63.2910    70.5890    61.5710    39.4380    24.4320   -14.5720 
  179.0000     2.2700    61.1720    71.7040    62.4170    45.1560    24.2730   -14.6650 
  179.1250     2.2670    58.6560    75.9330    66.3590    56.1470    24.2190   -14.7090 
  179.2500     2.2590    57.0790    81.6740    71.9680    69.9730    24.1320   -14.7500 
  179.3750     2.2490    57.3120    87.5900    78.0210    83.6690    24.0200   -14.8050 
  179.5000     2.2400    58.3120    92.1350    83.0430    91.6910    23.9140   -14.8540 
  179.6250     2.2330    58.5820    93.2630    85.0510    95.6870    23.8030   -14.8280 
  179.7500     2.2250    58.9800    90.7160    83.6470    94.1510    23.7340   -14.6830 
  179.8750     2.2210    61.0360    84.8920    79.0620    86.4460    23.8800   -14.4100 
  180.0000     2.2300    63.8450    76.9850    72.2770    72.5870    24.2890   -14.0540 
  180.1250     2.2530    65.7020    68.5750    64.6460    61.1320    24.6020   -13.6680 
  180.2500     2.2700    66.2150    60.9830    57.5140    56.7510    24.7030   -13.3040 
  180.3750     2.2770    65.0820    54.7720    51.5140    52.9750    24.7030   -12.9660 
  180.5000     2.2800    63.3340    50.1570    46.9560    47.3640    24.6830   -12.6810 
  180.6250     2.2890    62.3300    47.4380    44.1960    42.1210    24.6480   -12.4610 
  180.7500     2.3000    62.1420    46.2930    42.9480    38.1500    24.5890   -12.3150 
  180.8750     2.3030    61.7100    46.5980    43.0990    37.4320    24.5230   -12.2780 
  181.0000     2.2990    60.8470    48.0750    44.4100    39.1340    24.5180   -12.3270 
  181.1250     2.2940    60.2680    50.2810    46.5330    42.4390    24.6570   -12.4100 
  181.2500     2.2930    60.3290    52.4550    48.7770    45.7510    24.7800   -12.4740 
  181.3750     2.2980    60.4600    54.1550    50.7230    47.2300    24.8020   -12.5100 
  181.5000     2.3070    59.8840    55.2350    52.1870    46.6460    24.7540   -12.5530 
  181.6250     2.3190    59.3560    55.8780    53.2600    45.1580    24.6890   -12.6520 
  181.7500     2.3270    59.8730    56.5980    54.3420    43.7990    24.6140   -12.8250 
  181.8750     2.3240    60.9020    57.7320    55.7040    43.9160    24.5440   -13.0380 
  182.0000     2.3120    62.0420    59.4730    57.5050    46.2420    24.4820   -13.3340 
  182.1250     2.3010    62.3570    62.0200    59.9010    48.2090    24.4360   -13.7140 
  182.2500     2.2930    61.6100    65.1740    62.7400    48.6890    24.3600   -14.1280 
  182.3750     2.2880    60.8590    68.5100    65.6790    48.4860    24.3040   -14.5410 
  182.5000     2.2820    61.5920    71.0890    67.9270    49.0210    24.3320   -14.8910 
  182.6250     2.2770    62.4830    70.9560    67.7780    51.0170    24.3680   -15.1420 
  182.7500     2.2710    61.2760    67.2770    64.4420    51.5430    24.3790   -15.3240 
  182.8750     2.2660    59.9510    60.3440    58.0720    48.3460    24.3550   -15.4830 
  183.0000     2.2640    61.2880    52.1810    50.3710    40.8220    24.3260   -15.5860 
  183.1250     2.2710    64.8320    46.6540    44.7370    25.6820    24.3650   -15.6840 
  183.2500     2.2830    67.7010    46.4260    43.7100    17.0850    24.4490   -15.8310 
  183.3750     2.2880    68.2310    53.3850    49.2220    21.5430    24.3830   -16.1050 
  183.5000     2.2760    66.2710    69.0290    62.9780    40.6660    24.1290   -16.5450 
  183.6250     2.2520    62.6410    95.6870    87.5470    71.2040    23.8050   -17.0570 
