~V
VERS. 2.00: Ver 2.00
~W
STRT.M 49.0000:
STOP.M 247.0000:
STEP.M 0.1250:
NULL. -999.2500:
UWI. F11144:
~C
DEPT.M :
DEN.GM/CC :
SP.MV :
GR.API :
RML.OHMM :
RI. :
RXO.OHMM :
CALI.CM :
~A
# ...
  184.0000     2.1650   -29.1350    66.1680   103.9960    87.5150    47.2840    23.9120 
  184.1250     2.1530   -29.0770    66.0500   112.1790    96.6740    50.6640    23.7100 
  184.2500     2.1510   -29.0620    66.4920   113.1720   100.3060    47.6470    23.5850 
  184.3750     2.1530   -29.0650    67.2030   109.6080    99.2570    43.4670    23.4860 
  184.5000     2.1550   -29.1140    66.7080   105.5440    96.3920    39.3290    23.3940 
  184.6250     2.1560   -29.1690    65.8060   104.3460    94.9020    36.5430    23.3080 
  184.7500     2.1570   -29.2130    65.4980   107.6910    97.2300    37.6200    23.2530 
  184.8750     2.1600   -29.2600    66.5210   112.7800   101.9330    41.7660    23.2340 
  185.0000     2.1670   -29.3300    67.7280   115.2190   105.5730    46.4670    23.2310 
  185.1250     2.1790   -29.3700    65.9810   110.0690   103.4450    47.4710    23.2220 
  185.2500     2.1890   -29.4400    62.2860    94.8740    91.7750    44.2460    23.1750 
  185.3750     2.1910   -29.5290    61.1540    76.6550    75.6900    38.8060    23.0880 
  185.5000     2.1880   -29.6030    62.0950    61.3730    60.8100    30.7480    23.0110 
  185.6250     2.1900   -29.7420    61.9150    52.0090    50.6280    22.7870    22.9560 
  185.7500     2.2070   -29.8780    60.9060    49.7900    46.8240    21.2690    22.9400 
  185.8750     2.2280   -30.0630    61.9470    52.8040    47.9270    22.5540    22.9340 
  186.0000     2.2380   -30.2700    64.3320    60.0620    53.3170    25.9870    22.9340 
  186.1250     2.2350   -30.5050    67.1900    70.2050    62.1620    29.5930    22.9460 
  186.2500     2.2290   -30.7940    67.9340    80.7370    72.6630    32.3590    22.9940 
  186.3750     2.2260   -31.0520    64.9990    88.2970    81.3290    33.8940    23.0740 
  186.5000     2.2230   -31.3320    61.7890    90.8440    85.6430    35.1970    23.1280 
  186.6250     2.2210   -31.5550    62.6790    88.4670    85.0030    35.2690    23.1480 
  186.7500     2.2200   -31.7310    65.9840    82.8330    80.4550    34.8850    23.1530 
  186.8750     2.2200   -31.8940    67.2760    76.7260    74.7770    33.4810    23.1590 
  187.0000     2.2200   -32.0200    68.0310    71.4840    69.4270    32.0070    23.1650 
  187.1250     2.2170   -32.1230    69.8540    67.8060    65.2790    30.9100    23.1700 
  187.2500     2.2100   -32.2110    70.3410    66.0070    62.8290    31.1040    23.1750 
  187.3750     2.2000   -32.2840    69.9300    65.3170    61.5210    30.9020    23.1800 
  187.5000     2.1890   -32.3620    69.6700    65.0810    60.8290    30.5230    23.1790 
  187.6250     2.1780   -32.4650    69.1500    64.6910    60.1980    31.5490    23.1790 
  187.7500     2.1690   -32.5990    68.4880    63.7690    59.1920    33.1290    23.1810 
  187.8750     2.1600   -32.7420    68.7840    62.6390    57.9530    32.0590    23.1950 
  188.0000     2.1520   -32.8810    69.9330    61.7470    56.8310    30.1250    23.2070 
  188.1250     2.1450   -33.0500    72.3290    61.3680    56.0860    28.7010    23.2060 
  188.2500     2.1490   -33.1730    74.8860    61.5760    55.8310    29.1730    23.2080 
  188.3750     2.1580   -33.3130    75.6420    62.1160    55.9090    31.4070    23.2160 
  188.5000     2.1600   -33.4440    75.0800    62.8630    56.2430    33.0950    23.2260 
  188.6250     2.1540   -33.5330    75.3370    63.8060    56.8250    31.8230    23.2310 
  188.7500     2.1530   -33.6470    74.8960    65.1360    57.7870    29.8570    23.2310 
  188.8750     2.1680   -33.7220    71.3630    66.9880    59.2000    30.6410    23.2310 
  189.0000     2.1940   -33.7970    67.6100    69.5190    61.1880    33.7980    23.2360 
  189.1250     2.2160   -33.8320    66.6440    72.8850    63.8940    35.8710    23.2530 
  189.2500     2.2230   -33.8500    69.1690    77.3250    67.5740    34.9870    23.2950 
  189.3750     2.2180   -33.8900    70.2880    82.5200    72.0060    33.6930    23.3170 
  189.5000     2.2060   -33.8880    68.1890    87.8760    76.7990    35.3390    23.3180 
  189.6250     2.1920   -33.9350    65.6780    92.0680    80.9700    40.3550    23.3570 
  189.7500     2.1800   -33.9830    67.1800    92.0010    81.9220    48.8060    23.5110 
  189.8750     2.1710   -34.0240    69.8860    86.3860    78.1110    52.7480    23.6360 
  190.0000     2.1660   -34.1110    69.8220    76.1240    69.7790    50.9300    23.6980 
  190.1250     2.1680   -34.2160    68.6100    64.4320    59.3940    44.5600    23.7590 
  190.2500     2.1780   -34.3310    70.1590    55.5010    50.6030    34.7950    23.8590 
  190.3750     2.1870   -34.4600    72.0690    50.9330    45.2200    26.2550    23.9510 
  190.5000     2.1920   -34.6220    71.8240    50.9220    43.6550    24.7000    24.0100 
  190.6250     2.1920   -34.7470    69.3960    54.8770    45.6200    27.6430    24.0600 
  190.7500     2.1850   -34.8740    65.6400    61.8230    50.6540    34.6230    24.0880 
  190.8750     2.1700   -34.9940    62.3640    69.0300    56.6330    43.2030    24.0890 
  191.0000     2.1540   -35.0550    60.9160    73.8600    61.3220    52.1280    24.1210 
  191.1250     2.1430   -35.0830    62.6360    74.4070    62.7800    54.8020    24.2760 
  191.2500     2.1360   -35.0970    65.7390    70.6910    60.4460    47.9110    24.6190 
  191.3750     2.1350   -35.0770    66.5000    65.9900    56.7960    39.3930    24.9680 
  191.5000     2.1440   -35.0070    66.7580    62.3250    53.5920    37.0810    25.2010 
  191.6250     2.1650   -34.9610    69.7810    60.6080    51.8290    39.8520    25.2830 
  191.7500     2.1890   -34.8620    74.1480    61.0390    51.9960    49.3340    25.2770 
  191.8750     2.2040   -34.7930    74.6210    62.5250    53.3890    56.4630    25.2190 
  192.0000     2.2080   -34.7470    69.5000    64.1900    55.3360    52.4390    25.1460 
  192.1250     2.2110   -34.7110    63.6710    65.3210    57.1670    47.4700    25.0970 
  192.2500     2.2190   -34.7320    63.5300    65.3220    58.2240    48.7350    24.9720 
  192.3750     2.2270   -34.7350    68.6320    64.1730    58.2850    51.7250    24.7740 
  192.5000     2.2310   -34.8020    74.0470    61.7380    57.1250    49.5460    24.5800 
  192.6250     2.2310   -34.8390    75.6830    57.8470    54.4970    39.8480    24.3550 
  192.7500     2.2340   -34.8590    72.1970    52.2130    50.0000    34.0910    24.0120 
  192.8750     2.2370   -34.8750    68.6930    45.3730    44.0710    32.3910    23.7210 
  193.0000     2.2370   -34.8510    69.2250    37.9180    37.2380    28.3970    23.5090 
  193.1250     2.2370   -34.8140    73.8750    30.6220    30.3050    19.4950    23.3270 
  193.2500     2.2410   -34.7080    78.2870    24.5020    24.3460    14.4970    23.2320 
  193.3750     2.2440   -34.5640    82.0670    19.9500    19.8170    12.7530    23.1990 
  193.5000     2.2430   -34.3890    85.0060    17.1460    16.8710    12.2970    23.2450 
  193.6250     2.2470   -34.1860    85.3680    16.0330    15.4460    11.8650    23.3340 
  193.7500     2.2660   -33.9980    83.5060    16.6100    15.5730    11.9080    23.2740 
  193.8750     2.2910   -33.8260    82.3190    18.3260    16.8210    12.8100    23.2900 
  194.0000     2.3050   -33.6710    80.3070    20.8760    18.9950    13.9720    23.3860 
  194.1250     2.2940   -33.5690    75.3470    23.8630    21.8030    15.3320    23.4220 
  194.2500     2.2720   -33.5220    71.9060    26.7860    24.7790    17.0700    23.3640 
  194.3750     2.2610   -33.5110    71.4530    29.3200    27.4320    18.3010    23.5880 
  194.5000     2.2600   -33.5100    70.9390    31.4180    29.5760    21.3930    23.9160 
  194.6250     2.2620   -33.5200    68.9680    33.1540    31.2110    27.0290    24.1620 
  194.7500     2.2680   -33.5520    66.5550    34.5460    32.3390    32.5370    24.2580 
  194.8750     2.2810   -33.5230    65.7270    35.6320    33.0680    34.7770    24.2490 
  195.0000     2.2980   -33.5080    68.0760    36.3320    33.3600    33.5250    24.2510 
  195.1250     2.3110   -33.4470    73.2300    36.6170    33.1910    30.8880    24.1800 
