~V
VERS. 2.00: Ver 2.00
~W
STRT.M 40.0000:
STOP.M 232.0000:
STEP.M 0.1250:
NULL. -999.2500:
UWI. F11121:
~C
DEPT.M :
SP.MV :
DEN.GM/CC :
GR.API :
RML.OHMM :
RI. :
RXO.OHMM :
CALI.CM :
~A
# ...
   51.2500    90.4260  -999.2500    33.4790    17.9060     1.4100 12086.6730    25.6840 
   51.3750    90.1730  -999.2500    34.5810    18.1840     1.3960 23959.1640    25.6850 
   51.5000    89.8060     1.9480    36.2730    19.8190     1.4030 23959.1640    25.6850 
   51.6250    89.5360     1.9480    36.5440    22.2630     1.4360 23959.1640    25.6820 
   51.7500    89.3270     1.9450    35.6290    23.6670     1.4690 23959.1640    25.6830 
   51.8750    89.1130     1.9390    35.8440    23.0970     1.4800 23959.1640    25.6870 
   52.0000    88.8830     1.9370    36.6920    21.4140     1.4620 23959.1640    25.6880 
   52.1250    88.6970     1.9400    36.1180    19.7680     1.4210 23959.1640    25.6850 
   52.2500    88.5960     1.9470    35.3510    18.4230     1.3820 11990.6930    25.6810 
   52.3750    88.5410     1.9580    35.6930    17.4070     1.3550    13.3060    25.6810 
   52.5000    88.4490     1.9660    36.7110    16.7750     1.3470     3.8570    25.6870 
   52.6250    88.2760     1.9680    36.7440    16.5590     1.3510     5.9880    25.6920 
   52.7500    88.0600     1.9660    36.4060    16.6700     1.3540    15.8560    25.6940 
   52.8750    87.8720     1.9650    36.7040    16.9890     1.3430    33.5060    25.6940 
   53.0000    87.7390     1.9680    36.8200    17.1930     1.3140 23959.1170    25.6950 
   53.1250    87.5790     1.9740    35.7830    17.0420     1.2680 23959.1640    25.6980 
   53.2500    87.3390     1.9810    35.2020    16.9750     1.2180 23959.1640    25.6970 
   53.3750    87.0620     1.9860    35.4190    17.4030     1.1690  6022.7160    25.6940 
   53.5000    86.8100     1.9900    35.1270    18.3630     1.1290    33.8940    25.6920 
   53.6250    86.6300     1.9890    34.2050    19.6170     1.1110    25.9730    25.6940 
   53.7500    86.5130     1.9780    33.4280    20.7850     1.1150    38.9920    25.6950 
   53.8750    86.4200     1.9590    33.5580    21.4250     1.1360    26.7460    25.6940 
   54.0000    86.3020     1.9350    35.8440    22.0880     1.1590    21.7240    25.6950 
   54.1250    86.1810     1.9170    41.8540    24.6410     1.1610    21.9100    25.6950 
   54.2500    86.0820     1.9070    48.2400    29.3860     1.1410    21.8430    25.6930 
   54.3750    86.0050     1.9070    51.3150    35.7430     1.1130    21.2480    25.6900 
   54.5000    85.9290     1.9150    50.0860    41.4010     1.0930    19.6730    25.6890 
   54.6250    85.7920     1.9270    45.5190    42.0400     1.0900    17.4970    25.6900 
   54.7500    85.5890     1.9440    40.7810    39.3490     1.0920    15.4150    25.6890 
   54.8750    85.3450     1.9660    37.8510    37.1110     1.0860    15.6700    25.6910 
   55.0000    85.0910     1.9900    35.8650    38.4160     1.0660    17.9260    25.6920 
   55.1250    84.8080     2.0090    32.8950    45.1430     1.0380    20.9940    25.6890 
   55.2500    84.4890     2.0170    31.6880    54.5480     1.0150    23.1700    25.6870 
   55.3750    84.1190     2.0120    33.2710    57.4850     1.0050    23.3990    25.6850 
   55.5000    83.6800     1.9990    35.9880    45.8650     1.0080    22.6980    25.6870 
   55.6250    83.1910     1.9870    35.9790    30.1340     1.0220    21.4520    25.6870 
   55.7500    82.6510     1.9800    33.3820    19.4440     1.0420    19.6220    25.6880 
   55.8750    82.0320     1.9810    30.7870    13.6220     1.0650    17.7580    25.6890 
   56.0000    81.3410     1.9870    30.7280    10.9770     1.0910    17.3070    25.6880 
   56.1250    80.6060     1.9940    33.1190    10.1860     1.1150    17.0180    25.6860 
   56.2500    79.8720     1.9970    34.5400    10.0020     1.1310    16.2450    25.6830 
   56.3750    79.1560     1.9970    32.8810     9.5410     1.1380    14.8950    25.6840 
   56.5000    78.5070     1.9970    30.6900     7.9080     1.1380    13.8710    25.6850 
   56.6250    77.9330     2.0050    31.5430     5.3360     1.1380    13.3300    25.6860 
   56.7500    77.4110     2.0160    33.5800     3.2320     1.1440    13.4620    25.6880 
   56.8750    76.9440     2.0240    34.2190     1.9440     1.1550    13.5030    25.6920 
   57.0000    76.5100     2.0250    34.0290     1.2720     1.1680    14.3540    25.6960 
   57.1250    76.0600     2.0200    35.4750     0.9960     1.1710    14.9810    25.6940 
   57.2500    75.5790     2.0160    37.8030     0.8720     1.1660    15.1890    25.6910 
   57.3750    75.0790     2.0130    39.3550     0.8100     1.1550    14.8830    25.6910 
   57.5000    74.5430     2.0100    39.4300     0.7740     1.1450    13.9590    25.6920 
   57.6250    73.9680     2.0030    36.4900     0.7710     1.1350    12.5290    25.6910 
   57.7500    73.3860     1.9960    31.3860     0.8070     1.1230    11.8810    25.6770 
   57.8750    72.8090     1.9920    27.7340     0.8660     1.1060    12.2940    25.6550 
   58.0000    72.2350     1.9910    28.5060     0.9220     1.0840    13.0620    25.6320 
   58.1250    71.6380     1.9910    32.3190     0.9230     1.0620    14.1850    25.6220 
   58.2500    70.9830     1.9930    34.0340     0.8660     1.0450    15.5480    25.6220 
   58.3750    70.2320     2.0010    33.3060     0.7770     1.0360    16.5930    25.6210 
   58.5000    69.3890     2.0200    33.1130     0.7050     1.0360    16.5710    25.6190 
   58.6250    68.4490     2.0510    34.9740     0.7060     1.0310    14.6540    25.6180 
   58.7500    67.4200     2.0860    36.9150     0.8060     1.0160    11.4340    25.6190 
   58.8750    66.2950     2.1140    36.7570     1.0330     0.9900     8.8560    25.6250 
   59.0000    65.0540     2.1290    35.4860     1.3870     0.9510     7.9470    25.6250 
   59.1250    63.6900     2.1250    34.2330     1.7980     0.9040     8.1340    25.6000 
   59.2500    62.2120     2.1100    33.6470     2.0410     0.8570     8.3880    25.5750 
   59.3750    60.6530     2.0930    34.9240     1.9060     0.8080     8.5350    25.5760 
   59.5000    58.9920     2.0820    37.2760     1.4600     0.7390     8.7070    25.5980 
   59.6250    57.1500     2.0840    38.8810     1.0030     0.6100     9.2540    25.6120 
   59.7500    55.0970     2.1060    40.0850     0.6760     0.4360    10.1030    25.6140 
   59.8750    52.7790     2.1730    42.3180     0.4510     0.2620    10.7810    25.6080 
   60.0000    50.1710     2.2850    45.2190     0.2970     0.1300    11.1160    25.5940 
   60.1250    47.1790     2.3950    48.9160     0.2240     0.0660    11.0920    25.5660 
   60.2500    43.8050     2.4400    54.2660     0.2340     0.0590     5.7110    25.4520 
   60.3750    39.9870     2.4130    61.5470     0.3600     0.1280     1.2460    24.9960 
   60.5000    35.7470     2.3460    69.8160     0.6730     0.3240     2.7190    24.0370 
   60.6250    31.2380     2.2700    76.1120     1.3770     0.7930     5.0320    22.9170 
   60.7500    26.7530     2.2180    79.7050     2.5220     1.5950     7.7300    22.2100 
   60.8750    22.4830     2.1990    81.2500     3.8050     2.6640     9.0900    21.9790 
   61.0000    18.5580     2.2050    83.8190     4.5130     3.7110     6.8350    21.9410 
   61.1250    15.1770     2.2200    87.5370     4.3450     4.3480     5.9280    21.9920 
   61.2500    12.3660     2.2310    88.2890     4.0010     4.6220     5.7330    22.2900 
   61.3750    10.1960     2.2370    87.6150     3.8200     4.7000     5.4140    22.7830 
   61.5000     8.6510     2.2360    90.5710     3.8940     4.7500     5.0540    23.2340 
   61.6250     7.6850     2.2310    96.5380     4.2580     4.9380     4.8210    23.4750 
   61.7500     7.0180     2.2340    97.5630     4.8470     5.3410     4.8530    23.6320 
   61.8750     6.5110     2.2620    90.7170     5.6320     5.9750     5.5010    23.7870 
   62.0000     6.0680     2.3120    83.4100     6.5460     6.7490     7.2610    23.8690 
   62.1250     5.6140     2.3490    82.3190     7.3220     7.3880    10.1940    23.7370 
   62.2500     5.1520     2.3460    83.5120     7.6420     7.6250    10.4220    23.4540 
   62.3750     4.6710     2.3100    84.4910     7.4160     7.3920     8.0680    23.2030 
