~V
VERS. 2.00: Ver 2.00
~W
STRT.M 63.0000:
STOP.M 246.0000:
STEP.M 0.1250:
NULL. -999.2500:
UWI. F11137:
~C
DEPT.M :
DEN.GM/CC :
GR.API :
RML.OHMM :
RI. :
RXO.OHMM :
CALI.CM :
SP.MV :
~A
# ...
   85.5000     2.2360    77.7000     7.4370     6.2260     8.7670    24.1620   -10.1260 
   85.6250     2.2460    77.9260     7.3620     6.1130     8.4280    24.2950    -9.7080 
   85.7500     2.2470    77.0780     7.3400     6.0330     8.1880    24.4720    -9.2990 
   85.8750     2.2380    76.2090     7.4090     6.0230     8.2120    24.6100    -9.0410 
   86.0000     2.2210    76.8480     7.5670     6.0970     8.5910    24.6920    -8.9970 
   86.1250     2.2030    78.4070     7.7820     6.2400     9.0160    24.6720    -9.2000 
   86.2500     2.1870    79.0400     7.9930     6.3950     9.3090    24.5730    -9.6040 
   86.3750     2.1780    76.9230     8.1580     6.5220     9.7150    24.4340   -10.1600 
   86.5000     2.1760    73.1920     8.2550     6.5940    10.3260    24.3310   -10.7790 
   86.6250     2.1830    71.1310     8.2790     6.6000    10.7080    24.2570   -11.3410 
   86.7500     2.1930    71.4310     8.2910     6.5760    10.1690    24.1590   -11.7680 
   86.8750     2.2040    73.8190     8.3700     6.5650     9.7930    24.0690   -12.0120 
   87.0000     2.2120    76.6570     8.6150     6.6380     9.9380    24.0150   -12.1030 
   87.1250     2.2240    77.4160     9.1570     6.9200    10.3650    23.9730   -12.0520 
   87.2500     2.2510    74.6590     9.9510     7.4360    10.9520    23.9290   -11.9050 
   87.3750     2.2990    71.3300    10.8690     8.1500    11.8120    23.9290   -11.6530 
   87.5000     2.3600    69.3420    11.6810     8.9170    13.0680    23.9460   -11.3410 
   87.6250     2.4070    66.4200    12.0330     9.4330    14.3740    23.9120   -11.0860 
   87.7500     2.4190    62.8730    11.8430     9.5040    13.6940    23.7990   -10.9650 
   87.8750     2.3940    62.0150    11.2000     9.1290    11.8520    23.6730   -10.9870 
   88.0000     2.3450    64.5710    10.3460     8.4920    10.4930    23.6690   -11.1090 
   88.1250     2.2950    67.7590     9.5790     7.8390    10.2090    23.6750   -11.2840 
   88.2500     2.2610    69.4840     9.0340     7.3270    10.3700    23.6160   -11.4500 
   88.3750     2.2450    71.9550     8.6990     6.9840    10.6640    23.5320   -11.5660 
   88.5000     2.2410    76.1310     8.4940     6.7690    10.0530    23.4480   -11.6150 
   88.6250     2.2380    79.0650     8.3540     6.6270     9.3870    23.3220   -11.6090 
   88.7500     2.2290    78.1230     8.2660     6.5240     8.9950    23.2230   -11.5510 
   88.8750     2.2100    72.9970     8.2730     6.4910     8.8910    23.2270   -11.4240 
   89.0000     2.1860    67.9230     8.4080     6.5630     8.8890    23.3490   -11.2730 
   89.1250     2.1680    67.4740     8.6630     6.7560     8.8650    23.4710   -11.2250 
   89.2500     2.1630    70.4100     8.9250     7.0000     9.1020    23.6320   -11.3100 
   89.3750     2.1730    74.0110     9.0820     7.2090     9.6030    23.8580   -11.5790 
   89.5000     2.1950    76.0050     9.0520     7.2900    10.1750    24.1530   -12.0120 
   89.6250     2.2220    76.6170     8.8120     7.1780    10.6280    24.3990   -12.4620 
   89.7500     2.2460    75.6380     8.4940     6.9540    10.7370    24.5500   -12.9000 
   89.8750     2.2660    72.9170     8.2220     6.7120    10.7000    24.5890   -13.3100 
   90.0000     2.2760    70.7270     8.0780     6.5370    10.4030    24.5500   -13.6840 
   90.1250     2.2660    71.2170     8.0910     6.4830    10.0770    24.4630   -13.9310 
   90.2500     2.2340    72.8780     8.1710     6.5030    10.2250    24.4180   -13.9930 
   90.3750     2.1890    73.5060     8.2380     6.5360    10.4990    24.4040   -13.8290 
   90.5000     2.1450    71.5580     8.2270     6.5280    10.2430    24.4590   -13.4710 
   90.6250     2.1280    68.8680     8.0910     6.4320     9.5120    24.5260   -12.9850 
   90.7500     2.1390    70.8500     7.8640     6.2600     9.0910    24.4730   -12.3600 
   90.8750     2.1730    77.6970     7.5920     6.0390     8.4780    24.2670   -11.6470 
   91.0000     2.2140    82.0070     7.3450     5.8160     7.8270    23.9770   -10.8830 
   91.1250     2.2480    80.0860     7.2240     5.6700     7.4630    23.7140   -10.2310 
   91.2500     2.2680    79.4380     7.2710     5.6490     7.3150    23.4690    -9.7930 
   91.3750     2.2750    81.4310     7.5030     5.7760     7.3620    23.1830    -9.5660 
   91.5000     2.2700    81.0110     7.8910     6.0480     8.0040    22.8830    -9.4790 
   91.6250     2.2580    76.5690     8.3550     6.4330     9.0950    22.6320    -9.5000 
   91.7500     2.2450    73.2940     8.7550     6.8190     9.6280    22.5120    -9.6220 
   91.8750     2.2370    73.3300     8.9890     7.1070     9.5700    22.4700    -9.8040 
   92.0000     2.2380    75.5070     9.0120     7.2320     9.3790    22.4240   -10.0220 
   92.1250     2.2500    76.8270     8.8530     7.1790     9.1150    22.4530   -10.1670 
   92.2500     2.2700    76.9810     8.6570     7.0550     8.6930    22.5080   -10.1990 
   92.3750     2.2900    76.9110     8.5210     6.9410     8.2390    22.5570   -10.1810 
   92.5000     2.3020    78.1880     8.4910     6.8780     8.3480    22.5660   -10.1810 
   92.6250     2.2980    79.1860     8.5590     6.8710     9.0680    22.5840   -10.2500 
   92.7500     2.2770    78.1250     8.6550     6.8760     9.5080    22.6060   -10.3790 
   92.8750     2.2480    75.5470     8.7370     6.8680     9.4290    22.6700   -10.5590 
   93.0000     2.2210    72.8730     8.7930     6.8370     9.0540    22.8210   -10.7970 
   93.1250     2.2060    72.1380     8.8360     6.7930     8.8620    23.1670   -11.0670 
   93.2500     2.2040    72.5250     8.8740     6.7610     9.3880    23.5660   -11.3250 
   93.3750     2.2080    73.0120     8.8840     6.7400    10.1720    23.8800   -11.5100 
   93.5000     2.2050    73.2250     8.8230     6.7050    10.7620    24.0360   -11.6150 
   93.6250     2.1880    71.7700     8.6950     6.6390    11.0310    24.1190   -11.6090 
   93.7500     2.1630    68.7260     8.6570     6.5990    11.0640    24.2440   -11.5080 
   93.8750     2.1520    65.9030     8.9630     6.7160    10.9800    24.4030   -11.2930 
   94.0000     2.1760    66.4490     9.9250     7.1840    11.1000    24.5470   -10.9190 
   94.1250     2.2620    70.3030    11.9750     8.3980    11.9380    24.6250   -10.4110 
   94.2500     2.3930    71.9680    14.9500    10.5240    14.9350    24.6870    -9.8850 
   94.3750     2.5380    69.5930    18.3430    13.5790    22.7540    24.8150    -9.4590 
   94.5000     2.6550    66.7310    21.0930    16.9670    40.3900    25.0020    -9.1680 
   94.6250     2.6940    66.3560    21.5280    18.7370    55.2340    25.1100    -9.0090 
   94.7500     2.6550    67.6290    19.5800    17.7800    45.6460    24.9100    -8.9820 
   94.8750     2.5590    69.1490    16.1250    14.8520    25.2420    24.4560    -9.1050 
   95.0000     2.4400    71.1410    12.5220    11.5680    14.6980    24.0220    -9.3510 
   95.1250     2.3380    74.2950     9.9800     9.0910    11.8330    23.8960    -9.6590 
   95.2500     2.2710    76.9320     8.5520     7.4680    11.0220    23.9850    -9.9150 
   95.3750     2.2350    77.7440     7.9350     6.9760    10.8290    24.0430   -10.0620 
   95.5000     2.2180    78.9180     7.7690     6.4110    10.4470    24.1720   -10.0890 
   95.6250     2.2060    78.9880     7.8660     6.1650    10.3260    24.2910   -10.0080 
   95.7500     2.1960    77.5610     8.1130     6.2220    10.4410    24.4640    -9.8240 
   95.8750     2.1930    76.0430     8.4360     6.4490    10.7050    24.6350    -9.5020 
   96.0000     2.2080    73.8480     8.7220     6.7520    10.8930    24.6810    -9.0270 
   96.1250     2.2430    71.3120     8.8710     7.0400    10.9080    24.6300    -8.4700 
   96.2500     2.2830    70.3310     8.8580     7.2200    10.8990    24.6080    -7.9840 
   96.3750     2.3140    72.3010     8.6700     7.2220    10.8310    24.6360    -7.5010 
   96.5000     2.3270    75.3960     8.3390     7.0300    10.5320    24.6630    -7.0440 
   96.6250     2.3200    76.2690     7.9470     6.6930     9.9330    24.6630    -6.7640 
