~V
VERS. 2.00: Ver 2.00
~W
STRT.M 50.0000:
STOP.M 264.0000:
STEP.M 0.1250:
NULL. -999.2500:
UWI. F11182:
~C
DEPT.M :
SP.MV :
GR.API :
RI. :
RML.OHMM :
RXO.OHMM :
DEN.GM/CC :
~A
# ...
  217.3750     3.1610    59.4930     7.8760     8.5700    10.9180     2.1470 
  217.5000     3.1300    58.7190     7.3710     8.0400    10.5090     2.1480 
  217.6250     3.1160    58.2370     6.8570     7.5000     9.6110     2.1490 
  217.7500     3.1370    60.0200     6.7300     7.3660     9.3690     2.1460 
  217.8750     3.2140    63.7880     6.8930     7.5380     9.7070     2.1410 
  218.0000     3.2870    65.1860     7.1210     7.7770    10.0060     2.1390 
  218.1250     3.4000    65.5420     7.5010     8.1760    10.8320     2.1410 
  218.2500     3.4630    64.4560     7.7680     8.4560    11.2060     2.1420 
  218.3750     3.5250    60.7850     8.1890     8.8980    10.8500     2.1330 
  218.5000     3.5460    59.1350     8.5320     9.2590    10.7630     2.1180 
  218.6250     3.5610    58.3550     9.1130     9.8680    11.8170     2.1040 
  218.7500     3.5670    57.9220     9.5130    10.2890    12.9160     2.1070 
  218.8750     3.5780    55.1810     9.8100    10.6010    13.7850     2.1200 
  219.0000     3.5880    55.4490     9.7750    10.5640    13.1310     2.1240 
  219.1250     3.6020    59.2040     9.3300    10.0970    10.7340     2.1220 
  219.2500     3.6080    60.6040     8.8420     9.5850    10.3870     2.1210 
  219.3750     3.6050    59.9250     8.1970     8.9070     9.9110     2.1190 
  219.5000     3.5920    60.6500     7.8710     8.5650     9.7040     2.1180 
  219.6250     3.5570    64.8380     7.6160     8.2970     9.4000     2.1170 
  219.7500     3.5290    66.1650     7.5910     8.2700     9.1150     2.1180 
  219.8750     3.4930    63.9220     7.6980     8.3830     8.7520     2.1250 
  220.0000     3.4770    62.5370     7.8260     8.5170     8.6510     2.1340 
  220.1250     3.4600    61.8100     8.0290     8.7300     8.7450     2.1420 
  220.2500     3.4400    62.3260     8.1570     8.8650     8.9180     2.1420 
  220.3750     3.3700    62.6810     8.2640     8.9770     9.1230     2.1490 
  220.5000     3.2870    63.2850     8.2700     8.9840     9.1320     2.1580 
  220.6250     3.1130    63.4500     8.2210     8.9320     8.9430     2.1640 
  220.7500     2.9780    62.5110     8.1730     8.8810     8.7230     2.1590 
  220.8750     2.7790    60.3100     8.1420     8.8490     8.5800     2.1470 
  221.0000     2.6580    59.3930     8.1420     8.8490     8.7330     2.1380 
  221.1250     2.4900    60.0930     8.2450     8.9570     9.0830     2.1310 
  221.2500     2.3720    61.8660     8.4480     9.1710     9.2540     2.1320 
  221.3750     2.1590    62.8570     8.8920     9.6360     9.5380     2.1350 
  221.5000     1.9840    61.6010     9.3330    10.1000     9.9040     2.1350 
  221.6250     1.6880    59.9020    10.1890    10.9990    10.8180     2.1480 
  221.7500     1.4870    60.7110    10.9490    11.7960    11.5850     2.1760 
  221.8750     1.2130    62.9910    12.2060    13.1160    12.9660     2.2370 
  222.0000     1.0580    63.8640    13.1650    14.1230    14.1090     2.2660 
  222.1250     0.8650    64.4210    14.6890    15.7240    16.0860     2.2510 
  222.2500     0.7570    64.3000    15.7520    16.8390    17.5280     2.2120 
  222.3750     0.6210    61.5820    17.2750    18.4380    19.9370     2.1600 
  222.5000     0.5510    58.7650    18.2610    19.4740    21.4820     2.1480 
  222.6250     0.4800    57.6650    19.4940    20.7680    23.3050     2.1520 
  222.7500     0.4520    60.4580    20.2450    21.5570    24.1390     2.1520 
  222.8750     0.4260    65.4200    21.2620    22.6250    24.6330     2.1430 
  223.0000     0.4110    66.7770    21.7690    23.1580    24.4080     2.1340 
  223.1250     0.3840    66.1060    21.9370    23.3340    23.6670     2.1320 
  223.2500     0.3620    65.7880    21.7160    23.1020    23.2580     2.1340 
  223.3750     0.3250    64.3250    21.0870    22.4420    22.8690     2.1440 
  223.5000     0.3010    62.9270    20.6590    21.9910    22.6880     2.1630 
  223.6250     0.2680    61.7910    20.4410    21.7630    22.6870     2.2070 
  223.7500     0.2530    61.5610    20.5680    21.8970    22.9940     2.2280 
  223.8750     0.2460    60.0120    21.0540    22.4070    27.2550     2.2300 
  224.0000     0.2550    58.4620    21.5830    22.9620    31.3270     2.2230 
  224.1250     0.2910    56.7270    22.4580    23.8810    33.4710     2.2080 
  224.2500     0.3330    55.2950    23.0820    24.5370    31.2550     2.1910 
  224.3750     0.4230    54.7260    24.0950    25.6000    27.7340     2.1620 
  224.5000     0.5000    55.7530    24.6190    26.1500    27.3250     2.1510 
  224.6250     0.6300    57.5630    24.8620    26.4050    28.2020     2.1530 
  224.7500     0.7210    57.3910    24.5540    26.0810    29.7970     2.1620 
  224.8750     0.8540    56.0140    23.4510    24.9230    31.8370     2.1650 
  225.0000     0.9370    56.1820    22.4410    23.8630    29.8800     2.1540 
  225.1250     1.0500    57.6960    20.8060    22.1460    24.9010     2.1300 
  225.2500     1.1140    58.8750    19.7990    21.0890    23.5460     2.1200 
  225.3750     1.1880    59.3980    18.7070    19.9420    25.9940     2.1320 
  225.5000     1.2210    58.6640    18.4230    19.6450    28.5950     2.1470 
  225.6250     1.2500    58.6770    18.1840    19.3930    30.6460     2.1590 
  225.7500     1.2590    60.7730    17.9860    19.1850    32.2300     2.1510 
  225.8750     1.2620    63.0510    17.6570    18.8400    31.8670     2.1350 
  226.0000     1.2530    61.4020    17.5610    18.7390    29.8060     2.1350 
  226.1250     1.2250    59.4270    17.5950    18.7750    43.8860     2.1470 
  226.2500     1.2000    60.6810    17.8390    19.0300    82.8020     2.1520 
  226.3750     1.1740    62.2830    18.6710    19.9050   111.4240     2.1510 
  226.5000     1.1760    61.1160    19.5070    20.7820    72.4440     2.1470 
  226.6250     1.2230    60.7930    20.8860    22.2300    27.7920     2.1400 
  226.7500     1.2910    62.5000    21.6950    23.0800    26.9010     2.1350 
  226.8750     1.4580    63.2080    22.5110    23.9370    26.2070     2.1320 
  227.0000     1.6150    62.9510    23.0310    24.4830    26.2380     2.1300 
  227.1250     1.9200    61.8490    23.8610    25.3540    26.9020     2.1260 
  227.2500     2.1640    59.9120    24.2640    25.7780    27.2340     2.1230 
  227.3750     2.5810    56.7540    24.4190    25.9400    27.6340     2.1220 
  227.5000     2.8890    56.4490    24.2010    25.7110    28.2240     2.1240 
  227.6250     3.3960    58.6600    23.4180    24.8890    29.1630     2.1260 
  227.7500     3.7660    59.9300    22.6920    24.1260    28.4770     2.1240 
  227.8750     4.3660    60.5930    21.5870    22.9670    26.3870     2.1220 
  228.0000     4.7900    60.3730    20.9090    22.2540    25.6260     2.1210 
  228.1250     5.4440    60.8220    20.2030    21.5130    24.6960     2.1150 
  228.2500     5.8840    61.5760    19.8740    21.1680    25.1510     2.1060 
  228.3750     6.5390    61.9950    19.5710    20.8500    28.6010     2.0950 
  228.5000     6.9720    61.1920    19.5890    20.8680    30.8490     2.0900 
  228.6250     7.6190    59.2490    20.0900    21.3950    33.8680     2.0840 
  228.7500     8.0520    58.0270    20.7830    22.1220    34.8800     2.0930 
  228.8750     8.7100    57.0290    22.2860    23.7000    32.7990     2.1640 
  229.0000     9.1570    58.4090    23.9230    25.4190    31.5830     2.2560 
  229.1250     9.8390    62.3420    26.2240    27.8350    31.7360     2.4190 
  229.2500    10.2950    65.7030    25.9340    27.5310    60.6760     2.5230 
  229.3750    10.9560    68.5680    20.8570    22.2000   137.7480     2.6390 
  229.5000    11.3580    66.9430    15.4990    16.5740   146.3560     2.6480 
  229.6250    11.8570    59.1250     7.4580     8.1310    86.8030     2.5370 
  229.7500    12.0910    55.0600     4.2070     4.7180    20.3840     2.4310 
  229.8750    12.2550    55.2630     2.4180     2.8390     3.7010     2.3150 
  230.0000    12.2270    58.6260     2.0300     2.4320     2.8830     2.2810 
  230.1250    11.9840    67.8920     1.9470     2.3440     3.2900     2.2840 
