~V
VERS. 2.00: Ver 2.00
~W
STRT.M 53.0000:
STOP.M 212.0000:
STEP.M 0.1250:
NULL. -999.2500:
UWI. F11124:
~C
DEPT.M :
SP.MV :
DEN.GM/CC :
GR.API :
RML.OHMM :
RI. :
RXO.OHMM :
CALI.CM :
~A
# ...
  120.5000   -10.1750     2.4320    75.9960     9.2350     9.1430     8.5330    26.6510 
  120.6250    -9.7300     2.4370    75.9740     9.1900     9.0750     8.3850    26.6100 
  120.7500    -9.3950     2.4350    80.5810     9.1320     9.0060     8.2730    26.5470 
  120.8750    -9.1380     2.4330    82.3730     9.0700     8.9280     8.3190    26.4940 
  121.0000    -8.9450     2.4360    79.9330     9.0890     8.8830     8.4560    26.5210 
  121.1250    -8.8260     2.4410    77.2660     9.4120     9.0270     8.4560    26.5810 
  121.2500    -8.7170     2.4510    79.0800    10.2260     9.5140     8.9290    26.6300 
  121.3750    -8.6030     2.4710    83.3790    11.7520    10.5250    10.9510    26.6560 
  121.5000    -8.4950     2.5000    80.6720    14.2010    12.2640    15.5630    26.6660 
  121.6250    -8.4090     2.5390    67.1570    18.1360    15.1080    22.2330    26.6670 
  121.7500    -8.3560     2.5790    54.3790    23.5550    18.9450    29.5300    26.6690 
  121.8750    -8.3580     2.6130    48.0350    28.5890    23.3830    34.8350    26.6700 
  122.0000    -8.4190     2.6360    44.7490    32.7400    27.4850    35.4580    26.6720 
  122.1250    -8.5230     2.6400    42.6460    34.4390    29.7190    33.8700    26.6700 
  122.2500    -8.6490     2.6280    44.2690    33.8860    29.9020    31.4290    26.6710 
  122.3750    -8.8020     2.6090    46.4220    31.9440    28.6210    29.3390    26.6820 
  122.5000    -9.0130     2.5900    45.1700    29.6170    26.7390    28.0250    26.7090 
  122.6250    -9.2300     2.5740    43.6290    27.5630    24.9030    26.9420    26.7570 
  122.7500    -9.4290     2.5510    44.1170    25.8700    23.3260    25.6170    26.8260 
  122.8750    -9.6330     2.5150    44.7160    24.4790    22.0100    23.4990    26.8970 
  123.0000    -9.8210     2.4760    44.1330    23.3310    20.9280    20.6000    26.9250 
  123.1250    -9.9530     2.4530    45.2500    22.4530    20.1130    18.3550    26.9070 
  123.2500   -10.0540     2.4460    49.0240    21.8170    19.5380    17.3160    26.8620 
  123.3750   -10.1240     2.4490    51.3630    21.4110    19.1960    17.3390    26.8310 
  123.5000   -10.1350     2.4550    50.1200    21.1700    19.0400    17.7040    26.8350 
  123.6250   -10.0850     2.4620    47.2890    20.9860    18.9780    17.7030    26.8710 
  123.7500   -10.0020     2.4730    44.9380    20.7560    18.8900    17.4480    26.8750 
  123.8750    -9.8590     2.4890    42.2460    20.4690    18.7370    16.8310    26.8350 
  124.0000    -9.6790     2.5110    40.9730    20.1760    18.5530    15.8210    26.7820 
  124.1250    -9.5030     2.5260    45.3060    19.9500    18.4030    15.3450    26.7890 
  124.2500    -9.3180     2.5330    51.3440    19.7920    18.3080    15.2170    26.8800 
  124.3750    -9.1180     2.5430    55.7800    19.6740    18.2550    15.2190    27.0520 
  124.5000    -8.9010     2.5580    58.2930    19.5460    18.2010    15.0300    27.1680 
  124.6250    -8.6780     2.5650    56.7460    19.3520    18.0890    14.3870    27.1450 
  124.7500    -8.4530     2.5590    51.3250    19.1050    17.9120    13.7890    27.0500 
  124.8750    -8.2420     2.5450    46.2090    18.8770    17.7140    13.5990    26.9750 
  125.0000    -8.0300     2.5310    46.1500    18.7660    17.5730    13.8200    26.9090 
  125.1250    -7.8340     2.5120    49.4330    18.8960    17.5930    14.3100    26.8570 
  125.2500    -7.6900     2.4820    49.7480    19.2410    17.7840    14.8640    26.9240 
  125.3750    -7.5770     2.4440    47.3780    19.7060    18.1020    15.4490    27.1650 
  125.5000    -7.4960     2.4020    45.9240    20.1200    18.4300    15.9260    27.4060 
  125.6250    -7.4790     2.3440    46.3750    20.2550    18.5800    15.8850    27.5690 
  125.7500    -7.4880     2.2610    45.4760    20.0840    18.4850    15.6060    27.7930 
  125.8750    -7.5100     2.1900    43.5460    19.6970    18.1790    15.3510    28.1960 
  126.0000    -7.5770     2.1830    42.4040    19.2840    17.7980    15.3040    28.6310 
  126.1250    -7.6760     2.2730    44.0310    19.1350    17.5830    15.5430    28.5550 
  126.2500    -7.7650     2.4080    46.8590    19.3960    17.6970    16.0350    28.0010 
  126.3750    -7.8580     2.5190    47.9700    20.1040    18.2090    16.7570    27.4400 
  126.5000    -7.9580     2.5750    46.0240    21.1650    19.0820    17.6130    27.0830 
  126.6250    -8.0350     2.5890    43.8230    22.3290    20.1600    18.3770    26.8950 
  126.7500    -8.1150     2.5880    44.1310    23.2160    21.1020    18.8820    26.7790 
  126.8750    -8.2000     2.5770    45.3060    23.5740    21.6300    19.0830    26.7180 
  127.0000    -8.2720     2.5630    46.3520    23.3930    21.6460    18.9460    26.6780 
  127.1250    -8.3080     2.5500    49.2580    22.9330    21.2920    18.5540    26.6430 
  127.2500    -8.3280     2.5420    52.3850    22.6020    20.9440    18.0990    26.6110 
  127.3750    -8.3390     2.5440    52.5660    22.5500    20.7920    17.9370    26.5990 
  127.5000    -8.3480     2.5560    49.9820    22.7230    20.8600    18.1040    26.6030 
  127.6250    -8.3540     2.5670    49.5590    22.8760    21.0140    18.8260    26.6200 
  127.7500    -8.3520     2.5650    51.7960    22.7500    21.0180    19.2310    26.6350 
  127.8750    -8.3360     2.5550    54.2570    22.2480    20.7320    18.3200    26.6290 
  128.0000    -8.3010     2.5480    56.2860    21.4480    20.1530    16.5100    26.5890 
  128.1250    -8.2680     2.5470    56.8480    20.5750    19.4170    15.2600    26.5830 
  128.2500    -8.2260     2.5450    54.5590    19.8720    18.7560    14.7680    26.5840 
  128.3750    -8.2110     2.5360    50.7230    19.4490    18.3020    14.6810    26.5870 
  128.5000    -8.1940     2.5240    49.7970    19.3070    18.1010    14.7640    26.5820 
  128.6250    -8.1650     2.5190    51.8860    19.3700    18.1260    15.1620    26.5940 
  128.7500    -8.1830     2.5190    52.0510    19.4340    18.2120    15.7340    26.6080 
  128.8750    -8.2140     2.5130    49.7070    19.3530    18.2210    16.1410    26.6210 
  129.0000    -8.2750     2.4970    49.9200    19.0470    18.0510    16.1390    26.6210 
  129.1250    -8.3810     2.4790    54.4100    18.5450    17.6750    15.3960    26.6230 
  129.2500    -8.5150     2.4670    57.3060    18.0790    17.2580    14.4290    26.6050 
  129.3750    -8.6390     2.4570    55.8700    17.8730    16.9810    13.6900    26.5440 
  129.5000    -8.7840     2.4480    53.5550    18.0970    17.0100    13.6290    26.4790 
  129.6250    -8.9620     2.4450    53.3770    18.8850    17.5120    14.8270    26.4460 
  129.7500    -9.1090     2.4490    51.9230    20.0530    18.4000    16.3420    26.4390 
  129.8750    -9.2520     2.4530    47.3120    21.3980    19.5500    17.6410    26.4410 
  130.0000    -9.3730     2.4550    41.8040    22.6650    20.7650    18.6210    26.4430 
  130.1250    -9.4500     2.4570    40.5440    23.5170    21.7420    19.1720    26.4370 
  130.2500    -9.5300     2.4610    41.9360    23.8560    22.3040    19.2110    26.4210 
  130.3750    -9.5960     2.4680    42.2310    23.7000    22.3960    18.8140    26.3810 
  130.5000    -9.6250     2.4740    40.8250    23.1910    22.0990    18.2810    26.3050 
  130.6250    -9.6580     2.4760    41.3080    22.4840    21.5490    17.9740    26.2340 
  130.7500    -9.6910     2.4710    44.6290    21.6690    20.8750    17.9900    26.2030 
  130.8750    -9.7140     2.4660    46.5070    20.6830    20.0410    18.0120    26.1940 
  131.0000    -9.7380     2.4710    44.2310    19.4650    18.9880    17.8540    26.1850 
  131.1250    -9.7320     2.4860    42.6230    18.0610    17.7270    17.0070    26.1710 
  131.2500    -9.6930     2.4990    45.6390    16.7390    16.4870    15.4420    26.1650 
  131.3750    -9.6540     2.5050    51.3440    15.7380    15.4920    13.5560    26.1770 
  131.5000    -9.6430     2.5060    54.5040    15.1830    14.8840    12.2280    26.1990 
  131.6250    -9.6290     2.5060    52.8860    15.0650    14.7130    12.3640    26.2100 
