~V
VERS. 2.00: Ver 2.00
~W
STRT.M 60.0000:
STOP.M 282.0000:
STEP.M 0.1250:
NULL. -999.2500:
UWI. F11159:
~C
DEPT.M :
GR.API :
RML.OHMM :
RI. :
RXO.OHMM :
CALI.CM :
SP.MV :
DEN.GM/CC :
~A
# ...
   71.2500    65.6660    11.1690     8.9290    14.4540    24.9370   -41.1190     2.0840 
   71.3750    67.7310    11.0310     8.8160    13.8640    24.5840   -41.2280     2.0880 
   71.5000    70.0920    10.8030     8.6540    13.9490    24.4510   -41.3330     2.0930 
   71.6250    72.1630    10.6030     8.5050    13.8120    24.4310   -41.4460     2.0960 
   71.7500    73.1060    10.5430     8.4410    13.6440    24.4360   -41.5530     2.0960 
   71.8750    71.2510    10.6520     8.4980    13.8100    24.4410   -41.5910     2.0990 
   72.0000    66.7020    10.8960     8.6710    14.2320    24.4410   -41.6010     2.1090 
   72.1250    64.2010    11.1780     8.9100    14.5880    24.4510   -41.5400     2.1310 
   72.2500    64.4000    11.3730     9.1180    14.6800    24.5130   -41.4210     2.1570 
   72.3750    64.3880    11.4090     9.2260    14.5000    24.7020   -41.2250     2.1740 
   72.5000    63.9140    11.2680     9.2010    14.0500    24.8050   -40.9910     2.1770 
   72.6250    64.2240    10.9620     9.0240    13.6430    24.8230   -40.7040     2.1640 
   72.7500    64.5550    10.5920     8.7520    13.3810    24.8330   -40.4080     2.1470 
   72.8750    64.2700    10.2360     8.4410    13.2050    24.8840   -40.1400     2.1360 
   73.0000    64.9940     9.9470     8.1450    13.0860    25.0310   -39.9170     2.1310 
   73.1250    67.8630     9.7600     7.9160    12.8850    25.0560   -39.7430     2.1300 
   73.2500    71.9170     9.6750     7.7760    12.7180    25.0630   -39.6240     2.1280 
   73.3750    75.3490     9.6990     7.7350    12.7700    25.0580   -39.5550     2.1260 
   73.5000    75.4760     9.8270     7.7900    13.0680    25.0340   -39.5380     2.1270 
   73.6250    70.3940    10.0430     7.9260    13.3380    24.9280   -39.5460     2.1330 
   73.7500    65.8160    10.2760     8.0930    13.4200    24.7890   -39.5690     2.1410 
   73.8750    66.7300    10.4550     8.2410    13.4290    24.6490   -39.6240     2.1460 
   74.0000    69.7910    10.5120     8.3200    13.4030    24.4160   -39.6790     2.1450 
   74.1250    69.3880    10.3990     8.2850    13.2640    24.3060   -39.7280     2.1340 
   74.2500    66.8200    10.1930     8.1720    13.0500    24.3160   -39.7640     2.1210 
   74.3750    65.7670    10.0000     8.0400    12.8420    24.4760   -39.7960     2.1090 
   74.5000    66.6700     9.9400     7.9650    12.9250    24.6910   -39.8130     2.1050 
   74.6250    66.5650    10.1240     8.0380    13.2010    24.7280   -39.8740     2.1090 
   74.7500    65.2320    10.4960     8.2600    13.7240    24.7360   -39.9260     2.1170 
   74.8750    65.1070    10.9540     8.5900    13.7850    24.7360   -39.9600     2.1260 
   75.0000    67.4800    11.3470     8.9310    13.4750    24.7380   -39.9960     2.1310 
   75.1250    70.6320    11.4750     9.1240    13.3410    24.7450   -40.0340     2.1320 
   75.2500    70.6940    11.3190     9.1020    13.4000    24.7460   -40.0820     2.1290 
   75.3750    68.8030    10.9510     8.8830    13.4230    24.7470   -40.1430     2.1230 
   75.5000    66.5470    10.5090     8.5560    13.4170    24.7470   -40.1980     2.1160 
   75.6250    65.3320    10.1560     8.2480    13.4180    24.7530   -40.2600     2.1070 
   75.7500    65.4030     9.9660     8.0400    13.4190    24.7850   -40.3260     2.0990 
   75.8750    66.5180     9.9630     7.9660    13.4240    24.8200   -40.3730     2.0990 
   76.0000    67.6770    10.1500     8.0350    13.4060    24.8420   -40.3930     2.1120 
   76.1250    70.0940    10.5510     8.2730    13.2480    24.9400   -40.4200     2.1500 
   76.2500    70.9800    11.0830     8.6260    13.0190    25.0420   -40.4140     2.2000 
   76.3750    68.4740    11.6280     9.0310    13.1140    25.1290   -40.3990     2.2450 
   76.5000    65.8820    12.0300     9.3890    13.2700    25.2320   -40.4230     2.2640 
   76.6250    68.1970    12.0830     9.5570    13.4860    25.3500   -40.4170     2.2420 
   76.7500    70.5420    11.8080     9.4970    13.5270    25.3740   -40.4230     2.2030 
   76.8750    68.7060    11.3340     9.2440    13.1640    25.3790   -40.4250     2.1650 
   77.0000    64.5950    10.8530     8.9010    12.7950    25.3790   -40.4170     2.1400 
   77.1250    61.7090    10.5330     8.5850    12.5490    25.3790   -40.3690     2.1310 
   77.2500    60.7630    10.3650     8.3500    12.4070    25.3790   -40.3110     2.1270 
   77.3750    62.4310    10.2760     8.1920    12.3010    25.3790   -40.2070     2.1240 
   77.5000    65.3570    10.1800     8.0730    12.2110    25.3790   -40.0270     2.1200 
   77.6250    66.9890    10.0330     7.9500    12.1690    25.3790   -39.8300     2.1160 
   77.7500    68.7520     9.8910     7.8270    12.0490    25.3780   -39.6060     2.1120 
   77.8750    72.4060     9.8140     7.7350    11.9730    25.3730   -39.3900     2.1110 
   78.0000    75.5730     9.8350     7.7110    12.0100    25.3780   -39.1840     2.1140 
   78.1250    73.3730     9.9590     7.7840    12.2970    25.3800   -38.9780     2.1200 
   78.2500    70.9890    10.1420     7.9300    12.6210    25.3860   -38.7880     2.1250 
   78.3750    74.9410    10.3570     8.1210    12.8670    25.4240   -38.6470     2.1240 
   78.5000    81.7270    10.5930     8.3310    13.0700    25.4500   -38.5190     2.1160 
   78.6250    80.1450    10.8560     8.5440    13.1750    25.4520   -38.3530     2.1030 
   78.7500    72.3050    11.1110     8.7430    13.1550    25.4470   -38.0950     2.0920 
   78.8750    65.3310    11.2780     8.8840    13.0180    25.4510   -37.7270     2.0910 
   79.0000    63.5450    11.2420     8.8900    13.2160    25.4460   -37.2500     2.1060 
   79.1250    66.3060    10.8440     8.6350    13.7940    25.4470   -36.6820     2.1370 
   79.2500    69.9250    10.1510     8.1340    13.7760    25.4590   -36.0470     2.1750 
   79.3750    72.6700     9.3220     7.4810    12.5810    25.5090   -35.4030     2.2070 
   79.5000    75.7220     8.5970     6.8370    10.8200    25.5850   -34.8390     2.2210 
   79.6250    79.0770     8.2480     6.4070     9.6410    25.6100   -34.4300     2.2130 
   79.7500    78.5630     8.3100     6.2560     8.9800    25.6090   -34.2560     2.1930 
   79.8750    74.1120     8.7410     6.4010     9.2760    25.6080   -34.2930     2.1690 
   80.0000    69.1760     9.3970     6.7910    10.8600    25.6110   -34.5030     2.1490 
   80.1250    65.9540    10.0170     7.2970    12.1070    25.6300   -34.8390     2.1370 
   80.2500    63.9490    10.3710     7.7160    12.3560    25.6670   -35.2320     2.1320 
   80.3750    63.7560    10.4060     7.9410    12.0200    25.6730   -35.5850     2.1330 
   80.5000    64.7280    10.2360     7.9760    11.6100    25.6740   -35.8460     2.1360 
   80.6250    66.3170    10.0910     7.9220    11.2250    25.6740   -35.8860     2.1370 
   80.7500    66.4980    10.1250     7.9220    11.1900    25.6740   -35.7090     2.1340 
   80.8750    66.4750    10.3410     8.0240    11.6420    25.6740   -35.3120     2.1270 
   81.0000    67.5830    10.6130     8.1880    12.1500    25.6740   -34.7290     2.1220 
   81.1250    68.9990    10.7010     8.2640    12.3170    25.6740   -33.9490     2.1240 
   81.2500    69.4390    10.4550     8.1190    12.3170    25.6740   -33.0380     2.1390 
   81.3750    69.0300     9.8600     7.7080    12.0790    25.6740   -32.0310     2.1630 
   81.5000    70.1780     9.0540     7.1050    11.4970    25.6740   -31.0060     2.1900 
   81.6250    72.6750     8.3050     6.4780    10.6900    25.6740   -30.0980     2.2040 
   81.7500    77.7120     7.8150     5.9850    10.4190    25.6740   -29.3580     2.1980 
   81.8750    83.6640     7.6550     5.6900    10.4060    25.6740   -28.8600     2.1730 
   82.0000    83.2090     7.8130     5.6060    10.4880    25.6740   -28.6500     2.1400 
   82.1250    75.1420     8.2390     5.7360    10.4290    25.6700   -28.8340     2.1150 
   82.2500    68.7210     8.7650     5.9960    10.4000    25.6490   -29.3090     2.1070 
   82.3750    67.4360     9.2750     6.3240    10.5890    25.5650   -30.0770     2.1130 
