~V
VERS. 2.00: Ver 2.00
~W
STRT.M 40.0000:
STOP.M 206.0000:
STEP.M 0.1250:
NULL. -999.2500:
UWI. F11104:
~C
DEPT.M :
GR.API :
RML.OHMM :
RI. :
RXO.OHMM :
CALI.CM :
SP.MV :
DEN.GM/CC :
~A
# ...
  141.2500    66.2090    22.9750    19.8300    23.1220    31.8340   -18.6490     2.1630 
  141.3750    66.0320    22.7020    19.5990    20.6810    31.8370   -18.4370     2.1510 
  141.5000    65.7250    22.8630    19.6370    21.8520    31.8300   -18.2340     2.1480 
  141.6250    67.4430    22.8200    19.5690    25.1870    31.7760   -18.0420     2.1580 
  141.7500    71.7770    22.0210    19.0220    27.8180    31.6730   -17.8460     2.1750 
  141.8750    75.2220    20.3720    17.9010    26.8180    31.5600   -17.6400     2.1950 
  142.0000    75.8900    18.2200    16.4020    25.0530    31.4860   -17.4200     2.2120 
  142.1250    75.0860    16.1950    14.9110    21.1670    31.4640   -17.1710     2.2230 
  142.2500    75.9220    14.6940    13.7150    16.6370    31.4590   -16.9030     2.2340 
  142.3750    77.6980    13.7810    12.8860    14.6080    31.4570   -16.6370     2.2490 
  142.5000    77.6100    13.3540    12.3890    14.3930    31.4540   -16.4090     2.2690 
  142.6250    76.5750    13.3710    12.2240    14.7070    31.4540   -16.2700     2.2850 
  142.7500    75.4230    13.7740    12.3520    14.1200    31.4590   -16.2260     2.2840 
  142.8750    73.1090    14.6630    12.8250    13.1390    31.4610   -16.2720     2.2610 
  143.0000    68.9120    16.1930    13.7180    12.8060    31.4580   -16.3940     2.2220 
  143.1250    64.4460    18.5930    15.1680    14.8050    31.4790   -16.5630     2.1800 
  143.2500    61.5360    21.5770    17.0130    19.3940    31.5320   -16.7240     2.1510 
  143.3750    59.0040    24.6490    18.9710    26.0750    31.5840   -16.8440     2.1420 
  143.5000    56.3610    27.0930    20.6040    30.8090    31.5700   -16.9060     2.1500 
  143.6250    55.2850    28.0640    21.3610    30.3160    31.4660   -16.9030     2.1660 
  143.7500    57.2850    27.7920    21.3190    27.8810    31.3640   -16.8530     2.1780 
  143.8750    62.0950    26.8300    20.7810    26.4610    31.3400   -16.7660     2.1810 
  144.0000    66.0220    25.8040    20.1220    25.8610    31.4040   -16.6550     2.1770 
  144.1250    64.9490    25.1740    19.6350    24.9940    31.4910   -16.5430     2.1700 
  144.2500    62.1120    24.9600    19.3780    24.5190    31.5350   -16.4300     2.1610 
  144.3750    62.6020    24.9870    19.2820    25.4490    31.5140   -16.3100     2.1480 
  144.5000    65.6490    24.8270    19.1200    26.7620    31.4280   -16.1730     2.1360 
  144.6250    65.3320    23.7210    18.4440    26.4510    31.2830   -16.0160     2.1320 
  144.7500    62.7830    21.5500    17.1340    25.4760    31.0560   -15.8660     2.1440 
  144.8750    62.3150    18.7050    15.3750    23.6400    30.6780   -15.7410     2.1680 
  145.0000    66.8270    15.8890    13.5610    19.4080    30.1680   -15.6340     2.1970 
  145.1250    74.9060    13.8300    12.1280    13.4710    29.6960   -15.5350     2.2230 
  145.2500    82.4230    12.5740    11.1550    10.6910    29.3720   -15.4340     2.2420 
  145.3750    84.5000    11.9030    10.5480    11.5940    29.1640   -15.3280     2.2570 
  145.5000    79.1030    11.4770    10.1270    13.5820    29.0150   -15.2150     2.2720 
  145.6250    72.8420    10.9830     9.7150    13.0630    28.9060   -15.0860     2.2880 
  145.7500    70.8640    10.3160     9.2300    10.9330    28.8200   -14.9400     2.3030 
  145.8750    71.9640     9.5450     8.6850     8.7780    28.7540   -14.7870     2.3160 
  146.0000    73.3410     8.8310     8.1540     7.6610    28.7230   -14.6500     2.3220 
  146.1250    73.8500     8.3470     7.7440     8.2050    28.7060   -14.5500     2.3170 
  146.2500    73.9480     8.0520     7.4620     9.1630    28.6780   -14.4900     2.3070 
  146.3750    74.5400     7.8550     7.2690     8.3920    28.6460   -14.4750     2.2980 
  146.5000    75.8850     7.6950     7.1330     7.0050    28.6270   -14.5030     2.2950 
  146.6250    74.4280     7.6220     7.0770     6.9250    28.6270   -14.5770     2.2950 
  146.7500    72.0410     7.7140     7.1400     7.2090    28.6310   -14.6740     2.2920 
  146.8750    72.6700     8.0060     7.3520     7.1180    28.6290   -14.7860     2.2820 
  147.0000    76.6530     8.4400     7.6760     7.1320    28.6260   -14.9090     2.2690 
  147.1250    80.6970     8.8370     7.9970     8.3520    28.6260   -15.0510     2.2610 
  147.2500    82.5020     9.0340     8.1910    10.4390    28.6240   -15.2170     2.2600 
  147.3750    81.3250     8.9950     8.2240    11.2690    28.6250   -15.4010     2.2640 
  147.5000    77.4160     8.7860     8.1360     9.6030    28.6530   -15.6000     2.2700 
  147.6250    75.0460     8.5340     8.0040     7.5870    28.7130   -15.8080     2.2800 
  147.7500    76.5810     8.3660     7.9170     7.6130    28.7600   -16.0050     2.2910 
  147.8750    80.3900     8.3640     7.9360     9.1700    28.7790   -16.1750     2.2960 
  148.0000    82.7570     8.5870     8.1080    10.3940    28.7980   -16.3060     2.2870 
  148.1250    82.5910     9.1230     8.4960     9.5730    28.8820   -16.4100     2.2630 
  148.2500    81.1990     9.9180     9.0590     8.3070    29.0290   -16.4980     2.2370 
  148.3750    78.8830    10.8460     9.7190     8.5470    29.1850   -16.5850     2.2220 
  148.5000    76.2610    11.6380    10.3020    10.9820    29.2810   -16.6780     2.2270 
  148.6250    75.6430    11.7900    10.4600    12.8540    29.3090   -16.7810     2.2490 
  148.7500    76.8480    11.1270    10.0400    12.2950    29.3500   -16.8940     2.2780 
  148.8750    77.5440     9.7970     9.1080    10.5850    29.4460   -17.0170     2.3110 
  149.0000    76.7920     8.2930     7.9820     8.4670    29.5930   -17.1620     2.3430 
  149.1250    76.7860     7.3390     7.1460     6.6610    29.7730   -17.3540     2.3550 
  149.2500    76.4790     7.3540     6.8990     5.8980    29.9620   -17.6130     2.3330 
  149.3750    75.3050     8.7940     7.4970     6.6400    30.1430   -17.9540     2.2820 
  149.5000    73.0950    12.3180     9.2790    10.2800    30.3350   -18.3680     2.2350 
  149.6250    68.9510    17.4170    13.0590    24.9860    30.6650   -18.8730     2.1790 
  149.7500    62.5320    20.7770    18.9700    53.0660    31.1790   -19.4390     2.1440 
  149.8750    57.0150    30.0690    26.6930    74.0650    31.7550   -20.0640     2.1260 
  150.0000    56.8660    39.2430    34.7320    72.8030    32.1770   -20.7320     2.1120 
  150.1250    60.5480    45.0420    40.5440    64.3980    32.3300   -21.4220     2.0900 
  150.2500    60.7030    48.0230    44.0310    59.0270    32.4770   -22.1030     2.0650 
  150.3750    56.3790    50.7200    46.5620    59.9860    32.8270   -22.7420     2.0480 
  150.5000    51.4580    55.2560    49.4450    75.7460    33.3900   -23.3280     2.0440 
  150.6250    50.7210    62.2300    53.0510   107.8470    33.7020   -23.8420     2.0520 
  150.7500    53.2010    69.5920    56.5320   135.3720    33.1810   -24.2890     2.0600 
  150.8750    55.8740    74.9000    58.9230   130.5650    33.2810   -24.6830     2.0670 
  151.0000    56.1580    76.2230    59.5490   115.7870    33.6390   -25.0280     2.0740 
  151.1250    54.1870    73.3820    58.3050   102.3000    33.7370   -25.3210     2.0870 
  151.2500    52.1610    69.5850    56.4670    94.8340    33.8390   -25.5900     2.1000 
  151.3750    50.7280    67.1190    55.0650    83.7950    33.8920   -25.8550     2.1010 
  151.5000    49.8820    67.3560    54.8350    75.7130    33.8780   -26.1100     2.0870 
  151.6250    51.9410    71.4540    56.3590    77.9890    33.8260   -26.3220     2.0640 
  151.7500    54.9430    75.7980    59.2550    95.3290    33.7760   -26.4790     2.0430 
  151.8750    56.9400    77.3180    63.0520   132.7860    33.7440   -26.5830     2.0280 
  152.0000    56.5780    78.8800    67.0260   157.4290    33.7320   -26.6520     2.0160 
  152.1250    54.8030    80.3330    70.1130   158.6990    33.7300   -26.7140     2.0020 
  152.2500    53.1550    81.5070    71.7070   148.0360    33.7270   -26.7780     1.9860 
  152.3750    50.8830    82.1030    71.5740   153.1990    33.7180   -26.8410     1.9730 
