~V
VERS. 2.00: Ver 2.00
~W
STRT.M 59.0000:
STOP.M 221.0000:
STEP.M 0.1250:
NULL. -999.2500:
UWI. F11122:
~C
DEPT.M :
GR.API :
RML.OHMM :
RI. :
RXO.OHMM :
CALI.CM :
SP.MV :
DEN.GM/CC :
~A
# ...
  194.0000    80.0570     6.7750     5.3410     5.0690    24.3800   -11.4570     2.0050 
  194.1250    94.2400     6.9890     5.4800     5.0480    23.9690   -11.1850     1.9090 
  194.2500   105.0360     7.2570     5.6650     5.3610    23.6590   -10.9350     1.9200 
  194.3750   109.8640     7.5690     5.8960     5.8960    23.6110   -10.7030     2.0360 
  194.5000   110.6700     7.9110     6.1690     6.4720    23.9190   -10.4740     2.2090 
  194.6250   110.6820     8.2840     6.4870     7.0250    24.3440   -10.2410     2.3630 
  194.7500   111.2680     8.7040     6.8450     7.9220    24.5880    -9.9860     2.4550 
  194.8750   111.3890     9.2140     7.2660     8.6850    24.7000    -9.7400     2.4840 
  195.0000   110.6660     9.8610     7.7840     9.4040    24.6840    -9.5400     2.4760 
  195.1250   108.0220    10.6770     8.4500    10.3350    24.6770    -9.4950     2.4630 
  195.2500   104.8530    11.5530     9.2070    11.3500    24.6750    -9.5340     2.4660 
  195.3750   101.8800    12.3350     9.9450    12.2150    24.6640    -9.5280     2.4870 
  195.5000   100.3500    12.8640    10.5200    14.3900    24.6330    -9.4860     2.5140 
  195.6250   104.7370    13.0280    10.7970    19.0970    24.6500    -9.4500     2.5250 
  195.7500   111.0840    12.9940    10.8690    21.6750    24.6770    -9.4280     2.5120 
  195.8750   112.6440    12.9440    10.8750    17.8780    24.7000    -9.3820     2.4830 
  196.0000   109.1290    12.9930    10.9380    12.5720    24.7490    -9.2660     2.4590 
  196.1250   107.8860    13.0820    11.0600    13.9150    24.7440    -9.0480     2.4610 
  196.2500   110.8890    12.9760    11.0690    18.5300    24.6550    -8.8390     2.4830 
  196.3750   114.0110    12.4860    10.7870    20.8800    24.4830    -8.6980     2.5060 
  196.5000   114.1020    11.5730    10.1350    17.0200    24.3840    -8.5940     2.5100 
  196.6250   111.9430    10.3970     9.1910    10.9750    24.6180    -8.5900     2.4850 
  196.7500   110.4710     9.3060     8.2430     7.8850    24.7630    -8.6160     2.4490 
  196.8750   109.6560     8.5070     7.4930     6.9810    24.8090    -8.6420     2.4220 
  197.0000   109.7970     8.0650     7.0380     6.9740    24.7770    -8.7780     2.4130 
  197.1250   113.3800     7.9360     6.8950     7.2590    24.7420    -9.0550     2.4220 
  197.2500   118.1550     7.9080     6.8990     7.5230    24.7410    -9.4580     2.4310 
  197.3750   120.1390     7.8420     6.9200     7.6240    24.8220    -9.9480     2.4290 
  197.5000   118.2320     7.6550     6.8530     7.4840    24.8510   -10.3030     2.4150 
  197.6250   114.3860     7.3260     6.6350     7.0990    24.6960   -10.2650     2.3980 
  197.7500   109.5240     6.9410     6.3260     6.4560    24.4930    -9.9740     2.3900 
  197.8750   103.3850     6.5680     5.9890     5.7520    24.4410    -9.5910     2.3940 
  198.0000    97.1480     6.2530     5.6840     5.3070    24.3550    -9.0950     2.4070 
  198.1250    91.0370     6.0220     5.4530     5.1910    23.8760    -8.4480     2.4250 
  198.2500    86.9990     5.8520     5.2860     4.9350    23.5630    -7.6480     2.4420 
  198.3750    90.2760     5.7300     5.1720     4.5790    23.9580    -6.7440     2.4530 
  198.5000    99.2970     5.6510     5.0990     4.3130    24.6290    -5.9940     2.4470 
  198.6250   105.0210     5.6130     5.0630     4.0830    24.9250    -5.5780     2.4200 
  198.7500   105.5730     5.6010     5.0510     3.9830    24.9120    -5.3990     2.3870 
  198.8750   106.5420     5.5980     5.0520     4.3030    24.9100    -5.2990     2.3640 
  199.0000   108.9840     5.5900     5.0540     4.4370    24.9150    -5.2440     2.3600 
  199.1250   109.1000     5.5690     5.0490     4.6880    24.8810    -5.2390     2.3670 
  199.2500   106.4990     5.5500     5.0430     4.6910    24.8240    -5.2250     2.3670 
  199.3750   102.8240     5.5440     5.0450     4.6780    24.7580    -5.2570     2.3610 
  199.5000   101.4100     5.5590     5.0680     4.7660    24.6950    -5.2920     2.3560 
  199.6250   105.5950     5.5960     5.1280     4.8750    24.6970    -5.3870     2.3620 
  199.7500   110.4170     5.6430     5.2220     5.0340    24.7510    -5.4970     2.3710 
  199.8750   112.2100     5.7030     5.3420     5.2420    24.7870    -5.6210     2.3700 
  200.0000   114.0270     5.7840     5.4710     5.5080    24.8110    -5.7380     2.3530 
  200.1250   117.8160     5.8890     5.5800     5.9110    24.9750    -5.9290     2.3290 
  200.2500   117.0380     6.0040     5.6520     6.0270    25.1580    -6.1900     2.3120 
  200.3750   110.5970     6.1220     5.6910     6.0590    25.2480    -6.4730     2.3090 
  200.5000   104.3150     6.2570     5.7320     6.1470    25.2560    -6.7390     2.3190 
  200.6250   103.7050     6.4770     5.8480     6.1950    25.2240    -6.9180     2.3350 
  200.7500   106.2520     6.8330     6.0930     6.4310    25.2500    -7.0620     2.3500 
  200.8750   109.3460     7.3640     6.5000     7.3150    25.3150    -7.1850     2.3600 
  201.0000   111.0260     8.0750     7.0790     9.0390    25.3600    -7.3000     2.3640 
  201.1250   110.4040     8.9860     7.8510    10.5220    25.3470    -7.2810     2.3620 
  201.2500   108.1960    10.0580     8.7890    10.8810    25.2600    -7.1970     2.3580 
  201.3750   105.4660    11.2640     9.8860    11.2580    25.1080    -7.0440     2.3520 
  201.5000   103.4420    12.5270    11.0990    11.6300    24.9890    -6.9220     2.3430 
  201.6250   100.6130    13.6670    12.2950    14.4810    24.8860    -6.8780     2.3290 
  201.7500    97.5440    14.5300    13.2970    20.7130    24.7660    -6.8790     2.3150 
  201.8750    97.1890    15.0730    13.9970    24.0290    24.7130    -6.9590     2.3030 
  202.0000    99.9270    15.4220    14.4280    19.6400    24.7480    -7.0990     2.2980 
  202.1250   102.3350    15.9390    14.8340    14.1960    24.8370    -7.3750     2.2990 
  202.2500   102.0800    16.9650    15.5730    14.1880    24.9030    -7.6240     2.3020 
  202.3750   100.4580    18.6530    16.8940    17.7580    24.8920    -7.8910     2.3010 
  202.5000    97.6200    20.8810    18.8440    24.8250    24.8490    -8.1240     2.2980 
  202.6250    93.1640    23.1480    21.1430    28.9190    24.8310    -8.3640     2.2920 
  202.7500    91.1890    24.8000    23.1240    30.6760    24.8780    -8.5880     2.2900 
  202.8750    92.0920    25.4980    24.3190    31.2630    24.9280    -8.7490     2.2930 
  203.0000    93.4890    25.3340    24.6210    30.8250    24.9550    -8.8320     2.2990 
  203.1250    93.5050    24.7700    24.3160    27.5760    24.9620    -8.8540     2.3030 
  203.2500    92.0560    24.4010    24.0180    24.9550    24.9500    -8.9090     2.3060 
  203.3750    91.5090    24.4280    24.0030    26.4520    24.9280    -8.9770     2.3040 
  203.5000    92.6780    24.7710    24.2850    28.9000    24.9310    -9.0400     2.2970 
  203.6250    93.5690    25.1500    24.6620    29.2580    24.9330    -9.1060     2.2830 
  203.7500    91.0570    25.2680    24.8340    29.2240    24.9550    -9.1900     2.2670 
  203.8750    86.1630    24.9870    24.6230    28.8790    24.9620    -9.2690     2.2540 
  204.0000    82.9900    24.3270    23.9970    27.0810    24.9600    -9.3330     2.2520 
  204.1250    81.6700    23.4650    23.0720    25.0520    24.9520    -9.3480     2.2580 
  204.2500    82.3630    22.7390    22.1700    24.2510    24.9370    -9.3480     2.2640 
  204.3750    85.2980    22.4450    21.5680    23.2430    24.9290    -9.3160     2.2630 
  204.5000    86.8640    22.8590    21.5300    22.3370    24.9690    -9.3270     2.2570 
  204.6250    83.9660    24.3920    22.4600    23.6780    25.0220    -9.2890     2.2500 
  204.7500    80.4580    27.0030    24.4030    27.3790    25.0590    -9.1900     2.2430 
  204.8750    78.8820    30.5960    27.3620    33.5510    25.0960    -9.0630     2.2310 
  205.0000    76.3490    34.8320    31.1170    43.8200    25.1610    -8.8690     2.2130 
  205.1250    70.7380    38.9780    35.1090    55.5370    25.2470    -8.6040     2.1900 
