~V
VERS. 2.00: Ver 2.00
~W
STRT.M 51.0000:
STOP.M 249.0000:
STEP.M 0.1250:
NULL. -999.2500:
UWI. F11143:
~C
DEPT.M :
GR.API :
RML.OHMM :
RI. :
RXO.OHMM :
CALI.CM :
SP.MV :
DEN.GM/CC :
~A
# ...
  242.2500    57.1880    10.8500     8.6280     8.6360    21.3540   -10.3790     2.3650 
  242.3750    57.1880    10.8460     8.6270     7.9340    21.2500   -10.3780     2.3420 
  242.5000    57.1880    10.8460     8.6210     7.5130    21.3990   -10.4000     2.3290 
  242.6250    57.1880    10.8520     8.6090     7.4210    21.6730   -10.4380     2.3240 
  242.7500    57.1880    10.8590     8.5940     7.5450    22.0700   -10.4340     2.3230 
  242.8750    57.1880    10.8660     8.5790     7.6730    22.5080   -10.3880     2.3220 
  243.0000    57.1880    10.8750     8.5670     7.8670    22.8460   -10.3200     2.3210 
  243.1250    57.1880    10.8900     8.5620     8.3490    23.1680   -10.1940     2.3270 
  243.2500    57.1880    10.9070     8.5610     9.0670    23.3940   -10.1280     2.3360 
  243.3750    57.1880    10.9180     8.5620    10.1870    23.4610   -10.1310     2.3440 
  243.5000    57.1880    10.9200     8.5610    11.7200    23.1950   -10.1120     2.3460 
  243.6250    57.1880    10.9160     8.5560    12.7350    22.2790   -10.0450     2.3470 
  243.7500    57.1880    10.9100     8.5480    11.9550    21.3190    -9.9990     2.3510 
  243.8750    57.1880    10.9050     8.5410     9.7850    21.4040   -10.0220     2.3570 
  244.0000    57.1880    10.8960     8.5380     8.3100    22.3460   -10.0260     2.3690 
  244.1250    57.1880    10.8840     8.5410     8.2190    22.9570   -10.5460     2.3910 
  244.2500    57.1880    10.8720     8.5480     8.5350    23.2160   -11.3750     2.4140 
  244.3750    57.1880    10.8650     8.5540     9.1010    23.4340   -12.1760     2.4300 
  244.5000    57.1880    10.8630     8.5520     9.4780    23.5800   -12.9610     2.4350 
  244.6250    57.1880    10.8620     8.5410     9.0650    23.5770   -13.7700     2.4280 
  244.7500    57.1880    10.8590     8.5280     8.3270    23.6030   -14.5810     2.4070 
  244.8750    57.1880    10.8570     8.5220     7.9620    23.6870   -15.3560     2.3640 
  245.0000    57.1880    10.8570     8.5220     8.0270    23.7950   -16.1340     2.2950 
  245.1250    57.1880    10.8570     8.5220     8.4950    23.7590   -16.1310     2.2050 
  245.2500    57.1880    10.8570     8.5220     9.0420    23.5020   -16.1280     2.1290 
  245.3750    57.1880    10.8570     8.5220     9.2810    23.1940   -16.1270     2.0920 
  245.5000    57.1880    10.8570     8.5220     9.3050    23.0520  -999.2500     2.0940 
  245.6250    57.1880    10.8570     8.5220     9.3040    23.0510  -999.2500     2.1060 
  245.7500    57.1880    10.8570     8.5220     9.3020    23.0510  -999.2500     2.1120 
  245.8750    57.1880    10.8570     8.5220     9.3030    23.0510  -999.2500     2.1070 
  246.0000    57.1880    10.8570     8.5220     9.3040    23.0510  -999.2500     2.1030 
  246.1250    57.1880    10.8570     8.5220     9.3040    23.0510  -999.2500     2.1000 
  246.2500    57.1880    10.8570     8.5220     9.3040    23.0510  -999.2500     2.0980 
  246.3750    57.1880    10.8570     8.5220     9.3030    23.0510  -999.2500     2.0960 
  246.5000    57.1880    10.8570     8.5220     9.3060    23.0500  -999.2500     2.0940 
  246.6250    57.1880    10.8570     8.5220     9.3070    23.0480  -999.2500     2.0950 
  246.7500    57.1880    10.8570     8.5220     9.3070    23.0460  -999.2500     2.0970 
  246.8750    57.1880    10.8570     8.5220     9.3080    23.0480  -999.2500     2.0990 
  247.0000    57.1880    10.8570     8.5220     9.3070    23.0500  -999.2500     2.1010 
  247.1250    57.1880    10.8570     8.5220     9.3060    23.0510  -999.2500     2.1010 
  247.2500    57.1880    10.8570     8.5220     9.3110    23.0480  -999.2500     2.1020 
  247.3750    57.1880    10.8570     8.5220     9.3130    23.0450  -999.2500     2.1020 
  247.5000    57.1880    10.8570     8.5220     9.3150    23.0460  -999.2500     2.1020 
  247.6250    57.1880    10.8570     8.5220     9.3170    23.0460  -999.2500     2.1000 
  247.7500    57.1880    10.8570     8.5220     9.3180    23.0470  -999.2500     2.0950 
  247.8750    57.1880    10.8570     8.5220     9.3170    23.0430  -999.2500     2.0920 
  248.0000    57.1880    10.8570     8.5220     9.3170    23.0420  -999.2500     2.0890 
  248.1250    57.1880    10.8570     8.5220     9.3170    23.0420  -999.2500     2.0880 
  248.2500    57.1880    10.8570     8.5220     9.3140    23.0420  -999.2500     2.0860 
  248.3750    57.1880    10.8570     8.5220     9.3100    23.0420  -999.2500     2.0830 
  248.5000    57.1880    10.8570     8.5220     9.3070    23.0420  -999.2500     2.0800 
  248.6250    57.1880    10.8570     8.5220     9.3060    23.0420  -999.2500     2.0780 
  248.7500    57.1880    10.8570     8.5220     9.3070    23.0420  -999.2500     2.0780 
  248.8750    57.1880    10.8570     8.5220     9.3070    23.0420  -999.2500     2.0780 
  249.0000    57.1880    10.8570     8.5220     9.3050    23.0420  -999.2500  -999.2500 
