~V
VERS. 2.00: Ver 2.00
~W
STRT.M 52.0000:
STOP.M 239.0000:
STEP.M 0.1250:
NULL. -999.2500:
UWI. F11118:
~C
DEPT.M :
DEN.GM/CC :
GR.API :
RML.OHMM :
RI. :
RXO.OHMM :
CALI.CM :
SP.MV :
~A
# ...
  153.2500     2.2210    61.9180    16.2600    14.2290    18.5570    30.1850   -16.2470 
  153.3750     2.2050    61.6550    17.6940    16.2070    21.1910    30.1750   -16.4090 
  153.5000     2.2010    65.1040    17.1630    16.3380    22.0940    30.0430   -16.5730 
  153.6250     2.2110    71.4270    15.1670    14.7830    19.2230    29.9080   -16.6490 
  153.7500     2.2290    73.5910    13.2160    12.9880    14.6210    29.7770   -16.6920 
  153.8750     2.2480    71.1490    12.0050    11.6700    11.6600    29.7400   -16.6790 
  154.0000     2.2620    67.1150    11.7070    11.0630    11.3100    29.9280   -16.6390 
  154.1250     2.2630    65.6100    12.3250    11.2080    12.6470    30.3220   -16.5910 
  154.2500     2.2530    65.5150    13.4850    11.8350    13.5290    30.6390   -16.5560 
  154.3750     2.2360    66.0740    14.9710    12.7950    13.9520    30.8310   -16.5530 
  154.5000     2.2170    67.7830    16.6650    13.9670    14.4680    30.8680   -16.5830 
  154.6250     2.2040    69.0110    18.0070    15.3200    14.6960    30.9300   -16.6850 
  154.7500     2.1990    66.0660    18.1940    16.7550    15.1400    31.0420   -16.8540 
  154.8750     2.2010    59.8000    19.4980    18.0660    17.7470    31.1130   -17.0690 
  155.0000     2.2080    56.2790    20.0650    18.9090    23.8530    30.8980   -17.3080 
  155.1250     2.2150    60.4950    19.5460    18.8570    27.0990    30.7780   -17.5730 
  155.2500     2.2180    66.9440    18.4230    18.1580    22.1100    30.5980   -17.8380 
  155.3750     2.2160    71.2060    17.2660    17.2260    15.7500    30.6140   -18.0850 
  155.5000     2.2110    71.1920    16.5390    16.4810    12.9740    30.7770   -18.3200 
  155.6250     2.2060    68.2400    16.5300    16.2590    14.3250    30.8550   -18.5500 
  155.7500     2.2030    67.5350    17.0670    16.5090    15.4580    30.8360   -18.7370 
  155.8750     2.2010    70.7490    17.9670    17.1270    15.0340    30.4670   -18.9430 
  156.0000     2.1960    75.2170    19.0360    17.9690    13.1330    30.0210   -19.1490 
  156.1250     2.1880    74.4360    20.2150    18.9600    11.5790    29.6520   -19.3790 
  156.2500     2.1800    70.4870    21.6370    20.1400    11.3060    29.6320   -19.6420 
  156.3750     2.1780    67.6280    23.5600    21.7140    11.8110    29.6120   -19.9610 
  156.5000     2.1840    67.3190    26.2830    23.9600    12.9380    29.6190   -20.2890 
  156.6250     2.1950    65.8660    30.3180    27.3870    14.7140    29.7590   -20.6410 
  156.7500     2.2030    61.1740    35.7070    32.1280    17.9260    29.9690   -20.9990 
  156.8750     2.2030    56.4500    42.3820    38.2080    24.8660    30.4500   -21.3620 
  157.0000     2.1960    54.6520    49.7690    45.1870    43.5810    31.1860   -21.7280 
  157.1250     2.1870    55.8500    56.3080    51.7690    59.7270    31.6280   -22.1100 
  157.2500     2.1810    58.6240    60.4470    56.4890    56.5830    31.8880   -22.4840 
  157.3750     2.1790    60.8180    61.5800    58.6310    46.2430    32.0720   -22.8350 
  157.5000     2.1810    61.4320    60.3760    58.4940    42.5990    32.1430   -23.1970 
  157.6250     2.1880    60.4120    58.2680    57.1150    43.9970    32.1970   -23.5740 
  157.7500     2.1940    57.8880    56.5710    55.8200    45.0340    32.3100   -24.0020 
  157.8750     2.1980    56.2810    55.6030    55.1000    45.0880    32.3990   -24.4540 
  158.0000     2.1970    58.1200    55.3780    55.0860    44.1680    32.4640   -24.9600 
  158.1250     2.1910    60.5550    56.2490    56.0540    43.0660    32.5100   -25.4890 
  158.2500     2.1820    58.8290    58.5820    58.2600    43.5910    32.6760   -26.0490 
  158.3750     2.1750    55.3580    62.8300    62.1640    46.7010    32.8610   -26.6410 
  158.5000     2.1720    56.6610    68.9840    67.9550    55.3640    32.8230   -27.2480 
  158.6250     2.1720    61.5950    76.0070    74.9980    65.4550    32.8420   -27.8390 
  158.7500     2.1750    62.1530    81.5200    81.1200    73.8520    32.7600   -28.4220 
  158.8750     2.1790    58.5120    83.6190    84.3210    83.9820    32.6030   -28.9630 
  159.0000     2.1850    54.8700    81.9790    83.7680    92.3480    32.7420   -29.4560 
  159.1250     2.1920    54.6510    78.5430    80.5780    79.1430    32.9550   -29.8870 
  159.2500     2.1970    55.7030    76.6860    78.0390    55.6810    33.2810   -30.2790 
  159.3750     2.1980    55.7630    78.3530    78.5080    46.0670    33.3640   -30.6160 
  159.5000     2.1950    55.6670    84.4680    83.4040    61.7570    33.2790   -30.8950 
  159.6250     2.1880    54.8260   100.4880    93.9470    83.6890    33.1770   -31.1300 
  159.7500     2.1800    54.7470   130.8870   108.7830   108.1870    33.1670   -31.3000 
  159.8750     2.1750    56.6030   153.0260   126.5990   118.7040    33.1900   -31.4660 
  160.0000     2.1700    58.6450   176.6150   145.5870   126.3410    33.2870   -31.6320 
  160.1250     2.1640    57.2320   199.0510   163.7290   135.5020    33.2670   -31.8030 
  160.2500     2.1580    54.5180   218.6180   179.7440   145.0080    33.4410   -31.9580 
  160.3750     2.1530    53.8700   233.3660   192.2270   158.0210    33.5170   -32.1090 
  160.5000     2.1520    54.0580   241.0660   199.5170   168.2010    33.6300   -32.2590 
  160.6250     2.1560    52.9280   240.4840   200.3210   185.4190    33.7300   -32.4060 
  160.7500     2.1640    52.5760   236.3040   197.8550   178.5310    33.7680   -32.5640 
  160.8750     2.1690    53.2920   232.4450   195.2410   168.7430    33.8310   -32.7000 
  161.0000     2.1700    54.5690   231.1820   194.7400   166.3910    33.9080   -32.8010 
  161.1250     2.1630    55.1750   231.9970   196.6970   192.5270    34.0390   -32.8910 
  161.2500     2.1530    54.2100   230.6130   197.9890   231.0700    34.1830   -32.9410 
  161.3750     2.1430    52.2880   222.9740   195.1250   235.1400    34.2570   -32.9770 
  161.5000     2.1370    52.3640   207.8390   186.0720   191.2560    34.2680   -32.9950 
  161.6250     2.1350    54.2510   187.9110   171.4550   155.4190    34.1620   -33.0060 
  161.7500     2.1360    54.1030   168.5360   155.7150   137.5430    34.0320   -32.9610 
  161.8750     2.1340    55.3290   151.8810   141.4180   122.7010    33.9490   -32.9300 
  162.0000     2.1310    60.6740   138.0660   129.4270   114.1280    33.9970   -32.8970 
  162.1250     2.1290    65.1170   126.3070   119.4190   115.6250    34.1520   -32.8460 
  162.2500     2.1330    63.5860   115.4410   110.2060   112.6920    34.1760   -32.8100 
  162.3750     2.1470    59.8620   105.5810   101.5810    98.0600    34.1810   -32.7840 
  162.5000     2.1670    60.5960    97.4100    93.9780    79.9120    34.1860   -32.7430 
  162.6250     2.1880    65.4440    92.2880    88.5810    69.2830    34.2120   -32.7070 
  162.7500     2.2020    69.6890    90.4790    85.9040    66.3510    34.2670   -32.7150 
  162.8750     2.2090    71.8050    92.2230    86.4440    66.2400    34.2540   -32.7080 
  163.0000     2.2090    71.6520    97.3120    90.3010    66.9130    34.1520   -32.7110 
  163.1250     2.2030    69.6700   105.2400    97.3240    78.8730    33.9890   -32.7150 
  163.2500     2.1920    66.8680   113.9280   105.6310    94.7890    33.9970   -32.7350 
  163.3750     2.1750    66.1840   121.3320   113.2880   114.9280    34.1940   -32.7400 
  163.5000     2.1550    67.6880   125.3920   118.1620   116.0910    34.3430   -32.7950 
  163.6250     2.1370    67.6870   124.2450   118.0230   101.5780    34.4460   -32.8600 
  163.7500     2.1280    65.1400   119.5370   113.9460    88.6420    34.1740   -32.9650 
  163.8750     2.1320    64.2170   113.3060   107.6960    83.4550    33.4660   -33.0980 
  164.0000     2.1470    67.4600   107.5860   101.3890    88.2150    33.1650   -33.2580 
  164.1250     2.1680    68.3360   104.0120    97.0070    88.0080    33.0130   -33.4430 
  164.2500     2.1840    64.0400   102.4780    94.8520    82.5700    32.9750   -33.6690 
  164.3750     2.1920    60.2090   102.5090    94.5940    80.9110    32.9040   -33.9400 
