~V
VERS. 2.00: Ver 2.00
~W
STRT.M 55.0000:
STOP.M 210.0000:
STEP.M 0.1250:
NULL. -999.2500:
UWI. F11105:
~C
DEPT.M :
DEN.GM/CC :
GR.API :
RML.OHMM :
RI. :
RXO.OHMM :
CALI.CM :
SP.MV :
~A
# ...
   66.2500     2.1200    70.7130     5.7480     6.2480     6.6760    25.9000   -27.1740 
   66.3750     2.1250    75.8990     5.7490     6.2230     6.7530    26.2780   -27.2190 
   66.5000     2.1300    76.5610     5.6870     6.1230     6.8500    26.4260   -27.1930 
   66.6250     2.1350    73.0000     5.6040     5.9640     6.8640    26.3200   -27.1710 
   66.7500     2.1370    73.9050     5.5400     5.8070     6.5650    26.3240   -27.1910 
   66.8750     2.1360    78.2220     5.5160     5.6920     6.3320    26.4050   -27.2620 
   67.0000     2.1310    79.6460     5.5470     5.6470     6.4290    26.3570   -27.3720 
   67.1250     2.1240    76.6030     5.6490     5.6900     6.6820    26.2360   -27.5040 
   67.2500     2.1180    75.9850     5.7960     5.7890     6.7280    26.2750   -27.6210 
   67.3750     2.1150    77.7360     5.9540     5.9070     6.7240    26.3520   -27.7050 
   67.5000     2.1140    76.0670     6.0780     6.0080     6.7760    26.4840   -27.8440 
   67.6250     2.1130    71.4700     6.1200     6.0470     6.8480    26.5540   -28.0020 
   67.7500     2.1120    69.6630     6.0880     6.0240     6.7320    26.5720   -28.1450 
   67.8750     2.1100    69.6330     6.0150     5.9520     6.6080    26.7130   -28.2500 
   68.0000     2.1080    68.9450     5.9560     5.8630     6.5730    27.0400   -28.2740 
   68.1250     2.1090    67.9350     5.9870     5.8170     6.5630    27.0380   -28.1980 
   68.2500     2.1140    68.0290     6.1320     5.8540     6.5580    26.9640   -28.0950 
   68.3750     2.1210    66.5620     6.3720     5.9870     6.5770    26.9030   -28.0010 
   68.5000     2.1290    61.3490     6.6540     6.1920     6.5920    26.7020   -27.8850 
   68.6250     2.1340    59.7980     6.8910     6.4170     6.5610    26.6580   -27.7160 
   68.7500     2.1350    63.6810     7.0370     6.5990     6.4970    26.6770   -27.4830 
   68.8750     2.1310    66.5390     7.0910     6.7100     6.5000    26.6190   -27.1910 
   69.0000     2.1230    64.9960     7.0810     6.7530     6.5060    26.5730   -26.8990 
   69.1250     2.1150    63.5780     7.0200     6.7290     6.5270    26.4230   -26.6180 
   69.2500     2.1070    65.4400     6.8940     6.6410     6.6270    26.0240   -26.2860 
   69.3750     2.1030    68.0280     6.6720     6.4740     6.7500    25.6030   -25.8850 
   69.5000     2.1040    70.9060     6.3470     6.2190     6.8180    25.4930   -25.4780 
   69.6250     2.1100    72.5600     5.9700     5.8870     6.7550    25.6940   -25.0810 
   69.7500     2.1200    71.5550     5.6490     5.5510     6.5530    26.1420   -24.6920 
   69.8750     2.1310    71.0790     5.4580     5.2750     6.3320    26.5320   -24.3450 
   70.0000     2.1380    74.3910     5.4240     5.1140     6.2880    26.8050   -24.0220 
   70.1250     2.1390    78.3120     5.5460     5.1080     6.3650    26.9130   -23.7710 
   70.2500     2.1380    78.5230     5.7450     5.2100     6.3950    26.7790   -23.6810 
   70.3750     2.1370    76.5670     5.9640     5.3680     6.5410    26.4900   -23.7610 
   70.5000     2.1420    73.3320     6.1530     5.5220     6.6370    26.2010   -23.9080 
   70.6250     2.1500    70.1370     6.2670     5.6120     6.5990    25.8950   -24.1390 
   70.7500     2.1570    70.9920     6.3080     5.6430     6.4610    25.9490   -24.4460 
   70.8750     2.1550    75.4520     6.2840     5.6390     6.4660    26.2250   -24.7210 
   71.0000     2.1440    78.2590     6.2220     5.6300     6.4500    26.3530   -24.8930 
   71.1250     2.1270    74.1000     6.1670     5.6500     6.4360    26.0780   -24.9970 
   71.2500     2.1130    67.5470     6.1510     5.6910     6.5820    25.7330   -24.9610 
   71.3750     2.1090    64.4500     6.1990     5.7400     6.8150    25.3630   -24.7510 
   71.5000     2.1160    67.8930     6.3280     5.7950     7.0500    25.0220   -24.4190 
   71.6250     2.1400    74.7770     6.5400     5.8770     7.1930    24.9150   -23.9770 
   71.7500     2.1790    79.3640     6.7580     5.9840     7.1240    24.8450   -23.4460 
   71.8750     2.2270    79.8600     6.8930     6.0700     7.0130    24.9440   -22.8520 
   72.0000     2.2670    77.2210     6.8440     6.0570     7.7450    25.1100   -22.1990 
   72.1250     2.2690    75.5940     6.4910     5.8320     9.7400    25.4900   -21.4550 
   72.2500     2.2310    80.0460     5.9080     5.4150     9.8030    26.3690   -20.7170 
   72.3750     2.1740    88.3330     5.2360     4.8850     6.3180    28.7800   -20.0800 
   72.5000     2.1280    94.7890     4.6410     4.3600     4.1050    30.1440   -19.5580 
   72.6250     2.1150    95.7970     4.2740     3.9600     3.7350    29.4890   -19.1390 
   72.7500     2.1220    97.3280     4.1330     3.7220     3.9180    28.3920   -18.8270 
   72.8750     2.1310   101.4130     4.1970     3.6620     3.9620    27.6510   -18.6980 
   73.0000     2.1290   103.1540     4.4280     3.7740     4.0060    27.4580   -18.7970 
   73.1250     2.1210    97.1940     4.8100     4.0540     4.3100    27.4090   -19.2770 
   73.2500     2.1210    85.5820     5.2910     4.4450     5.1240    27.1490   -20.1500 
   73.3750     2.1320    73.9470     5.8170     4.8940     6.5490    26.4870   -21.2110 
   73.5000     2.1480    65.8560     6.2880     5.3190     7.6110    26.5170   -22.3700 
   73.6250     2.1550    61.1550     6.5510     5.5910     7.9740    27.2740   -23.6920 
   73.7500     2.1490    59.0300     6.5870     5.6720     7.9250    28.2050   -25.1210 
   73.8750     2.1320    59.4820     6.4460     5.5910     7.5000    28.7620   -26.5170 
   74.0000     2.1070    59.8950     6.2310     5.4300     6.8840    29.1380   -27.8710 
   74.1250     2.0750    56.2600     6.0720     5.2920     6.6890    29.1790   -29.1110 
   74.2500     2.0410    52.4870     6.0460     5.2380     6.9920    28.8730   -30.1090 
   74.3750     2.0080    53.0230     6.1850     5.2840     7.4950    27.9590   -30.9290 
   74.5000     1.9840    56.7940     6.4830     5.4260     7.7940    27.0550   -31.5540 
   74.6250     1.9810    58.4040     6.8940     5.6500     7.7340    26.6480   -31.8010 
   74.7500     1.9970    58.0830     7.3010     5.8970     7.6630    26.0730   -31.7680 
   74.8750     2.0270    58.9730     7.6140     6.1150     7.6330    25.5600   -31.7260 
   75.0000     2.0590    61.3920     7.7720     6.2540     7.6590    24.9860   -31.7940 
   75.1250     2.0810    63.8900     7.7440     6.2730     7.5850    24.7280   -31.7610 
   75.2500     2.0910    65.2200     7.6090     6.2050     7.4070    24.5350   -31.6420 
   75.3750     2.0920    65.4320     7.4350     6.0910     7.1420    24.6000   -31.5240 
   75.5000     2.0910    64.4600     7.2810     5.9750     7.0750    24.6270   -31.4780 
   75.6250     2.0890    61.8210     7.1940     5.8960     6.9730    24.2010   -31.5810 
   75.7500     2.0860    59.8140     7.1630     5.8570     6.8600    24.2750   -31.8120 
   75.8750     2.0820    60.0480     7.1630     5.8440     6.5210    24.4350   -32.0200 
   76.0000     2.0760    62.4290     7.1670     5.8350     6.3110    24.5570   -32.0730 
   76.1250     2.0700    63.8660     7.1480     5.8150     6.2910    24.6610   -32.0330 
   76.2500     2.0670    63.9690     7.1030     5.7840     6.3590    25.0590   -31.9450 
   76.3750     2.0660    63.3060     7.0420     5.7500     6.5510    25.6450   -31.8250 
   76.5000     2.0680    61.7180     6.9820     5.7290     6.8730    25.8780   -31.6900 
   76.6250     2.0720    59.7660     6.9550     5.7370     7.1550    25.7220   -31.5790 
   76.7500     2.0780    58.6280     6.9630     5.7740     7.4190    25.4650   -31.4810 
   76.8750     2.0860    58.3350     6.9980     5.8330     7.5830    25.2830   -31.3860 
   77.0000     2.0950    58.0100     7.0520     5.9020     7.6440    25.2130   -31.3320 
   77.1250     2.1030    58.0640     7.1150     5.9630     7.5750    25.1310   -31.3630 
   77.2500     2.1060    58.0800     7.1800     6.0060     7.3920    25.3170   -31.4280 
   77.3750     2.1070    56.4400     7.2340     6.0250     7.0620    25.5900   -31.4970 
