~V
VERS. 2.00: Ver 2.00
~W
STRT.M 53.0000:
STOP.M 202.0000:
STEP.M 0.1250:
NULL. -999.2500:
UWI. F11113:
~C
DEPT.M :
DEN.GM/CC :
SP.MV :
GR.API :
RML.OHMM :
RI. :
RXO.OHMM :
CALI.CM :
~A
# ...
  109.2500     2.2710   -22.1040    64.4760    17.0880    14.6530    20.6760    24.0700 
  109.3750     2.2720   -22.0180    72.3350    16.8100    14.7500    22.0100    24.3610 
  109.5000     2.2650   -21.9870    76.0090    15.6620    14.0780    19.9250    24.7160 
  109.6250     2.2520   -22.0290    77.7460    14.0330    12.8660    16.2830    24.8100 
  109.7500     2.2460   -22.1840    78.0680    12.4880    11.5940    13.8460    24.3510 
  109.8750     2.2540   -22.4620    75.0630    11.2790    10.4950    13.6670    23.5110 
  110.0000     2.2820   -22.8750    71.5360    10.5190     9.6940    13.1070    23.1150 
  110.1250     2.3250   -23.3790    72.2790    10.3360     9.3380    12.7400    23.1740 
  110.2500     2.3640   -23.9140    74.9310    10.6380     9.4140    12.5080    23.6810 
  110.3750     2.3940   -24.4170    74.5200    11.3510     9.9080    11.9300    24.2650 
  110.5000     2.4150   -24.8620    70.1050    12.3080    10.7290    11.5790    24.5980 
  110.6250     2.4110   -25.3010    65.4530    13.1430    11.6360    12.1360    24.6260 
  110.7500     2.3670   -25.7480    63.0350    13.4460    12.2190    12.3520    24.5500 
  110.8750     2.2930   -26.1640    61.6920    13.0180    12.1950    11.1250    24.4140 
  111.0000     2.2250   -26.4880    58.8590    12.0040    11.5610     9.7420    24.2550 
  111.1250     2.1920   -26.6910    56.9070    10.8200    10.5750     9.5740    24.1540 
  111.2500     2.1800   -26.8320    59.0230     9.8680     9.6290    10.0090    24.1760 
  111.3750     2.1790   -26.9500    63.8530     9.2840     8.8970    10.7450    24.2380 
  111.5000     2.1790   -27.0590    67.7640     9.0600     8.4430    11.2840    24.3540 
  111.6250     2.1760   -27.1130    68.0590     9.1380     8.2810    10.8860    24.4950 
  111.7500     2.1670   -27.0700    67.0560     9.3610     8.3060    10.4320    24.5430 
  111.8750     2.1570   -26.9350    66.6050     9.6710     8.4730    10.7330    24.5600 
  112.0000     2.1530   -26.7690    66.8750    10.0530     8.7630    11.4200    24.6350 
  112.1250     2.1580   -26.6160    66.7860    10.5570     9.2030    11.6060    24.7410 
  112.2500     2.1630   -26.4540    65.3770    11.2130     9.7900    11.6850    24.8540 
  112.3750     2.1610   -26.2910    63.3320    12.0390    10.5280    12.3320    25.0160 
  112.5000     2.1520   -26.1440    60.4270    12.9960    11.3860    14.0810    25.3740 
  112.6250     2.1420   -26.0040    57.7480    13.9410    12.2760    16.0700    26.0950 
  112.7500     2.1360   -25.8520    57.7490    14.6740    13.0490    16.5080    26.6200 
  112.8750     2.1310   -25.7100    59.3130    15.0510    13.5710    16.1860    26.8770 
  113.0000     2.1250   -25.5920    61.0890    15.0520    13.7640    15.9590    26.9630 
  113.1250     2.1160   -25.5150    61.5690    14.7530    13.6160    16.3900    27.0270 
  113.2500     2.1020   -25.4500    60.6790    14.3520    13.3000    17.1100    27.1150 
  113.3750     2.0860   -25.3210    57.9800    13.9230    12.9090    16.7940    27.1090 
  113.5000     2.0760   -25.1000    55.3080    13.4560    12.4760    15.7470    26.8640 
  113.6250     2.0750   -24.8160    55.5870    12.8800    11.9590    15.6780    26.4180 
  113.7500     2.0810   -24.5070    55.1890    12.2020    11.3480    16.2010    26.1520 
  113.8750     2.0910   -24.1380    52.6370    11.5250    10.7050    15.5930    26.1530 
  114.0000     2.1090   -23.6630    50.5000    11.0400    10.1690    13.5480    26.2710 
  114.1250     2.1590   -23.0280    52.1040    11.0880     9.9980    11.2060    26.4310 
  114.2500     2.2560   -22.2580    54.8630    11.8540    10.3410    10.6690    26.6340 
  114.3750     2.3880   -21.4330    55.8440    13.4930    11.3540    13.8020    26.7330 
  114.5000     2.5090   -20.6270    55.8060    16.0350    13.1480    23.1830    26.5490 
  114.6250     2.5600   -19.8830    57.0180    19.3360    15.7910    33.6530    26.0650 
  114.7500     2.5720   -19.2090    58.9790    22.5950    18.7270    40.6950    25.6650 
  114.8750     2.5750   -18.6320    59.0920    24.8730    21.1630    42.0130    25.5020 
  115.0000     2.5660   -18.1760    57.3780    25.3750    22.2490    37.7110    25.3880 
  115.1250     2.5290   -17.8980    57.1500    23.8250    21.4540    31.0120    25.1920 
  115.2500     2.4730   -17.8180    58.0150    21.4200    19.6620    25.0880    25.0580 
  115.3750     2.4130   -17.8840    59.3270    19.0600    17.6530    20.2580    24.9620 
  115.5000     2.3630   -17.9600    62.6570    17.2960    15.9820    16.9790    24.8880 
  115.6250     2.3280   -17.9050    66.2760    16.3930    14.9870    16.6980    24.8570 
  115.7500     2.2980   -17.7660    68.0370    16.0430    14.5260    17.3050    24.8360 
  115.8750     2.2690   -17.5710    67.8830    15.9570    14.4220    17.8720    24.8360 
  116.0000     2.2480   -17.3100    67.4590    15.8300    14.4350    17.1700    24.8740 
  116.1250     2.2520   -16.9300    67.0260    15.3820    14.2690    15.9540    24.9200 
  116.2500     2.2770   -16.4320    65.8710    14.6410    13.8130    14.9450    24.9600 
  116.3750     2.3050   -15.8610    66.0070    13.7570    13.1220    14.2060    25.0080 
  116.5000     2.3250   -15.2740    67.9750    12.9030    12.3460    13.2450    25.0750 
  116.6250     2.3400   -14.7090    68.1210    12.2580    11.6810    12.4640    25.1320 
  116.7500     2.3580   -14.1310    65.2280    11.9020    11.2450    11.4490    25.1190 
  116.8750     2.3810   -13.5450    61.8260    11.8700    11.0930    11.2220    25.0070 
  117.0000     2.4000   -12.9760    60.7880    12.1110    11.2030    11.6970    24.8270 
  117.1250     2.4100   -12.4260    59.9680    12.4720    11.4750    12.3860    24.7430 
  117.2500     2.4170   -11.8520    57.2900    12.7140    11.7070    13.1120    24.8200 
  117.3750     2.4250   -11.2310    55.7740    12.6920    11.7490    14.3460    24.9580 
  117.5000     2.4340   -10.6360    56.8790    12.4260    11.5600    13.7460    25.0460 
  117.6250     2.4410   -10.1310    58.7610    12.2240    11.2970    12.5370    25.0600 
  117.7500     2.4490    -9.6970    60.4890    12.4950    11.2620    12.4530    25.0030 
  117.8750     2.4650    -9.2950    62.3830    13.5420    11.7030    13.1940    24.8850 
  118.0000     2.4900    -8.9050    62.5580    15.5600    12.8230    13.2590    24.7830 
  118.1250     2.5230    -8.5220    59.1190    18.7650    14.9240    15.8920    24.8790 
  118.2500     2.5550    -8.1870    52.7050    22.7640    17.8490    21.4590    24.9530 
  118.3750     2.5790    -7.9390    46.3970    27.0220    21.2850    28.0980    24.9840 
  118.5000     2.5930    -7.7310    43.7540    30.7700    24.6260    33.8960    24.9950 
  118.6250     2.6010    -7.5220    44.4690    33.1110    27.0340    32.2070    25.0250 
  118.7500     2.6090    -7.2870    45.1110    34.2900    28.4510    28.6240    25.0630 
  118.8750     2.6190    -7.0140    44.2960    34.9340    29.2380    27.2330    25.0800 
  119.0000     2.6260    -6.7140    43.3000    35.6410    29.8560    27.1560    25.0330 
  119.1250     2.6300    -6.4250    42.5650    36.5450    30.5050    27.6220    24.9470 
  119.2500     2.6300    -6.1760    41.6780    37.1430    30.9610    29.6830    24.8590 
  119.3750     2.6260    -5.9450    41.9540    36.8270    30.8460    31.4210    24.7180 
  119.5000     2.6210    -5.7040    42.9840    35.2360    29.8840    30.8320    24.5530 
  119.6250     2.6140    -5.4470    44.6720    32.4220    28.0180    27.8500    24.4640 
  119.7500     2.6070    -5.2210    46.2140    29.2180    25.7760    24.3240    24.4620 
  119.8750     2.6000    -5.0810    45.9440    26.2200    23.5600    22.2480    24.5590 
  120.0000     2.5940    -5.0420    45.7580    23.8290    21.6780    22.5170    24.6710 
  120.1250     2.5900    -5.1010    48.5110    22.3970    20.4280    22.9780    24.6920 
  120.2500     2.5880    -5.1630    52.2300    21.7830    19.7950    21.9010    24.6590 
  120.3750     2.5870    -5.1790    52.2820    21.8040    19.7090    20.0720    24.6160 
