~V
VERS. 2.00: Ver 2.00
~W
STRT.M 45.0000:
STOP.M 270.0000:
STEP.M 0.1250:
NULL. -999.2500:
UWI. F11186:
~C
DEPT.M :
SP.MV :
GR.API :
RI. :
RML.OHMM :
RXO.OHMM :
DEN.GM/CC :
~A
# ...
  186.6250   -20.4430    54.7820    87.2060    95.6440    95.3400     2.0840 
  186.7500   -20.3020    53.4030   108.2590   119.2200   105.7950     2.0770 
  186.8750   -20.1340    53.8240   120.6430   131.5390   104.9400     2.0810 
  187.0000   -19.9230    54.4010   119.8410   128.8260   103.4010     2.1000 
  187.1250   -19.6510    54.1620   103.2350   108.4330   102.3080     2.1290 
  187.2500   -19.3190    54.6530    82.1170    84.5410    98.0360     2.1610 
  187.3750   -18.9370    57.3810    67.1810    68.4060    87.2320     2.1840 
  187.5000   -18.5330    60.1650    58.8450    59.5180    75.4070     2.1860 
  187.6250   -18.1400    61.8510    55.5230    56.0630    72.6310     2.1740 
  187.7500   -17.7880    63.6750    55.2780    55.8710    76.1270     2.1670 
  187.8750   -17.5010    66.0500    56.6700    57.2500    78.6360     2.1650 
  188.0000   -17.2750    66.4030    58.2280    58.7840    79.9720     2.1590 
  188.1250   -17.1000    65.3230    59.3220    59.8700    83.4660     2.1570 
  188.2500   -16.9550    64.7690    59.7350    60.4010    85.7820     2.1620 
  188.3750   -16.8280    65.2310    58.9470    59.7990    84.6920     2.1650 
  188.5000   -16.7140    65.5330    57.1260    58.2590    82.5380     2.1610 
  188.6250   -16.6190    64.9930    55.1620    56.5940    73.7390     2.1600 
  188.7500   -16.5480    64.3480    53.8330    55.5520    62.2170     2.1580 
  188.8750   -16.5080    62.3700    54.4690    56.4780    64.1200     2.1460 
  189.0000   -16.4940    62.6220    55.9850    58.1180    80.7930     2.1310 
  189.1250   -16.5010    64.1970    57.3910    59.4090    94.2590     2.1270 
  189.2500   -16.5210    64.1330    58.0090    59.6430    94.1650     2.1410 
  189.3750   -16.5470    62.0750    58.0140    59.0580    87.1340     2.1690 
  189.5000   -16.5810    62.6840    57.4000    57.7800    82.6290     2.1940 
  189.6250   -16.6270    65.3490    57.2000    57.1970    88.6520     2.1940 
  189.7500   -16.6870    66.4290    58.6990    58.6290   103.7520     2.1800 
  189.8750   -16.7560    66.0390    61.9650    62.1190   116.5070     2.1670 
  190.0000   -16.8230    65.9730    65.6020    66.0640   114.5870     2.1650 
  190.1250   -16.8740    64.3060    66.8760    67.7160   103.7750     2.1640 
  190.2500   -16.9050    62.5300    64.7900    65.8840   102.0550     2.1640 
  190.3750   -16.9150    63.3110    58.7750    59.8810    96.6260     2.1670 
  190.5000   -16.9070    64.8770    50.8240    51.8680    81.8000     2.1770 
  190.6250   -16.8860    65.0890    44.0130    44.9680    39.9800     2.1910 
  190.7500   -16.8620    65.5930    40.2250    41.3090    30.1510     2.1920 
  190.8750   -16.8460    67.4950    41.0240    42.6660    37.5760     2.1770 
  191.0000   -16.8460    68.8110    47.0430    49.6450    70.1740     2.1540 
  191.1250   -16.8650    68.0640    60.5120    64.7300    94.7010     2.1350 
  191.2500   -16.8960    65.8940    78.6890    84.2060    98.8250     2.1200 
  191.3750   -16.9290    62.7190    93.9780    99.6610    97.7480     2.1120 
  191.5000   -16.9530    59.1020   100.7670   105.8290    91.8440     2.1100 
  191.6250   -16.9560    57.3670    95.6740    99.3900    82.6340     2.1140 
  191.7500   -16.9410    57.1560    84.5650    87.6680    76.3690     2.1220 
  191.8750   -16.9120    58.9500    75.2100    78.6680    71.8020     2.1350 
  192.0000   -16.8770    62.0160    70.1380    74.3430    64.8900     2.1560 
  192.1250   -16.8440    64.3480    70.2440    75.7090    65.8950     2.1730 
  192.2500   -16.8150    64.8030    75.5340    82.6040    84.5770     2.1750 
  192.3750   -16.7870    63.3560    85.8350    95.1250   103.1940     2.1520 
  192.5000   -16.7600    62.0500    99.6320   110.9590   108.8630     2.1240 
  192.6250   -16.7270    60.7890   111.7940   124.4110   107.3310     2.1110 
  192.7500   -16.6850    60.2480   121.2120   134.3390   106.2330     2.1150 
  192.8750   -16.6220    59.8910   124.6330   136.8570   105.2050     2.1250 
  193.0000   -16.5300    59.4230   123.0980   134.1880   108.8740     2.1320 
  193.1250   -16.3920    58.4950   119.3820   129.3800   117.2510     2.1350 
  193.2500   -16.2080    56.5930   111.5440   119.8490   111.8440     2.1360 
  193.3750   -15.9740    55.1350    98.5480   105.1450    93.0810     2.1330 
  193.5000   -15.7030    55.5050    83.1010    87.8720    80.3140     2.1320 
  193.6250   -15.4090    57.5500    66.8710    69.8470    69.9650     2.1460 
  193.7500   -15.1140    59.4460    53.2900    54.9630    51.4520     2.1760 
  193.8750   -14.8390    60.5890    45.0330    45.8730    37.7010     2.2100 
  194.0000   -14.5990    63.1940    40.2700    40.5220    37.0530     2.2280 
  194.1250   -14.4040    67.3720    38.5410    38.5330    41.1820     2.2200 
  194.2500   -14.2470    69.7110    39.5700    39.4510    42.9590     2.1950 
  194.3750   -14.1180    68.1330    42.9810    42.7700    43.6550     2.1680 
  194.5000   -13.9950    65.3550    47.6090    47.2730    49.0660     2.1480 
  194.6250   -13.8580    64.5120    52.9230    52.5430    55.6530     2.1350 
  194.7500   -13.6970    63.8690    57.5600    57.1410    58.3240     2.1240 
  194.8750   -13.4970    62.2720    58.0920    57.0720    57.5790     2.1230 
  195.0000   -13.2560    60.7110    51.2070    49.6370    53.2910     2.1360 
  195.1250   -12.9700    60.8830    39.4500    37.7260    45.6530     2.1770 
  195.2500   -12.6580    63.9060    27.5580    25.9180    32.2900     2.2350 
  195.3750   -12.3560    69.9760    20.1070    19.2920    24.4630     2.2720 
  195.5000   -12.1150    75.5180    18.6530    18.2260    47.5190     2.2570 
  195.6250   -11.9880    74.9560    21.7390    22.0280    82.1410     2.2100 
  195.7500   -11.9860    69.9260    30.1510    31.8780    87.0780     2.1700 
  195.8750   -12.1030    66.0970    42.2390    45.0700    78.6190     2.1570 
  196.0000   -12.2860    65.3170    51.1750    54.4770    74.2330     2.1630 
  196.1250   -12.4860    66.2730    54.5480    57.2540    64.6650     2.1760 
  196.2500   -12.6580    66.9780    50.9330    52.4540    57.1980     2.1850 
  196.3750   -12.7770    67.2600    45.1650    46.0580    52.7330     2.1870 
  196.5000   -12.8480    67.3530    41.2500    41.8040    46.9690     2.1870 
  196.6250   -12.8830    67.7930    38.4970    38.8960    42.5120     2.1860 
  196.7500   -12.9050    69.2950    37.1010    37.5320    40.8620     2.1790 
  196.8750   -12.9290    71.8230    36.7010    37.3210    41.5360     2.1690 
  197.0000   -12.9600    73.5200    36.7010    37.6470    41.9250     2.1610 
  197.1250   -12.9920    72.6820    36.7300    37.9680    41.7920     2.1640 
  197.2500   -13.0150    70.2160    36.1800    37.6150    41.0430     2.1700 
  197.3750   -13.0220    68.1770    34.9210    36.4080    39.6630     2.1770 
  197.5000   -13.0180    68.1040    32.8880    34.2480    37.9900     2.1930 
  197.6250   -13.0140    70.1020    29.9580    31.1170    35.1620     2.2150 
  197.7500   -13.0270    71.7860    27.2590    28.3120    32.5350     2.2330 
  197.8750   -13.0690    70.9860    25.8380    26.9170    29.7840     2.2330 
  198.0000   -13.1450    69.7300    26.1480    27.4850    28.8830     2.2160 
  198.1250   -13.2560    70.2860    28.7360    30.5880    45.4230     2.1920 
  198.2500   -13.3930    71.4830    33.1220    35.8330    70.4480     2.1750 
  198.3750   -13.5410    69.4960    39.6450    43.0920    74.1810     2.1690 
  198.5000   -13.6830    65.6870    45.0570    48.7410    62.7610     2.1680 
  198.6250   -13.7990    63.2700    47.8750    51.2560    55.6630     2.1670 
  198.7500   -13.8810    65.0200    47.1080    49.7730    53.8380     2.1670 
  198.8750   -13.9230    69.2170    44.4220    46.7470    50.7020     2.1650 
  199.0000   -13.9320    71.1620    42.7830    45.0670    45.8650     2.1640 
  199.1250   -13.9120    69.7650    42.3190    44.6520    44.8120     2.1690 
  199.2500   -13.8710    68.5630    41.9810    44.2870    48.4720     2.1770 
  199.3750   -13.8130    69.6100    41.3300    43.5230    52.2800     2.1800 
