~V
VERS. 2.00: Ver 2.00
~W
STRT.M 63.0000:
STOP.M 208.0000:
STEP.M 0.1250:
NULL. -999.2500:
UWI. F11108:
~C
DEPT.M :
GR.API :
RML.OHMM :
RI. :
RXO.OHMM :
CALI.CM :
SP.MV :
DEN.GM/CC :
~A
# ...
  141.7500    85.3890    16.3070    14.5730    14.6190    23.3540   -11.3070     2.3110 
  141.8750    86.2140    16.3830    14.5300    12.9860    23.5750   -11.1740     2.3120 
  142.0000    87.7110    16.6150    14.6750    11.5540    23.7640   -11.1230     2.3100 
  142.1250    88.6170    16.7740    14.8600    12.2590    23.7640   -11.0460     2.3000 
  142.2500    87.2310    16.6670    14.8880    16.3720    23.6980   -10.8790     2.2870 
  142.3750    86.5610    16.2870    14.6960    21.0030    23.7880   -10.6950     2.2760 
  142.5000    88.7780    15.8450    14.3910    18.0240    24.0320   -10.5680     2.2740 
  142.6250    92.4710    15.7790    14.2800    12.7490    24.1960   -10.5440     2.2850 
  142.7500    93.8970    16.3220    14.6180    12.9220    24.2640   -10.5890     2.3010 
  142.8750    93.3110    17.4530    15.4940    15.5050    24.3220   -10.6440     2.3110 
  143.0000    91.4360    18.8370    16.7510    20.3240    24.4520   -10.6410     2.3070 
  143.1250    87.8150    19.7490    17.8380    23.0890    24.6710   -10.5910     2.2850 
  143.2500    83.6470    19.7000    18.1760    22.5050    24.9550   -10.5710     2.2570 
  143.3750    79.9270    18.6550    17.5640    19.7660    25.1820   -10.6020     2.2350 
  143.5000    77.5660    17.0560    16.2750    16.7120    25.2820   -10.6540     2.2270 
  143.6250    78.8600    15.6810    14.9450    14.2450    25.2530   -10.6670     2.2250 
  143.7500    82.5170    15.0330    14.1250    11.7570    25.2010   -10.6290     2.2190 
  143.8750    84.6780    15.2200    14.0090    11.1230    25.0640   -10.5680     2.2040 
  144.0000    82.6340    16.0720    14.5580    11.6030    24.7270   -10.5740     2.1830 
  144.1250    78.3590    17.2310    15.5840    12.8560    24.1440   -10.6790     2.1720 
  144.2500    76.4080    18.1920    16.6450    15.4700    23.8240   -10.7540     2.1740 
  144.3750    77.9510    18.8590    17.4410    16.8110    23.7090   -10.7420     2.1890 
  144.5000    82.7990    19.3570    17.8210    16.2950    23.6790   -10.6540     2.2100 
  144.6250    86.7850    19.6160    17.7770    15.1080    23.6390   -10.5770     2.2270 
  144.7500    86.8500    19.4530    17.5180    15.2410    23.5610   -10.5500     2.2390 
  144.8750    83.7480    18.8430    17.1010    15.3360    23.4480   -10.5680     2.2470 
  145.0000    82.5210    17.9410    16.4770    15.3610    23.3350   -10.5560     2.2550 
  145.1250    86.5720    16.7980    15.5320    14.7620    23.1820   -10.4830     2.2690 
  145.2500    92.4650    15.5140    14.3800    13.6160    23.0530   -10.4400     2.2880 
  145.3750    97.0420    14.3030    13.2060    12.1380    22.9590   -10.4610     2.3070 
  145.5000    98.9760    13.3710    12.2160    10.7130    22.9550   -10.5620     2.3200 
  145.6250    98.9590    12.8840    11.5930     9.5460    23.0370   -10.7040     2.3170 
  145.7500    97.5110    12.7180    11.2740     9.7080    23.0960   -10.8150     2.3010 
  145.8750    93.7090    12.7350    11.1580    10.7460    23.1230   -10.8630     2.2810 
  146.0000    90.1660    12.8210    11.1380    10.6410    23.0830   -10.8730     2.2650 
  146.1250    89.8310    12.9980    11.1860     9.4390    22.8860   -10.8990     2.2610 
  146.2500    88.9340    13.4340    11.3850     8.8690    22.6010   -10.9500     2.2690 
  146.3750    84.3060    14.3720    11.9110     8.8420    22.4240   -11.0410     2.2830 
  146.5000    79.9940    16.0190    12.9670     9.0930    22.3970   -11.1360     2.2950 
  146.6250    81.3240    18.5260    14.8090    10.0230    22.4850   -11.1710     2.2970 
  146.7500    83.1920    21.4750    17.2370    12.8710    22.6130   -11.1480     2.2870 
  146.8750    79.8740    24.3480    19.8880    18.1370    22.8060   -11.1200     2.2680 
  147.0000    73.8840    26.5740    22.2330    23.2490    23.0810   -11.1540     2.2470 
  147.1250    75.1980    27.5770    23.6190    23.2720    23.5540   -11.2200     2.2360 
  147.2500    82.1650    27.5530    24.0270    22.8470    24.1050   -11.2520     2.2390 
  147.3750    86.6710    26.7920    23.6400    22.3970    24.4860   -11.2010     2.2540 
  147.5000    85.7090    25.6280    22.7560    22.4600    24.6180   -11.0750     2.2740 
  147.6250    83.6420    24.2950    21.6160    24.1080    24.6710   -10.9400     2.2880 
  147.7500    83.2760    22.9620    20.4270    24.5770    24.7370   -10.8760     2.2890 
  147.8750    83.1240    21.7170    19.2900    21.2530    24.7560   -10.8580     2.2790 
  148.0000    83.8870    20.6380    18.2870    18.1420    24.7640   -10.7940     2.2630 
  148.1250    86.6600    19.8160    17.5170    17.4900    24.8090   -10.6720     2.2490 
  148.2500    88.1460    19.2180    16.9670    17.6080    24.8680   -10.5590     2.2420 
  148.3750    85.7580    18.8140    16.6260    16.9400    24.9000   -10.4920     2.2440 
  148.5000    81.4010    18.5650    16.4620    14.9610    24.8780   -10.4830     2.2500 
  148.6250    81.6210    18.4500    16.4440    14.9330    24.8510   -10.4920     2.2570 
  148.7500    85.0540    18.4250    16.5080    15.5710    24.8560   -10.4430     2.2620 
  148.8750    85.8370    18.4650    16.6270    16.7020    24.9180   -10.2930     2.2640 
  149.0000    82.2740    18.5290    16.7650    16.9430    24.9830   -10.0920     2.2650 
  149.1250    82.1650    18.5400    16.8500    16.2930    24.9880    -9.8750     2.2650 
  149.2500    86.0960    18.4450    16.8200    16.1420    24.9340    -9.6430     2.2660 
  149.3750    87.7430    18.2240    16.6410    16.4690    24.7580    -9.3980     2.2660 
  149.5000    85.1910    17.8850    16.3130    16.5100    24.4410    -9.1340     2.2680 
  149.6250    84.8600    17.4640    15.8540    15.7290    24.1600    -8.8680     2.2740 
  149.7500    88.6790    17.0630    15.3580    14.8780    24.0810    -8.6880     2.2870 
  149.8750    92.2760    16.8280    14.9430    14.6900    24.0060    -8.6550     2.3100 
  150.0000    93.4470    16.9590    14.7760    15.2170    23.9120    -8.7130     2.3380 
  150.1250    93.9880    17.8210    15.1650    15.4810    23.8440    -8.8160     2.3620 
  150.2500    95.2030    19.5250    16.2610    15.3070    23.7730    -8.9380     2.3730 
  150.3750    95.6670    22.1410    18.2200    17.5280    23.6460    -9.0650     2.3670 
  150.5000    94.6090    25.5570    21.0970    24.0060    23.5440    -9.2250     2.3470 
  150.6250    91.7790    29.4680    24.8480    30.8110    23.4730    -9.4480     2.3220 
  150.7500    88.5170    33.2720    28.9400    34.9480    23.4480    -9.6460     2.2990 
  150.8750    87.2430    36.5310    32.9110    36.3350    23.4910    -9.7490     2.2830 
  151.0000    87.6980    38.9050    36.3350    38.0100    23.5660    -9.8170     2.2720 
  151.1250    86.9300    39.7850    38.5400    40.6500    23.6030    -9.9470     2.2650 
  151.2500    83.6920    38.8240    38.9890    42.0710    23.5970   -10.1190     2.2590 
  151.3750    80.2170    35.6150    37.0180    40.7970    23.5550   -10.3190     2.2560 
  151.5000    78.5870    30.3010    32.4960    37.3720    23.4760   -10.4830     2.2580 
  151.6250    80.2390    23.8430    26.1830    32.6590    23.3640   -10.5530     2.2660 
  151.7500    85.2000    17.9100    19.9870    22.3810    23.3380   -10.6110     2.2790 
  151.8750    90.4530    13.3960    15.0040    13.1790    23.5470   -10.7280     2.2920 
  152.0000    93.6360    10.5190    11.5980     8.5720    23.9640   -10.9100     2.3030 
  152.1250    95.9990     9.1950     9.7840     7.3210    24.3180   -11.0930     2.3080 
  152.2500    98.7800     8.8160     8.9790     7.1770    24.4190   -11.2790     2.3110 
  152.3750   101.5870     9.2010     8.9840     7.6860    24.3800   -11.4740     2.3110 
  152.5000   101.6800    10.3570     9.7380     8.6400    24.2890   -11.7340     2.3110 
  152.6250    97.4940    12.6800    11.5190     9.8610    24.1290   -12.1520     2.3110 
  152.7500    91.0000    16.4300    14.5600    12.0890    23.9830   -12.6950     2.3110 
  152.8750    86.4040    22.0820    19.4420    16.8370    24.0570   -13.3250     2.3140 
