~V
VERS. 2.00: Ver 2.00
~W
STRT.M 52.0000:
STOP.M 239.0000:
STEP.M 0.1250:
NULL. -999.2500:
UWI. F11118:
~C
DEPT.M :
DEN.GM/CC :
GR.API :
RML.OHMM :
RI. :
RXO.OHMM :
CALI.CM :
SP.MV :
~A
# ...
  175.7500     2.1590    68.8890   150.8690   141.7860   103.5350    30.5440   -31.5700 
  175.8750     2.1560    65.5690   141.9840   136.0550    98.5190    30.4050   -31.5930 
  176.0000     2.1530    62.6200   131.2720   128.2140    93.9200    30.4860   -31.6150 
  176.1250     2.1510    64.0630   119.9130   118.7220    91.8020    30.5890   -31.6330 
  176.2500     2.1490    66.2180   109.5900   109.2250    89.0340    30.7600   -31.6390 
  176.3750     2.1500    67.5700   101.3920   101.0720    79.8830    30.8360   -31.6540 
  176.5000     2.1530    68.5420    96.0000    95.2910    68.4240    30.6580   -31.6570 
  176.6250     2.1570    67.8850    94.4040    93.0940    60.9860    30.3040   -31.6670 
  176.7500     2.1610    64.3440    96.2030    94.2320    57.4750    29.9620   -31.6780 
  176.8750     2.1630    62.4260   101.2350    98.5490    50.5240    29.0790   -31.7060 
  177.0000     2.1620    65.3410   108.9920   105.5900    44.1610    27.7350   -31.7170 
  177.1250     2.1580    70.0650   138.8210   114.7880    41.2260    27.4330   -31.7580 
  177.2500     2.1540    72.4830   150.4260   124.5940    36.2920    27.3450   -31.7890 
  177.3750     2.1510    72.9990   160.9780   133.7490    33.2450    27.1770   -31.8260 
  177.5000     2.1500    71.4940   169.2960   141.0920    33.6020    26.9680   -31.8620 
  177.6250     2.1540    68.6100   173.5790   145.1280    39.3790    26.9880   -31.9210 
  177.7500     2.1600    66.3440   173.3710   145.7000    52.8470    27.3280   -31.9800 
  177.8750     2.1660    65.9730   168.4340   142.8120    75.8700    28.0130   -32.0390 
  178.0000     2.1680    64.2440   159.4360   136.9690   107.5330    28.7940   -32.1170 
  178.1250     2.1670    58.7690   147.7810   128.8410   124.1150    29.7590   -32.1620 
  178.2500     2.1640    55.6230   135.9020   119.9520   119.9280    30.0490   -32.2140 
  178.3750     2.1610    57.7950   125.2180   111.4200   107.3910    30.1190   -32.2610 
  178.5000     2.1600    61.6900   116.7070   104.2790    92.5050    30.1450   -32.3230 
  178.6250     2.1600    62.0560   111.3330    99.6540    79.5250    30.1510   -32.3490 
  178.7500     2.1630    60.3370   108.5620    97.3010    76.1380    30.1560   -32.3840 
  178.8750     2.1650    59.9510   107.7790    96.6710    78.9760    30.1360   -32.4090 
  179.0000     2.1660    60.6540   107.9390    96.7940    82.6410    30.1710   -32.4440 
  179.1250     2.1690    60.6640   107.6810    96.5600    82.6170    30.2000   -32.4990 
  179.2500     2.1730    60.8890   106.3810    95.5790    81.5020    30.1950   -32.5470 
  179.3750     2.1780    62.6860   104.4080    94.1650    80.5440    30.2190   -32.5730 
  179.5000     2.1820    65.4620   102.7250    92.9790    78.4680    30.2240   -32.5770 
  179.6250     2.1840    65.6620   102.4530    92.8060    77.1770    30.2580   -32.5780 
  179.7500     2.1830    63.8720   103.4770    93.5650    82.8470    30.3010   -32.5550 
  179.8750     2.1810    61.3980   105.0210    94.7100    89.3780    30.3230   -32.5320 
  180.0000     2.1820    59.8450   105.9670    95.4800    93.5890    30.3220   -32.4840 
  180.1250     2.1840    60.9920   105.4030    95.2070    88.9090    30.1730   -32.4290 
  180.2500     2.1860    63.8390   104.1470    94.3180    84.2940    30.0500   -32.3890 
  180.3750     2.1870    66.1460   103.5590    93.6880    81.9150    29.9910   -32.3630 
  180.5000     2.1870    66.0170   104.8050    94.3230    79.3290    29.9350   -32.3360 
  180.6250     2.1860    65.1440   108.5270    97.1800    83.6740    29.7940   -32.3150 
  180.7500     2.1840    66.2360   113.5140   101.6880    95.9010    29.5550   -32.2960 
  180.8750     2.1840    67.4130   118.3940   106.8380   109.6780    29.2150   -32.3000 
  181.0000     2.1850    66.6590   121.8100   111.2070   108.7340    28.6280   -32.3230 
  181.1250     2.1890    64.8710   122.5730   113.1550    93.8360    28.0620   -32.3650 
  181.2500     2.1950    64.9290   121.2880   112.7980    80.2180    27.5720   -32.4140 
  181.3750     2.2000    64.3440   118.7380   110.9360    76.4620    27.4600   -32.4850 
  181.5000     2.2050    60.6430   115.8210   108.7540    81.5840    27.6560   -32.5780 
  181.6250     2.2050    56.9150   113.5210   107.4070    94.1740    28.3090   -32.7130 
  181.7500     2.2000    56.8190   112.3400   107.1430   102.8600    28.7370   -32.8730 
  181.8750     2.1920    59.9240   112.4490   107.8090   104.1340    29.0030   -33.0380 
  182.0000     2.1820    62.9040   113.5720   109.0780    99.3800    28.8340   -33.2420 
  182.1250     2.1730    64.3890   114.7640   110.3830    94.7130    27.8290   -33.4600 
  182.2500     2.1670    65.6050   114.6140   110.8440    96.4560    27.3160   -33.6930 
  182.3750     2.1640    65.5820   111.8300   109.3690    97.7620    27.0180   -33.9210 
  182.5000     2.1650    63.4690   105.5910   104.8820    91.9280    26.6850   -34.1380 
  182.6250     2.1690    60.3190    95.8710    96.6360    82.0910    26.5900   -34.3080 
  182.7500     2.1760    60.3930    85.2150    86.6370    68.7700    26.4520   -34.4420 
  182.8750     2.1840    64.4970    75.9470    77.1290    54.0560    26.3420   -34.5210 
  183.0000     2.1910    68.7820    69.8030    70.1120    41.2080    26.1130   -34.5270 
  183.1250     2.1910    69.7170    68.2400    67.4720    36.0610    25.9540   -34.4700 
  183.2500     2.1830    67.1240    70.5270    68.8970    41.5260    25.9030   -34.3650 
  183.3750     2.1710    63.4510    76.0910    74.0290    58.2900    26.0680   -34.2180 
  183.5000     2.1580    60.7320    83.9320    81.9110    86.3000    26.4640   -34.0250 
  183.6250     2.1500    62.6180    92.3210    90.6530   104.8730    26.5050   -33.8100 
  183.7500     2.1470    66.9890    99.0840    97.6930   107.2440    26.2510   -33.5730 
  183.8750     2.1460    69.9680   103.0340   101.6310   103.6610    26.1530   -33.3410 
  184.0000     2.1450    70.4000   104.2610   102.5020   100.0590    26.2300   -33.1150 
  184.1250     2.1470    71.4080   103.8750   101.4160    84.5870    26.1240   -32.9110 
  184.2500     2.1500    73.4900   103.4640   100.0530    73.8100    25.7780   -32.7390 
  184.3750     2.1570    73.4420   103.5660    98.9800    70.8190    25.3210   -32.5980 
  184.5000     2.1620    71.7240   104.2260    98.2660    70.1600    24.5800   -32.5270 
  184.6250     2.1580    71.7830   105.3040    97.8670    71.8980    23.9180   -32.5010 
  184.7500     2.1450    73.7460   106.5750    97.7830    77.1550    23.9620   -32.5390 
  184.8750     2.1250    75.0910   108.1140    98.2310    82.8660    24.4780   -32.6040 
  185.0000     2.1050    73.5740   110.2770    99.5730    85.5960    25.4710   -32.7090 
  185.1250     2.0920    69.6460   113.5980   102.3440    86.2080    25.9880   -32.8340 
  185.2500     2.0860    64.9850   117.6660   106.1810    90.3030    26.0950   -32.9680 
  185.3750     2.0870    62.2530   121.5180   110.3590    97.6300    26.1460   -33.0880 
  185.5000     2.0930    62.7720   123.7320   113.7280   105.7200    26.0790   -33.1660 
  185.6250     2.1050    63.6350   122.2060   114.4780   113.4580    26.0210   -33.2070 
  185.7500     2.1240    64.0450   116.7880   111.9430   113.4910    26.0080   -33.1800 
  185.8750     2.1500    64.8600   107.9630   105.9090   104.7640    25.9970   -33.0990 
  186.0000     2.1770    66.2890    96.8720    96.8510    93.4260    25.9290   -32.9390 
  186.1250     2.1980    65.9920    85.0430    85.7770    85.8580    25.8410   -32.7060 
  186.2500     2.2120    64.1910    74.1890    74.7450    75.9260    25.7120   -32.3890 
  186.3750     2.2190    63.7460    65.3300    65.1630    64.9520    25.7140   -32.0020 
  186.5000     2.2230    65.1140    59.0280    57.9100    54.1300    25.6960   -31.5460 
  186.6250     2.2240    66.6330    55.9520    53.7890    45.0250    25.6630   -31.0110 
  186.7500     2.2180    67.4200    55.5950    52.3220    42.1660    25.6570   -30.4250 
  186.8750     2.2040    68.0820    57.7880    53.3490    46.3260    25.6560   -29.8070 
