~V
VERS. 2.00: Ver 2.00
~W
STRT.M 53.0000:
STOP.M 202.0000:
STEP.M 0.1250:
NULL. -999.2500:
UWI. F11113:
~C
DEPT.M :
DEN.GM/CC :
SP.MV :
GR.API :
RML.OHMM :
RI. :
RXO.OHMM :
CALI.CM :
~A
# ...
   75.5000     2.1620   -33.1270    64.5170     7.6710     5.9420     8.4670    24.6460 
   75.6250     2.1660   -32.7830    65.2590     7.7120     5.9970     8.5920    24.6950 
   75.7500     2.1710   -32.4660    64.8820     7.7260     6.0340     8.6930    24.8290 
   75.8750     2.1790   -32.1400    63.4710     7.7220     6.0590     8.7420    24.9880 
   76.0000     2.1890   -31.7690    61.5110     7.7160     6.0770     8.7530    25.1170 
   76.1250     2.2010   -31.3270    62.2730     7.7140     6.0840     8.8190    25.2480 
   76.2500     2.2090   -30.8490    66.4200     7.7000     6.0670     8.9210    25.3650 
   76.3750     2.2100   -30.3430    70.7810     7.6530     6.0170     8.9240    25.4640 
   76.5000     2.2030   -29.7760    71.7670     7.5560     5.9340     8.6010    25.5490 
   76.6250     2.1910   -29.1080    68.7730     7.4180     5.8320     8.1950    25.5840 
   76.7500     2.1790   -28.3650    64.8580     7.3310     5.7600     8.0100    25.5470 
   76.8750     2.1710   -27.5430    63.2720     7.4380     5.7930     8.2790    25.5280 
   77.0000     2.1720   -26.6360    65.1340     7.9030     6.0320     8.9530    25.7190 
   77.1250     2.2130   -25.5780    66.3260     8.9200     6.6480    10.2060    26.0080 
   77.2500     2.3070   -24.3970    65.5930    10.3410     7.6280    13.6340    26.1860 
   77.3750     2.4390   -23.1350    65.2580    11.8280     8.8430    22.6670    26.1150 
   77.5000     2.5520   -21.8840    67.4590    12.7580     9.9050    43.5110    25.9550 
   77.6250     2.5640   -20.7410    72.8050    12.2550    10.0680    43.7300    25.9150 
   77.7500     2.5070   -19.6950    80.0720    10.6170     9.2480    22.4460    25.9870 
   77.8750     2.4310   -18.7680    87.9460     8.6100     7.8580     9.8090    26.1070 
   78.0000     2.3720   -18.0180    93.8090     6.9310     6.4510     5.4010    26.2010 
   78.1250     2.3450   -17.5680    96.6560     5.9110     5.4200     4.7320    26.2000 
   78.2500     2.3410   -17.3970    98.8360     5.3240     4.7460     5.1150    26.1460 
   78.3750     2.3530   -17.4770    99.9040     4.9950     4.3460     5.2880    26.1820 
   78.5000     2.3740   -17.7400   101.2750     4.8480     4.1470     4.5240    26.3390 
   78.6250     2.3980   -18.1480   102.2830     4.9930     4.1830     4.2550    26.4740 
   78.7500     2.4250   -18.6850   102.4170     5.5330     4.4890     4.3780    26.5230 
   78.8750     2.4590   -19.4000    99.7840     6.5690     5.1390     4.9850    26.5080 
   79.0000     2.4970   -20.2950    91.2100     8.0950     6.1770     6.8750    26.4270 
   79.1250     2.4990   -21.3650    79.5490     9.8780     7.5510    12.0650    26.2260 
   79.2500     2.4350   -22.5150    70.3050    11.2990     8.8480    18.8230    25.9290 
   79.3750     2.3290   -23.7060    65.6120    11.8130     9.6000    18.5530    25.4600 
   79.5000     2.2400   -24.9240    63.7610    11.3010     9.5470    13.5980    24.9410 
   79.6250     2.2010   -26.1320    63.4170    10.1950     8.8260    10.9840    24.5790 
   79.7500     2.1880   -27.2880    63.0760     9.2050     7.9980    10.2650    24.3890 
   79.8750     2.1810   -28.3380    61.4900     8.5890     7.3410    10.1890    24.3320 
   80.0000     2.1700   -29.2420    61.1180     8.3470     6.9430    10.2670    24.3360 
   80.1250     2.1610   -29.9500    63.9590     8.3710     6.7910    10.3250    24.3520 
   80.2500     2.1580   -30.5140    65.9670     8.4730     6.7600    10.3460    24.3320 
   80.3750     2.1600   -30.9490    64.6220     8.5690     6.7830    10.3080    24.2940 
   80.5000     2.1630   -31.2660    62.0890     8.6260     6.8150    10.2500    24.2700 
   80.6250     2.1650   -31.5240    62.9200     8.6580     6.8240    10.2310    24.2640 
   80.7500     2.1690   -31.7620    63.4730     8.6970     6.8050    10.1450    24.2640 
   80.8750     2.1760   -31.9350    60.8900     8.7520     6.7600    10.0150    24.2650 
   81.0000     2.1830   -32.0380    58.5960     8.8160     6.6990     9.8720    24.2650 
   81.1250     2.1840   -32.1120    61.9980     8.8710     6.6350     9.8550    24.2540 
   81.2500     2.1790   -32.2170    65.7040     8.9070     6.5750     9.8470    24.2430 
   81.3750     2.1720   -32.3530    64.5950     8.9170     6.5200     9.8420    24.2490 
   81.5000     2.1700   -32.4990    60.1970     8.9010     6.4630     9.7240    24.2590 
   81.6250     2.1750   -32.5770    58.7700     8.8590     6.3980     9.4650    24.2710 
   81.7500     2.1810   -32.5830    60.3210     8.8180     6.3320     9.3210    24.2970 
   81.8750     2.1860   -32.5560    61.2910     8.8060     6.2750     9.3260    24.3430 
   82.0000     2.1880   -32.5200    60.2060     8.8420     6.2470     9.4120    24.3820 
   82.1250     2.1920   -32.4630    58.3080     8.9320     6.2690     9.4400    24.4120 
   82.2500     2.1980   -32.3690    57.3800     9.0520     6.3380     9.3220    24.4250 
   82.3750     2.2050   -32.2110    56.6410     9.1880     6.4480     9.1540    24.4020 
   82.5000     2.2110   -31.9740    55.8730     9.3360     6.5950     9.1500    24.3420 
   82.6250     2.2180   -31.6770    55.8020     9.4900     6.7800     9.3630    24.2950 
   82.7500     2.2270   -31.3320    55.8500     9.6280     6.9800     9.6760    24.2870 
   82.8750     2.2350   -30.9310    56.7270     9.7220     7.1640    10.1870    24.2600 
   83.0000     2.2390   -30.4760    58.0210     9.7500     7.2990    10.9980    24.2260 
   83.1250     2.2330   -29.9440    58.4220     9.6940     7.3440    11.5570    24.2350 
   83.2500     2.2200   -29.3300    60.9830     9.5890     7.3110    11.1140    24.3210 
   83.3750     2.2040   -28.6330    65.9860     9.4590     7.2130    10.2860    24.5480 
   83.5000     2.1850   -27.8670    68.0200     9.2920     7.0540     9.7980    25.0210 
   83.6250     2.1630   -26.9930    63.5280     8.9940     6.7870     9.2910    25.9110 
   83.7500     2.1500   -26.0160    60.5280     8.4950     6.3900     8.4450    26.9990 
   83.8750     2.1550   -24.9840    63.8610     7.7870     5.8560     7.2370    27.7390 
   84.0000     2.1780   -23.9330    70.9690     6.9640     5.2340     6.0640    27.8950 
   84.1250     2.2050   -22.9420    78.5450     6.2500     4.6540     5.1720    27.7060 
   84.2500     2.2300   -22.0610    84.4400     5.8240     4.2430     4.7380    27.5310 
   84.3750     2.2490   -21.3580    87.2900     5.8000     4.0860     4.6000    27.3620 
   84.5000     2.2600   -20.8660    85.7390     6.2430     4.2390     4.5960    27.0660 
   84.6250     2.2780   -20.6520    79.7670     7.2150     4.7720     5.3060    26.5370 
   84.7500     2.3180   -20.6780    73.6430     8.4920     5.5710     6.8030    26.0720 
   84.8750     2.3790   -20.8520    70.5030     9.7830     6.4850     8.3990    25.8660 
   85.0000     2.4160   -21.0890    71.1580    10.6860     7.2680     9.9510    25.8110 
   85.1250     2.3700   -21.3400    72.8960    10.7450     7.5780    11.2490    25.5740 
   85.2500     2.2880   -21.5640    72.4740    10.1630     7.4350    10.5460    25.1200 
   85.3750     2.2270   -21.7050    71.4790     9.3210     7.0400     9.0640    24.7090 
   85.5000     2.1980   -21.7330    72.4680     8.5910     6.6390     8.4930    24.5510 
   85.6250     2.1890   -21.5600    76.0110     8.2020     6.4110     8.5830    24.6490 
   85.7500     2.1870   -21.1670    77.3470     8.0500     6.3320     8.6270    24.7970 
   85.8750     2.1920   -20.5730    74.4210     7.9470     6.3000     8.7730    24.9510 
   86.0000     2.2020   -19.8010    71.2770     7.6860     6.1730     9.0430    25.1300 
   86.1250     2.2150   -18.8440    72.9130     7.1520     5.8330     8.3490    25.5150 
   86.2500     2.2330   -17.7860    78.4620     6.5010     5.3610     6.7230    26.1510 
   86.3750     2.2540   -16.6950    86.4960     5.8850     4.8720     5.2730    26.8550 
   86.5000     2.2720   -15.6480    95.5760     5.4110     4.4650     4.5480    27.3870 
   86.6250     2.2860   -14.7100    98.8270     5.1520     4.2160     4.4270    27.5850 
