~V
VERS. 2.00: Ver 2.00
~W
STRT.M 53.0000:
STOP.M 202.0000:
STEP.M 0.1250:
NULL. -999.2500:
UWI. F11113:
~C
DEPT.M :
DEN.GM/CC :
SP.MV :
GR.API :
RML.OHMM :
RI. :
RXO.OHMM :
CALI.CM :
~A
# ...
  165.5000     2.1140   -25.4140    57.4000   198.0100   189.2260   117.7680    26.1190 
  165.6250     2.1150   -25.1410    58.7850   214.1180   200.9650   140.2640    25.9900 
  165.7500     2.1180   -24.7930    59.4450   247.3470   230.4400   228.1640    26.1150 
  165.8750     2.1240   -24.3980    57.6690   299.4850   278.6610   369.0050    26.4460 
  166.0000     2.1350   -24.0370    55.5120   369.9400   343.5520   459.7550    26.6980 
  166.1250     2.1450   -23.7740    55.8000   450.9100   416.3680   429.0350    26.8260 
  166.2500     2.1510   -23.5570    56.0150   521.8610   479.4950   382.9730    26.8860 
  166.3750     2.1510   -23.3070    52.7500   568.5290   521.5820   347.2830    26.9250 
  166.5000     2.1430   -22.9850    48.4790   588.3540   540.9540   329.5180    26.8870 
  166.6250     2.1270   -22.7000    49.5750   579.3690   537.3520   333.5210    26.6910 
  166.7500     2.1170   -22.5340    54.0430   543.8120   512.8220   327.7240    26.3420 
  166.8750     2.1170   -22.4700    56.3970   484.9670   467.2230   316.8390    25.9860 
  167.0000     2.1230   -22.4320    56.4350   465.7830   408.0610   311.3240    25.7580 
  167.1250     2.1260   -22.3920    58.1510   397.7290   350.3760   276.3030    25.7340 
  167.2500     2.1370   -22.3880    61.3000   348.5720   305.9280   238.8890    25.7730 
  167.3750     2.1660   -22.4670    64.7520   319.5450   278.8560   229.1910    25.6580 
  167.5000     2.2070   -22.6430    66.8140   307.4150   268.5730   237.4640    25.1650 
  167.6250     2.2400   -22.8360    65.7700   305.2180   271.3850   236.0250    24.6770 
  167.7500     2.2590   -22.9890    63.9480   296.3460   273.3590   268.0270    24.4300 
  167.8750     2.2670   -23.1110    64.5300   265.4100   259.3210   294.0590    24.3840 
  168.0000     2.2720   -23.2320    66.0220   210.4970   220.4800   276.1610    24.4700 
  168.1250     2.2710   -23.3610    64.3240   161.4650   165.7080   186.5410    24.6100 
  168.2500     2.2640   -23.4870    62.4850   112.4310   117.0780   114.5350    24.5930 
  168.3750     2.2500   -23.6270    63.1050    80.5090    82.6730    62.0520    24.4830 
  168.5000     2.2320   -23.7780    65.9400    61.6970    61.7360    35.6200    24.5870 
  168.6250     2.2160   -23.9390    68.0670    52.2430    51.2500    30.0990    24.9370 
  168.7500     2.2010   -24.0970    69.3310    47.3360    45.7890    32.9860    25.2640 
  168.8750     2.1890   -24.2460    70.4130    45.3740    43.4140    37.4360    25.5130 
  169.0000     2.1840   -24.4220    71.8650    45.6840    43.3070    38.4160    25.6010 
  169.1250     2.1890   -24.6600    70.7620    48.5280    45.6650    31.1340    25.2840 
  169.2500     2.1970   -24.8910    67.5330    53.5690    50.1980    30.9250    24.6320 
  169.3750     2.2030   -25.0990    64.4010    60.4090    56.6470    36.6750    24.0230 
  169.5000     2.2070   -25.2860    62.6140    67.8560    63.9900    49.0260    23.8140 
  169.6250     2.2120   -25.5040    61.6510    73.0280    69.5160    59.8080    24.2980 
  169.7500     2.2220   -25.7850    60.7590    73.5770    70.7140    63.7230    25.0820 
  169.8750     2.2350   -26.1080    60.5260    69.2160    67.0380    54.0100    25.8710 
  170.0000     2.2470   -26.4180    61.0920    62.2150    60.4610    42.9890    26.3750 
  170.1250     2.2420   -26.6660    65.0770    55.8180    54.0430    39.1320    26.3760 
  170.2500     2.2240   -26.9020    70.3510    51.3600    49.2480    38.6230    26.0810 
  170.3750     2.2060   -27.1520    73.4390    48.7510    46.0800    39.2270    26.0080 
  170.5000     2.1990   -27.3920    72.9290    47.4850    44.1410    38.6580    26.2920 
  170.6250     2.2070   -27.5580    70.6630    47.1720    43.1710    42.0700    26.3680 
  170.7500     2.2200   -27.6130    69.6820    47.5520    42.9370    38.5310    26.1620 
  170.8750     2.2280   -27.5870    69.9340    48.9750    43.7100    31.5150    25.8880 
  171.0000     2.2330   -27.5290    69.1160    52.0210    45.9550    34.6670    25.7660 
  171.1250     2.2400   -27.4740    64.4460    57.7620    50.5400    45.4730    25.6300 
  171.2500     2.2440   -27.3720    58.7940    66.3490    57.5260    51.0470    25.2450 
  171.3750     2.2470   -27.1700    56.9350    77.8650    66.9230    51.8700    24.5520 
  171.5000     2.2550   -26.8980    58.6650    91.6060    78.0180    62.0180    24.1230 
  171.6250     2.2680   -26.6120    60.8320   105.0730    88.6290    96.1900    24.4430 
  171.7500     2.2740   -26.3470    59.6650   114.4110    95.9220   128.1400    24.9690 
  171.8750     2.2770   -26.1100    56.2790   116.7130    97.8880   125.1470    25.3450 
  172.0000     2.2970   -25.8820    55.0450   111.9860    94.3570   100.5650    25.4670 
  172.1250     2.3430   -25.6210    57.5320   103.9840    87.5700    86.4650    25.2320 
  172.2500     2.3990   -25.3670    62.6700    97.9080    81.7480    79.1660    24.9090 
  172.3750     2.4570   -25.1450    67.3550    95.8970    79.1520    70.1180    24.7230 
  172.5000     2.5210   -24.9510    67.4690    98.5050    80.7180    65.2440    24.6470 
  172.6250     2.5800   -24.8160    62.9700   105.3800    86.5770    78.0530    24.5840 
  172.7500     2.6110   -24.7200    58.7940   112.8050    93.8160   109.6300    24.5270 
  172.8750     2.6200   -24.6210    57.8460   116.0420    98.7960   126.8490    24.5360 
  173.0000     2.6240   -24.4900    56.7250   110.7640    97.6230   116.4290    24.5550 
  173.1250     2.6290   -24.3350    55.0090    96.1240    87.6770   104.9970    24.5190 
  173.2500     2.6260   -24.2140    58.4730    79.2800    73.6660    86.0030    24.5010 
  173.3750     2.6170   -24.1340    66.5220    65.1430    60.2810    57.9930    24.4940 
  173.5000     2.6120   -24.0600    72.8780    55.8100    50.4990    40.3340    24.5340 
  173.6250     2.6160   -23.9200    73.2980    52.0630    45.7500    34.6380    24.6170 
  173.7500     2.6240   -23.7290    71.9390    52.5060    44.9410    34.9070    24.6690 
  173.8750     2.6320   -23.5140    71.5810    56.8300    47.7900    40.8220    24.6260 
  174.0000     2.6360   -23.2820    70.3580    64.9440    54.1930    55.9590    24.5010 
  174.1250     2.6330   -23.0510    67.7740    77.5350    64.6990    80.0890    24.3010 
  174.2500     2.6310   -22.7950    65.9410    93.9680    78.7200    98.5720    24.0500 
  174.3750     2.6390   -22.5120    64.6290   113.7230    95.9720   114.0980    23.6870 
  174.5000     2.6560   -22.2350    63.2070   134.2930   114.7580   148.7530    23.2730 
  174.6250     2.6700   -21.9960    61.6410   144.0970   127.6740   213.4590    23.4250 
  174.7500     2.6720   -21.7820    60.1640   130.2620   124.5100   264.9530    23.9620 
  174.8750     2.6610   -21.5770    58.4810    95.7530   101.1850   238.4660    24.3420 
  175.0000     2.6410   -21.3780    56.5360    59.5640    67.7420   146.8850    24.5000 
  175.1250     2.6060   -21.1480    57.9570    35.8550    40.7350    61.7050    24.5540 
  175.2500     2.5420   -20.8700    60.2370    21.8640    23.9290    25.2480    24.5510 
  175.3750     2.4440   -20.5590    58.5120    14.0390    14.6830    11.8080    24.4550 
  175.5000     2.3340   -20.2330    53.3950     9.7890     9.8110     8.1660    24.3980 
  175.6250     2.2420   -19.8980    52.0680     7.2400     7.4090     7.6420    24.4230 
  175.7500     2.1640   -19.5670    55.6200     6.2740     6.0590     7.1620    24.5990 
  175.8750     2.1090   -19.2530    57.8110     5.8710     5.3590     6.7670    24.9130 
  176.0000     2.1000   -18.9730    55.1280     5.7780     5.0740     6.2500    25.3790 
  176.1250     2.1540   -18.7880    53.3000     5.8200     5.0540     5.2350    25.6570 
  176.2500     2.2250   -18.7150    56.3350     5.8610     5.1270     4.7340    25.3760 
  176.3750     2.2650   -18.7160    61.1160     5.8600     5.2100     5.0990    24.9270 
  176.5000     2.2600   -18.7260    63.8670     5.8250     5.2510     5.9320    24.7350 
  176.6250     2.2260   -18.7400    65.9960     5.7790     5.2260     6.1220    24.7660 
