~V
VERS. 2.00: Ver 2.00
~W
STRT.M 55.0000:
STOP.M 210.0000:
STEP.M 0.1250:
NULL. -999.2500:
UWI. F11105:
~C
DEPT.M :
DEN.GM/CC :
GR.API :
RML.OHMM :
RI. :
RXO.OHMM :
CALI.CM :
SP.MV :
~A
# ...
  145.0000     2.1830    64.8540    23.7500    20.0690    17.4590    29.1950   -23.8300 
  145.1250     2.1960    65.5960    22.4190    18.9930    17.2450    29.0000   -23.7050 
  145.2500     2.2190    71.4820    21.1850    18.0030    16.0710    28.8590   -23.5160 
  145.3750     2.2450    79.3130    19.9930    17.0490    14.4680    28.7510   -23.2910 
  145.5000     2.2650    82.6700    18.8080    16.0990    13.1720    28.6090   -23.0930 
  145.6250     2.2690    80.9950    17.6120    15.1510    12.5850    28.1950   -22.9350 
  145.7500     2.2600    78.8310    16.4310    14.2350    12.5670    27.9590   -22.7800 
  145.8750     2.2480    77.1410    15.3370    13.3930    12.2270    27.6890   -22.6340 
  146.0000     2.2430    76.7730    14.4490    12.6890    10.8520    27.6270   -22.5640 
  146.1250     2.2450    78.3700    13.9890    12.2550     9.5880    27.4850   -22.6090 
  146.2500     2.2500    80.5680    14.0060    12.1440     9.5110    27.3520   -22.7390 
  146.3750     2.2510    80.1720    14.5020    12.3910    11.2940    27.2260   -22.9340 
  146.5000     2.2500    76.7150    15.3930    12.9790    13.1260    27.0700   -23.1100 
  146.6250     2.2480    72.4470    16.5130    13.8330    13.4570    27.1230   -23.2310 
  146.7500     2.2470    69.8410    17.5260    14.6900    13.5280    27.0790   -23.3490 
  146.8750     2.2460    70.5740    18.1160    15.2880    14.4830    26.9630   -23.4480 
  147.0000     2.2440    72.8270    18.0500    15.4060    14.7820    26.9790   -23.4840 
  147.1250     2.2380    73.5790    17.2520    14.9250    14.0580    26.9800   -23.4480 
  147.2500     2.2330    73.3580    16.1550    14.1350    13.1920    26.8600   -23.3780 
  147.3750     2.2320    73.9950    15.1550    13.3160    12.0990    26.7300   -23.2990 
  147.5000     2.2370    76.6360    14.5620    12.7160    11.0210    26.6960   -23.2970 
  147.6250     2.2490    77.8610    14.6000    12.5570    10.3550    26.6000   -23.3900 
  147.7500     2.2620    76.1650    15.0990    12.7890    11.3500    26.5800   -23.4930 
  147.8750     2.2690    72.3150    15.8650    13.3150    12.7480    26.5580   -23.6230 
  148.0000     2.2680    68.2220    16.6440    13.9550    13.9420    26.5010   -23.7570 
  148.1250     2.2580    65.7690    17.0920    14.4360    14.1360    26.4960   -23.8640 
  148.2500     2.2470    66.2140    17.0850    14.6030    14.2140    26.5020   -23.9620 
  148.3750     2.2390    70.2930    16.6860    14.4630    13.5670    26.5780   -24.0280 
  148.5000     2.2360    74.2490    16.1190    14.1540    12.6690    26.6460   -24.0580 
  148.6250     2.2390    73.5960    15.6710    13.8650    12.1430    26.6090   -24.1030 
  148.7500     2.2430    72.2270    15.4620    13.7120    11.7690    26.6290   -24.1690 
  148.8750     2.2440    73.2250    15.4940    13.7320    11.7470    26.6400   -24.2120 
  149.0000     2.2430    76.4150    15.7070    13.9210    12.2450    26.8790   -24.2550 
  149.1250     2.2400    78.3260    16.0170    14.2460    12.8030    27.0490   -24.3730 
  149.2500     2.2400    79.8930    16.3250    14.6040    13.1460    27.2130   -24.5550 
  149.3750     2.2440    82.0500    16.5750    14.9190    13.5620    27.2910   -24.7920 
  149.5000     2.2540    82.0660    16.7080    15.1190    14.3340    27.3520   -25.0570 
  149.6250     2.2670    78.0660    16.6490    15.1150    14.2200    27.4550   -25.3490 
  149.7500     2.2770    74.1820    16.4410    14.9410    13.5980    27.7570   -25.6930 
  149.8750     2.2850    72.9210    16.2000    14.6780    13.3750    28.0830   -26.0640 
  150.0000     2.2890    73.2570    16.1410    14.4870    13.4360    28.3040   -26.4690 
  150.1250     2.2910    74.0980    16.7620    14.7110    13.6300    28.6240   -26.8900 
  150.2500     2.2900    74.7330    18.5050    15.6670    14.4460    28.8570   -27.3390 
  150.3750     2.2850    73.6730    21.9350    17.7750    16.1500    28.9770   -27.8660 
  150.5000     2.2740    69.7110    27.6420    21.5830    19.7130    29.3800   -28.4540 
  150.6250     2.2560    65.3140    36.5220    28.1710    29.5510    29.7140   -29.0000 
  150.7500     2.2380    62.5050    47.7710    37.3400    51.3330    30.0060   -29.4840 
  150.8750     2.2250    59.0070    59.6790    47.9860    79.0290    30.3880   -29.9500 
  151.0000     2.2190    54.7350    69.1720    57.4700    86.3000    30.8810   -30.4030 
  151.1250     2.2200    53.0940    72.4110    61.9470    68.6330    31.2100   -30.8690 
  151.2500     2.2230    56.1570    70.8630    61.8180    56.3060    31.5330   -31.3200 
  151.3750     2.2260    60.0600    67.5580    59.3800    52.1050    31.7520   -31.7070 
  151.5000     2.2280    60.9590    65.1740    57.0990    52.1470    32.1060   -32.0290 
  151.6250     2.2290    60.1450    65.2770    56.6660    50.7130    32.3910   -32.3640 
  151.7500     2.2290    59.4560    67.4460    58.0330    51.9450    32.7050   -32.7410 
  151.8750     2.2270    58.7260    71.1640    60.8800    54.9520    33.1570   -33.1690 
  152.0000     2.2230    58.3590    75.7550    64.7030    57.6850    33.7820   -33.6240 
  152.1250     2.2200    61.7340    80.2680    68.7950    60.9570    34.2080   -34.0810 
  152.2500     2.2180    67.1490    83.7330    72.2840    69.1630    34.5310   -34.5250 
  152.3750     2.2190    70.1980    85.6050    74.5850    77.4990    34.8560   -34.9610 
  152.5000     2.2190    68.1790    85.9440    75.5310    78.4100    35.2140   -35.3900 
  152.6250     2.2180    62.9120    85.5010    75.4790    73.0270    35.5080   -35.7870 
  152.7500     2.2150    58.5690    85.6340    75.5670    69.4670    35.8300   -36.1240 
  152.8750     2.2110    58.7180    87.3140    76.7390    68.6240    36.1010   -36.3820 
  153.0000     2.2080    61.7830    91.1170    79.7140    69.2920    36.4980   -36.5700 
  153.1250     2.2070    61.7760    97.3180    85.0320    64.3510    36.6980   -36.6360 
  153.2500     2.2060    58.4680   104.6630    91.7510    62.6180    36.9890   -36.6600 
  153.3750     2.2040    55.5720   111.5860    98.5930    67.4990    37.2950   -36.6880 
  153.5000     2.2000    54.4390   116.0570   103.8000    80.1220    37.4740   -36.7190 
  153.6250     2.1960    52.0520   115.4250   104.9270    92.4650    37.6570   -36.7880 
  153.7500     2.1920    50.3810   110.1180   101.8680    93.8930    37.8390   -36.8970 
  153.8750     2.1900    50.8830   101.5430    95.4480    88.0770    37.9750   -37.0190 
  154.0000     2.1890    52.4030    91.8090    87.3150    82.7300    38.1270   -37.1480 
  154.1250     2.1930    52.0090    83.1160    79.3950    67.3350    38.5110   -37.3190 
  154.2500     2.2010    50.9540    76.4890    72.9490    56.3970    38.6270   -37.4970 
  154.3750     2.2110    51.9890    72.3280    68.5520    50.7960    38.7650   -37.6380 
  154.5000     2.2200    53.5490    70.7990    66.4980    48.5560    38.8150   -37.7300 
  154.6250     2.2240    52.2560    72.5240    67.4320    49.0780    38.8340   -37.7530 
  154.7500     2.2230    50.4840    77.1830    71.1070    54.9920    38.8960   -37.7550 
  154.8750     2.2200    50.4210    84.7990    77.5840    66.8400    39.1340   -37.7890 
  155.0000     2.2150    49.8090    95.1610    86.6950    83.0420    39.4390   -37.8600 
  155.1250     2.2100    46.1090   107.7580    97.9970   100.7480    39.5870   -37.9830 
  155.2500     2.2030    43.2210   120.5550   109.6060   114.7160    39.7880   -38.1300 
  155.3750     2.1970    43.7830   131.3370   119.5200   122.4130    39.9400   -38.2400 
  155.5000     2.1930    44.9380   138.0180   125.8300   123.0450    39.9510   -38.2960 
  155.6250     2.1950    43.1560   139.1760   127.0660   121.5760    39.9980   -38.3010 
  155.7500     2.2020    42.1210   137.3980   125.2810   117.4760    40.0280   -38.2810 
  155.8750     2.2100    44.9720   135.5630   122.9140   113.4540    40.0930   -38.2210 
  156.0000     2.2150    51.6080   136.3030   122.4440   118.4880    40.0250   -38.1270 
  156.1250     2.2110    55.7690   141.6800   126.1740   125.3320    40.0800   -38.0100 
