~V
VERS. 2.00: Ver 2.00
~W
STRT.M 50.0000:
STOP.M 248.0000:
STEP.M 0.1250:
NULL. -999.2500:
UWI. F11129:
~C
DEPT.M :
SP.MV :
DEN.GM/CC :
GR.API :
RML.OHMM :
RI. :
RXO.OHMM :
CALI.CM :
~A
# ...
  185.0000   -40.0530     2.3240    74.6190    24.8940    20.6640    25.0000    23.8810 
  185.1250   -40.8210     2.3030    67.8850    30.5200    26.0860    40.5150    23.9110 
  185.2500   -41.4680     2.2880    65.1340    37.1640    32.1070    56.4570    23.9240 
  185.3750   -41.9390     2.2800    68.5470    43.1990    37.5280    59.6270    23.9030 
  185.5000   -42.2170     2.2800    72.7290    47.2670    41.2460    54.9700    23.8670 
  185.6250   -42.3470     2.2840    72.8860    49.1750    42.9680    51.5670    23.8490 
  185.7500   -42.4160     2.2890    69.8710    49.6940    43.2360    46.9080    23.8720 
  185.8750   -42.4710     2.2970    68.7450    50.0010    43.0670    43.0570    23.9170 
  186.0000   -42.5030     2.3080    71.9350    50.8700    43.2920    42.4240    23.9660 
  186.1250   -42.4890     2.3150    75.6620    52.3920    44.1350    43.9290    24.0130 
  186.2500   -42.4270     2.3150    75.9580    54.3730    45.5360    46.1120    24.0390 
  186.3750   -42.3420     2.3090    73.1800    56.5530    47.3050    50.7350    24.0490 
  186.5000   -42.2680     2.3050    69.2810    58.8050    49.2900    56.4820    24.0450 
  186.6250   -42.2340     2.3080    65.5660    61.3160    51.5800    58.8070    24.0010 
  186.7500   -42.2420     2.3100    63.0840    64.6250    54.5840    61.0360    23.9340 
  186.8750   -42.2780     2.3050    61.9590    69.2760    58.7930    67.4000    23.9170 
  187.0000   -42.3260     2.2970    61.4040    75.2360    64.2950    75.8900    23.9370 
  187.1250   -42.3790     2.2910    61.4670    81.8650    70.6970    86.4630    23.9390 
  187.2500   -42.4460     2.2900    63.2440    87.4630    76.7060    94.6460    23.8960 
  187.3750   -42.5400     2.2890    66.3330    89.8740    80.4150    95.0130    23.8280 
  187.5000   -42.6730     2.2850    69.1730    88.2940    80.6520    87.7640    23.7600 
  187.6250   -42.8340     2.2800    70.6330    83.6770    77.6690    74.9910    23.7140 
  187.7500   -42.9990     2.2800    70.2100    78.2410    73.0780    65.7020    23.6950 
  187.8750   -43.1330     2.2810    69.3610    74.0720    68.9020    64.4570    23.7010 
  188.0000   -43.2220     2.2800    69.2510    72.1130    66.4900    68.6470    23.6950 
  188.1250   -43.3040     2.2760    68.7720    72.4320    66.2450    76.3820    23.6510 
  188.2500   -43.4060     2.2700    67.1930    74.5260    67.9200    83.2550    23.5340 
  188.3750   -43.5110     2.2640    66.2640    77.3680    70.6460    81.3700    23.3090 
  188.5000   -43.5620     2.2590    66.9740    79.7160    73.2260    78.9990    23.0190 
  188.6250   -43.5460     2.2570    66.6540    80.7810    74.8430    81.3130    22.7420 
  188.7500   -43.5010     2.2590    64.1500    80.3050    75.0850    80.7920    22.5310 
  188.8750   -43.4670     2.2680    62.0860    78.7650    74.2250    73.5050    22.3970 
  189.0000   -43.4430     2.2840    62.9930    77.0380    73.0290    66.4440    22.3680 
  189.1250   -43.3750     2.3020    65.5240    75.6450    72.0180    64.0550    22.4710 
  189.2500   -43.2250     2.3110    66.8030    74.8760    71.5580    64.0890    22.6080 
  189.3750   -43.0100     2.3010    66.8620    74.6670    71.7200    65.3890    22.5610 
  189.5000   -42.7840     2.2810    67.4960    74.5150    72.1120    68.2690    22.3630 
  189.6250   -42.5660     2.2650    68.1210    73.8390    72.1580    70.1110    22.2600 
  189.7500   -42.3330     2.2570    67.3410    72.1520    71.2760    68.3940    22.2950 
  189.8750   -42.0690     2.2570    65.3150    69.4140    69.2660    65.5040    22.3640 
  190.0000   -41.7830     2.2610    63.7970    66.1020    66.4780    62.1710    22.4930 
  190.1250   -41.4810     2.2670    64.2660    62.7060    63.3690    57.1140    22.8290 
  190.2500   -41.1810     2.2700    67.3270    59.7030    60.4460    53.2080    23.3660 
  190.3750   -40.9150     2.2690    71.6480    57.4120    58.0880    51.6500    23.8320 
  190.5000   -40.6890     2.2660    74.2490    55.9340    56.4530    50.8450    24.0450 
  190.6250   -40.4590     2.2660    74.6320    55.3480    55.6480    50.1820    24.0730 
  190.7500   -40.1940     2.2670    74.8290    55.7510    55.7860    49.5500    24.0230 
  190.8750   -39.9090     2.2630    75.0110    57.1330    56.8760    48.8840    24.0250 
  191.0000   -39.6490     2.2540    73.9810    59.2440    58.7080    50.7950    24.1370 
  191.1250   -39.4340     2.2430    71.6640    61.7880    61.0380    55.4090    24.2750 
  191.2500   -39.2320     2.2380    68.8100    64.3800    63.5040    60.7280    24.3260 
  191.3750   -38.9730     2.2450    66.5730    66.8700    65.8770    64.2070    24.2480 
  191.5000   -38.6470     2.2630    65.9110    69.6950    68.4530    65.9140    24.1170 
  191.6250   -38.2970     2.2910    66.8810    73.8030    72.1150    67.8910    24.0360 
  191.7500   -37.9580     2.3340    66.7190    84.1190    78.4960    71.7060    24.0640 
  191.8750   -37.6150     2.4000    63.3070   100.6670    89.1730    81.9960    24.1260 
  192.0000   -37.2190     2.4870    59.1120   116.4340   104.0560   108.0760    24.0750 
  192.1250   -36.7640     2.5770    56.5540   132.6820   120.7340   154.4810    23.8880 
  192.2500   -36.2950     2.6350    54.8580   140.0570   132.0790   198.0470    23.6830 
  192.3750   -35.8790     2.6500    53.5810   129.3420   129.4040   200.8610    23.5970 
  192.5000   -35.5350     2.6460    55.7330   103.8620   111.2820   159.4400    23.5950 
  192.6250   -35.2200     2.6370    61.7130    74.8240    84.4720   104.6550    23.5700 
  192.7500   -34.8850     2.6240    66.4360    51.7190    59.2500    64.6440    23.5190 
  192.8750   -34.5160     2.6040    67.1240    36.8070    41.3660    42.4010    23.5140 
  193.0000   -34.1450     2.5740    67.6880    27.5260    30.0420    30.1210    23.5670 
  193.1250   -33.7910     2.5430    71.0180    21.9810    23.2850    23.3670    23.6360 
  193.2500   -33.4490     2.5240    74.3170    18.8950    19.4690    20.4940    23.6330 
  193.3750   -33.0860     2.5280    75.3910    17.3440    17.4440    20.3860    23.5510 
  193.5000   -32.6740     2.5420    76.1120    16.5050    16.2970    20.2100    23.4730 
  193.6250   -32.2290     2.5510    76.3830    15.9190    15.5650    18.3380    23.4160 
  193.7500   -31.7750     2.5510    75.1930    15.2150    14.8650    17.0410    23.3100 
  193.8750   -31.3230     2.5470    73.8620    14.1950    13.9430    17.3050    23.1010 
  194.0000   -30.9020     2.5380    72.9850    12.9300    12.7890    16.6280    22.8370 
  194.1250   -30.5520     2.5230    69.7020    11.6250    11.5570    13.5470    22.6110 
  194.2500   -30.2750     2.5030    62.3130    10.5190    10.4580    10.3510    22.4880 
  194.3750   -30.0460     2.4900    54.5630     9.7350     9.6190     9.1410    22.3900 
  194.5000   -29.8450     2.4860    49.6720     9.2250     9.0310     9.0670    22.2700 
  194.6250   -29.6730     2.4850    46.9610     8.8840     8.6310     9.4350    22.3140 
  194.7500   -29.5640     2.4830    46.5720     8.5870     8.3190     9.8090    22.5430 
  194.8750   -29.5310     2.4850    48.9520     8.2770     8.0220     9.6360    22.8060 
  195.0000   -29.5190     2.4860    52.0780     8.0160     7.7500     8.7960    23.0120 
  195.1250   -29.4710     2.4740    52.3010     7.9130     7.5770     8.2420    23.1300 
  195.2500   -29.3810     2.4480    49.1710     8.0600     7.5800     7.9320    23.1520 
  195.3750   -29.2750     2.4270    45.6150     8.4670     7.7850     7.7440    23.1100 
  195.5000   -29.1770     2.4240    42.6510     9.0440     8.1440     8.1410    23.1160 
  195.6250   -29.0780     2.4300    39.6830     9.6940     8.5990     9.3030    23.1790 
  195.7500   -28.9420     2.4310    38.8060    10.3080     9.0720    10.2070    23.2170 
  195.8750   -28.7510     2.4230    41.7820    10.7970     9.4760    10.2310    23.2510 
  196.0000   -28.5180     2.4130    44.7320    11.1180     9.7500    10.4590    23.2820 
  196.1250   -28.2720     2.4090    44.9470    11.2630     9.8680    11.6100    23.2520 
