~V
VERS. 2.00: Ver 2.00
~W
STRT.M 45.0000:
STOP.M 270.0000:
STEP.M 0.1250:
NULL. -999.2500:
UWI. F11186:
~C
DEPT.M :
SP.MV :
GR.API :
RI. :
RML.OHMM :
RXO.OHMM :
DEN.GM/CC :
~A
# ...
  173.7500   -21.8420    75.9480    41.2930    40.4990    47.4160     2.1740 
  173.8750   -21.8510    76.7460    40.6810    39.9350    47.0660     2.1710 
  174.0000   -21.8950    75.5740    40.3970    39.6940    47.4020     2.1770 
  174.1250   -21.9720    74.4480    40.3750    39.7010    46.8750     2.1920 
  174.2500   -22.0710    73.7190    40.2490    39.6150    46.4250     2.2110 
  174.3750   -22.1890    73.9710    39.9460    39.3720    47.6270     2.2230 
  174.5000   -22.3190    74.9420    39.7860    39.3440    49.5020     2.2230 
  174.6250   -22.4610    76.0310    40.2480    39.9860    48.6530     2.2110 
  174.7500   -22.6120    77.1930    41.7100    41.7210    46.3530     2.1960 
  174.8750   -22.7660    78.5420    44.0410    44.4780    48.1310     2.1780 
  175.0000   -22.9150    77.4020    47.3760    48.3570    52.3280     2.1660 
  175.1250   -23.0510    72.9770    50.9800    52.4230    52.9690     2.1620 
  175.2500   -23.1740    68.5600    53.7920    55.5130    50.3580     2.1580 
  175.3750   -23.2830    66.4650    54.9740    56.7430    47.8360     2.1520 
  175.5000   -23.3830    65.3270    54.4440    56.1810    46.6920     2.1480 
  175.6250   -23.4780    64.0870    53.2750    55.0790    45.9290     2.1510 
  175.7500   -23.5720    64.1040    52.5220    54.4840    46.0460     2.1540 
  175.8750   -23.6670    64.8090    52.2870    54.4440    48.0150     2.1500 
  176.0000   -23.7630    64.2650    52.4840    54.8510    49.3950     2.1420 
  176.1250   -23.8540    63.0330    53.0210    55.5380    51.5470     2.1340 
  176.2500   -23.9310    63.2150    53.6110    56.1610    55.5960     2.1370 
  176.3750   -23.9880    65.3590    54.2220    56.6890    58.0970     2.1490 
  176.5000   -24.0210    68.4340    54.8970    57.2440    58.5630     2.1550 
  176.6250   -24.0250    70.4970    55.7340    57.9940    58.1210     2.1490 
  176.7500   -24.0000    70.1570    56.5960    58.8240    58.2270     2.1420 
  176.8750   -23.9440    68.2090    56.9920    59.1410    58.9520     2.1450 
  177.0000   -23.8620    65.8160    55.8050    57.7450    59.2160     2.1500 
  177.1250   -23.7660    65.7000    52.9360    54.6540    58.2990     2.1560 
  177.2500   -23.6730    68.2640    49.6290    51.1550    55.5630     2.1660 
  177.3750   -23.6060    71.7400    46.8610    48.3540    51.1440     2.1700 
  177.5000   -23.5830    73.1690    45.5710    47.1910    48.4650     2.1550 
  177.6250   -23.6160    71.0880    46.0070    47.9580    51.1180     2.1280 
  177.7500   -23.6940    68.1040    47.6720    49.9880    54.4810     2.1140 
  177.8750   -23.8060    66.3410    49.5550    52.0330    56.6720     2.1220 
  178.0000   -23.9290    65.8070    51.0520    53.4470    60.1400     2.1410 
  178.1250   -24.0500    66.7710    51.6700    53.7110    60.4820     2.1580 
  178.2500   -24.1650    67.9980    51.8830    53.6150    55.5980     2.1650 
  178.3750   -24.2790    68.4890    52.8620    54.5030    51.9310     2.1580 
  178.5000   -24.3940    67.7470    55.2900    57.0730    52.8510     2.1430 
  178.6250   -24.5070    65.6330    58.8760    60.8830    54.6920     2.1310 
  178.7500   -24.6040    63.6260    62.5040    64.6150    55.6720     2.1290 
  178.8750   -24.6610    61.3760    64.6890    66.6660    55.6000     2.1340 
  179.0000   -24.6660    60.8300    64.6250    66.2640    53.7510     2.1410 
  179.1250   -24.6090    62.0000    61.4830    62.6250    51.0840     2.1470 
  179.2500   -24.5090    63.8450    55.7980    56.4440    49.0550     2.1570 
  179.3750   -24.3880    65.4690    49.1190    49.5340    46.5690     2.1730 
  179.5000   -24.2790    66.4860    43.5760    43.9650    40.4000     2.1900 
  179.6250   -24.2160    65.6850    41.2270    41.9810    37.0930     2.1950 
  179.7500   -24.2170    63.7480    42.7830    44.2090    45.6010     2.1830 
  179.8750   -24.2840    64.4600    49.1050    51.5980    61.1470     2.1590 
  180.0000   -24.3900    66.7390    60.3380    64.1080    74.1990     2.1350 
  180.1250   -24.5020    65.0240    73.0790    77.9820    78.7550     2.1210 
  180.2500   -24.5930    59.4770    84.2100    89.7700    76.8730     2.1190 
  180.3750   -24.6540    57.0250    88.6250    94.0460    72.7500     2.1280 
  180.5000   -24.6950    59.4940    86.4290    91.3790    69.5310     2.1350 
  180.6250   -24.7270    62.3990    80.7470    85.1470    72.3270     2.1280 
  180.7500   -24.7560    63.0890    74.9700    78.9950    74.2310     2.1170 
  180.8750   -24.7830    61.4980    71.6810    75.6250    67.0100     2.1170 
  181.0000   -24.8100    61.3980    71.6120    75.7270    64.4280     2.1250 
  181.1250   -24.8410    64.0920    74.6730    79.1610    73.7850     2.1280 
  181.2500   -24.8790    66.3200    79.8870    84.5580    80.4970     2.1280 
  181.3750   -24.9270    64.5670    83.1730    87.4030    81.1880     2.1340 
  181.5000   -24.9870    61.1020    80.5900    83.7330    78.0550     2.1450 
  181.6250   -25.0650    59.7050    72.6400    74.5150    67.5680     2.1540 
  181.7500   -25.1650    59.5420    61.9010    62.8160    56.6850     2.1610 
  181.8750   -25.2910    59.6200    53.5160    54.0900    53.2810     2.1710 
  182.0000   -25.4360    60.8960    48.9160    49.5290    53.5620     2.1750 
  182.1250   -25.5880    62.5220    47.3160    48.1940    54.0140     2.1580 
  182.2500   -25.7290    61.5900    49.0250    50.4150    55.3300     2.1330 
  182.3750   -25.8430    58.1140    53.9110    55.9310    56.1950     2.1150 
  182.5000   -25.9200    54.5840    60.7100    63.4190    55.9130     2.1080 
  182.6250   -25.9480    52.4730    68.0620    71.5870    55.4790     2.1080 
  182.7500   -25.9260    50.9520    74.7400    79.0890    57.9250     2.1140 
  182.8750   -25.8460    50.1550    79.5460    84.6990    62.5310     2.1210 
  183.0000   -25.7090    50.2650    82.6960    88.6150    63.7070     2.1240 
  183.1250   -25.5140    51.3240    85.2420    91.9800    62.8850     2.1270 
  183.2500   -25.2740    52.6360    88.2200    95.9380    64.1700     2.1300 
  183.3750   -25.0000    53.7550    93.0620   101.9500    69.9100     2.1240 
  183.5000   -24.7080    54.8070    99.6260   109.7970    79.0230     2.1140 
  183.6250   -24.4140    55.9190   106.4490   117.6390    86.4470     2.1150 
  183.7500   -24.1290    56.9840   111.0660   122.3220    90.6580     2.1230 
  183.8750   -23.8630    56.8230   109.1680   119.2330    92.7850     2.1280 
  184.0000   -23.6150    56.3300   100.2440   108.2630    91.3550     2.1340 
  184.1250   -23.3850    58.1010    86.8200    92.7760    82.0010     2.1500 
  184.2500   -23.1670    63.0270    72.8030    77.3100    66.9270     2.1700 
  184.3750   -22.9650    68.4720    62.5180    66.2520    58.3040     2.1840 
  184.5000   -22.7850    70.6470    56.4640    59.9350    62.5490     2.1920 
  184.6250   -22.6410    68.7360    54.9130    58.4070    68.2240     2.1940 
  184.7500   -22.5350    66.4560    57.3340    61.2460    69.1820     2.1860 
  184.8750   -22.4590    66.3520    63.6650    68.0850    71.3350     2.1670 
  185.0000   -22.3940    66.2210    73.2510    78.2310    74.2210     2.1420 
  185.1250   -22.3150    62.7900    84.1570    89.3650    74.5920     2.1240 
  185.2500   -22.2080    57.4740    94.4610    99.6540    73.3540     2.1180 
  185.3750   -22.0650    55.3760   101.8810   106.7750    72.9600     2.1220 
  185.5000   -21.8980    57.4390   104.1350   108.5270    73.2010     2.1290 
  185.6250   -21.7170    59.8530   101.0110   104.9500    74.7980     2.1360 
  185.7500   -21.5350    59.5430    93.9780    97.5280    78.5850     2.1380 
  185.8750   -21.3590    56.4600    83.4540    86.6030    78.5370     2.1360 
  186.0000   -21.1880    54.0680    72.7460    75.5730    73.4340     2.1370 
  186.1250   -21.0220    55.2750    64.1290    66.8590    71.2140     2.1460 
  186.2500   -20.8630    58.7290    59.8660    62.9150    67.1310     2.1460 
  186.3750   -20.7140    60.2640    62.3500    66.2410    62.1010     2.1260 
  186.5000   -20.5760    57.9680    70.5590    76.0260    73.5900     2.1000 
