~V
VERS. 2.00: Ver 2.00
~W
STRT.M 51.0000:
STOP.M 249.0000:
STEP.M 0.1250:
NULL. -999.2500:
UWI. F11143:
~C
DEPT.M :
GR.API :
RML.OHMM :
RI. :
RXO.OHMM :
CALI.CM :
SP.MV :
DEN.GM/CC :
~A
# ...
   73.5000    62.9300     9.0570     7.1310    11.1350    22.2830   -29.1120     2.1120 
   73.6250    66.5340     8.9210     7.0110    11.1950    22.3600   -29.0100     2.1150 
   73.7500    65.7530     8.8710     6.9540    11.5380    22.3870   -28.9560     2.1250 
   73.8750    61.8300     8.9290     6.9720    11.9040    22.3550   -28.9580     2.1410 
   74.0000    59.5840     9.0990     7.0660    12.0880    22.3050   -29.0320     2.1550 
   74.1250    62.9860     9.3820     7.2320    12.3380    22.3170   -29.1600     2.1620 
   74.2500    68.6830     9.7260     7.4360    12.8930    22.4540   -29.2950     2.1590 
   74.3750    71.7200    10.0710     7.6480    13.4470    22.6950   -29.4290     2.1480 
   74.5000    70.9880    10.3470     7.8310    13.7300    22.9260   -29.5570     2.1370 
   74.6250    67.8770    10.4700     7.9490    13.5900    23.0380   -29.6860     2.1350 
   74.7500    65.5410    10.4490     8.0070    13.3380    23.1030   -29.8190     2.1420 
   74.8750    63.9560    10.3270     8.0200    13.2690    23.1600   -29.8960     2.1530 
   75.0000    63.6650    10.1810     8.0030    13.4900    23.1810   -29.8980     2.1610 
   75.1250    66.4980    10.0920     7.9690    13.7320    23.1470   -29.8260     2.1630 
   75.2500    70.5380    10.0690     7.9350    13.8270    23.0860   -29.6600     2.1560 
   75.3750    71.5130    10.0790     7.9070    13.7820    22.9860   -29.4060     2.1450 
   75.5000    69.5160    10.0770     7.8850    13.5510    22.8090   -29.0920     2.1380 
   75.6250    70.3050    10.0180     7.8560    13.2030    22.5850   -28.7070     2.1370 
   75.7500    71.8660     9.9140     7.8160    12.9180    22.4390   -28.2400     2.1330 
   75.8750    69.6650     9.7930     7.7670    12.8310    22.3040   -27.7320     2.1240 
   76.0000    65.8310     9.6870     7.7190    12.9000    22.1610   -27.2050     2.1140 
   76.1250    66.2460     9.6200     7.6900    12.9750    22.0830   -26.7000     2.1090 
   76.2500    68.9600     9.5970     7.6910    13.0900    22.0610   -26.2340     2.1100 
   76.3750    70.3010     9.6120     7.7350    13.2430    22.0240   -25.7590     2.1140 
   76.5000    71.0330     9.6340     7.8270    13.5720    21.9730   -25.2390     2.1220 
   76.6250    71.8490     9.5990     7.9380    13.6450    21.9510   -24.6040     2.1300 
   76.7500    71.4710     9.4670     8.0010    13.3820    21.9450   -23.8410     2.1350 
   76.8750    71.4480     9.2360     7.9690    12.9440    21.9340   -22.9450     2.1420 
   77.0000    72.8400     8.9520     7.8410    12.5780    21.9550   -21.8940     2.1520 
   77.1250    73.9450     8.6930     7.6550    12.3570    22.0230   -20.6830     2.1670 
   77.2500    74.1650     8.4760     7.4560    11.8170    22.1420   -19.3910     2.1840 
   77.3750    75.1150     8.2580     7.2330    10.9240    22.2550   -18.0710     2.2000 
   77.5000    78.3400     7.9720     6.9430    10.5500    22.3240   -16.7350     2.2110 
   77.6250    83.9690     7.5520     6.5290    10.0190    22.4580   -15.4410     2.2140 
   77.7500    90.6450     7.0170     6.0070     8.8890    22.7930   -14.2940     2.2250 
   77.8750    97.9580     6.4100     5.4190     7.0070    23.2720   -13.3520     2.2510 
   78.0000   106.0580     5.7870     4.8280     5.8830    23.6190   -12.6760     2.2840 
   78.1250   112.2160     5.2340     4.3160     5.4600    23.7630   -12.2580     2.3090 
   78.2500   112.1010     4.8800     3.9610     5.2500    23.8280   -12.0710     2.3280 
   78.3750   107.0240     4.9330     3.8730     5.1800    23.8980   -12.1410     2.3520 
   78.5000   102.7030     5.6500     4.1920     5.3790    23.9370   -12.4800     2.3830 
   78.6250   102.3880     7.4860     5.2050     6.1110    23.9260   -13.1710     2.4230 
   78.7500    99.0890    10.4680     7.0480     8.4400    23.8090   -14.1150     2.4730 
   78.8750    89.7650    14.4620     9.8890    15.3090    23.5010   -15.2380     2.5210 
   79.0000    78.3640    18.6800    13.5120    30.4910    23.0540   -16.5080     2.5410 
   79.1250    69.1540    20.9010    16.3620    48.0750    22.7560   -17.9690     2.4910 
   79.2500    63.0800    19.9510    16.7590    45.8320    22.6610   -19.5350     2.3820 
   79.3750    59.4750    16.7260    14.9640    31.2900    22.7510   -21.1180     2.2550 
   79.5000    59.4370    13.2180    12.5050    20.1750    22.8620   -22.6840     2.1560 
   79.6250    62.0300    10.9290    10.5830    14.4820    22.8040   -24.1670     2.1150 
   79.7500    63.6810     9.7960     9.3570    12.4320    22.6560   -25.5580     2.1100 
   79.8750    64.4300     9.4760     8.7180    12.0060    22.5180   -26.8630     2.1180 
   80.0000    64.4150     9.5940     8.4940    12.0970    22.4330   -28.0050     2.1230 
   80.1250    64.1060     9.8540     8.5280    12.0780    22.3700   -28.8900     2.1240 
   80.2500    63.9460    10.0420     8.6180    12.0820    22.3390   -29.5830     2.1260 
   80.3750    63.4350    10.0900     8.6720    12.3520    22.3430   -30.1520     2.1300 
   80.5000    62.1200    10.0010     8.6460    12.6800    22.3620   -30.6110     2.1330 
   80.6250    61.4640     9.8090     8.5340    12.6520    22.3800   -30.9140     2.1390 
   80.7500    61.7890     9.6110     8.3910    12.6660    22.4220   -31.0840     2.1460 
   80.8750    60.8650     9.5000     8.2790    12.6730    22.4500   -31.1340     2.1520 
   81.0000    57.7880     9.5700     8.2780    12.6630    22.4550   -31.1350     2.1550 
   81.1250    57.3290     9.9050     8.4780    12.7900    22.4400   -31.1110     2.1610 
   81.2500    59.9280    10.4140     8.8460    13.1150    22.4240   -31.0490     2.1740 
   81.3750    61.2470    10.9560     9.2950    13.3820    22.4880   -30.9420     2.1930 
   81.5000    59.1050    11.3460     9.6770    13.3160    22.6880   -30.7990     2.2110 
   81.6250    57.0120    11.3390     9.7610    12.8970    22.9250   -30.6380     2.2180 
   81.7500    55.7230    10.9470     9.5160    12.8680    22.9000   -30.4540     2.2060 
   81.8750    53.9510    10.3080     9.0390    13.1310    22.7500   -30.2410     2.1760 
   82.0000    53.7640     9.6430     8.5010    13.0400    22.5790   -29.9990     2.1480 
   82.1250    57.7810     9.1970     8.0840    12.6170    22.3530   -29.7850     2.1440 
   82.2500    61.5660     9.0200     7.8420    12.6950    22.0740   -29.6320     2.1590 
   82.3750    63.9500     9.0560     7.7550    13.3870    21.8880   -29.5250     2.1830 
   82.5000    66.1700     9.1820     7.7560    13.9520    21.8420   -29.4430     2.2010 
   82.6250    65.0910     9.2580     7.7600    14.0390    21.8880   -29.3950     2.2050 
   82.7500    60.5610     9.2470     7.7250    13.8310    21.9800   -29.3970     2.1980 
   82.8750    59.1620     9.1900     7.6620    13.5800    22.0930   -29.4480     2.1850 
   83.0000    62.5720     9.1540     7.6040    13.4480    22.1670   -29.5640     2.1720 
   83.1250    62.7270     9.1810     7.5820    13.5170    22.2090   -29.7090     2.1660 
   83.2500    59.3140     9.2270     7.5790    13.6260    22.2210   -29.8170     2.1640 
   83.3750    58.9160     9.2370     7.5660    13.7600    22.2230   -29.8930     2.1610 
   83.5000    61.8410     9.1870     7.5220    13.8410    22.2180   -29.9720     2.1570 
   83.6250    64.3060     9.1060     7.4540    13.8320    22.1790   -30.0960     2.1570 
   83.7500    66.1460     9.0790     7.4120    13.7060    22.1030   -30.2950     2.1600 
   83.8750    69.0870     9.1730     7.4400    13.7720    22.0390   -30.5590     2.1640 
   84.0000    72.9410     9.4180     7.5720    14.2920    22.0150   -30.8690     2.1700 
   84.1250    72.4350     9.7980     7.8230    14.7530    22.0260   -31.2530     2.1720 
   84.2500    68.6010    10.2090     8.1350    14.8150    22.0720   -31.7170     2.1670 
   84.3750    66.2150    10.5640     8.4430    14.5370    22.1560   -32.2310     2.1560 
   84.5000    66.9210    10.8020     8.6880    14.3010    22.2270   -32.7540     2.1460 
   84.6250    67.1680    10.8970     8.8220    14.3710    22.2230   -33.2530     2.1440 
