~V
VERS. 2.00: Ver 2.00
~W
STRT.M 50.0000:
STOP.M 264.0000:
STEP.M 0.1250:
NULL. -999.2500:
UWI. F11182:
~C
DEPT.M :
SP.MV :
GR.API :
RI. :
RML.OHMM :
RXO.OHMM :
DEN.GM/CC :
~A
# ...
  140.1250   -14.3640    62.9660     7.8250     8.3400    16.6300     2.4880 
  140.2500   -14.4720    60.0250     6.5930     6.8580    14.5790     2.4210 
  140.3750   -14.4960    58.9150     4.3930     4.4040     9.6550     2.3180 
  140.5000   -14.4300    65.0030     3.2790     3.2620     5.7060     2.2680 
  140.6250   -14.2460    78.1930     2.3860     2.4050     2.9970     2.2430 
  140.7500   -14.0960    81.8960     2.1000     2.1580     2.8720     2.2510 
  140.8750   -13.8690    80.1680     1.9110     2.0310     2.9590     2.2700 
  141.0000   -13.7290    80.2690     1.8680     2.0150     2.9210     2.2820 
  141.1250   -13.5330    86.9980     1.8370     2.0010     2.6820     2.2850 
  141.2500   -13.4040    90.3530     1.8250     1.9850     2.6750     2.2830 
  141.3750   -13.2070    89.4890     1.8430     1.9940     2.6770     2.2890 
  141.5000   -13.0760    86.6760     1.8810     2.0260     2.5790     2.2990 
  141.6250   -12.8970    84.6910     1.9740     2.1130     2.8320     2.2940 
  141.7500   -12.7980    85.6420     2.0840     2.2200     3.1870     2.2610 
  141.8750   -12.6830    85.2620     2.3360     2.4840     3.2980     2.1820 
  142.0000   -12.6230    83.0310     2.5600     2.7180     3.4390     2.1300 
  142.1250   -12.5430    79.1640     2.9710     3.1620     4.1020     2.0870 
  142.2500   -12.4920    77.5420     3.2550     3.4660     4.4510     2.0860 
  142.3750   -12.4330    74.7610     3.5910     3.8240     4.6710     2.1050 
  142.5000   -12.4250    69.9950     3.7380     3.9760     4.7390     2.1150 
  142.6250   -12.4950    62.1480     3.7780     4.0030     4.6720     2.1150 
  142.7500   -12.6040    60.1670     3.6980     3.9110     4.5450     2.1130 
  142.8750   -12.8390    63.5020     3.4370     3.6350     4.3730     2.1320 
  143.0000   -13.0220    66.6070     3.2010     3.3940     4.2050     2.1640 
  143.1250   -13.2890    70.1150     2.8100     2.9970     3.6480     2.2170 
  143.2500   -13.4440    73.0420     2.5800     2.7720     3.2620     2.2390 
  143.3750   -13.6290    79.6430     2.3460     2.5500     3.0960     2.2400 
  143.5000   -13.7210    83.9460     2.2690     2.4980     3.0130     2.2280 
  143.6250   -13.8240    87.3390     2.2450     2.5190     2.8510     2.2130 
  143.7500   -13.8760    88.0230     2.2500     2.5460     2.9720     2.2120 
  143.8750   -13.9400    87.5110     2.2590     2.5510     3.3390     2.2210 
  144.0000   -13.9790    86.3850     2.2630     2.5340     3.4720     2.2410 
  144.1250   -14.0300    83.8560     2.3750     2.6110     3.5690     2.3100 
  144.2500   -14.0590    83.3860     2.5400     2.7730     3.9540     2.3850 
  144.3750   -14.0850    83.0150     3.1050     3.4020     5.9010     2.4940 
  144.5000   -14.0790    79.6610     3.7410     4.1290     7.6850     2.5370 
  144.6250   -14.0080    70.5380     4.9540     5.4990     8.8940     2.5490 
  144.7500   -13.9060    65.5260     5.7030     6.3160     9.3650     2.5330 
  144.8750   -13.6690    63.0000     6.2980     6.9090    10.7300     2.4700 
  145.0000   -13.4670    62.6650     6.2020     6.7440    10.1910     2.3860 
  145.1250   -13.1410    61.1130     5.5020     5.9110     7.1040     2.2200 
  145.2500   -12.9350    59.6330     4.9720     5.3160     5.5720     2.1310 
  145.3750   -12.6800    59.0940     4.2850     4.5760     4.7750     2.0710 
  145.5000   -12.5570    60.6860     4.0110     4.3050     4.7740     2.0650 
  145.6250   -12.4420    62.1180     3.8310     4.1530     5.1710     2.0700 
  145.7500   -12.4030    61.5350     3.8010     4.1400     5.4570     2.0850 
  145.8750   -12.3790    60.8650     3.8510     4.2050     5.4140     2.1220 
  146.0000   -12.3700    63.9560     3.9240     4.2800     5.0720     2.1370 
  146.1250   -12.3480    67.9240     4.0350     4.3840     4.8820     2.1300 
  146.2500   -12.3200    68.1770     4.1100     4.4590     5.0910     2.1130 
  146.3750   -12.2580    66.8300     4.2450     4.5920     5.4310     2.0930 
  146.5000   -12.2160    67.4570     4.3070     4.6360     5.4200     2.0860 
  146.6250   -12.1790    68.3120     4.2210     4.4820     5.3550     2.0950 
  146.7500   -12.1820    66.9180     4.0610     4.2610     5.5110     2.1260 
  146.8750   -12.2240    64.1940     3.7420     3.8370     5.2000     2.1750 
  147.0000   -12.2610    65.7250     3.5500     3.5930     4.5050     2.1810 
  147.1250   -12.2840    73.3900     3.4360     3.4420     4.0520     2.1490 
  147.2500   -12.2520    77.9950     3.5090     3.5160     4.3170     2.1270 
  147.3750   -12.1070    79.0750     3.8360     3.8760     4.6410     2.1060 
  147.5000   -11.9530    76.3760     4.2100     4.2840     4.8750     2.0900 
  147.6250   -11.6790    71.2150     5.0170     5.1820     5.5200     2.0690 
  147.7500   -11.5040    67.4950     5.5890     5.8100     5.8380     2.0630 
  147.8750   -11.3100    62.7100     5.8210     5.9980     6.3010     2.0820 
  148.0000   -11.2490    61.5970     5.4610     5.5670     6.6210     2.1220 
  148.1250   -11.2720    64.5120     4.2820     4.2170     6.4900     2.2070 
  148.2500   -11.3580    68.3190     3.3500     3.2180     5.7560     2.2490 
  148.3750   -11.5770    74.6430     2.5350     2.4040     3.7370     2.2710 
  148.5000   -11.7810    80.0890     2.3270     2.2260     2.7930     2.2720 
  148.6250   -12.1770    85.4280     2.5020     2.4840     4.2220     2.2990 
  148.7500   -12.5040    83.4130     3.0220     3.0900     6.3320     2.3440 
  148.8750   -13.0760    73.5680     4.4340     4.6340     8.0330     2.4370 
  149.0000   -13.4950    68.2240     5.4770     5.7180     9.2440     2.4940 
  149.1250   -14.1440    63.0920     6.8330     7.0420    12.1180     2.5420 
  149.2500   -14.5670    58.6490     7.3410     7.4640    12.6530     2.5470 
  149.3750   -15.1520    51.0470     7.5920     7.5720    11.2570     2.5430 
  149.5000   -15.4910    47.9970     7.5860     7.4990    10.2580     2.5400 
  149.6250   -15.9020    48.3080     7.5090     7.3880    10.0580     2.5370 
  149.7500   -16.1090    49.3950     7.4810     7.3690    10.3950     2.5310 
  149.8750   -16.3360    47.9480     7.6120     7.5550    10.7030     2.5280 
  150.0000   -16.4410    44.7630     7.7600     7.7510    11.0340     2.5300 
  150.1250   -16.5460    41.2230     7.9340     7.9840    11.4540     2.5240 
  150.2500   -16.5880    41.6870     7.9800     8.0660    12.2820     2.5130 
  150.3750   -16.6130    43.2670     7.9880     8.1060    13.8270     2.5050 
  150.5000   -16.6080    43.8140     7.9690     8.0760    13.3070     2.5070 
  150.6250   -16.5720    44.8190     7.8790     7.9620    12.5280     2.5170 
  150.7500   -16.5330    46.3360     7.7920     7.8430    12.8170     2.5150 
  150.8750   -16.4630    47.1590     7.6200     7.6300    12.1100     2.4920 
  151.0000   -16.4100    46.7640     7.5260     7.5230    11.6030     2.4760 
  151.1250   -16.3230    46.3450     7.4670     7.4510    11.8450     2.4700 
  151.2500   -16.2550    46.7190     7.4660     7.4560    11.9060     2.4810 
  151.3750   -16.1280    47.6100     7.4930     7.4970    12.5350     2.4850 
  151.5000   -16.0240    47.5980     7.4570     7.4630    13.2990     2.4720 
  151.6250   -15.8390    48.2370     7.2590     7.2470    12.7120     2.4470 
  151.7500   -15.7020    49.0310     7.0350     6.9960    11.5570     2.4430 
  151.8750   -15.4840    49.0830     6.5940     6.5220    10.3470     2.4440 
  152.0000   -15.3320    48.8300     6.3130     6.2280     9.7230     2.4420 
  152.1250   -15.0870    50.6780     6.1250     6.0340     9.4750     2.4430 
  152.2500   -14.9100    53.7400     6.1750     6.0950     9.8240     2.4480 
  152.3750   -14.6190    56.0900     6.5000     6.4380    10.2350     2.4550 
  152.5000   -14.4080    54.8160     6.8350     6.7930    10.7310     2.4500 
  152.6250   -14.0740    50.6860     7.3650     7.3270    11.4800     2.4270 
  152.7500   -13.8480    50.7560     7.6560     7.6010    11.7270     2.4040 
  152.8750   -13.5230    55.8780     7.8700     7.7750    11.8450     2.3790 
