~V
VERS. 2.00: Ver 2.00
~W
STRT.M 63.0000:
STOP.M 208.0000:
STEP.M 0.1250:
NULL. -999.2500:
UWI. F11108:
~C
DEPT.M :
GR.API :
RML.OHMM :
RI. :
RXO.OHMM :
CALI.CM :
SP.MV :
DEN.GM/CC :
~A
# ...
  186.7500    97.2200     8.3990     7.7300     9.1710    24.4430   -11.2790     2.4050 
  186.8750    97.2750     7.8530     7.1850     9.0530    24.4760   -10.8820     2.4030 
  187.0000    95.3840     7.1740     6.5560     6.7590    24.5280   -10.4770     2.3750 
  187.1250    92.3300     6.4370     6.0130     5.2470    24.6180   -10.0940     2.3220 
  187.2500    89.0230     5.8660     5.6380     4.8640    24.7230    -9.7620     2.2720 
  187.3750    88.5710     5.6280     5.4420     5.0340    24.7120    -9.5140     2.2420 
  187.5000    91.3970     5.6910     5.4030     5.3890    24.4910    -9.3170     2.2330 
  187.6250    93.6140     5.8890     5.5030     5.7810    24.1030    -9.1540     2.2250 
  187.7500    94.5010     6.1340     5.6960     5.9920    23.7920    -9.0270     2.2040 
  187.8750    97.8270     6.4330     5.9650     5.8860    23.9380    -8.9690     2.1790 
  188.0000   102.8380     6.7600     6.2920     5.8690    24.3730    -8.9690     2.1720 
  188.1250   106.3110     7.0620     6.6240     6.2960    24.4420    -8.9750     2.2040 
  188.2500   107.3250     7.2760     6.8870     7.0790    24.2410    -8.9720     2.2590 
  188.3750   105.4830     7.3670     7.0200     7.8290    23.9860    -8.9410     2.3090 
  188.5000   100.7690     7.3380     7.0020     8.5480    23.7530    -8.8900     2.3330 
  188.6250    95.8800     7.2240     6.8470     8.9590    23.5220    -8.8620     2.3290 
  188.7500    95.3170     7.0990     6.6410     7.5840    23.4160    -8.8440     2.3190 
  188.8750    97.4900     7.0020     6.4420     7.0540    23.7660    -8.7980     2.3220 
  189.0000    97.2450     6.9440     6.2860     7.3340    24.2970    -8.7250     2.3400 
  189.1250    93.6640     6.9300     6.1970     7.6850    24.4160    -8.6590     2.3700 
  189.2500    90.9690     6.9510     6.1630     7.5190    24.4060    -8.6060     2.3960 
  189.3750    88.2260     7.0230     6.1890     7.2530    24.4700    -8.5480     2.4080 
  189.5000    83.7560     7.1750     6.2920     6.9110    24.6120    -8.4680     2.4000 
  189.6250    79.6110     7.4480     6.5100     6.9650    24.7120    -8.3970     2.3750 
  189.7500    79.8730     7.8120     6.8290     7.4820    24.7330    -8.3430     2.3540 
  189.8750    83.3950     8.2060     7.2090     8.3540    24.6730    -8.2900     2.3540 
  190.0000    85.6230     8.5370     7.5700     9.5710    24.5310    -8.1940     2.3840 
  190.1250    83.3180     8.6760     7.7820    11.0370    24.3890    -7.9880     2.4310 
  190.2500    80.0170     8.6090     7.7950    11.2870    24.3520    -7.7600     2.4680 
  190.3750    79.8370     8.3810     7.6230    10.0810    24.4280    -7.5650     2.4790 
  190.5000    83.2300     8.0810     7.3350     8.5560    24.5070    -7.3760     2.4620 
  190.6250    83.7890     7.8260     7.0400     7.8380    24.5550    -7.1270     2.4320 
  190.7500    79.7620     7.6750     6.8180     7.4940    24.5760    -6.9240     2.4060 
  190.8750    76.5850     7.6340     6.6960     7.4910    24.6000    -6.7900     2.3940 
  191.0000    78.9150     7.6770     6.6640     7.6080    24.6290    -6.6860     2.3980 
  191.1250    83.3700     7.7820     6.7080     7.6400    24.6020    -6.7000     2.4160 
  191.2500    85.3220     7.9190     6.7970     7.6500    24.4850    -6.8050     2.4290 
  191.3750    84.7580     8.0820     6.9230     7.5110    24.3000    -6.8830     2.4210 
  191.5000    84.1520     8.2660     7.0800     7.2910    24.1410    -6.9300     2.3880 
  191.6250    85.0080     8.4600     7.2590     8.2090    24.1470    -7.0110     2.3450 
  191.7500    86.4160     8.6410     7.4370    12.4900    24.2960    -7.0190     2.3240 
  191.8750    87.2440     8.7850     7.5890    22.6450    24.4390    -6.9990     2.3370 
  192.0000    86.1110     8.8780     7.6950    22.2580    24.4810    -7.0280     2.3750 
  192.1250    85.3620     8.9130     7.7380    14.3770    24.4500    -7.0100     2.4080 
  192.2500    86.3660     8.9200     7.7390    10.7660    24.3940    -6.9150     2.4160 
  192.3750    87.5690     8.9240     7.7160    10.0470    24.3690    -6.8340     2.4070 
  192.5000    88.3500     8.9410     7.6900     9.8910    24.3080    -6.7530     2.3990 
  192.6250    88.3860     8.9740     7.6760     9.1190    24.2890    -6.7030     2.4110 
  192.7500    86.2090     9.0050     7.6700     8.5920    24.2350    -6.7170     2.4340 
  192.8750    83.1760     9.0240     7.6690     8.6070    24.1690    -6.7720     2.4550 
  193.0000    82.1790     9.0320     7.6700     8.6030    24.1360    -6.7960     2.4630 
  193.1250    83.4640     9.0440     7.6800     8.7150    24.2720    -6.8530     2.4560 
  193.2500    84.4350     9.0780     7.7060     8.9990    24.4190    -6.9490     2.4450 
  193.3750    85.9890     9.1430     7.7550     9.2460    24.4900    -7.0720     2.4390 
  193.5000    89.0510     9.2360     7.8280     9.1460    24.5050    -7.2780     2.4410 
  193.6250    91.5160     9.3420     7.9210     9.6200    24.4980    -7.4810     2.4510 
  193.7500    92.6040     9.4300     8.0130    10.0830    24.4570    -7.6720     2.4620 
  193.8750    92.1600     9.4740     8.0810    10.1820    24.3550    -7.8260     2.4690 
  194.0000    88.9400     9.4480     8.1010     9.6170    24.2410    -7.9620     2.4680 
  194.1250    85.1810     9.3260     8.0380     9.3260    24.2310    -8.1070     2.4570 
  194.2500    85.3100     9.1260     7.8970     9.4280    24.2720    -8.2180     2.4370 
  194.3750    88.6740     8.8630     7.6830     9.3880    24.3140    -8.2930     2.4150 
  194.5000    90.9740     8.5630     7.4140     9.9540    24.3620    -8.2980     2.4010 
  194.6250    87.7280     8.2560     7.1170    10.8780    24.3830    -8.2350     2.4030 
  194.7500    82.6320     7.9810     6.8320    10.1370    24.3520    -8.1390     2.4170 
  194.8750    80.7950     7.7690     6.5920     8.4160    24.3310    -8.0700     2.4350 
  195.0000    82.3450     7.6460     6.4260     7.0690    24.3180    -8.0350     2.4490 
  195.1250    82.8770     7.6430     6.3680     6.2550    24.3210    -8.0060     2.4520 
  195.2500    80.9520     7.7380     6.4090     6.0870    24.3720    -8.0230     2.4490 
  195.3750    79.3090     7.9050     6.5370     6.3460    24.3040    -8.0310     2.4410 
  195.5000    79.8390     8.1080     6.7240     6.9640    24.1970    -7.9860     2.4320 
  195.6250    82.1030     8.2960     6.9260     7.4820    24.1870    -7.9650     2.4270 
  195.7500    85.3750     8.4250     7.0880     7.8060    24.2890    -7.9650     2.4320 
  195.8750    87.2850     8.4640     7.1720     7.9420    24.3850    -7.9370     2.4440 
  196.0000    87.3220     8.3990     7.1560     7.9190    24.4150    -7.8640     2.4550 
  196.1250    88.4620     8.2160     7.0210     7.6530    24.4220    -7.7160     2.4460 
  196.2500    90.9060     7.9620     6.8060     7.5320    24.4200    -7.5470     2.4170 
  196.3750    91.2150     7.6750     6.5440     7.6550    24.3020    -7.3770     2.3820 
  196.5000    87.0050     7.4020     6.2760     7.7490    24.1750    -7.2600     2.3570 
  196.6250    79.7730     7.1970     6.0540     7.6000    24.1070    -7.1910     2.3580 
  196.7500    73.8190     7.0760     5.9020     7.0310    24.1270    -7.1290     2.3780 
  196.8750    70.7670     7.0380     5.8300     6.7680    24.2250    -7.0750     2.4040 
  197.0000    70.5480     7.0570     5.8250     6.6800    24.2450    -7.0340     2.4260 
  197.1250    72.7840     7.0890     5.8580     6.6350    24.2410    -7.0130     2.4350 
  197.2500    75.8910     7.0810     5.8830     6.9010    24.2630    -6.9640     2.4360 
  197.3750    77.7820     7.0120     5.8690     7.2640    24.2490    -6.9430     2.4340 
  197.5000    76.4710     6.8810     5.8030     7.2650    24.2100    -6.9730     2.4350 
  197.6250    73.5190     6.7080     5.6800     7.2120    24.1740    -6.9490     2.4380 
  197.7500    72.5590     6.5290     5.5300     7.0850    24.1770    -6.8720     2.4410 
  197.8750    72.5590     6.3700     5.3770     6.5930    24.1980    -6.7500     2.4400 
