~V
VERS. 2.00: Ver 2.00
~W
STRT.M 52.0000:
STOP.M 240.0000:
STEP.M 0.1250:
NULL. -999.2500:
UWI. F11139:
~C
DEPT.M :
GR.API :
RML.OHMM :
RI. :
RXO.OHMM :
CALI.CM :
SP.MV :
DEN.GM/CC :
~A
# ...
   74.5000    62.7350     6.9020     5.8510    11.9880    25.9090   -39.5870     2.0980 
   74.6250    64.5680     6.8480     5.7990    12.0410    25.9600   -39.3030     2.1000 
   74.7500    66.7950     6.7990     5.7480    12.0510    26.0250   -38.8460     2.1040 
   74.8750    67.8840     6.7580     5.6970    11.9820    26.1010   -38.1820     2.1060 
   75.0000    69.0690     6.7190     5.6380    11.7820    26.1890   -37.4210     2.1010 
   75.1250    71.4470     6.6740     5.5650    11.2560    26.2730   -36.6150     2.0950 
   75.2500    74.1610     6.6330     5.4880    10.7240    26.3380   -35.8700     2.0970 
   75.3750    76.7960     6.6210     5.4300    10.4500    26.3770   -35.2810     2.1080 
   75.5000    79.3410     6.6620     5.4170    10.4580    26.3840   -34.8630     2.1160 
   75.6250    80.1890     6.7830     5.4800    10.6590    26.3630   -34.7260     2.1180 
   75.7500    79.4970     6.9580     5.6030    11.0980    26.3340   -34.7900     2.1190 
   75.8750    79.2150     7.1500     5.7600    11.7800    26.3120   -35.0100     2.1250 
   76.0000    78.2990     7.3080     5.9080    12.2520    26.2940   -35.3270     2.1310 
   76.1250    74.3800     7.3740     5.9970    12.2600    26.3070   -35.6370     2.1310 
   76.2500    70.3400     7.3520     6.0140    11.9230    26.3520   -35.9220     2.1220 
   76.3750    68.0980     7.2630     5.9690    11.5570    26.4370   -35.9880     2.0980 
   76.5000    66.9930     7.1520     5.8850    11.3160    26.5760   -35.8460     2.0670 
   76.6250    65.6860     7.0670     5.7960    11.1840    26.6560   -35.5620     2.0480 
   76.7500    64.7960     7.0260     5.7290    11.2380    26.5760   -35.1530     2.0550 
   76.8750    65.7730     7.0260     5.6950    11.3850    26.3920   -34.7760     2.0770 
   77.0000    69.3220     7.0570     5.6950    11.4880    26.2620   -34.3570     2.0940 
   77.1250    75.1900     7.1150     5.7300    11.6020    26.2380   -33.9220     2.1030 
   77.2500    78.9800     7.1940     5.7900    11.7890    26.2410   -33.4750     2.1070 
   77.3750    77.9170     7.2940     5.8720    12.0420    26.2550   -33.0920     2.1080 
   77.5000    73.9120     7.4080     5.9740    12.3540    26.2650   -32.8610     2.1050 
   77.6250    71.0290     7.5160     6.0940    12.7870    26.2570   -32.6750     2.1030 
   77.7500    71.0490     7.5960     6.2170    13.3950    26.2290   -32.5710     2.1020 
   77.8750    72.0910     7.6310     6.3280    14.0450    26.1680   -32.3990     2.1000 
   78.0000    71.9010     7.6220     6.4160    14.2550    26.0540   -32.1590     2.1030 
   78.1250    70.9370     7.5870     6.4760    13.7440    25.9350   -31.8300     2.1130 
   78.2500    70.0210     7.5690     6.5240    13.1090    25.8570   -31.3290     2.1230 
   78.3750    69.4770     7.5900     6.5660    12.6580    25.8130   -30.6820     2.1290 
   78.5000    69.8750     7.6360     6.5960    12.3020    25.7870   -29.7670     2.1310 
   78.6250    72.2310     7.6340     6.5610    11.9130    25.7740   -28.4580     2.1320 
   78.7500    75.7170     7.4980     6.4130    11.4390    25.7610   -26.8070     2.1290 
   78.8750    78.7710     7.1710     6.1110    10.6650    25.7270   -24.8760     2.1310 
   79.0000    80.8280     6.6600     5.6570     9.5440    25.6910   -22.8030     2.1520 
   79.1250    84.0640     6.0590     5.1140     7.8890    25.7210   -20.7080     2.1970 
   79.2500    89.6810     5.5590     4.6160     6.4500    25.7760   -18.7680     2.2480 
   79.3750    97.1070     5.3460     4.2900     5.5560    25.8120   -17.0300     2.2910 
   79.5000   102.9150     5.6170     4.2660     5.5140    25.7950   -15.4720     2.3190 
   79.6250   101.8100     6.7030     4.7950     6.9040    25.7030   -14.3260     2.3430 
   79.7500    96.5060     8.6510     5.9880    10.6140    25.5740   -13.5560     2.3750 
   79.8750    88.9430    11.4340     7.9600    17.4250    25.4480   -13.2840     2.4230 
   80.0000    79.8670    14.6970    10.6130    26.8270    25.3320   -13.5010     2.4830 
   80.1250    71.6240    17.4970    13.4140    36.2790    25.2250   -14.1220     2.5310 
   80.2500    67.5990    18.8260    15.4210    39.9860    25.1610   -15.0730     2.5300 
   80.3750    67.7630    18.0430    15.8230    34.9420    25.1060   -16.2150     2.4770 
   80.5000    70.1150    15.3610    14.3890    24.3090    25.0230   -17.5720     2.4100 
   80.6250    73.8560    12.0370    11.8190    15.6840    24.8690   -18.9500     2.3550 
   80.7500    76.6780     9.4010     9.4070    11.2230    24.6690   -20.1690     2.2980 
   80.8750    76.8120     7.7370     7.6080     9.7850    24.4790   -21.1410     2.2310 
   81.0000    75.9060     6.8840     6.4530     9.1970    24.3860   -21.7770     2.1680 
   81.1250    77.3380     6.6270     5.8680     8.6280    24.4070   -22.1720     2.1300 
   81.2500    79.8630     6.6340     5.6060     8.2160    24.4620   -22.3270     2.1130 
   81.3750    81.5060     6.7590     5.5440     8.0840    24.5290   -22.3250     2.1110 
   81.5000    82.3580     6.9130     5.5930     8.1950    24.5880   -22.2780     2.1200 
   81.6250    81.9350     7.0500     5.6910     8.3100    24.6510   -22.2790     2.1350 
   81.7500    79.0740     7.1600     5.7960     8.5330    24.6830   -22.4760     2.1460 
   81.8750    74.5270     7.2360     5.8900     8.8260    24.6370   -22.8470     2.1500 
   82.0000    71.6230     7.2830     5.9630     9.1240    24.5800   -23.3700     2.1490 
   82.1250    72.0510     7.3380     6.0250     9.4380    24.5690   -24.0430     2.1490 
   82.2500    73.2040     7.4780     6.1240     9.7220    24.5690   -24.7620     2.1520 
   82.3750    73.9150     7.7920     6.3290    10.1200    24.4900   -25.4900     2.1640 
   82.5000    74.6330     8.3350     6.7000    10.9240    24.2650   -26.1410     2.1890 
   82.6250    74.2390     9.0900     7.2690    12.9440    23.9340   -26.6890     2.2250 
   82.7500    72.0960     9.8390     7.8990    16.1560    23.6590   -27.2030     2.2660 
   82.8750    69.6040    10.3420     8.4130    19.6800    23.5730   -27.6530     2.3080 
   83.0000    68.3890    10.3940     8.6250    22.5600    23.5960   -28.1430     2.3360 
   83.1250    69.0890     9.8560     8.3570    21.9610    23.6230   -28.5770     2.3230 
   83.2500    70.2460     9.0050     7.7620    17.5310    23.6230   -28.9580     2.2760 
   83.3750    70.6720     8.1320     7.0490    13.7590    23.6050   -29.3440     2.2240 
   83.5000    70.7690     7.4680     6.4170    12.3750    23.5940   -29.6870     2.1940 
   83.6250    70.3050     7.1360     6.0100    12.1100    23.6770   -30.0830     2.1860 
   83.7500    67.8650     7.0240     5.7970    11.9890    23.9460   -30.3890     2.1810 
   83.8750    64.4520     7.0310     5.7270    11.8260    24.3720   -30.5820     2.1680 
   84.0000    62.5340     7.0750     5.7380    11.6070    24.8540   -30.6330     2.1460 
   84.1250    63.7650     7.1120     5.7850    11.3250    25.3290   -30.4410     2.1270 
   84.2500    66.5000     7.1530     5.8470    11.0190    25.7540   -30.1240     2.1240 
   84.3750    69.0940     7.2190     5.9310    10.8060    26.0970   -29.5870     2.1340 
   84.5000    69.6500     7.3200     6.0390    10.9480    26.2650   -28.8450     2.1440 
   84.6250    68.4550     7.4310     6.1570    11.2390    26.2470   -27.8810     2.1450 
   84.7500    69.1540     7.4900     6.2380    11.3490    26.1910   -26.6880     2.1430 
   84.8750    71.4080     7.4240     6.2240    11.1940    26.1860   -25.3020     2.1450 
   85.0000    73.0980     7.1780     6.0660    10.7250    26.2320   -23.6880     2.1500 
   85.1250    74.9150     6.7190     5.7220     9.7180    26.3350   -21.8120     2.1600 
   85.2500    78.8480     6.1550     5.2630     8.1940    26.4640   -19.8760     2.1780 
   85.3750    84.3080     5.6060     4.7700     6.4500    26.5780   -18.0720     2.2040 
   85.5000    89.6260     5.1950     4.3370     5.1590    26.6460   -16.5280     2.2290 
   85.6250    93.4460     5.0590     4.0790     4.9280    26.6090   -15.4510     2.2350 
