~V
VERS. 2.00: Ver 2.00
~W
STRT.M 62.0000:
STOP.M 277.0000:
STEP.M 0.1250:
NULL. -999.2500:
UWI. F11155:
~C
DEPT.M :
SP.MV :
DEN.GM/CC :
GR.API :
RML.OHMM :
RI. :
RXO.OHMM :
CALI.CM :
~A
# ...
  208.2500   -28.5110     2.0200    80.3900     5.6330     5.7480     4.5830    24.3130 
  208.3750   -28.4420     1.8620    74.2570     4.8970     4.9160     4.2170    24.9840 
  208.5000   -28.4380     1.7870    69.7350     4.6630     4.5210     4.2980    25.6390 
  208.6250   -28.5280     1.7940    65.5240     4.7930     4.5000     4.5100    25.6250 
  208.7500   -28.7250     1.8690    64.1340     5.1760     4.7890     4.9030    24.4760 
  208.8750   -29.0010     1.9850    67.3760     5.6240     5.2100     5.6600    22.4990 
  209.0000   -29.3360     2.1190    74.1910     6.0170     5.6430     6.8180    20.8040 
  209.1250   -29.6870     2.2350    82.4450     6.2750     5.9870     8.2260    20.7270 
  209.2500   -29.9790     2.3030    89.4230     6.3370     6.1590     7.0410    22.2660 
  209.3750   -30.1670     2.3390    90.9200     6.2520     6.1820     6.1730    24.0010 
  209.5000   -30.1850     2.3520    88.8830     6.0550     6.0770     5.9430    24.9290 
  209.6250   -30.0110     2.3410    88.7250     5.7830     5.8730     6.1100    25.0970 
  209.7500   -29.6570     2.3030    90.9100     5.4850     5.5980     5.9330    25.2470 
  209.8750   -29.2080     2.2400    88.3190     5.2050     5.3060     5.3510    26.0840 
  210.0000   -28.7180     2.1540    78.8790     4.9800     5.0390     4.5740    27.4620 
  210.1250   -28.2160     2.0580    70.2020     4.8370     4.8340     4.2300    28.6490 
  210.2500   -27.7540     1.9670    67.8320     4.7970     4.7320     4.4170    29.1050 
  210.3750   -27.3590     1.8910    66.4670     4.8270     4.7140     4.5080    28.7650 
  210.5000   -27.0420     1.8450    67.3300     4.8960     4.7510     4.4670    28.0030 
  210.6250   -26.7820     1.8480    74.1160     4.9690     4.8090     4.4470    27.0270 
  210.7500   -26.5290     1.9160    83.2600     5.0300     4.8580     4.4150    26.0100 
  210.8750   -26.1900     2.0330    87.5280     5.0940     4.8990     4.4130    25.0810 
  211.0000   -25.6960     2.1670    86.9940     5.2100     4.9610     4.6300    24.7960 
  211.1250   -25.0610     2.2680    84.8860     5.4380     5.0970     5.1080    24.9080 
  211.2500   -24.2960     2.3020    81.0520     5.8510     5.3860     5.9530    25.0310 
  211.3750   -23.4440     2.3140    78.7450     6.4190     5.8190     6.8610    25.0530 
  211.5000   -22.5580     2.3310    80.5180     7.0890     6.3640     7.7720    25.0860 
  211.6250   -21.7100     2.3470    83.5750     7.8210     6.9840     9.1870    25.1410 
  211.7500   -20.9330     2.3440    84.6140     8.6690     7.6870    10.7700    25.1680 
  211.8750   -20.2730     2.3300    85.7320     9.7620     8.5410    11.5150    25.1690 
  212.0000   -19.7590     2.3150    85.8860    11.2720     9.6790    12.2400    25.1510 
  212.1250   -19.3790     2.3040    81.9560    13.2540    11.2120    14.4650    25.1340 
  212.2500   -19.1180     2.2950    76.6170    15.4510    13.1050    20.8280    25.1020 
  212.3750   -18.9330     2.2920    74.7990    17.1390    14.8550    26.5070    25.0690 
  212.5000   -18.8030     2.2980    74.7580    17.6500    15.8470    27.2350    25.0390 
  212.6250   -18.7190     2.3090    73.1530    16.8220    15.7180    23.7280    25.0260 
  212.7500   -18.7010     2.3190    74.5060    15.1950    14.6480    17.0190    25.0250 
  212.8750   -18.7160     2.3230    79.3880    13.7440    13.4470    14.4680    25.0250 
  213.0000   -18.7820     2.3210    81.5800    12.8820    12.5450    14.7670    25.0230 
  213.1250   -18.8720     2.3200    79.0310    12.7030    12.1430    16.4300    24.9970 
  213.2500   -18.9760     2.3260    76.7730    13.2650    12.4080    18.8290    24.9310 
  213.3750   -19.1040     2.3370    76.5650    14.4330    13.2890    18.2550    24.8560 
  213.5000   -19.2500     2.3510    74.7670    16.2000    14.8380    18.1880    24.8240 
  213.6250   -19.4030     2.3650    70.5820    21.7990    17.0480    23.7360    24.8120 
  213.7500   -19.5590     2.3740    67.5020    24.8190    19.8200    36.2770    24.8320 
  213.8750   -19.7230     2.3690    64.9490    27.8390    22.7950    37.0010    24.9150 
  214.0000   -19.8790     2.3450    62.6340    30.8780    25.8590    33.6850    25.0630 
  214.1250   -20.0500     2.3060    63.2210    34.2570    29.1580    35.6750    25.2210 
  214.2500   -20.2470     2.2650    66.5900    38.5520    33.1830    36.4290    25.3720 
  214.3750   -20.4310     2.2310    68.5550    43.5990    38.0420    48.9670    25.4550 
  214.5000   -20.5930     2.2030    67.7790    48.3740    43.1100    79.5820    25.4920 
  214.6250   -20.7210     2.1830    66.8680    50.7970    46.6000   108.0690    25.4720 
  214.7500   -20.7900     2.1790    68.6620    48.1110    45.5770    72.3590    25.3820 
  214.8750   -20.8280     2.1950    70.9970    41.6750    40.5130    41.4930    25.2280 
  215.0000   -20.8710     2.2260    71.9370    33.9940    33.4610    27.7420    25.1030 
  215.1250   -20.9040     2.2600    71.2650    27.3420    26.7580    23.0320    25.0560 
  215.2500   -20.9300     2.2800    70.9030    23.2470    22.1590    20.0140    25.0920 
  215.3750   -20.9750     2.2860    72.2100    21.5430    19.6590    17.0900    25.1100 
  215.5000   -21.0460     2.2840    73.7340    22.2890    19.1890    14.5300    25.1040 
  215.6250   -21.1790     2.2800    73.9160    25.7610    20.9020    13.9950    25.1030 
  215.7500   -21.4140     2.2700    69.7370    33.0900    25.9550    19.7890    25.1760 
  215.8750   -21.7190     2.2510    63.4020    44.3950    34.8580    35.8430    25.3360 
  216.0000   -22.0570     2.2240    59.3820    59.7780    48.0360    72.6300    25.5400 
  216.1250   -22.4120     2.1960    60.2720    77.8170    64.3300   108.3450    25.7660 
  216.2500   -22.7860     2.1780    64.7260    93.7560    79.5030   101.4360    25.9940 
  216.3750   -23.1600     2.1710    65.5500   103.7570    89.6390    82.8060    26.1910 
  216.5000   -23.5290     2.1710    63.2690   108.7970    94.8450    78.0450    26.3040 
  216.6250   -23.8650     2.1730    62.3680   112.8690    98.1730    84.0120    26.4180 
  216.7500   -24.1360     2.1670    63.9860   119.4050   102.8420    94.7040    26.5940 
  216.8750   -24.3470     2.1500    63.7520   128.0070   109.2000   109.9760    26.7900 
  217.0000   -24.5210     2.1260    62.6290   136.7800   115.9900   125.3610    27.0060 
  217.1250   -24.6830     2.1020    63.2920   143.3520   121.4160   131.7190    27.2700 
  217.2500   -24.8090     2.0800    63.5770   145.2230   123.4560   126.9230    27.3850 
  217.3750   -24.9210     2.0650    62.1010   143.1220   122.3760   125.5110    27.0410 
  217.5000   -25.0140     2.0650    61.4920   138.5140   119.1160   122.5030    26.3110 
  217.6250   -25.0850     2.0830    61.2320   133.1860   115.0520   122.0240    25.7220 
  217.7500   -25.1370     2.1110    58.5470   128.8010   111.6000   114.0140    25.4950 
  217.8750   -25.1800     2.1340    56.2590   125.9430   109.3920   111.6520    25.4090 
  218.0000   -25.2040     2.1450    55.9380   124.6610   108.5600   111.8430    25.3370 
  218.1250   -25.1950     2.1490    55.1710   124.7190   108.9530   115.2520    25.2870 
  218.2500   -25.1620     2.1480    53.2230   125.7550   110.3300   120.7170    25.2830 
  218.3750   -25.1040     2.1380    54.9290   127.0370   112.0380   123.2360    25.2950 
  218.5000   -25.0180     2.1220    59.7300   128.0800   113.6080   121.7150    25.2850 
  218.6250   -24.9270     2.1090    63.3880   128.5420   114.6940   120.8420    25.2550 
  218.7500   -24.8600     2.1080    63.9290   128.1870   115.0590   123.0150    25.2400 
  218.8750   -24.8440     2.1140    62.2240   127.2080   114.8990   124.4830    25.2360 
  219.0000   -24.8610     2.1210    59.4090   125.8010   114.4130   122.5700    25.2330 
  219.1250   -24.9080     2.1280    56.8710   124.2020   113.8240   119.1490    25.2220 
  219.2500   -24.9970     2.1360    57.3100   122.6250   113.3450   117.1550    25.1990 
  219.3750   -25.1160     2.1440    59.2900   121.2110   113.0580   117.5830    25.1790 
