~V
VERS. 2.00: Ver 2.00
~W
STRT.M 52.0000:
STOP.M 239.0000:
STEP.M 0.1250:
NULL. -999.2500:
UWI. F11118:
~C
DEPT.M :
DEN.GM/CC :
GR.API :
RML.OHMM :
RI. :
RXO.OHMM :
CALI.CM :
SP.MV :
~A
# ...
  119.5000     2.3350    59.2690    17.4600    14.8970    17.6690    25.1080   -19.9150 
  119.6250     2.3930    57.1660    18.9010    16.4630    20.0190    25.9880   -19.9240 
  119.7500     2.4250    58.5610    19.3270    17.2740    23.4520    26.3290   -19.9170 
  119.8750     2.4230    58.4380    18.4810    16.9960    24.0220    26.1020   -19.8880 
  120.0000     2.3900    56.7130    16.6350    15.7720    18.2280    25.2280   -19.8340 
  120.1250     2.3330    58.1630    14.5590    14.1650    12.9640    24.7750   -19.7590 
  120.2500     2.2810    61.8270    13.0000    12.8040    11.0000    24.8700   -19.6480 
  120.3750     2.2520    65.0930    12.2280    11.9490    10.6480    25.3630   -19.4670 
  120.5000     2.2620    66.5850    12.2570    11.7040    10.8610    25.8630   -19.2230 
  120.6250     2.3180    66.2440    13.0540    12.1890    11.7740    26.0690   -18.8730 
  120.7500     2.3970    62.9750    14.2860    13.2420    12.9410    26.2460   -18.4530 
  120.8750     2.4760    55.4600    15.6510    14.6950    13.8110    26.3960   -17.9690 
  121.0000     2.5310    47.2450    16.6840    16.1450    15.3480    26.4680   -17.4520 
  121.1250     2.5450    44.5410    16.5540    16.6540    17.0410    26.7060   -16.9080 
  121.2500     2.5250    46.5250    15.0200    15.6770    18.9310    26.8790   -16.3860 
  121.3750     2.4830    50.6820    12.4120    13.3860    17.8470    26.9410   -15.9190 
  121.5000     2.4290    59.0680     9.6360    10.6460    13.1200    26.7770   -15.5090 
  121.6250     2.3800    73.2070     7.6900     8.4800     8.4900    26.6160   -15.2080 
  121.7500     2.3500    84.3310     6.7820     7.2080     6.4670    26.5570   -14.9840 
  121.8750     2.3490    85.0870     6.9460     6.8840     6.3660    26.5850   -14.8230 
  122.0000     2.3800    76.9380     8.2080     7.5450     7.9390    26.7990   -14.7210 
  122.1250     2.4330    66.0020    12.0870     9.4740    12.1780    26.9760   -14.6560 
  122.2500     2.4880    55.8050    16.0340    12.5090    18.9260    27.1180   -14.6160 
  122.3750     2.5310    49.0290    20.2900    16.2690    24.2580    27.1620   -14.5900 
  122.5000     2.5550    46.0400    23.6020    19.8040    26.0700    27.1870   -14.5790 
  122.6250     2.5640    44.5500    24.6260    21.7230    24.8460    27.1990   -14.5740 
  122.7500     2.5670    44.1160    24.0620    22.0670    24.4570    27.1770   -14.5780 
  122.8750     2.5680    46.3940    22.9370    21.4650    24.0610    27.1370   -14.5870 
  123.0000     2.5670    50.1940    22.0000    20.5710    21.5550    27.0800   -14.6080 
  123.1250     2.5630    49.2320    21.6040    19.7970    20.2070    27.0820   -14.6170 
  123.2500     2.5550    44.6720    21.6290    19.2890    19.0130    27.1140   -14.6350 
  123.3750     2.5460    42.1580    21.9720    19.1040    18.5090    27.1440   -14.6480 
  123.5000     2.5370    44.3910    22.5430    19.2360    18.3850    27.1530   -14.6560 
  123.6250     2.5350    49.0330    23.2410    19.6780    19.0220    27.1530   -14.6540 
  123.7500     2.5360    50.9880    23.9090    20.2820    20.0690    27.1400   -14.6460 
  123.8750     2.5380    49.1250    24.4770    20.9410    20.9970    27.0680   -14.6150 
  124.0000     2.5370    45.5960    24.9450    21.5600    22.0230    26.9720   -14.5570 
  124.1250     2.5310    43.7130    25.3050    22.0410    22.4970    26.9500   -14.5060 
  124.2500     2.5210    44.7620    25.5680    22.3810    23.4410    26.9910   -14.4460 
  124.3750     2.5110    47.6390    25.7790    22.6280    24.9900    27.0360   -14.3960 
  124.5000     2.5050    50.1430    26.0320    22.8740    26.7300    27.0990   -14.3420 
  124.6250     2.5070    49.4150    26.4800    23.2690    25.9970    27.0450   -14.3000 
  124.7500     2.5140    46.8300    27.1760    23.8720    26.1120    27.0620   -14.2770 
  124.8750     2.5270    45.9220    28.0630    24.6680    27.6060    27.1320   -14.2950 
  125.0000     2.5410    46.9390    28.9360    25.5340    29.4600    27.1010   -14.3280 
  125.1250     2.5460    44.9290    29.3730    26.1200    31.3770    27.0670   -14.4040 
  125.2500     2.5350    41.7260    29.1610    26.1360    31.0320    27.1030   -14.4930 
  125.3750     2.5080    42.9330    28.3210    25.5150    30.3360    27.1330   -14.5900 
  125.5000     2.4710    49.0040    27.1200    24.4720    27.7590    27.0860   -14.6990 
  125.6250     2.4410    52.2130    25.9850    23.4250    23.1050    26.9740   -14.8040 
  125.7500     2.4270    51.5440    25.1710    22.6800    20.0310    26.8840   -14.9030 
  125.8750     2.4290    51.4170    24.7140    22.2860    19.8110    26.8890   -14.9790 
  126.0000     2.4400    52.1180    24.5250    22.1520    21.6040    26.9180   -15.0460 
  126.1250     2.4480    51.2900    24.4980    22.1120    23.0120    26.9020   -15.0730 
  126.2500     2.4470    52.6020    24.5380    22.0450    22.2850    26.9370   -15.0850 
  126.3750     2.4420    57.2680    24.6270    21.9740    20.8190    26.9860   -15.0740 
  126.5000     2.4380    58.8310    24.7590    21.9780    20.3750    27.0400   -15.0570 
  126.6250     2.4380    55.2100    24.9350    22.1540    21.2140    27.0860   -15.0260 
  126.7500     2.4390    53.2910    25.1080    22.4660    22.2210    27.1870   -14.9890 
  126.8750     2.4370    52.7530    25.2120    22.8130    23.2620    27.3390   -14.9340 
  127.0000     2.4320    50.1660    25.1770    23.0610    23.3520    27.4290   -14.8790 
  127.1250     2.4240    46.1190    24.9510    23.0780    23.6600    27.5440   -14.8080 
  127.2500     2.4150    45.1990    24.5810    22.9260    23.5790    27.5540   -14.7380 
  127.3750     2.4070    46.5500    24.1390    22.6970    23.3770    27.5040   -14.6670 
  127.5000     2.4030    47.9380    23.7420    22.4650    23.3550    27.4520   -14.6030 
  127.6250     2.4070    47.7950    23.5440    22.2680    22.7030    27.4050   -14.5540 
  127.7500     2.4190    46.3580    23.5550    22.1070    22.7770    27.3990   -14.4980 
  127.8750     2.4350    46.0220    23.7140    21.9970    23.3800    27.4050   -14.4570 
  128.0000     2.4490    48.0730    23.9130    21.9650    24.2980    27.4480   -14.4430 
  128.1250     2.4560    49.9590    24.0180    22.0220    23.4320    27.4890   -14.4580 
  128.2500     2.4580    49.7580    24.0030    22.1090    22.2960    27.5620   -14.4820 
  128.3750     2.4580    47.7200    23.9220    22.1720    22.4600    27.7350   -14.5150 
  128.5000     2.4590    46.8040    23.8320    22.1530    23.8810    27.8250   -14.5330 
  128.6250     2.4610    48.3850    23.7630    22.0100    25.2760    27.9060   -14.5530 
  128.7500     2.4640    51.2230    23.7280    21.8210    25.5140    28.0430   -14.5720 
  128.8750     2.4680    53.6380    23.7570    21.6900    24.6030    28.0380   -14.6100 
  129.0000     2.4740    53.9380    23.9060    21.7170    23.1080    27.9960   -14.6230 
  129.1250     2.4810    52.8320    24.2480    21.9860    22.4270    27.9580   -14.6430 
  129.2500     2.4850    51.6430    24.6880    22.3690    23.2130    27.9170   -14.6500 
  129.3750     2.4860    51.4140    24.9930    22.6360    25.3580    27.8380   -14.6530 
  129.5000     2.4840    52.3720    24.8720    22.5450    26.1310    27.7760   -14.6590 
  129.6250     2.4800    52.9310    24.1120    21.9630    24.8860    27.7320   -14.6720 
  129.7500     2.4760    52.2610    23.0450    21.1760    22.3850    27.6520   -14.6860 
  129.8750     2.4720    51.2730    22.0900    20.4750    20.6090    27.5120   -14.6940 
  130.0000     2.4700    52.3660    21.6240    20.1090    19.9820    27.4350   -14.7060 
  130.1250     2.4700    54.1840    21.9360    20.2760    20.5010    27.5140   -14.6970 
  130.2500     2.4730    53.7200    22.7860    20.8490    21.5590    27.5340   -14.6960 
  130.3750     2.4750    51.2130    23.8580    21.6720    22.3120    27.4790   -14.7140 
  130.5000     2.4740    48.2020    24.7870    22.5430    23.2590    27.2020   -14.7660 
  130.6250     2.4700    48.0760    25.2070    23.1690    23.8260    27.2270   -14.8150 
