~V
VERS. 2.00: Ver 2.00
~W
STRT.M 53.0000:
STOP.M 252.0000:
STEP.M 0.1250:
NULL. -999.2500:
UWI. F11141:
~C
DEPT.M :
SP.MV :
DEN.GM/CC :
GR.API :
RML.OHMM :
RI. :
RXO.OHMM :
CALI.CM :
~A
# ...
  188.0000   -27.6120     2.2230    64.5850   100.3280    88.8080   112.8630    24.4400 
  188.1250   -27.7140     2.2320    63.1530    80.8710    72.7260    83.5920    24.3370 
  188.2500   -27.7620     2.2300    65.8850    67.3240    60.6390    46.5450    24.2820 
  188.3750   -27.8040     2.2150    73.2600    61.0020    54.2270    30.0890    24.2770 
  188.5000   -27.8320     2.1940    79.5020    61.2390    53.2830    31.8350    24.2900 
  188.6250   -27.8260     2.1780    77.4020    66.2510    56.7330    57.1430    24.3930 
  188.7500   -27.8930     2.1750    71.3530    70.9990    60.6610   101.4750    24.4190 
  188.8750   -28.0200     2.1860    69.2640    70.8100    61.1740   143.2200    24.3760 
  189.0000   -28.1550     2.2050    71.1050    63.3920    55.9030   136.1940    24.3950 
  189.1250   -28.4360     2.2220    70.9510    51.2040    46.2510    87.5960    24.6040 
  189.2500   -28.7410     2.2360    69.5550    40.0430    36.9830    52.1760    24.7420 
  189.3750   -28.9820     2.2480    70.6210    32.0900    30.0780    36.0460    24.7220 
  189.5000   -29.2420     2.2620    76.8650    27.3340    25.7120    31.9510    24.6370 
  189.6250   -29.4620     2.2780    84.4210    25.2200    23.5740    31.9780    24.4740 
  189.7500   -29.4920     2.2890    87.3510    24.6010    22.8060    26.9470    24.2680 
  189.8750   -29.4310     2.2910    85.5700    25.1230    23.1460    22.3830    24.2220 
  190.0000   -29.4310     2.2840    80.6250    26.6490    24.4560    18.3240    24.2440 
  190.1250   -29.3910     2.2740    75.7640    29.3150    26.8150    20.6270    24.1100 
  190.2500   -29.2390     2.2650    72.5950    32.7360    29.9320    31.9180    24.0990 
  190.3750   -29.0910     2.2610    71.9590    36.2900    33.3570    44.3950    24.2110 
  190.5000   -28.9920     2.2610    73.1680    39.0390    36.2710    43.9730    24.3470 
  190.6250   -28.8670     2.2620    73.5750    39.8420    37.4720    34.8120    24.4120 
  190.7500   -28.7470     2.2640    73.9290    38.9050    36.9030    33.8710    24.4600 
  190.8750   -28.6930     2.2620    74.5930    36.9160    35.0880    34.7190    24.5010 
  191.0000   -28.6190     2.2570    75.0760    34.8120    32.9060    32.3490    24.5030 
  191.1250   -28.3900     2.2470    76.2090    33.3630    31.1680    29.5290    24.4220 
  191.2500   -28.1460     2.2370    76.3930    32.5820    30.0240    27.8790    24.3030 
  191.3750   -27.9620     2.2320    74.4280    32.2870    29.3790    29.2150    24.1750 
  191.5000   -27.8320     2.2360    72.6340    32.2090    29.0410    31.8280    24.0510 
  191.6250   -27.7330     2.2450    75.7990    32.0780    28.8010    32.2490    23.8980 
  191.7500   -27.6700     2.2520    84.2030    31.9180    28.5880    29.5730    23.7910 
  191.8750   -27.5990     2.2550    91.1190    32.0640    28.5820    26.3200    23.8720 
  192.0000   -27.5760     2.2550    89.9750    32.9380    29.0660    24.5210    24.1430 
  192.1250   -27.7300     2.2570    81.5190    34.9450    30.3960    24.5850    24.5140 
  192.2500   -27.9170     2.2620    75.2050    37.7370    32.4160    29.8690    24.8170 
  192.3750   -28.0910     2.2670    74.2600    40.8060    34.8110    36.6420    24.8860 
  192.5000   -28.2350     2.2710    74.2860    43.6100    37.1370    39.8040    24.8330 
  192.6250   -28.3810     2.2710    73.5250    45.9150    39.0450    38.8950    24.8530 
  192.7500   -28.5980     2.2690    76.1820    48.2280    40.7610    38.2990    24.8830 
  192.8750   -28.9060     2.2640    80.2680    51.2020    42.7350    39.3580    24.8400 
  193.0000   -29.1750     2.2570    79.0830    49.3500    45.4760    43.8860    24.6550 
  193.1250   -29.3230     2.2480    72.9100    54.6260    49.5620    50.0840    24.4300 
  193.2500   -29.5470     2.2390    69.3560    61.0280    54.7970    59.5720    24.2440 
  193.3750   -29.7900     2.2310    69.8890    68.0900    60.8220    68.8760    24.0990 
  193.5000   -29.9250     2.2260    71.9860    75.2330    67.0770    76.4670    23.9310 
  193.6250   -30.0220     2.2220    73.6520    81.7730    72.8650    82.2210    23.8400 
  193.7500   -30.1270     2.2190    74.1870    87.4320    77.8740    86.6700    23.9220 
  193.8750   -30.1860     2.2150    73.6660    92.1690    82.0710    93.2190    24.0540 
  194.0000   -30.2060     2.2100    74.6870    96.1230    85.6080   101.1330    24.1230 
  194.1250   -30.2610     2.2060    77.2860    99.4270    88.6400   104.7630    24.1430 
  194.2500   -30.3590     2.2050    77.8520   102.3800    91.4310   104.5530    24.1990 
  194.3750   -30.4790     2.2070    76.7820   105.0000    94.0200   103.6320    24.2920 
  194.5000   -30.6400     2.2130    75.0310   106.9830    96.2010   105.0160    24.3760 
  194.6250   -30.8170     2.2200    72.2370   107.1660    97.0470   109.9960    24.4940 
  194.7500   -30.9420     2.2260    71.5560   104.7790    95.7870   111.5980    24.5880 
  194.8750   -31.0120     2.2310    72.8620    99.7390    92.1330   104.5110    24.6220 
  195.0000   -31.0850     2.2360    72.3690    93.1170    86.7540    89.5430    24.6330 
  195.1250   -31.1710     2.2400    68.9520    86.6840    80.9950    74.7720    24.6720 
  195.2500   -31.2530     2.2410    67.8310    81.3970    75.8810    61.4580    24.7210 
  195.3750   -31.2990     2.2380    68.7670    77.0460    71.4230    51.0900    24.7370 
  195.5000   -31.3170     2.2330    66.8280    72.8820    67.1310    49.5670    24.7540 
  195.6250   -31.3480     2.2330    63.6260    68.3820    62.6550    50.7630    24.7640 
  195.7500   -31.4150     2.2390    64.0920    64.2060    58.5410    48.2660    24.7350 
  195.8750   -31.4590     2.2480    67.3700    61.5640    55.7990    37.8850    24.6510 
  196.0000   -31.5060     2.2520    70.7830    61.6420    55.4420    30.5070    24.5190 
  196.1250   -31.6210     2.2450    71.3760    65.8390    58.8190    33.1790    24.3270 
  196.2500   -31.6220     2.2300    68.6910    73.5140    65.5220    49.2970    24.2500 
  196.3750   -31.5280     2.2130    65.0430    83.5220    74.6510    83.2850    24.3160 
  196.5000   -31.4700     2.2000    64.3060    93.7160    84.3670   109.6840    24.4610 
  196.6250   -31.4150     2.1970    66.9110   101.1900    92.1680    91.6260    24.5270 
  196.7500   -31.2040     2.2140    66.9420   104.9030    96.9450    85.8530    24.5540 
  196.8750   -30.8700     2.2600    63.0380   103.7380    97.5900    89.5560    24.5600 
  197.0000   -30.4750     2.3370    59.0900    95.8370    92.2620    93.0660    24.5420 
  197.1250   -29.9330     2.4240    57.4550    79.5040    78.5590    92.9390    24.4430 
  197.2500   -29.2940     2.4880    57.8950    59.8650    60.3690    83.5570    24.2810 
  197.3750   -28.6540     2.5130    62.5220    42.0180    42.7540    48.0270    24.1910 
  197.5000   -28.0090     2.5000    70.4120    28.8360    29.3870    20.7470    24.2240 
  197.6250   -27.3350     2.4670    78.1970    21.1520    21.5880    13.2110    24.2610 
  197.7500   -26.6970     2.4360    86.0800    16.9010    17.2080    11.0210    24.2080 
  197.8750   -26.2510     2.4140    96.0730    14.9630    15.0280    10.5480    24.1310 
  198.0000   -26.0130     2.3970   103.9620    14.4800    14.2410    10.5680    24.1580 
  198.1250   -25.9630     2.3820   104.0960    14.8450    14.4000    10.9810    24.3270 
  198.2500   -26.0130     2.3680    99.7260    15.4250    14.9200    11.3340    24.4260 
  198.3750   -26.1410     2.3550    92.8240    16.0100    15.5440    11.4110    24.4160 
  198.5000   -26.3300     2.3460    86.1100    16.5980    16.1840    12.0300    24.3740 
  198.6250   -26.5520     2.3440    85.3620    17.3970    16.9430    13.1720    24.2770 
  198.7500   -26.8070     2.3520    88.7240    18.6850    18.0240    14.3470    24.2370 
  198.8750   -27.0430     2.3740    89.8570    20.7690    19.6670    15.9160    24.3040 
  199.0000   -27.1850     2.4100    86.1060    23.8170    22.0470    18.8520    24.3740 
  199.1250   -27.1190     2.4580    80.1220    27.5900    25.0710    23.6850    24.3460 
