~V
VERS. 2.00: Ver 2.00
~W
STRT.M 50.0000:
STOP.M 245.0000:
STEP.M 0.1250:
NULL. -999.2500:
UWI. F11135:
~C
DEPT.M :
GR.API :
RML.OHMM :
RI. :
RXO.OHMM :
CALI.CM :
SP.MV :
DEN.GM/CC :
~A
# ...
  185.0000    64.5670    15.2330    13.8480    12.8360    24.3880   -29.1400     2.3980 
  185.1250    62.5940    18.1490    16.4990    16.0480    24.7640   -29.5470     2.4010 
  185.2500    60.1970    22.1560    20.1420    22.0140    25.0820   -29.9480     2.3970 
  185.3750    57.6670    31.1370    24.6420    27.8510    25.1970   -30.3630     2.3830 
  185.5000    57.2800    38.3280    29.6340    35.5010    25.2130   -30.7680     2.3600 
  185.6250    57.6080    43.8380    34.5310    40.6760    25.1990   -31.1710     2.3310 
  185.7500    55.9000    48.8720    39.0090    41.9700    25.1760   -31.5370     2.3010 
  185.8750    53.7090    53.9090    43.2350    43.1580    25.1460   -31.8520     2.2760 
  186.0000    52.5520    59.4720    47.5820    49.5060    25.1230   -32.1280     2.2580 
  186.1250    50.9080    65.7610    52.3160    56.6150    25.0790   -32.3890     2.2470 
  186.2500    50.0620    72.1470    57.1630    62.4330    25.0560   -32.6370     2.2410 
  186.3750    53.3200    77.9020    61.6390    66.2460    25.0520   -32.8670     2.2350 
  186.5000    58.6460    82.4020    65.2280    70.7270    25.0520   -33.0970     2.2280 
  186.6250    58.6610    85.2890    67.5900    72.2210    25.0510   -33.3170     2.2220 
  186.7500    52.5280    87.2690    69.2270    70.1250    25.0450   -33.5450     2.2170 
  186.8750    46.2400    88.8490    70.5230    66.6430    25.0360   -33.7920     2.2140 
  187.0000    44.6620    90.4790    71.8040    63.6040    25.0410   -34.0790     2.2110 
  187.1250    46.3230    92.9370    73.6160    67.7660    25.0490   -34.3460     2.2080 
  187.2500    47.5520    96.8830    76.4880    70.8790    25.0460   -34.6150     2.2040 
  187.3750    47.7500   102.9250    80.9230    69.6920    25.0410   -34.8670     2.2010 
  187.5000    48.2860   111.4320    87.3370    69.8590    25.0400   -35.1150     2.1990 
  187.6250    51.0990   122.5580    96.1930    80.0530    25.0340   -35.3330     2.1990 
  187.7500    53.4460   134.6940   106.4350   106.8630    25.0360   -35.5510     2.1970 
  187.8750    52.4570   146.0310   116.6980   126.1750    25.0380   -35.7690     2.1950 
  188.0000    48.9450   154.9800   125.5430   123.6700    25.0400   -35.9500     2.1920 
  188.1250    48.6620   160.9280   132.0590   118.7680    25.0410   -36.1330     2.1900 
  188.2500    51.0780   166.1020   137.6360   120.3310    25.0410   -36.3310     2.1880 
  188.3750    50.9510   172.8320   144.1760   119.4630    25.0410   -36.5380     2.1860 
  188.5000    47.3480   182.7060   153.3940   119.3860    25.0410   -36.7180     2.1850 
  188.6250    44.7550   195.3340   165.7880   134.0590    25.0410   -36.8990     2.1850 
  188.7500    44.8320   206.0480   177.9700   154.4470    25.0410   -37.0470     2.1860 
  188.8750    46.2830   208.7320   185.0450   163.3570    25.0380   -37.1720     2.1870 
  189.0000    47.4620   198.1930   181.9250   158.4100    25.0200   -37.2840     2.1870 
  189.1250    47.2130   173.1630   164.9360   145.3600    24.9630   -37.3830     2.1840 
  189.2500    47.6400   143.6690   140.8210   121.7260    24.9040   -37.4270     2.1770 
  189.3750    50.4810   117.2970   116.4450    94.6990    24.8860   -37.4530     2.1710 
  189.5000    55.3720    98.1470    96.8870    74.0800    24.8600   -37.4850     2.1700 
  189.6250    58.1780    88.3850    85.4310    62.7460    24.7610   -37.5120     2.1770 
  189.7500    55.8000    85.9500    80.9250    57.5780    24.6300   -37.5510     2.1900 
  189.8750    50.2270    90.1140    82.9380    57.8480    24.6040   -37.6000     2.2060 
  190.0000    45.8510   100.2880    91.0610    67.0130    24.6880   -37.6480     2.2170 
  190.1250    46.0610   116.4370   105.4050    86.6620    25.0510   -37.6980     2.2200 
  190.2500    50.1550   135.9950   123.3680   110.1690    25.1160   -37.7760     2.2150 
  190.3750    53.3660   168.4620   142.4060   121.7560    25.1600   -37.8490     2.2060 
  190.5000    51.6990   192.4420   159.7880   123.8750    25.2940   -37.9220     2.1940 
  190.6250    47.1780   208.4210   173.3840   130.3320    25.3540   -37.9840     2.1820 
  190.7500    46.1730   221.7320   184.4480   137.9700    25.3650   -38.0520     2.1730 
  190.8750    48.0650   234.3550   194.6200   145.5130    25.3580   -38.1160     2.1720 
  191.0000    47.6830   247.4290   205.0230   156.1710    25.3000   -38.1770     2.1840 
  191.1250    44.8720   260.5250   215.5410   167.8170    25.2690   -38.2300     2.2220 
  191.2500    44.1130   271.9370   224.9660   180.6770    25.2230   -38.2620     2.2780 
  191.3750    43.6670   279.9410   232.1380   192.9400    25.2160   -38.2930     2.3260 
  191.5000    42.0580   283.3780   236.3030   199.5140    25.2150   -38.3100     2.3290 
  191.6250    42.2460   281.5500   236.9710   199.7590    25.2150   -38.3380     2.2780 
  191.7500    44.2340   276.5860   235.5200   197.6070    25.2150   -38.3430     2.2070 
  191.8750    44.9650   269.9960   232.9580   195.8910    25.2150   -38.3330     2.1470 
  192.0000    44.3000   262.5740   229.8870   194.3680    25.2150   -38.3150     2.1190 
  192.1250    46.5490   253.5420   225.8500   188.7750    25.2150   -38.3010     2.1330 
  192.2500    49.1320   241.4740   219.5910   187.5360    25.2150   -38.2770     2.1620 
  192.3750    47.7660   224.9950   209.5000   192.8520    25.2150   -38.2450     2.1820 
  192.5000    46.2230   203.9900   194.6880   188.5540    25.2140   -38.2280     2.1920 
  192.6250    48.4280   179.9760   175.4630   168.1950    25.2090   -38.1940     2.1990 
  192.7500    49.9350   156.6450   155.1480   143.5740    25.2140   -38.1660     2.2030 
  192.8750    48.5330   136.6100   136.4610   121.4390    25.2140   -38.1340     2.2030 
  193.0000    47.9680   121.3820   121.3970   101.7110    25.2080   -38.0990     2.2000 
  193.1250    50.2080   112.1010   111.6180    85.5200    25.2140   -38.0310     2.1970 
  193.2500    52.1920   107.2490   106.1390    78.2800    25.2150   -37.9850     2.1980 
  193.3750    53.9560   105.8210   104.1380    79.0060    25.2150   -37.9440     2.2020 
  193.5000    54.9590   106.6670   104.5280    84.7380    25.2150   -37.9080     2.2080 
  193.6250    52.6190   108.7460   106.2670    87.1910    25.2140   -37.8860     2.2110 
  193.7500    48.8300   111.1540   108.3830    87.8870    25.2040   -37.8740     2.2090 
  193.8750    47.5750   113.9260   110.8550    90.6740    25.1280   -37.8660     2.2020 
  194.0000    49.3500   117.5860   114.1780    93.0080    24.9560   -37.8760     2.1900 
  194.1250    49.8320   122.9040   119.1840    96.0720    24.4880   -37.9230     2.1790 
  194.2500    47.0080   129.3040   125.4330   107.4110    24.1320   -37.9860     2.1750 
  194.3750    43.3750   135.5200   131.8040   124.1420    24.0490   -38.0570     2.1780 
  194.5000    42.4160   139.9590   136.7820   143.1030    24.0370   -38.1010     2.1840 
  194.6250    43.6980   140.8990   138.6930   152.1010    24.0370   -38.1210     2.1900 
  194.7500    42.9570   138.1350   137.3290   133.2520    24.0260   -38.1030     2.1950 
  194.8750    40.5110   130.7280   131.8210   108.9960    23.9680   -38.0590     2.2080 
  195.0000    40.7660   117.7490   120.9850   102.8660    23.7830   -37.9590     2.2320 
  195.1250    44.1570    99.5180   104.2010   111.2640    23.6630   -37.8290     2.2690 
  195.2500    46.4720    80.4420    85.2820   118.8590    23.6140   -37.6510     2.3020 
  195.3750    47.4620    63.9680    67.8400    95.0680    23.5770   -37.4670     2.3190 
  195.5000    49.0550    52.0170    54.3990    56.0030    23.5690   -37.3050     2.3090 
  195.6250    51.8320    45.6780    46.5260    37.3220    23.5780   -37.1640     2.2740 
  195.7500    52.3380    43.6300    42.9810    33.0010    23.6190   -37.0300     2.2370 
  195.8750    51.0940    45.5060    43.3300    34.1440    23.6920   -36.9140     2.2140 
  196.0000    50.1900    51.0980    47.4170    36.0830    23.7300   -36.8460     2.2120 
  196.1250    49.6970    60.3670    55.4830    39.0650    23.8100   -36.7820     2.2330 
