~V
VERS. 2.00: Ver 2.00
~W
STRT.M 52.0000:
STOP.M 240.0000:
STEP.M 0.1250:
NULL. -999.2500:
UWI. F11139:
~C
DEPT.M :
GR.API :
RML.OHMM :
RI. :
RXO.OHMM :
CALI.CM :
SP.MV :
DEN.GM/CC :
~A
   52.0000  -999.2500  -999.2500  -999.2500  -999.2500  -999.2500   126.6780  -999.2500 
   52.1250  -999.2500  -999.2500  -999.2500  -999.2500  -999.2500   126.7910  -999.2500 
   52.2500  -999.2500  -999.2500  -999.2500  -999.2500  -999.2500   126.9770  -999.2500 
   52.3750  -999.2500  -999.2500  -999.2500  -999.2500  -999.2500   127.2050  -999.2500 
   52.5000  -999.2500  -999.2500  -999.2500  -999.2500  -999.2500   127.4350  -999.2500 
   52.6250  -999.2500  -999.2500  -999.2500  -999.2500  -999.2500   127.6230  -999.2500 
   52.7500  -999.2500  -999.2500  -999.2500  -999.2500  -999.2500   127.7550  -999.2500 
   52.8750  -999.2500  -999.2500  -999.2500  -999.2500  -999.2500   127.8610  -999.2500 
   53.0000  -999.2500  -999.2500  -999.2500  -999.2500  -999.2500   127.9420  -999.2500 
   53.1250  -999.2500  -999.2500  -999.2500  -999.2500  -999.2500   127.9890  -999.2500 
   53.2500  -999.2500  -999.2500  -999.2500  -999.2500  -999.2500   127.9930  -999.2500 
   53.3750  -999.2500  -999.2500  -999.2500  -999.2500  -999.2500   127.9480  -999.2500 
   53.5000  -999.2500  -999.2500  -999.2500  -999.2500  -999.2500   127.8680  -999.2500 
   53.6250  -999.2500  -999.2500  -999.2500  -999.2500  -999.2500   127.7660  -999.2500 
   53.7500  -999.2500  -999.2500  -999.2500  -999.2500  -999.2500   127.6490  -999.2500 
   53.8750  -999.2500  -999.2500  -999.2500  -999.2500  -999.2500   127.5130  -999.2500 
   54.0000  -999.2500  -999.2500  -999.2500  -999.2500  -999.2500   127.3250  -999.2500 
   54.1250  -999.2500  -999.2500  -999.2500  -999.2500  -999.2500   127.0570  -999.2500 
   54.2500  -999.2500  -999.2500  -999.2500  -999.2500  -999.2500   126.7480  -999.2500 
   54.3750  -999.2500  -999.2500  -999.2500  -999.2500  -999.2500   126.4450  -999.2500 
   54.5000  -999.2500  -999.2500  -999.2500  -999.2500  -999.2500   126.1530  -999.2500 
   54.6250  -999.2500  -999.2500  -999.2500  -999.2500  -999.2500   125.8630  -999.2500 
   54.7500  -999.2500  -999.2500  -999.2500  -999.2500  -999.2500   125.5700  -999.2500 
   54.8750  -999.2500  -999.2500  -999.2500  -999.2500  -999.2500   125.2960  -999.2500 
   55.0000  -999.2500  -999.2500  -999.2500  -999.2500  -999.2500   125.1340  -999.2500 
   55.1250  -999.2500  -999.2500  -999.2500  -999.2500  -999.2500   125.2240  -999.2500 
   55.2500  -999.2500  -999.2500  -999.2500  -999.2500  -999.2500   125.6280  -999.2500 
   55.3750  -999.2500  -999.2500  -999.2500  -999.2500  -999.2500   126.2980  -999.2500 
   55.5000  -999.2500  -999.2500  -999.2500  -999.2500  -999.2500   127.1110  -999.2500 
   55.6250  -999.2500  -999.2500  -999.2500  -999.2500  -999.2500   127.9800  -999.2500 
   55.7500  -999.2500  -999.2500  -999.2500  -999.2500  -999.2500   128.8170  -999.2500 
   55.8750  -999.2500  -999.2500  -999.2500  -999.2500  -999.2500   129.5540  -999.2500 
   56.0000  -999.2500  -999.2500  -999.2500  -999.2500  -999.2500   130.1390  -999.2500 
   56.1250  -999.2500  -999.2500  -999.2500  -999.2500  -999.2500   130.5200  -999.2500 
   56.2500  -999.2500  -999.2500  -999.2500  -999.2500  -999.2500   130.7160  -999.2500 
   56.3750  -999.2500  -999.2500  -999.2500  -999.2500  -999.2500   130.7190  -999.2500 
   56.5000  -999.2500  -999.2500  -999.2500  -999.2500  -999.2500   130.5900  -999.2500 
   56.6250  -999.2500  -999.2500  -999.2500  -999.2500  -999.2500   130.4040  -999.2500 
   56.7500  -999.2500  -999.2500  -999.2500  -999.2500  -999.2500   130.1480  -999.2500 
   56.8750    53.9250  2108.7320     0.1800  3782.5210    25.1340   129.8140  -999.2500 
   57.0000    53.9250  2108.7320     0.1800  3782.5210    25.1340   129.4250  -999.2500 
   57.1250    56.3490   250.3230     0.1800  3782.5210    25.2020   128.9550  -999.2500 
   57.2500    58.5900    55.3600     0.1820  3782.5210    25.2360   128.3750  -999.2500 
   57.3750    58.3290    20.4670     0.1830  3782.5210    25.2500   127.7360  -999.2500 
   57.5000    55.3220    12.0510     0.1840  3782.5210    25.2560   127.0440  -999.2500 
   57.6250    52.5890    10.5140     0.1850  3782.5210    25.2590   126.2650  -999.2500 
   57.7500    52.2140    10.9600     0.1860  3782.5210    25.2590   125.5120  -999.2500 
   57.8750    53.2230    12.4830     0.1880  3782.5210    25.2580   124.8840  -999.2500 
   58.0000    53.9030    14.8760     0.1920  3782.5210    25.2590   124.3770     1.9750 
   58.1250    53.5820    19.5150     0.1990  3782.5210    25.2610   123.9670     1.9750 
   58.2500    53.1970    31.2480     0.2090  3782.5210    25.2670   123.5930     1.9780 
   58.3750    53.3380    73.4890     0.2230  3782.5210    25.2810   123.1960     1.9800 
   58.5000    53.2820   365.1880     0.2420  3782.5210    25.3050   122.7410     1.9780 
   58.6250    50.7590 12420.2290     0.2640  3782.5210    25.3150   122.2320     1.9710 
   58.7500    45.8050 29363.7400     0.2870  3782.5210    25.3180   121.6820     1.9600 
   58.8750    40.9950 53544.8280     0.3060  3782.5210    25.3200   121.0640     1.9510 
   59.0000    38.8510 86037.8280     0.3170  3782.5210    25.3200   120.3180     1.9460 
   59.1250    39.4860 71714.6020     0.3150  3782.5210    25.3200   119.3480     1.9380 
   59.2500    39.7850 47848.1800     0.3020  3782.5210    25.3200   118.1300     1.9300 
   59.3750    39.5220  9669.0840     0.2820  3782.5210    25.3210   116.6700     1.9270 
   59.5000    40.0430    18.7200     0.2560  3464.2490    25.3220   115.0080     1.9400 
   59.6250    41.1470     4.5120     0.2240  2930.7660    25.3250   113.0060     1.9840 
   59.7500    41.6820     1.5970     0.1880  2039.5460    25.3320   110.3940     2.0570 
   59.8750    42.0070     0.7640     0.1560   625.9120    25.3440   106.6740     2.1590 
   60.0000    42.4450     0.5220     0.1330    75.5060    25.3650   101.2940     2.2800 
   60.1250    43.8330     0.5400     0.1350     0.5840    25.4490    93.1300     2.4030 
   60.2500    47.1280     0.7130     0.1770     1.7490    25.6710    82.2720     2.4870 
   60.3750    52.3690     1.0970     0.2980     3.4320    26.1450    69.6290     2.4440 
   60.5000    58.9950     1.7990     0.5550     6.1430    27.0610    56.4330     2.2270 
   60.6250    65.0500     2.9760     1.0530     6.3260    28.6270    43.2750     1.9650 
   60.7500    70.2310     4.4450     1.7760     6.1450    29.7890    30.5110     1.8210 
   60.8750    76.0940     5.8900     2.6570     6.2910    29.0240    18.7130     1.8190 
   61.0000    83.1820     6.8740     3.5420     6.6380    26.7430     8.5750     1.9160 
   61.1250    90.4750     6.8390     4.1720     6.8330    24.8950     1.3600     2.0430 
   61.2500    97.5010     6.1540     4.4800     6.4920    23.8900    -3.0000     2.1510 
   61.3750   104.4430     5.4070     4.5410     5.7610    23.4320    -5.3770     2.2390 
   61.5000   109.2090     4.8670     4.5080     5.1270    23.2880    -7.0250     2.3070 
   61.6250   108.6240     4.6760     4.5790     4.9170    23.3020    -8.4690     2.3520 
   61.7500   105.8320     4.8690     4.9160     5.3320    23.3350    -9.8600     2.3790 
   61.8750   102.2200     5.5110     5.6300     7.3600    23.3990   -11.3300     2.3890 
   62.0000    97.1520     6.5870     6.7330    11.5170    23.5290   -13.0490     2.3870 
   62.1250    91.5480     7.9450     8.0770    17.4160    23.7880   -15.1150     2.3710 
   62.2500    87.2640     9.1720     9.2790    23.0360    24.1490   -17.3920     2.3400 
   62.3750    84.6850     9.8730     9.9980    24.8040    24.4850   -19.8520     2.2900 
   62.5000    83.6530     9.8120    10.0320    19.5610    24.6350   -22.4490     2.2290 
   62.6250    84.4140     9.1520     9.4440    13.1070    24.6540   -25.0530     2.1800 
   62.7500    84.1290     8.4680     8.7260    11.3220    24.6530   -27.4780     2.1570 
   62.8750    82.7790     8.0060     8.1480    11.4860    24.6750   -29.6460     2.1560 
   63.0000    81.9990     7.7870     7.8010    11.8190    24.7010   -31.4570     2.1600 
   63.1250    81.2230     7.7260     7.6590    11.5050    24.7370   -32.8320     2.1550 
