~V
VERS. 2.00: Ver 2.00
~W
STRT.M 60.0000:
STOP.M 282.0000:
STEP.M 0.1250:
NULL. -999.2500:
UWI. F11159:
~C
DEPT.M :
GR.API :
RML.OHMM :
RI. :
RXO.OHMM :
CALI.CM :
SP.MV :
DEN.GM/CC :
~A
# ...
  273.7500    68.9220    10.3160     9.3200    10.1410    23.5440   -19.0280     2.4320 
  273.8750    68.9220    10.3100     9.3070    10.4910    23.5300   -19.0150     2.4120 
  274.0000    68.9220    10.2880     9.3100    11.8770    23.4730   -19.0000     2.3950 
  274.1250    68.9220    10.2380     9.3070    14.6180    23.4510   -19.0140     2.3890 
  274.2500    68.9220    10.1850     9.2940    15.1640    23.3840   -19.0700     2.3910 
  274.3750    68.9220    10.1510     9.2780    12.9940    23.3200   -19.1500     2.3950 
  274.5000    68.9220    10.1470     9.2660    10.7320    23.3160   -19.2320     2.3960 
  274.6250    68.9220    10.1740     9.2630     9.2760    23.3110   -19.3440     2.3920 
  274.7500    68.9220    10.1970     9.2650     7.9030    23.3130   -19.4210     2.3880 
  274.8750    68.9220    10.1970     9.2690     6.7480    23.3110   -19.4670     2.3880 
  275.0000    68.9220    10.1780     9.2710     6.3070    23.2970   -19.5130     2.3920 
  275.1250    68.9220    10.1560     9.2730     6.8410    23.2690   -19.5280     2.4000 
  275.2500    68.9220    10.1470     9.2760     7.6500    23.3990   -19.5340     2.4070 
  275.3750    68.9220    10.1510     9.2780     8.4830    23.5730   -19.5220     2.4140 
  275.5000    68.9220    10.1570     9.2770     9.5670    23.6270   -19.5310     2.4220 
  275.6250    68.9220    10.1560     9.2730    11.3510    23.6250   -19.5510     2.4280 
  275.7500    68.9220    10.1490     9.2710    12.9230    23.6240   -19.5590     2.4300 
  275.8750    68.9220    10.1440     9.2740    13.4640    23.6250   -19.5570     2.4260 
  276.0000    68.9220    10.1440     9.2850    13.3180    23.6360   -19.5370     2.4180 
  276.1250    68.9220    10.1490     9.2990    17.3880    23.6960   -19.5310     2.4110 
  276.2500    68.9220    10.1520     9.3110    23.6690    23.7640   -19.5340     2.4090 
  276.3750    68.9220    10.1440     9.3180    22.9190    23.7500   -19.5370     2.4120 
  276.5000    68.9220    10.1280     9.3200    15.1230    23.6440   -19.5130     2.4190 
  276.6250    68.9220    10.1240     9.3180    12.3040    23.4900   -19.4750     2.4290 
  276.7500    68.9220    10.1390     9.3150    11.4110    23.4650   -19.4400     2.4390 
  276.8750    68.9220    10.1730     9.3110    11.2840    23.4600   -19.4270     2.4480 
  277.0000    68.9220    10.2140     9.3050    11.1850    23.4600   -19.4150     2.4530 
  277.1250    68.9220    10.2450     9.3010    11.8580    23.4600   -19.3850     2.4500 
  277.2500    68.9220    10.2620     9.2970    12.5820    23.4600   -19.3420     2.4440 
  277.3750    68.9220    10.2670     9.2960    12.9780    23.4620   -19.2990     2.4390 
  277.5000    68.9220    10.2610     9.2970    12.8340    23.4690   -19.2870     2.4370 
  277.6250    68.9220    10.2420     9.2980    12.3280    23.4730   -19.2690     2.4330 
  277.7500    68.9220    10.2160     9.2970    10.9530    23.4900   -19.2600     2.4080 
  277.8750    68.9220    10.1900     9.2940     8.9900    23.5650   -19.2280     2.3440 
  278.0000    68.9220    10.1700     9.2910     7.6700    23.6490   -19.2200     2.2260 
  278.1250    68.9220    10.1700     9.2910     7.2220    23.7120   -19.2200     2.0620 
  278.2500    68.9220    10.1700     9.2910     7.0880    23.6680  -999.2500     1.9020 
  278.3750    68.9220    10.1700     9.2910     6.6250    23.2290  -999.2500     1.7750 
  278.5000    68.9220    10.1700     9.2910     5.7760    19.7480  -999.2500     1.6870 
  278.6250    68.9220    10.1700     9.2910     5.2760    17.3700  -999.2500     1.6420 
  278.7500    68.9220    10.1700     9.2910     5.1210    16.9200  -999.2500     1.6220 
  278.8750    68.9220    10.1700     9.2910     5.1070    16.8590  -999.2500     1.6160 
  279.0000    68.9220    10.1700     9.2910     5.1080    16.8560  -999.2500     1.6150 
  279.1250    68.9220    10.1700     9.2910     5.1070    16.8620  -999.2500     1.6140 
  279.2500    68.9220    10.1700     9.2910     5.1060    16.8590  -999.2500     1.6140 
  279.3750    68.9220    10.1700     9.2910     5.1060    16.8600  -999.2500     1.6140 
  279.5000    68.9220    10.1700     9.2910     5.1060    16.8540  -999.2500     1.6150 
  279.6250    68.9220    10.1700     9.2910     5.1060    16.8540  -999.2500     1.6160 
  279.7500    68.9220    10.1700     9.2910     5.1070    16.8540  -999.2500     1.6170 
  279.8750    68.9220    10.1700     9.2910     5.1060    16.8590  -999.2500     1.6170 
  280.0000    68.9220    10.1700     9.2910     5.1050    16.8540  -999.2500     1.6160 
  280.1250    68.9220    10.1700     9.2910     5.1050    16.8540  -999.2500     1.6140 
  280.2500    68.9220    10.1700     9.2910     5.1050    16.8540  -999.2500     1.6130 
  280.3750    68.9220    10.1700     9.2910     5.1040    16.8590  -999.2500     1.6130 
  280.5000    68.9220    10.1700     9.2910     5.1040    16.8540  -999.2500     1.6140 
  280.6250    68.9220    10.1700     9.2910     5.1050    16.8530  -999.2500     1.6150 
  280.7500    68.9220    10.1700     9.2910     5.1040    16.8530  -999.2500     1.6150 
  280.8750    68.9220    10.1700     9.2910     5.1030    16.8530  -999.2500     1.6160 
  281.0000    68.9220    10.1700     9.2910     5.1020    16.8530  -999.2500     1.6160 
  281.1250    68.9220    10.1700     9.2910     5.1030    16.8530  -999.2500     1.6170 
  281.2500    68.9220    10.1700     9.2910     5.1030    16.8530  -999.2500     1.6170 
  281.3750    68.9220    10.1700     9.2910     5.1040    16.8530  -999.2500     1.6170 
  281.5000    68.9220    10.1700     9.2910     5.1030    16.8530  -999.2500     1.6180 
  281.6250    68.9220    10.1700     9.2910     5.1030    16.8530  -999.2500     1.6190 
  281.7500    68.9220    10.1700     9.2910     5.1040    16.8530  -999.2500     1.6210 
  281.8750    68.9220    10.1700     9.2910     5.1060    16.8530  -999.2500     1.6230 
  282.0000    68.9220    10.1700     9.2910     5.1050    16.8530  -999.2500     1.6250 
