~V
VERS. 2.00: Ver 2.00
~W
STRT.M 14.0000:
STOP.M 209.0000:
STEP.M 0.1250:
NULL. -999.2500:
UWI. F11100:
~C
DEPT.M :
GR.API :
RML.OHMM :
RI. :
RXO.OHMM :
CALI.CM :
SP.MV :
DEN.GM/CC :
~A
# ...
  194.0000    62.5290     7.3010     6.4200     5.7350    24.2690    -6.4020     2.2820 
  194.1250    63.3800     7.2820     6.4380     5.7810    24.2720    -6.5690     2.2990 
  194.2500    63.1050     7.5090     6.6060     6.2660    24.2730    -6.7150     2.3160 
  194.3750    62.1260     7.9910     6.9370     7.3520    24.2740    -6.8280     2.3300 
  194.5000    59.8600     8.6200     7.3610     8.8090    24.2770    -6.8800     2.3400 
  194.6250    57.0920     9.1400     7.7140     9.5450    24.2820    -6.8430     2.3450 
  194.7500    56.2350     9.3490     7.8650     8.9160    24.2840    -6.7490     2.3420 
  194.8750    57.3790     9.1760     7.7590     8.0990    24.2670    -6.6060     2.3280 
  195.0000    60.0420     8.7030     7.4330     7.7280    24.2190    -6.4140     2.3140 
  195.1250    63.4190     8.1890     7.0430     7.2700    24.1660    -6.1730     2.3070 
  195.2500    65.4290     7.7570     6.6760     6.7510    24.1360    -5.8850     2.3100 
  195.3750    63.7910     7.4460     6.3740     6.6170    24.1400    -5.5500     2.3250 
  195.5000    60.1370     7.2530     6.1600     6.9550    24.1220    -5.1690     2.3360 
  195.6250    58.0040     7.1380     6.0200     6.6890    24.0130    -4.7470     2.3340 
  195.7500    57.1500     7.1040     5.9570     6.1040    23.8550    -4.3000     2.3200 
  195.8750    56.7950     7.1670     5.9730     6.0820    23.7530    -3.8680     2.3070 
  196.0000    57.5820     7.3360     6.0750     6.5390    23.7730    -3.5060     2.3000 
  196.1250    58.5440     7.5550     6.2220     6.9170    23.8480    -3.2720     2.2950 
  196.2500    57.5480     7.7680     6.3770     7.0380    23.9470    -3.1590     2.2880 
  196.3750    56.1420     7.9240     6.5040     6.9990    24.0380    -3.1650     2.2830 
  196.5000    57.7430     7.9730     6.5640     7.1320    24.0020    -3.2710     2.2830 
  196.6250    60.2070     7.9390     6.5660     7.1470    23.8600    -3.4400     2.2870 
  196.7500    60.8280     7.8690     6.5310     7.0650    23.7420    -3.6140     2.2820 
  196.8750    59.0260     7.8110     6.4890     6.9090    23.7310    -3.7720     2.2570 
  197.0000    56.1100     7.8000     6.4630     6.8890    23.7890    -3.8910     2.2220 
  197.1250    53.9140     7.8170     6.4540     6.6710    23.8220    -3.9580     2.1980 
  197.2500    54.1470     7.8320     6.4490     6.3750    23.8290    -4.0110     2.2000 
  197.3750    56.3690     7.8110     6.4290     6.2760    23.8280    -4.0610     2.2300 
  197.5000    57.2830     7.7320     6.3750     7.3290    23.8310    -4.0950     2.2680 
  197.6250    56.5200     7.6260     6.2990     7.8530    23.8330    -4.0960     2.3020 
  197.7500    55.9560     7.5230     6.2190     7.3220    23.8320    -4.0320     2.3270 
  197.8750    55.7880     7.4450     6.1560     6.7750    23.8220    -3.8920     2.3400 
  198.0000    55.5480     7.4130     6.1270     6.7910    23.8540    -3.7020     2.3390 
  198.1250    55.5480     7.4130     6.1250     6.8960    23.9990    -3.4590     2.3250 
  198.2500    55.5480     7.4240     6.1370     6.9010    24.2190    -3.1670     2.3030 
  198.3750    55.5480     7.4180     6.1450     7.0760    24.3910    -2.8470     2.2870 
  198.5000    55.5480     7.3680     6.1300     7.1260    24.4290    -2.5380     2.2860 
  198.6250    55.5480     7.2770     6.0910     6.5590    24.4230    -2.2530     2.2980 
  198.7500    55.5480     7.1500     6.0290     6.1530    24.4790    -1.9950     2.3110 
  198.8750    55.5480     6.9970     5.9480     6.0730    24.6160    -1.7600     2.3110 
  199.0000    55.5480     6.8300     5.8490     6.0570    24.7680    -1.5270     2.3020 
  199.1250    55.5480     6.6670     5.7440     5.9090    24.8510    -1.3160     2.2930 
  199.2500    55.5480     6.5320     5.6470     5.6820    24.8650    -1.1500     2.2890 
  199.3750    55.5480     6.4420     5.5740     5.5220    24.8610    -1.0200     2.2920 
  199.5000    55.5480     6.4100     5.5350     5.7110    24.8630    -0.9230     2.2980 
  199.6250    55.5480     6.4260     5.5240     5.8460    24.8630    -0.8790     2.3050 
  199.7500    55.5480     6.4910     5.5380     6.0820    24.8690    -0.8790     2.3140 
  199.8750    55.5480     6.6010     5.5760     6.4160    24.8890    -0.9020     2.3260 
  200.0000    55.5480     6.7420     5.6470     6.4930    24.9230    -0.9420     2.3340 
  200.1250    55.5480     6.8840     5.7430     6.3600    24.9390    -1.0090     2.3350 
  200.2500    55.5480     7.0240     5.8610     6.3610    24.9010    -1.0940     2.3310 
  200.3750    55.5480     7.2010     6.0090     6.5870    24.8180    -1.1880     2.3300 
  200.5000    55.5480     7.5180     6.2340     6.6300    24.7450    -1.2920     2.3340 
  200.6250    55.5480     8.0160     6.5580     6.4990    24.7100    -1.3860     2.3410 
  200.7500    55.5480     8.6780     6.9830     6.7430    24.6920    -1.4950     2.3460 
  200.8750    55.5480     9.4090     7.4680     7.9430    24.6670    -1.5940     2.3530 
  201.0000    55.5480    10.0440     7.9130     9.8430    24.6500    -1.6450     2.3660 
  201.1250    55.5480    10.4800     8.2400    10.2490    24.6450    -1.6060     2.3820 
  201.2500    55.5480    10.6810     8.4220     8.9030    24.6390    -1.5150     2.3920 
  201.3750    55.5480    10.6480     8.4740     7.6850    24.6300    -1.3950     2.3840 
  201.5000    55.5480    10.3760     8.4290     7.5950    24.6290    -1.2480     2.3630 
  201.6250    55.5480     9.9470     8.3510     7.6510    24.6330    -1.1080     2.3380 
  201.7500    55.5480     9.4470     8.2710     7.5470    24.6380    -0.9770     2.3200 
  201.8750    55.5480     8.9980     8.2100     6.8650    24.6420    -0.8680     2.3130 
  202.0000    55.5480     8.7330     8.1810     6.2910    24.6440    -0.7910     2.3160 
  202.1250    55.5480     8.6220     8.1700     5.6660    24.6430    -0.7240     2.3260 
  202.2500    55.5480     8.6180     8.1710     5.3010    24.6390    -0.6560     2.3390 
  202.3750    55.5480     8.7530     8.1850     4.9500    24.6360    -0.5990     2.3470 
  202.5000    55.5480     9.1290     8.2280     4.9060    24.6350    -0.5870     2.3480 
  202.6250    55.5480     9.6460     8.2980     4.8710    24.6350    -0.6270     2.3440 
  202.7500    55.5480    10.1510     8.3800     4.9340    24.6350    -0.7020     2.3420 
  202.8750    55.5480    10.5230     8.4550     5.4020    24.6360    -0.8140     2.3430 
  203.0000    55.5480    10.7030     8.5010     5.9200    24.6390    -0.9550     2.3380 
  203.1250    55.5480    10.7660     8.5230     6.1790    24.6410    -1.1110     2.3230 
  203.2500    55.5480    10.7730     8.5330     6.0940    24.6400    -1.2340     2.3030 
  203.3750    55.5480    10.7670     8.5430     5.8800    24.6390    -1.3270     2.2920 
  203.5000    55.5480    10.7520     8.5610     6.0060    24.6650    -1.4000     2.3000 
  203.6250    55.5480    10.6600     8.5470     7.2680    24.7310    -1.4650     2.3220 
  203.7500    55.5480    10.3010     8.6600     8.5420    24.8110    -1.5170     2.3420 
  203.8750    55.5480     9.8470    10.2210     7.8170    24.8640    -1.5690     2.3430 
  204.0000    55.5480     9.8470    10.2210     7.4130    24.8740    -1.6290     2.3250 
  204.1250    55.5480     9.8470    10.2210     7.5070    24.8700    -1.7070     2.3000 
  204.2500    55.5480     9.8470    10.2210     7.9030    24.8670    -1.7850     2.2790 
  204.3750    55.5480     9.8470    10.2210     8.9130    24.8660    -1.8570     2.2800 
  204.5000    55.5480     9.8470    10.2210     8.9760    24.8640    -1.8820     2.3020 
  204.6250    55.5480     9.8470    10.2210     9.1440    24.8660    -1.8740     2.3280 
  204.7500    55.5480     9.8470    10.2210     8.9000    24.8750    -1.8470     2.3310 
  204.8750    55.5480     9.8470    10.2210     8.4190    24.8400    -1.8180     2.3020 
  205.0000    55.5480     9.8470    10.2210     7.9810    24.6950    -1.7950     2.2640 
  205.1250    55.5480     9.8470    10.2210     7.5490    24.5090    -1.8140     2.2420 
