~V
VERS. 2.00: Ver 2.00
~W
STRT.M 40.0000:
STOP.M 206.0000:
STEP.M 0.1250:
NULL. -999.2500:
UWI. F11104:
~C
DEPT.M :
GR.API :
RML.OHMM :
RI. :
RXO.OHMM :
CALI.CM :
SP.MV :
DEN.GM/CC :
~A
# ...
   73.7500    72.3050     7.9660     6.6420     8.9070    26.6800   -15.7380     2.1910 
   73.8750    71.3390     8.0560     6.6130     8.8570    26.6750   -16.4410     2.1920 
   74.0000    69.0570     8.1770     6.6070     8.8130    26.6670   -17.0050     2.1960 
   74.1250    68.9430     8.2490     6.6140     8.6770    26.6660   -17.4660     2.1980 
   74.2500    69.2650     8.2800     6.6300     8.4810    26.6750   -17.8860     2.1980 
   74.3750    66.6840     8.2960     6.6530     8.3050    26.6620   -18.2960     2.1940 
   74.5000    63.2020     8.3110     6.6720     8.3410    26.5980   -18.7100     2.1890 
   74.6250    61.6040     8.3070     6.6660     8.7660    26.4930   -19.1160     2.1840 
   74.7500    60.8650     8.2570     6.6270     9.2560    26.3860   -19.5030     2.1830 
   74.8750    60.6370     8.1620     6.5590     9.4440    26.2990   -19.8560     2.1820 
   75.0000    61.5890     8.0510     6.4780     9.4020    26.2410   -20.1640     2.1820 
   75.1250    61.4240     7.9690     6.4090     9.3310    26.2220   -20.4120     2.1840 
   75.2500    58.7610     7.9360     6.3610     9.3910    26.2250   -20.6180     2.1890 
   75.3750    57.2530     7.9390     6.3260     9.3880    26.2220   -20.7720     2.1910 
   75.5000    58.9000     7.9380     6.2810     9.4010    26.2200   -20.8690     2.1840 
   75.6250    59.4480     7.8700     6.1970     9.2580    26.2120   -20.9160     2.1640 
   75.7500    57.3440     7.7230     6.0720     8.8020    26.1930   -20.9310     2.1390 
   75.8750    55.0650     7.5290     5.9260     8.0090    26.1830   -20.9350     2.1210 
   76.0000    54.1610     7.3530     5.7900     7.4240    26.1900   -20.9460     2.1170 
   76.1250    55.1950     7.2740     5.7050     7.4510    26.1900   -20.9760     2.1280 
   76.2500    57.6250     7.3000     5.6780     7.9200    26.1700   -21.0170     2.1420 
   76.3750    61.2440     7.4150     5.7040     8.4940    26.1540   -21.0550     2.1520 
   76.5000    64.0360     7.5790     5.7680     9.2070    26.1560   -21.0740     2.1550 
   76.6250    64.0310     7.7410     5.8400     9.2580    26.1520   -21.0600     2.1540 
   76.7500    62.1050     7.8690     5.8940     8.9680    26.1620   -21.0180     2.1540 
   76.8750    61.0970     7.9510     5.9190     8.5830    26.1950   -20.9420     2.1550 
   77.0000    63.2800     7.9880     5.9140     8.5280    26.2450   -20.8220     2.1570 
   77.1250    66.1370     7.9790     5.8810     8.6930    26.3270   -20.6450     2.1600 
   77.2500    65.6590     7.9420     5.8320     8.8150    26.4580   -20.4190     2.1610 
   77.3750    63.5480     7.8960     5.7800     8.6760    26.6390   -20.1410     2.1630 
   77.5000    63.6150     7.8610     5.7340     8.5100    26.8460   -19.8150     2.1650 
   77.6250    64.8320     7.8540     5.7120     8.4760    27.0540   -19.4530     2.1730 
   77.7500    64.3990     7.8630     5.7170     8.5500    27.2530   -19.0910     2.1900 
   77.8750    62.5680     7.8730     5.7450     8.4620    27.4280   -18.7550     2.2120 
   78.0000    61.4760     7.8790     5.7870     8.2040    27.5850   -18.4460     2.2260 
   78.1250    62.3620     7.8960     5.8450     7.9330    27.7640   -18.1290     2.2200 
   78.2500    62.2060     7.9440     5.9230     7.9000    27.9630   -17.7660     2.1910 
   78.3750    60.9190     8.0320     6.0260     8.1190    28.0830   -17.3330     2.1480 
   78.5000    59.9090     8.1560     6.1520     9.5630    27.9590   -16.8130     2.1040 
   78.6250    60.0500     8.2880     6.2890    12.4380    27.5130   -16.1860     2.0730 
   78.7500    61.5240     8.3950     6.4130    13.3640    27.0290   -15.4780     2.0630 
   78.8750    62.8110     8.4540     6.5040    11.2040    26.7320   -14.7010     2.0730 
   79.0000    62.1360     8.4280     6.5340     9.7860    26.6480   -13.8510     2.1010 
   79.1250    58.5030     8.2310     6.4310     9.5750    26.6870   -12.8850     2.1460 
   79.2500    58.0820     7.8330     6.1740     9.3080    26.7700   -11.7820     2.2150 
   79.3750    64.8970     7.2420     5.7660     8.6310    26.9020   -10.5170     2.2740 
   79.5000    75.6290     6.5320     5.2600     7.5700    27.0920    -9.1030     2.2990 
   79.6250    84.9470     5.8540     4.7510     5.7490    27.3160    -7.6080     2.3120 
   79.7500    90.6360     5.3510     4.3390     4.8190    27.4890    -6.1530     2.3090 
   79.8750    93.9550     5.0770     4.0700     4.4100    27.5610    -4.8410     2.2840 
   80.0000    97.4450     5.0210     3.9540     4.2940    27.5630    -3.7490     2.2520 
   80.1250   101.1610     5.1600     3.9980     4.3710    27.5630    -2.9590     2.2310 
   80.2500   102.4840     5.4220     4.1590     4.5210    27.5670    -2.4220     2.2340 
   80.3750    99.3580     5.7680     4.4100     4.6960    27.5630    -2.1000     2.2530 
   80.5000    93.5940     6.1490     4.7120     4.9700    27.5310    -1.9340     2.2740 
   80.6250    88.2550     6.4870     5.0020     5.5120    27.4640    -1.8660     2.2820 
   80.7500    85.6750     6.7050     5.2130     6.4220    27.4030    -1.8410     2.2810 
   80.8750    88.0100     6.7520     5.3010     7.1000    27.3720    -1.8560     2.2800 
   81.0000    94.4800     6.6400     5.2660     6.1140    27.3670    -1.9090     2.2820 
   81.1250    98.3480     6.4400     5.1430     5.3300    27.3690    -1.9950     2.2800 
   81.2500    95.5200     6.2550     5.0000     4.9310    27.3700    -2.1100     2.2700 
   81.3750    91.1770     6.1350     4.8690     4.8960    27.3650    -2.2570     2.2520 
   81.5000    93.0130     6.0810     4.7590     4.9610    27.3530    -2.4550     2.2320 
   81.6250    97.6890     6.0600     4.6690     5.0630    27.3280    -2.7310     2.2310 
   81.7500    97.5230     6.0860     4.6230     5.1660    27.2870    -3.0820     2.2620 
   81.8750    95.0600     6.2720     4.6890     5.2680    27.2320    -3.4990     2.3210 
   82.0000    95.3620     6.7610     4.9480     5.4070    27.1770    -3.9860     2.3770 
   82.1250    92.5790     7.6780     5.4670     5.6620    27.1200    -4.5380     2.3810 
   82.2500    82.0970     8.8280     6.1440     6.7810    27.0480    -5.1190     2.3360 
   82.3750    71.8950     9.8750     6.8090     9.5940    26.9760    -5.6960     2.2700 
   82.5000    68.2910    10.3810     7.2370    13.4110    26.9300    -6.2450     2.2120 
   82.6250    70.4230     9.9870     7.1970    12.2240    26.9460    -6.7630     2.1800 
   82.7500    73.3340     9.0960     6.8280     9.6560    27.0180    -7.2690     2.1620 
   82.8750    76.5490     8.1570     6.3360     8.5180    27.1120    -7.7640     2.1500 
   83.0000    78.8890     7.5040     5.9170     8.3950    27.1770    -8.2280     2.1420 
   83.1250    78.2640     7.3160     5.7220     8.2300    27.1900    -8.6070     2.1380 
   83.2500    76.9350     7.4460     5.7280     8.0490    27.1880    -8.8950     2.1400 
   83.3750    75.3940     7.7420     5.8750     7.9320    27.1890    -9.0670     2.1470 
   83.5000    73.7070     8.0520     6.0700     7.9580    27.1890    -9.1150     2.1590 
   83.6250    73.9140     8.2140     6.2070     7.9480    27.1890    -8.9830     2.1760 
   83.7500    76.5690     8.1530     6.2160     7.9990    27.2090    -8.6750     2.1940 
   83.8750    80.9670     7.8540     6.0680     7.9870    27.3020    -8.1910     2.2110 
   84.0000    85.3530     7.3850     5.7850     7.5770    27.5160    -7.5480     2.2240 
   84.1250    88.9460     6.8790     5.4360     6.7100    27.8090    -6.7630     2.2300 
   84.2500    92.4990     6.4750     5.1170     5.9180    28.0370    -5.9170     2.2300 
   84.3750    94.6430     6.2270     4.8820     5.5900    28.1390    -5.0860     2.2290 
   84.5000    94.8520     6.1310     4.7500     5.4330    28.1550    -4.3570     2.2280 
   84.6250    94.5930     6.1500     4.7160     5.4160    28.1510    -3.8340     2.2270 
   84.7500    94.8420     6.1910     4.7250     5.4730    28.1480    -3.5190     2.2210 
   84.8750    94.7230     6.2070     4.7380     5.4460    28.1460    -3.3890     2.2080 
