~V
VERS. 2.00: Ver 2.00
~W
STRT.M 47.0000:
STOP.M 248.0000:
STEP.M 0.1250:
NULL. -999.2500:
UWI. F11134:
~C
DEPT.M :
GR.API :
RML.OHMM :
RI. :
RXO.OHMM :
CALI.CM :
SP.MV :
DEN.GM/CC :
~A
# ...
  238.2500    65.9230    15.5590    14.5130    15.3060    25.0450   -11.1400     2.5240 
  238.3750    65.9230    15.4780    14.4320    15.4780    25.0240   -11.1330     2.5220 
  238.5000    65.9230    15.3630    14.3130    15.4430    25.0010   -11.1350     2.5170 
  238.6250    65.9230    15.2040    14.1540    14.8590    24.9920   -11.1570     2.5080 
  238.7500    65.9230    14.9900    13.9410    14.0210    25.0000   -11.2060     2.4960 
  238.8750    65.9230    14.7200    13.6720    13.4020    24.9940   -11.2300     2.4780 
  239.0000    65.9230    14.4270    13.3770    13.2520    24.9710   -11.2340     2.4590 
  239.1250    65.9230    14.1600    13.1000    13.5870    24.9300   -11.2410     2.4460 
  239.2500    65.9230    13.9650    12.8880    13.5270    24.8790   -11.2430     2.4480 
  239.3750    65.9230    13.8890    12.7860    12.5460    24.8560   -11.2620     2.4590 
  239.5000    65.9230    13.9540    12.8160    11.7840    24.8870   -11.2920     2.4690 
  239.6250    65.9230    14.1600    12.9860    12.0690    24.9420   -11.3050     2.4730 
  239.7500    65.9230    14.4960    13.2920    13.3460    24.9900   -11.2970     2.4740 
  239.8750    65.9230    14.9310    13.7110    15.1070    25.0170   -11.2930     2.4750 
  240.0000    65.9230    15.3960    14.1770    15.8020    25.0120   -11.2890     2.4780 
  240.1250    65.9230    15.8070    14.5990    14.6870    24.9910   -11.2990     2.4820 
  240.2500    65.9230    16.1100    14.8930    13.2250    25.0040   -11.3270     2.4840 
  240.3750    65.9230    16.2950    14.9900    12.5210    25.0320   -11.3540     2.4820 
  240.5000    65.9230    16.4090    14.9150    12.0480    25.0350   -11.3730     2.4810 
  240.6250    65.9230    16.5120    14.7530    11.4920    25.0060   -11.3710     2.4860 
  240.7500    65.9230    16.6550    14.5870    11.2560    24.9680   -11.3390     2.4910 
  240.8750    65.9230    16.8370    14.4880    11.9450    24.9590   -11.3030     2.4900 
  241.0000    65.9230    16.9450    14.4610    13.1130    24.9610   -11.2830     2.4840 
  241.1250    65.9230    16.9410    14.4700    13.5260    24.9490   -11.2590     2.4770 
  241.2500    65.9230    16.8890    14.4840    13.5210    24.9400   -11.2080     2.4690 
  241.3750    65.9230    16.8200    14.4940    14.7030    24.9430   -11.1320     2.4600 
  241.5000    65.9230    16.7430    14.5010    17.3450    24.9380   -11.0590     2.4500 
  241.6250    65.9230    16.6960    14.5070    20.3350    24.9290   -11.0160     2.4420 
  241.7500    65.9230    16.7150    14.5110    23.1910    24.9280   -11.0130     2.4400 
  241.8750    65.9230    16.7970    14.5130    23.4420    24.9210   -11.0270     2.4420 
  242.0000    65.9230    16.8960    14.5130    20.0920    24.9120   -11.0510     2.4420 
  242.1250    65.9230    16.9710    14.5140    16.1510    24.9150   -11.0880     2.4340 
  242.2500    65.9230    17.0110    14.5170    14.1320    24.9020   -11.1430     2.4280 
  242.3750    65.9230    17.0220    14.5200    13.3000    24.8670   -11.2290     2.4340 
  242.5000    65.9230    17.0320    14.5220    12.7350    24.8570   -11.3280     2.4500 
  242.6250    65.9230    17.0610    14.5240    12.3490    24.8980   -11.4360     2.4680 
  242.7500    65.9230    17.0980    14.5280    12.0900    24.9710   -11.5510     2.4830 
  242.8750    65.9230    17.1240    14.5380    12.1160    25.0270   -11.6560     2.4950 
  243.0000    65.9230    17.1260    14.5580    12.1180    25.0500   -11.7550     2.4990 
  243.1250    65.9230    17.1030    14.5820    11.8460    25.0550   -11.8570     2.4940 
  243.2500    65.9230    17.0690    14.6050    11.6250    25.0550   -11.9550     2.4830 
  243.3750    65.9230    17.0320    14.6220    11.5400    25.0540   -12.0300     2.4750 
  243.5000    65.9230    16.9880    14.6320    11.3650    25.0530   -12.0910     2.4720 
  243.6250    65.9230    16.9690    14.6340    11.0460    25.0500   -12.1380     2.4690 
  243.7500    65.9230    16.9690    14.6340    10.8630    25.0360   -12.1600     2.4610 
  243.8750    65.9230    16.9690    14.6340    11.7130    25.0050   -12.1690     2.4470 
  244.0000    65.9230    16.9690    14.6340    13.9440    24.9760   -12.1810     2.4290 
  244.1250    65.9230    16.9690    14.6340    15.6820    24.9620   -12.1790     2.4140 
  244.2500    65.9230    16.9690    14.6340    15.2870    24.9570   -12.1680     2.4050 
  244.3750    65.9230    16.9690    14.6340    13.6900    24.9480   -12.1600     2.4050 
  244.5000    65.9230    16.9690    14.6340    12.7980    24.9500   -12.1360     2.4050 
  244.6250    65.9230    16.9690    14.6340    12.7150    24.9540   -12.1120     2.3940 
  244.7500    65.9230    16.9690    14.6340    12.3000    24.9280   -12.1000     2.3720 
  244.8750    65.9230    16.9690    14.6340    11.8510    24.8400   -12.1010     2.3430 
  245.0000    65.9230    16.9690    14.6340    11.2920    24.5970   -12.1490     2.3020 
  245.1250    65.9230    16.9690    14.6340     9.9910    23.9970  -999.2500     2.2380 
  245.2500    65.9230    16.9690    14.6340     8.2030    22.9420  -999.2500     2.1370 
  245.3750    65.9230    16.9690    14.6340     6.9790    22.0490  -999.2500     1.9970 
  245.5000    65.9230    16.9690    14.6340     6.5710    21.6550  -999.2500     1.8570 
  245.6250    65.9230    16.9690    14.6340     6.5080    21.5620  -999.2500     1.7620 
  245.7500    65.9230    16.9690    14.6340     6.5050    21.5560  -999.2500     1.7200 
  245.8750    65.9230    16.9690    14.6340     6.5060    21.5560  -999.2500     1.7130 
  246.0000    65.9230    16.9690    14.6340     6.5060    21.5560  -999.2500     1.7160 
  246.1250    65.9230    16.9690    14.6340     6.5060    21.5560  -999.2500     1.7200 
  246.2500    65.9230    16.9690    14.6340     6.5060    21.5560  -999.2500     1.7210 
  246.3750    65.9230    16.9690    14.6340     6.5050    21.5560  -999.2500     1.7200 
  246.5000    65.9230    16.9690    14.6340     6.5060    21.5560  -999.2500     1.7190 
  246.6250    65.9230    16.9690    14.6340     6.5060    21.5560  -999.2500     1.7200 
  246.7500    65.9230    16.9690    14.6340     6.5060    21.5560  -999.2500     1.7220 
  246.8750    65.9230    16.9690    14.6340     6.5060    21.5560  -999.2500     1.7240 
  247.0000    65.9230    16.9690    14.6340     6.5050    21.5560  -999.2500     1.7240 
  247.1250    65.9230    16.9690    14.6340     6.5050    21.5560  -999.2500     1.7230 
  247.2500    65.9230    16.9690    14.6340     6.5050    21.5560  -999.2500     1.7200 
  247.3750    65.9230    16.9690    14.6340     6.5050    21.5560  -999.2500     1.7160 
  247.5000    65.9230    16.9690    14.6340     6.5060    21.5560  -999.2500     1.6640 
  247.6250    65.9230    16.9690    14.6340     6.5050    21.5560  -999.2500  -999.2500 
  247.7500    65.9230    16.9690    14.6340     6.5040    21.5560  -999.2500  -999.2500 
  247.8750    65.9230    16.9690    14.6340     6.5040    21.5560  -999.2500  -999.2500 
  248.0000    65.9230    16.9690    14.6340     6.5040    21.5560  -999.2500  -999.2500 
