~V
VERS. 2.00: Ver 2.00
~W
STRT.M 50.0000:
STOP.M 243.0000:
STEP.M 0.1250:
NULL. -999.2500:
UWI. F11115:
~C
DEPT.M :
DEN.GM/CC :
GR.API :
RML.OHMM :
RI. :
RXO.OHMM :
CALI.CM :
SP.MV :
~A
# ...
   72.5000     2.2760    99.7600     6.4310     4.4190     4.5310    26.2020   -29.3920 
   72.6250     2.3070    94.8910     8.9590     5.7090     4.4190    26.2060   -29.5730 
   72.7500     2.3780    84.4810    12.9370     7.8360     5.4030    26.2090   -29.8610 
   72.8750     2.4900    71.2360    17.8820    10.6590     9.2000    26.2120   -30.2700 
   73.0000     2.6090    59.4820    22.0970    13.4040    20.6670    26.2130   -30.8170 
   73.1250     2.6470    55.3200    22.3330    14.3330    38.8530    26.2130   -31.5140 
   73.2500     2.5880    57.5050    19.0420    13.2410    49.6430    26.2100   -32.3300 
   73.3750     2.4710    62.4620    14.7690    11.1520    41.2110    26.2050   -33.2230 
   73.5000     2.3470    66.6090    11.5230     9.1570    24.5930    26.2030   -34.1480 
   73.6250     2.2510    69.4480     9.9450     7.8330    14.2450    26.2050   -35.0760 
   73.7500     2.1870    71.8240     9.3510     7.0700    10.6630    26.2070   -35.9870 
   73.8750     2.1510    72.4700     9.3100     6.7360     9.9150    26.2080   -36.8570 
   74.0000     2.1340    69.8250     9.5060     6.6880    10.0440    26.2110   -37.6730 
   74.1250     2.1330    63.9370     9.7310     6.8020    10.0980    26.2150   -38.4250 
   74.2500     2.1440    59.7040     9.9050     6.9530    10.0520    26.2160   -39.1020 
   74.3750     2.1610    59.1110    10.0260     7.0990    10.3510    26.2110   -39.7310 
   74.5000     2.1720    60.1430    10.0950     7.2180    11.2470    26.2020   -40.3430 
   74.6250     2.1670    60.4840    10.1020     7.2850    12.3150    26.2170   -40.9040 
   74.7500     2.1540    59.5840    10.0770     7.3080    12.7090    26.2840   -41.3760 
   74.8750     2.1440    58.2490    10.0410     7.2970    12.5460    26.3900   -41.7680 
   75.0000     2.1470    57.9630    10.0050     7.2630    12.4950    26.4840   -42.0980 
   75.1250     2.1580    60.0470     9.9700     7.2150    12.7970    26.5350   -42.3300 
   75.2500     2.1610    61.0090     9.9230     7.1590    12.9870    26.5640   -42.4620 
   75.3750     2.1510    58.8880     9.8470     7.0890    13.1050    26.6200   -42.5020 
   75.5000     2.1310    55.9250     9.7310     7.0000    12.9320    26.7780   -42.4790 
   75.6250     2.1030    55.9290     9.5850     6.8870    12.2970    26.9950   -42.4180 
   75.7500     2.0700    57.2810     9.4420     6.7700    11.7150    27.1190   -42.3280 
   75.8750     2.0360    58.1320     9.3340     6.6670    11.7620    27.1420   -42.2000 
   76.0000     2.0100    59.0810     9.2860     6.5990    11.9420    27.1770   -42.0250 
   76.1250     2.0100    61.5410     9.3210     6.5770    11.4380    27.1820   -41.8080 
   76.2500     2.0410    63.6310     9.4040     6.5830    11.0230    26.9800   -41.5580 
   76.3750     2.0940    64.7340     9.4940     6.5990    10.9340    26.6380   -41.2640 
   76.5000     2.1420    63.5720     9.5450     6.6070    10.7100    26.3730   -40.9220 
   76.6250     2.1630    58.5760     9.5250     6.5890    11.2840    26.3290   -40.5140 
   76.7500     2.1620    53.9610     9.4620     6.5480    11.4320    26.4190   -40.0540 
   76.8750     2.1540    53.1340     9.3850     6.4940    11.3040    26.5500   -39.5490 
   77.0000     2.1470    54.6380     9.2980     6.4370    11.2150    26.6540   -39.0090 
   77.1250     2.1400    55.0940     9.1830     6.3910    11.3280    26.7110   -38.4140 
   77.2500     2.1230    55.0010     9.0420     6.3590    11.3810    26.8410   -37.7430 
   77.3750     2.0950    55.9480     8.8920     6.3350    10.9060    27.0060   -36.9970 
   77.5000     2.0690    59.4700     8.7620     6.3160    10.0550    27.0310   -36.1870 
   77.6250     2.0680    66.6730     8.6890     6.3100     9.8270    26.8720   -35.2870 
   77.7500     2.0960    72.7380     8.6770     6.3320    10.1790    26.7390   -34.3240 
   77.8750     2.1380    73.2110     8.7090     6.3830    10.1330    26.7020   -33.3370 
   78.0000     2.1690    68.6570     8.7300     6.4300     9.8930    26.6540   -32.3580 
   78.1250     2.1730    64.8500     8.6190     6.3820     9.8370    26.5240   -31.3920 
   78.2500     2.1640    65.3270     8.3030     6.1840     9.7530    26.3890   -30.4260 
   78.3750     2.1590    69.3360     7.7730     5.8270     9.0580    26.3000   -29.4500 
   78.5000     2.1680    76.0160     7.1180     5.3700     7.3160    26.2660   -28.4480 
   78.6250     2.1940    85.5170     6.5050     4.9230     5.4240    25.8630   -27.4160 
   78.7500     2.2300    94.4290     6.0550     4.5730     4.6840    25.8730   -26.3660 
   78.8750     2.2680    98.2010     5.8070     4.3520     4.4500    25.9660   -25.3420 
   79.0000     2.2930    96.0750     5.7450     4.2510     4.3490    26.0140   -24.4110 
   79.1250     2.2980    94.6750     5.8230     4.2440     4.2690    26.0020   -23.6660 
   79.2500     2.2930    96.9600     5.9260     4.2670     4.2830    25.9390   -23.1160 
   79.3750     2.2880   100.7510     5.9910     4.2900     4.3690    25.7820   -22.7670 
   79.5000     2.2870   103.2200     6.0100     4.3150     4.5140    25.5350   -22.5990 
   79.6250     2.2930   102.3470     6.0580     4.3830     4.6400    25.2520   -22.6180 
   79.7500     2.2970    98.8650     6.2480     4.5420     4.6880    25.0380   -22.7660 
   79.8750     2.2930    93.1240     6.6690     4.8350     4.8820    24.9860   -22.9970 
   80.0000     2.2790    86.8270     7.3540     5.2840     5.4810    25.1010   -23.2860 
   80.1250     2.2580    80.2130     8.2420     5.8760     6.5410    25.2740   -23.6470 
   80.2500     2.2360    74.6970     9.0900     6.4800     7.6900    25.3900   -24.0550 
   80.3750     2.2150    71.6060     9.6630     6.9640     8.7700    25.4660   -24.4870 
   80.5000     2.1960    71.4400     9.8030     7.2190     9.2930    25.5600   -24.9390 
   80.6250     2.1790    74.5140     9.5010     7.2030     9.0990    25.6620   -25.3500 
   80.7500     2.1650    77.1900     9.0570     7.0570     8.7290    25.7000   -25.6590 
   80.8750     2.1550    77.8500     8.6940     6.8940     8.4450    25.6460   -25.8650 
   81.0000     2.1480    76.9720     8.5540     6.8030     8.2770    25.5610   -26.0080 
   81.1250     2.1440    76.7880     8.7130     6.8350     8.1660    25.6370   -26.1030 
   81.2500     2.1420    78.7910     9.0320     6.9330     8.1150    25.9010   -26.1640 
   81.3750     2.1430    82.0270     9.3360     7.0050     8.1060    26.1530   -26.2210 
   81.5000     2.1480    84.6360     9.4180     6.9360     8.2560    26.1570   -26.3130 
   81.6250     2.1600    83.8190     9.0370     6.5950     8.4250    25.9390   -26.4680 
   81.7500     2.1770    83.3040     8.2700     6.0410     7.8830    25.7690   -26.6410 
   81.8750     2.2000    86.8670     7.3330     5.3950     6.6310    25.6850   -26.7950 
   82.0000     2.2220    93.7250     6.5630     4.8430     5.2200    25.6030   -26.9250 
   82.1250     2.2330    99.1460     6.4740     4.6510     5.0710    25.4890   -27.0610 
   82.2500     2.2350    99.8880     7.3850     4.9790     5.5270    25.3970   -27.2400 
   82.3750     2.2410    94.8420     9.6840     6.0340     7.0530    25.4170   -27.4850 
   82.5000     2.2740    85.2970    13.6790     8.0260    11.8330    25.5990   -27.8030 
   82.6250     2.3650    74.5600    19.3810    11.1480    24.7240    25.8460   -28.2340 
   82.7500     2.4950    65.8890    24.8250    14.5380    47.6930    25.9770   -28.7800 
   82.8750     2.6070    60.2460    27.1590    16.7330    61.7950    26.0390   -29.4070 
   83.0000     2.6350    60.0860    24.8080    16.5610    52.2250    26.5680   -30.0730 
   83.1250     2.5560    65.3850    19.6200    14.3290    32.4370    26.6130   -30.7810 
   83.2500     2.4410    70.0080    15.1120    11.8420    19.4610    26.6820   -31.5000 
   83.3750     2.3320    70.8420    12.2150     9.8600    13.3740    26.7620   -32.1850 
   83.5000     2.2510    68.3350    10.7070     8.5460    11.3530    26.8230   -32.8210 
   83.6250     2.2100    67.0630    10.1660     7.8690    10.8320    26.8440   -33.3930 
