~V
VERS. 2.00: Ver 2.00
~W
STRT.M 52.0000:
STOP.M 216.0000:
STEP.M 0.1250:
NULL. -999.2500:
UWI. F11106:
~C
DEPT.M :
DEN.GM/CC :
GR.API :
RML.OHMM :
RI. :
RXO.OHMM :
CALI.CM :
SP.MV :
~A
# ...
  130.7500     2.5040    50.5200    18.0650    15.4550    13.9600    25.1570   -13.2160 
  130.8750     2.5040    46.1310    18.1250    15.2610    13.9730    25.1520   -13.1060 
  131.0000     2.5020    42.8770    18.5390    15.3250    14.5680    25.1020   -13.0540 
  131.1250     2.4990    43.1820    19.0850    15.5180    15.1440    25.0850   -13.0230 
  131.2500     2.4970    43.6690    19.4750    15.6520    16.4370    25.0460   -12.9800 
  131.3750     2.4960    43.9030    19.5650    15.6270    17.8470    25.0260   -12.9740 
  131.5000     2.4960    46.2370    19.3660    15.4320    18.0060    25.0700   -13.0160 
  131.6250     2.4950    49.1600    19.0020    15.1390    15.5410    25.0820   -13.1220 
  131.7500     2.4950    48.9630    18.6960    14.9020    14.1930    25.1070   -13.2380 
  131.8750     2.4960    47.7160    18.5740    14.8220    14.4650    25.1530   -13.3580 
  132.0000     2.4980    49.9390    18.6560    14.9280    15.8510    25.1770   -13.4910 
  132.1250     2.5010    54.6330    18.8400    15.1500    16.2000    25.2260   -13.6540 
  132.2500     2.5060    55.8320    18.9130    15.2980    15.8940    25.2330   -13.8320 
  132.3750     2.5120    52.6960    18.6990    15.2050    15.9000    25.2330   -13.9780 
  132.5000     2.5170    48.1270    18.0570    14.7550    15.7220    25.2350   -14.1120 
  132.6250     2.5190    48.6920    16.8760    13.8880    15.3840    25.2460   -14.2750 
  132.7500     2.5150    53.9990    15.3510    12.7910    14.6890    25.3470   -14.4540 
  132.8750     2.5000    59.8150    13.6920    11.6080    13.6800    25.3810   -14.5680 
  133.0000     2.4730    63.2580    12.1700    10.4960    11.2760    25.3270   -14.5990 
  133.1250     2.4330    65.0500    11.1540     9.6660     8.4890    25.3420   -14.6340 
  133.2500     2.3860    65.3440    10.7050     9.1830     8.1500    25.4850   -14.6690 
  133.3750     2.3390    62.1960    10.7520     9.0590     9.0720    25.7570   -14.6990 
  133.5000     2.2990    58.3840    11.0940     9.2260    10.0190    26.0640   -14.6840 
  133.6250     2.2710    59.9150    11.4050     9.4990    10.4570    26.1400   -14.5950 
  133.7500     2.2550    63.0020    11.3690     9.6010    10.6870    26.1520   -14.5150 
  133.8750     2.2480    62.2770    10.8620     9.3750    10.9140    26.0170   -14.4590 
  134.0000     2.2470    59.6370     9.9500     8.8110    11.2040    25.7250   -14.3900 
  134.1250     2.2510    62.1570     8.8040     8.0090     9.9130    25.6340   -14.2960 
  134.2500     2.2570    66.7700     7.6790     7.1560     7.0650    25.6720   -14.2150 
  134.3750     2.2650    69.9150     6.7400     6.3750     5.1390    26.0350   -14.1570 
  134.5000     2.2740    71.6020     6.0950     5.7670     4.7370    25.9720   -14.1500 
  134.6250     2.2830    72.3220     5.8060     5.4240     5.0520    25.5080   -14.1640 
  134.7500     2.2900    71.3370     5.7630     5.2980     4.9630    25.4230   -14.1470 
  134.8750     2.2950    68.7900     5.8890     5.3450     4.5160    25.7390   -14.1530 
  135.0000     2.2950    66.4020     6.1090     5.5090     4.3090    25.7990   -14.2590 
  135.1250     2.2920    64.8400     6.3610     5.7430     4.6140    25.8040   -14.4150 
  135.2500     2.2870    66.3870     6.6010     5.9960     5.1090    25.6180   -14.5150 
  135.3750     2.2820    70.3380     6.8130     6.2270     5.6130    25.3570   -14.5740 
  135.5000     2.2760    73.1010     6.9750     6.3800     5.9650    25.1270   -14.6240 
  135.6250     2.2690    73.6370     7.0280     6.3750     5.8130    25.1210   -14.6820 
  135.7500     2.2590    73.1290     6.9450     6.2310     5.5150    25.2660   -14.7370 
  135.8750     2.2480    72.1220     6.7480     5.9950     5.2290    25.5650   -14.7770 
  136.0000     2.2390    71.9390     6.5280     5.7350     4.9110    25.8630   -14.7760 
  136.1250     2.2340    73.5620     6.4670     5.5380     4.8190    26.1640   -14.7200 
  136.2500     2.2340    75.4460     6.6750     5.4780     4.9060    25.9960   -14.6800 
  136.3750     2.2370    75.1500     7.2160     5.6360     5.0600    25.7090   -14.6680 
  136.5000     2.2440    72.6240     8.1320     6.0940     5.5700    25.6340   -14.6770 
  136.6250     2.2500    68.8550     9.5580     6.9940     6.7480    25.6200   -14.7350 
  136.7500     2.2520    66.1160    11.4360     8.2880     8.5280    25.6210   -14.8200 
  136.8750     2.2490    64.2190    13.6150     9.8690    11.0630    25.6800   -14.8960 
  137.0000     2.2400    63.8670    15.7220    11.4880    13.2960    25.6950   -15.0050 
  137.1250     2.2250    64.4110    17.1360    12.7010    13.8620    25.9720   -15.1930 
  137.2500     2.2100    64.4430    17.7430    13.3380    13.6850    26.5550   -15.4230 
  137.3750     2.1970    63.0060    17.7890    13.4980    14.1560    27.2390   -15.6620 
  137.5000     2.1870    61.3020    17.7040    13.4430    14.7590    27.7370   -15.8710 
  137.6250     2.1810    61.7290    17.8790    13.4670    14.9550    27.7810   -16.0570 
  137.7500     2.1800    63.4100    18.4120    13.7160    14.7330    27.5780   -16.2400 
  137.8750     2.1820    63.5950    19.3730    14.2540    14.6060    27.0860   -16.4180 
  138.0000     2.1880    61.6490    20.8750    15.1540    15.6970    27.0080   -16.5350 
  138.1250     2.1950    60.6020    23.1260    16.5860    19.2010    26.8680   -16.6090 
  138.2500     2.2020    60.1960    25.9780    18.5130    22.7810    26.9240   -16.6840 
  138.3750     2.2080    56.4960    29.2640    20.8850    24.7220    27.1460   -16.7450 
  138.5000     2.2130    49.5370    32.7870    23.5710    26.3220    27.3710   -16.7900 
  138.6250     2.2160    47.8750    36.3730    26.3980    28.7980    27.4540   -16.8080 
  138.7500     2.2170    51.9890    39.7600    29.1310    34.4750    27.3280   -16.8230 
  138.8750     2.2160    54.5080    42.4770    31.4840    40.5470    27.3320   -16.8520 
  139.0000     2.2120    52.2720    43.7590    32.9820    43.4460    27.4430   -16.8810 
  139.1250     2.2060    48.5170    42.3980    32.7220    42.9210    27.5770   -16.8360 
  139.2500     2.2000    48.3560    38.7340    30.6870    42.4620    27.7720   -16.7520 
  139.3750     2.1950    51.7960    33.6300    27.3130    38.5910    27.7350   -16.6860 
  139.5000     2.1940    55.2190    28.2930    23.4470    31.4760    27.7670   -16.6470 
  139.6250     2.1960    56.6020    23.9290    20.0550    23.0730    27.7610   -16.5830 
  139.7500     2.2010    57.7490    20.9440    17.5910    16.9410    27.6190   -16.4910 
  139.8750     2.2080    59.9340    19.4730    16.2060    14.4930    27.5690   -16.4220 
  140.0000     2.2120    62.5550    19.3960    15.8610    14.5950    27.6570   -16.3900 
  140.1250     2.2120    62.6120    20.3240    16.4170    18.9960    27.9930   -16.3730 
  140.2500     2.2110    59.8450    21.2020    17.1720    23.9700    27.8920   -16.3650 
  140.3750     2.2090    56.0650    21.1420    17.4190    25.6940    27.7170   -16.3620 
  140.5000     2.2080    55.1750    19.7510    16.6660    20.1410    27.7720   -16.3640 
  140.6250     2.2100    57.3630    17.5370    15.0380    13.3760    27.7780   -16.4370 
  140.7500     2.2130    58.0840    15.7300    13.4400     9.9200    27.7060   -16.5260 
  140.8750     2.2160    56.9240    14.8960    12.4120     9.8730    28.0100   -16.5630 
  141.0000     2.2190    55.2510    15.0850    12.1630    10.6580    28.1740   -16.5830 
  141.1250     2.2230    54.2410    16.1270    12.7460    12.3030    28.3790   -16.6710 
  141.2500     2.2260    53.6270    17.4490    13.7550    14.4670    28.6050   -16.7720 
  141.3750     2.2280    53.9260    18.5950    14.8190    15.9150    28.5480   -16.8170 
  141.5000     2.2280    53.6510    19.2380    15.6190    15.5430    28.8120   -16.8630 
  141.6250     2.2270    53.4780    19.3300    16.0370    14.7100    28.9410   -16.8810 
  141.7500     2.2240    54.5830    19.3640    16.3760    13.2430    28.7330   -16.8590 
  141.8750     2.2190    54.2440    19.8150    16.9600    13.0570    28.5240   -16.8420 
