~V
VERS. 2.00: Ver 2.00
~W
STRT.M 60.0000:
STOP.M 281.0000:
STEP.M 0.1250:
NULL. -999.2500:
UWI. F11154:
~C
DEPT.M :
DEN.GM/CC :
GR.API :
RML.OHMM :
RI. :
RXO.OHMM :
CALI.CM :
SP.MV :
~A
# ...
  273.7500     2.4540    54.6240     9.2620     7.9020     5.9490    23.7740   -11.1090 
  273.8750     2.4460    54.6240     9.2980     7.9480     6.2140    24.1850   -11.2190 
  274.0000     2.4410    54.6240     9.3300     7.9900     6.5560    24.8750   -11.2470 
  274.1250     2.4370    54.6240     9.3220     8.0140     6.9810    25.2930   -11.2280 
  274.2500     2.4340    54.6240     9.2750     8.0180     7.3460    25.5900   -11.2650 
  274.3750     2.4310    54.6240     9.2090     8.0080     7.5420    25.9230   -11.2150 
  274.5000     2.4310    54.6240     9.1450     7.9910     7.4590    26.1320   -11.0760 
  274.6250     2.4360    54.6240     9.1020     7.9780     7.0140    26.1090   -11.0160 
  274.7500     2.4440    54.6240     9.0790     7.9680     6.4810    26.0550   -10.9320 
  274.8750     2.4520    54.6240     9.0730     7.9620     6.2390    26.1410   -10.7660 
  275.0000     2.4550    54.6240     9.0770     7.9580     6.2590    26.6040   -10.6060 
  275.1250     2.4540    54.6240     9.0820     7.9550     6.3010    27.2060   -10.5160 
  275.2500     2.4530    54.6240     9.0830     7.9520     6.3030    27.7130   -10.4690 
  275.3750     2.4510    54.6240     9.0820     7.9500     6.3440    27.9700   -10.4630 
  275.5000     2.4480    54.6240     9.0820     7.9500     6.5680    28.0060   -10.4530 
  275.6250     2.4480    54.6240     9.0820     7.9500     6.9820    27.7110   -10.3650 
  275.7500     2.4540    54.6240     9.0820     7.9500     7.4130    27.0690   -10.3470 
  275.8750     2.4680    54.6240     9.0820     7.9500     7.6730    26.3960   -10.4470 
  276.0000     2.4850    54.6240     9.0820     7.9500     7.6030    25.7590   -10.6240 
  276.1250     2.4970    54.6240     9.0820     7.9500     7.1860    25.3680   -10.7140 
  276.2500     2.5020    54.6240     9.0820     7.9500     6.8550    25.0770   -10.7680 
  276.3750     2.5010    54.6240     9.0820     7.9500     6.8350    24.8680   -10.8260 
  276.5000     2.4980    54.6240     9.0820     7.9500     6.9520    24.7710   -10.9360 
  276.6250     2.4930    54.6240     9.0820     7.9500     6.9230    24.9520   -11.1110 
  276.7500     2.4830    54.6240     9.0820     7.9500     6.7140    25.3090   -11.2220 
  276.8750     2.4670    54.6240     9.0820     7.9500     6.6330    25.5790   -11.3110 
  277.0000     2.4480    54.6240     9.0820     7.9500     6.6900    25.6440   -11.3320 
  277.1250     2.4320    54.6240     9.0820     7.9500     6.7360    25.3370   -11.3440 
  277.2500     2.4200    54.6240     9.0820     7.9500     6.7870    24.9430   -11.2990 
  277.3750     2.4160    54.6240     9.0820     7.9500     6.9180    24.7790   -11.2800 
  277.5000     2.4240    54.6240     9.0820     7.9500     7.2400    25.0350   -11.3140 
  277.6250     2.4400    54.6240     9.0820     7.9500     8.2140    25.7280   -11.3060 
  277.7500     2.4540    54.6240     9.0820     7.9500     9.7650    26.3720   -11.3050 
  277.8750     2.4600    54.6240     9.0820     7.9500    11.8010    26.3450   -11.3080 
  278.0000     2.4540    54.6240     9.0820     7.9500    14.0680    25.7940   -11.3140 
  278.1250     2.4370    54.6240     9.0820     7.9500    15.4570    25.5130   -11.3900 
  278.2500     2.4200    54.6240     9.0820     7.9500    16.1070    25.7840   -11.4700 
  278.3750     2.4130    54.6240     9.0820     7.9500    16.3570    26.3330   -11.4850 
  278.5000     2.4240    54.6240     9.0820     7.9500    16.4870    26.8450   -11.4850 
  278.6250     2.4460    54.6240     9.0820     7.9500    16.8030    27.0960  -999.2500 
  278.7500     2.4650    54.6240     9.0820     7.9500    17.4590    26.9290  -999.2500 
  278.8750     2.4780    54.6240     9.0820     7.9500    17.8890    26.3540  -999.2500 
  279.0000     2.4770    54.6240     9.0820     7.9500    17.8640    25.4040  -999.2500 
  279.1250     2.4500    54.6240     9.0820     7.9500    15.5530    23.9930  -999.2500 
  279.2500     2.4050    54.6240     9.0820     7.9500    11.9400    22.0430  -999.2500 
  279.3750     2.3620    54.6240     9.0820     7.9500     8.5100    19.4990  -999.2500 
  279.5000     2.3360    54.6240     9.0820     7.9500     6.7700    16.7840  -999.2500 
  279.6250     2.3300    54.6240     9.0820     7.9500     6.3860    15.6290  -999.2500 
  279.7500     2.3320    54.6240     9.0820     7.9500     6.3260    15.3110  -999.2500 
  279.8750     2.3320    54.6240     9.0820     7.9500     6.3260    15.2960  -999.2500 
  280.0000     2.3280    54.6240     9.0820     7.9500     6.3260    15.2890  -999.2500 
  280.1250     2.3200    54.6240     9.0820     7.9500     6.3260    15.2880  -999.2500 
  280.2500     2.3150    54.6240     9.0820     7.9500     6.3250    15.2840  -999.2500 
  280.3750     2.3150    54.6240     9.0820     7.9500     6.3250    15.2820  -999.2500 
  280.5000     2.3150  -999.2500  -999.2500  -999.2500  -999.2500  -999.2500  -999.2500 
  280.6250     2.3110  -999.2500  -999.2500  -999.2500  -999.2500  -999.2500  -999.2500 
  280.7500     2.3060  -999.2500  -999.2500  -999.2500  -999.2500  -999.2500  -999.2500 
  280.8750     2.3020  -999.2500  -999.2500  -999.2500  -999.2500  -999.2500  -999.2500 
  281.0000     2.3020  -999.2500  -999.2500  -999.2500  -999.2500  -999.2500  -999.2500 
