~V
VERS. 2.00: Ver 2.00
~W
STRT.M 56.0000:
STOP.M 269.0000:
STEP.M 0.1250:
NULL. -999.2500:
UWI. F11148:
~C
DEPT.M :
GR.API :
RML.OHMM :
RI. :
RXO.OHMM :
SP.MV :
DEN.GM/CC :
CALI.CM :
~A
# ...
  191.0000    69.3210    86.4580    78.4520    54.7550   -28.1490     2.2500    23.6480 
  191.1250    68.9880    84.8880    76.6370    54.1570   -28.3730     2.2380    23.6960 
  191.2500    66.9970    84.4370    75.5390    48.4490   -28.6160     2.2310    23.6750 
  191.3750    64.5530    86.1900    76.2700    44.1240   -28.8950     2.2310    23.5780 
  191.5000    61.8300    90.3570    79.1920    47.4820   -29.1690     2.2350    23.4330 
  191.6250    61.1130    96.5350    84.1910    53.0550   -29.3980     2.2390    23.4140 
  191.7500    63.1480   103.9850    90.9630    57.4460   -29.5590     2.2350    23.6700 
  191.8750    65.1450   111.7490    98.6580    63.7470   -29.7080     2.2270    24.0880 
  192.0000    66.1820   119.8230   107.2200    83.2140   -29.8940     2.2220    24.4580 
  192.1250    66.7810   128.7350   117.0610   117.7090   -30.1410     2.2190    24.7830 
  192.2500    65.9160   138.6680   128.4560   143.9380   -30.3800     2.2140    25.0200 
  192.3750    63.2770   147.3910   139.3500   134.5180   -30.5160     2.2060    25.1180 
  192.5000    61.0090   151.0310   146.1520   128.5680   -30.6060     2.2000    25.0500 
  192.6250    59.7630   145.5850   144.7410   157.2270   -30.7200     2.1950    24.9420 
  192.7500    59.8000   128.0900   130.7760   162.9180   -30.8640     2.1900    24.7620 
  192.8750    62.6140   104.1820   108.4180   122.7580   -30.9540     2.1870    24.6440 
  193.0000    65.3680    79.5520    83.5690    89.6790   -30.9480     2.1900    24.7420 
  193.1250    65.7060    58.6530    61.9200    77.9020   -30.8590     2.2000    24.8620 
  193.2500    67.2740    44.5090    47.2930    65.5360   -30.7700     2.2160    24.9220 
  193.3750    71.3020    35.9730    38.3840    41.8690   -30.7490     2.2400    24.9260 
  193.5000    74.7400    31.9810    33.9120    26.8530   -30.7410     2.2680    24.8620 
  193.6250    74.9060    31.2490    32.5990    24.5890   -30.6930     2.2940    24.7840 
  193.7500    73.3540    32.7820    33.6790    30.2990   -30.6520     2.3030    24.7320 
  193.8750    70.9420    35.2960    36.0170    37.7870   -30.7050     2.2990    24.7160 
  194.0000    67.9030    38.3100    39.0730    39.9670   -30.8580     2.2910    24.7220 
  194.1250    66.0560    41.8060    42.5950    35.8600   -31.0890     2.2860    24.7330 
  194.2500    66.3080    46.6020    47.1170    34.3880   -31.3650     2.2830    24.7190 
  194.3750    65.6910    53.3590    53.3600    34.9290   -31.6100     2.2790    24.6920 
  194.5000    63.4980    62.2770    61.7060    46.0960   -31.8460     2.2720    24.6370 
  194.6250    60.7160    72.4820    71.3890    76.7310   -32.1190     2.2620    24.5840 
  194.7500    61.5450    81.5160    79.8740   113.1830   -32.4280     2.2540    24.5620 
  194.8750    64.0980    87.5220    85.1530   103.0550   -32.7100     2.2510    24.5550 
  195.0000    63.9310    90.7800    87.3520    79.0730   -32.9370     2.2520    24.5390 
  195.1250    61.5470    93.3850    88.4170    69.5380   -33.0940     2.2500    24.5160 
  195.2500    62.7570    98.1630    91.1120    66.7480   -33.1550     2.2420    24.4900 
  195.3750    65.7810   105.6660    96.3120    71.6730   -33.1910     2.2340    24.4780 
  195.5000    65.7160   114.8410   103.3080    81.0070   -33.2370     2.2290    24.4730 
  195.6250    62.8000   123.5050   110.3230    92.2040   -33.2640     2.2280    24.4720 
  195.7500    61.7780   128.8360   114.9900    98.9030   -33.1800     2.2310    24.4760 
  195.8750    61.9590   130.7880   116.9720   100.4600   -32.9830     2.2370    24.4770 
  196.0000    61.8360   130.5330   117.0370    94.0510   -32.7220     2.2410    24.4710 
  196.1250    61.7660   129.4570   116.2860    80.6350   -32.4390     2.2430    24.4270 
  196.2500    61.5320   128.1240   115.2950    68.3090   -32.1790     2.2410    24.2970 
  196.3750    59.5300   126.2140   113.8960    69.7440   -31.9130     2.2390    24.1690 
  196.5000    56.1710   123.2960   111.7130    79.3550   -31.5930     2.2400    24.2080 
  196.6250    53.5510   119.4710   108.7070    83.0800   -31.2050     2.2470    24.4160 
  196.7500    53.7140   115.7490   105.5530    74.5600   -30.8060     2.2650    24.7830 
  196.8750    55.1570   113.4640   103.4190    71.8370   -30.4440     2.2920    25.2740 
  197.0000    56.1560   113.4770   103.1640    82.1920   -30.0830     2.3250    25.6970 
  197.1250    55.8290   116.1750   105.2430    93.6960   -29.6960     2.3590    25.8700 
  197.2500    55.2250   122.0260   110.1760    95.1650   -29.2690     2.3840    25.8100 
  197.3750    55.4890   130.3580   117.4200    96.4090   -28.8080     2.4020    25.7400 
  197.5000    55.8190   140.9180   126.7540    94.6260   -28.3370     2.4180    25.6350 
  197.6250    54.9410   153.3640   137.8400    86.2330   -27.8880     2.4400    25.4210 
  197.7500    54.3900   156.0450   140.2450    86.7130   -27.4440     2.4750    25.3500 
  197.8750    51.5770   169.0550   152.0050    98.3730   -27.0060     2.5250    24.9940 
  198.0000    49.3410   179.6720   161.9960   150.7630   -26.5860     2.5840    24.6630 
  198.1250    49.4100   185.7950   168.4310   200.2090   -26.1780     2.6360    24.4460 
  198.2500    51.6510   187.0430   170.6280   204.9850   -25.7550     2.6590    24.2990 
  198.3750    53.6060   185.1260   169.9790   195.2760   -25.3230     2.6590    24.1540 
  198.5000    55.1930   177.3350   164.9290   201.3720   -24.8640     2.6500    24.0680 
  198.6250    56.3430   157.7970   150.8710   204.1540   -24.3520     2.6410    24.0900 
  198.7500    55.4280   123.1810   121.9250   204.2330   -23.7860     2.6390    24.1040 
  198.8750    54.0030    85.6740    86.3370   159.8830   -23.1740     2.6410    24.0880 
  199.0000    54.2510    55.0770    55.0320    88.7090   -22.5200     2.6520    24.0160 
  199.1250    56.4470    34.4210    33.6040    38.4840   -21.8420     2.6720    23.9010 
  199.2500    56.3840    22.8920    22.0530    18.5150   -21.1520     2.6910    23.9100 
  199.3750    54.1130    16.1610    15.4900     9.9560   -20.4500     2.6880    23.9850 
  199.5000    52.8470    12.2660    11.6770     8.8990   -19.7300     2.6620    24.0820 
  199.6250    53.6950     9.9400     9.3410    10.9320   -19.0150     2.6210    24.1120 
  199.7500    54.7470     8.4820     7.8990    11.5240   -18.3320     2.5690    24.1050 
  199.8750    55.3170     7.3800     6.8760     9.2610   -17.6780     2.5080    24.0860 
  200.0000    57.0230     6.5620     6.1600     6.6010   -17.0750     2.4450    24.0760 
  200.1250    58.7000     6.0670     5.7320     5.3860   -16.5420     2.3980    24.1180 
  200.2500    57.6770     5.9900     5.6480     5.3170   -16.0970     2.3820    24.1850 
  200.3750    55.4160     6.2080     5.8220     5.5710   -15.7390     2.3880    24.2390 
  200.5000    54.0900     6.5760     6.1550     5.8540   -15.4920     2.4040    24.2710 
  200.6250    53.3450     6.9290     6.5040     6.0400   -15.3570     2.4200    24.2960 
  200.7500    52.0850     7.1100     6.7010     6.1070   -15.3600     2.4320    24.1940 
  200.8750    51.1380     7.1090     6.7030     6.0930   -15.4730     2.4400    23.9760 
  201.0000    51.0250     6.9730     6.5420     6.0950   -15.6680     2.4400    23.8290 
  201.1250    52.1530     6.8070     6.3130     6.0710   -15.9360     2.4330    23.8510 
  201.2500    56.1560     6.7680     6.1570     5.9560   -16.3120     2.4250    23.8680 
  201.3750    63.0630     6.9500     6.1620     5.9400   -16.7990     2.4250    23.7930 
  201.5000    70.2410     7.3850     6.3640     6.1910   -17.3630     2.4340    23.7220 
  201.6250    76.9330     7.6630     6.7460     6.9530   -17.9920     2.4500    23.7490 
  201.7500    84.8230     7.8090     7.2240     8.2110   -18.6750     2.4680    23.9030 
  201.8750    93.2510     8.1610     7.6370     9.2750   -19.3980     2.4800    24.0480 
  202.0000    97.5770     8.5420     7.8810     9.5880   -20.1620     2.4800    24.0890 
  202.1250    96.5150     8.6660     7.9330     9.4760   -20.9450     2.4720    24.0380 
