~V
VERS. 2.00: Ver 2.00
~W
STRT.M 62.0000:
STOP.M 277.0000:
STEP.M 0.1250:
NULL. -999.2500:
UWI. F11155:
~C
DEPT.M :
SP.MV :
DEN.GM/CC :
GR.API :
RML.OHMM :
RI. :
RXO.OHMM :
CALI.CM :
~A
# ...
   84.5000   -17.7080     2.3800    65.5650    13.5600    12.1110    13.5430    24.3110 
   84.6250   -18.4870     2.2810    66.0990    10.7540     9.8470    10.3880    24.2930 
   84.7500   -19.0410     2.2000    66.0550     9.3260     8.3970    10.1280    24.3640 
   84.8750   -19.3420     2.1510    66.1460     8.6630     7.5470    10.4300    24.3470 
   85.0000   -19.3820     2.1320    65.8010     8.3790     7.0900    10.4310    24.1000 
   85.1250   -19.1710     2.1360    67.0550     8.2300     6.8530     9.7130    23.6030 
   85.2500   -18.7730     2.1590    71.7580     8.1510     6.7490     8.5290    23.0800 
   85.3750   -18.3170     2.1840    74.4790     8.1990     6.7570     8.0670    22.7810 
   85.5000   -17.7830     2.2000    73.7280     8.4430     6.9050     8.8780    22.7090 
   85.6250   -17.1870     2.2020    72.0380     8.8900     7.2090     9.9260    22.6790 
   85.7500   -16.5370     2.1980    71.8680     9.5170     7.6820    10.5050    22.5510 
   85.8750   -15.8290     2.1970    71.4580    10.1650     8.2290    10.8080    22.3750 
   86.0000   -15.0480     2.2000    70.8850    10.6390     8.7090    10.9390    22.3660 
   86.1250   -14.2090     2.2020    73.1750    10.7300     8.9260    11.0490    22.6760 
   86.2500   -13.3210     2.2030    76.5630    10.2030     8.6400    11.7050    23.3370 
   86.3750   -12.3870     2.2090    79.0960     9.2090     7.9310    11.4980    23.9810 
   86.5000   -11.4760     2.2180    82.7350     8.0060     6.9780     8.9090    24.4100 
   86.6250   -10.6140     2.2210    90.9380     6.9220     6.0370     6.5890    24.6400 
   86.7500    -9.8880     2.2170    99.1600     6.2760     5.3730     5.5410    24.7300 
   86.8750    -9.3380     2.2210    99.7490     6.0570     5.0320     5.3140    24.7500 
   87.0000    -8.9810     2.2410    95.6370     6.1930     4.9940     5.4110    24.7440 
   87.1250    -8.8070     2.2730    92.1570     6.5420     5.1790     5.7370    24.7160 
   87.2500    -8.7740     2.3000    91.6360     6.8770     5.4450     6.2920    24.6860 
   87.3750    -8.8040     2.3050    92.1060     7.0150     5.6200     6.7270    24.6260 
   87.5000    -8.8580     2.2880    90.7790     6.9180     5.6400     6.5710    24.6030 
   87.6250    -8.9170     2.2640    89.4020     6.6700     5.5320     6.2100    24.6190 
   87.7500    -8.9860     2.2520    91.7150     6.4110     5.3790     5.8440    24.6640 
   87.8750    -9.0640     2.2540    95.8280     6.2370     5.2720     5.6870    24.7080 
   88.0000    -9.1780     2.2590    96.8520     6.1720     5.2430     5.6700    24.7430 
   88.1250    -9.3320     2.2600    94.8170     6.1920     5.2860     5.7160    24.7490 
   88.2500    -9.5230     2.2570    95.1770     6.2630     5.3690     5.7820    24.7090 
   88.3750    -9.7630     2.2580    95.7210     6.3540     5.4490     5.9060    24.6110 
   88.5000   -10.0620     2.2640    95.0990     6.4480     5.5120     6.0300    24.5050 
   88.6250   -10.4250     2.2730    95.5450     6.5380     5.5520     5.9400    24.5380 
   88.7500   -10.8340     2.2820    98.6770     6.6180     5.5680     5.9660    24.6480 
   88.8750   -11.2670     2.2810   101.0130     6.6840     5.5580     5.9870    24.6940 
   89.0000   -11.7000     2.2700    99.5010     6.7130     5.5110     6.0140    24.6400 
   89.1250   -12.1030     2.2540    96.2520     6.6580     5.4050     5.9720    24.5020 
   89.2500   -12.4880     2.2410    95.5910     6.4690     5.2120     5.8780    24.3230 
   89.3750   -12.8880     2.2350    98.3890     6.2120     4.9730     5.7390    24.1960 
   89.5000   -13.2920     2.2410   100.1620     6.0110     4.7610     5.6280    24.0370 
   89.6250   -13.7080     2.2630    99.2410     6.0660     4.6890     5.5970    23.8330 
   89.7500   -14.1110     2.2960    97.2860     6.7140     4.9670     5.8420    23.6840 
   89.8750   -14.4380     2.3230    93.0550     8.0820     5.7070     6.9890    23.6370 
   90.0000   -14.6270     2.3370    86.1890    10.2130     7.0190     9.5940    23.5650 
   90.1250   -14.6670     2.3470    77.4550    12.8610     8.8840    13.6760    23.4950 
   90.2500   -14.5420     2.3670    73.0990    15.0400    10.8340    22.1920    23.5670 
   90.3750   -14.2580     2.3750    75.1510    15.4530    11.8130    33.7020    23.7010 
   90.5000   -13.8050     2.3450    81.2700    13.7100    11.1910    33.3770    23.7850 
   90.6250   -13.1710     2.2830    89.2010    10.8420     9.4190    20.5130    23.8850 
   90.7500   -12.3790     2.2360    94.0250     8.4030     7.5550    11.1050    24.0970 
   90.8750   -11.5940     2.2150    94.0200     6.9140     6.1910     7.0120    24.3240 
   91.0000   -10.9220     2.2060    88.7970     6.2510     5.3840     6.0140    24.4490 
   91.1250   -10.3940     2.1990    82.0420     6.1590     5.0510     6.3030    24.5000 
   91.2500   -10.0190     2.1980    79.4550     6.4340     5.1140     6.4900    24.5240 
   91.3750    -9.7720     2.2080    78.9720     6.8140     5.3740     6.3650    24.5110 
   91.5000    -9.6570     2.2240    80.0300     7.1540     5.7020     6.3580    24.4190 
   91.6250    -9.6740     2.2380    81.3060     7.3540     5.9810     6.7450    24.2480 
   91.7500    -9.7930     2.2420    81.9920     7.3440     6.1140     7.0670    24.1310 
   91.8750    -9.9300     2.2400    82.2930     7.1930     6.1060     6.7850    24.0350 
   92.0000   -10.0770     2.2340    84.0770     6.9740     5.9920     6.1220    24.0080 
   92.1250   -10.2230     2.2290    88.4650     6.7840     5.8380     5.9030    24.0240 
   92.2500   -10.3470     2.2280    89.5710     6.7200     5.7240     6.3170    24.0470 
   92.3750   -10.4370     2.2330    83.6710     6.7630     5.6830     6.5510    24.1410 
   92.5000   -10.5090     2.2430    75.5370     6.8610     5.6980     6.4320    24.2940 
   92.6250   -10.5900     2.2550    72.8230     6.9290     5.7200     6.3190    24.3510 
   92.7500   -10.7180     2.2620    76.8620     6.8830     5.6900     6.3790    24.2510 
   92.8750   -10.8760     2.2670    80.6840     6.7440     5.6040     6.2300    24.0220 
   93.0000   -11.0630     2.2690    81.2270     6.5790     5.4910     5.8730    23.8030 
   93.1250   -11.3160     2.2660    79.1820     6.4940     5.4110     5.7070    23.6610 
   93.2500   -11.6760     2.2540    77.2700     6.6350     5.4590     5.9260    23.5090 
   93.3750   -12.1340     2.2380    75.4380     7.0380     5.6800     6.3820    23.3210 
   93.5000   -12.6690     2.2310    73.0650     7.7020     6.0980     6.7510    23.1720 
   93.6250   -13.2320     2.2400    71.5690     8.5440     6.6850     7.3490    23.1060 
   93.7500   -13.7630     2.2630    72.5760     9.3470     7.3250     8.2790    23.1490 
   93.8750   -14.2090     2.2820    72.5320     9.8230     7.7930     9.4320    23.2050 
   94.0000   -14.4990     2.2800    71.9110     9.7740     7.9040     9.6990    23.1970 
   94.1250   -14.6000     2.2560    74.9620     9.1920     7.5860     9.0060    23.0460 
   94.2500   -14.5370     2.2350    81.4760     8.2930     6.9310     7.8250    22.8800 
   94.3750   -14.4010     2.2360    85.2460     7.5530     6.2750     6.8690    22.8050 
   94.5000   -14.2840     2.2570    85.8160     7.2840     5.8650     6.4470    22.8050 
   94.6250   -14.2520     2.2800    85.5920     7.6270     5.8540     6.5140    22.8070 
   94.7500   -14.4060     2.2900    83.0570     8.6690     6.3720     7.1990    22.7660 
   94.8750   -14.7610     2.2970    77.1310    10.1210     7.2990     8.9150    22.7440 
   95.0000   -15.3370     2.3060    69.8780    11.6480     8.4750    12.4870    22.8390 
   95.1250   -16.1070     2.3070    63.8840    12.8240     9.6110    16.4070    23.1520 
   95.2500   -17.0270     2.2800    62.0130    13.2670    10.3340    14.4490    23.6520 
   95.3750   -17.9960     2.2380    61.8560    13.2670    10.6660    12.2040    24.1160 
   95.5000   -18.9380     2.2100    61.6010    13.1790    10.7940    11.1610    24.2720 
   95.6250   -19.8120     2.2100    61.5610    13.2220    10.9040    10.9810    24.0370 
