~V
VERS. 2.00: Ver 2.00
~W
STRT.M 50.0000:
STOP.M 170.0000:
STEP.M 0.1250:
NULL. -999.2500:
UWI. F11116:
~C
DEPT.M :
SP.MV :
DEN.GM/CC :
GR.API :
RML.OHMM :
RI. :
RXO.OHMM :
CALI.CM :
~A
# ...
  117.5000   -15.7170     2.1700    64.5030     8.0420     6.6220     8.0890    24.7710 
  117.6250   -15.4080     2.1660    63.6440     8.1230     6.6470     7.9870    24.7720 
  117.7500   -15.0410     2.1670    62.8940     8.1000     6.5910     7.8890    24.7750 
  117.8750   -14.6000     2.1730    63.2530     7.9420     6.4430     7.7680    24.7860 
  118.0000   -14.0580     2.1770    65.4410     7.6210     6.1790     7.7340    24.8110 
  118.1250   -13.3870     2.1790    69.8460     7.1000     5.7580     7.9310    24.8580 
  118.2500   -12.6280     2.1850    75.1100     6.4800     5.2580     7.6880    24.9130 
  118.3750   -11.8360     2.2060    80.0470     5.9040     4.7920     6.4950    24.9540 
  118.5000   -11.0890     2.2530    84.9550     5.5220     4.4710     5.0060    24.9700 
  118.6250   -10.5260     2.3250    88.5850     5.5060     4.4170     4.4570    24.9670 
  118.7500   -10.2230     2.3910    86.1420     5.8310     4.6070     5.2590    24.9520 
  118.8750   -10.2270     2.4180    77.8100     6.4050     4.9860     8.0890    24.9200 
  119.0000   -10.5340     2.3950    69.6880     7.0330     5.4550     9.3600    24.8800 
  119.1250   -11.1160     2.3380    67.4320     7.4560     5.8790     8.3680    24.8580 
  119.2500   -11.8250     2.2830    68.5370     7.6060     6.1770     7.6490    24.8520 
  119.3750   -12.5610     2.2450    70.2580     7.5560     6.3460     7.4360    24.8450 
  119.5000   -13.2380     2.2240    72.4540     7.4540     6.4400     7.2230    24.8310 
  119.6250   -13.7820     2.2120    71.6140     7.4510     6.5210     7.3330    24.8190 
  119.7500   -14.1920     2.2040    67.3610     7.5580     6.6080     8.2270    24.8140 
  119.8750   -14.4780     2.2020    64.5110     7.7180     6.6830     9.4210    24.8140 
  120.0000   -14.6520     2.2060    64.6990     7.8670     6.7270    10.5400    24.8160 
  120.1250   -14.7100     2.2110    66.0090     7.9450     6.7250     9.5800    24.8200 
  120.2500   -14.6770     2.2090    67.1100     7.9330     6.6910     8.7010    24.8220 
  120.3750   -14.5460     2.1960    68.5250     7.8720     6.6540     8.3850    24.8220 
  120.5000   -14.3030     2.1690    70.1630     7.8810     6.6810     8.5750    24.8270 
  120.6250   -13.9090     2.1420    71.0500     8.2080     6.9260     8.9680    24.8410 
  120.7500   -13.3890     2.1390    70.0600     8.9970     7.4950     9.1570    24.8590 
  120.8750   -12.7620     2.1840    66.0810    10.3140     8.4530     9.6580    24.8930 
  121.0000   -12.0390     2.2820    60.8330    12.0470     9.7560    11.7020    24.9520 
  121.1250   -11.2330     2.3940    56.5530    13.7410    11.1370    17.1500    25.0280 
  121.2500   -10.3950     2.4600    52.8710    14.7140    12.0930    22.1390    25.0950 
  121.3750    -9.5630     2.4610    51.0290    14.5220    12.2440    20.4160    25.1410 
  121.5000    -8.7680     2.4240    53.6480    13.2410    11.5540    14.1140    25.1690 
  121.6250    -8.0500     2.3890    59.9350    11.4230    10.3170     9.9720    25.1760 
  121.7500    -7.4190     2.3650    65.1680     9.7720     9.0440     8.4090    25.1760 
  121.8750    -6.8890     2.3480    68.2930     8.5410     7.9620     7.7690    25.1710 
  122.0000    -6.4670     2.3370    69.5400     7.7230     7.1430     7.0960    25.1670 
  122.1250    -6.1760     2.3340    67.9240     7.2390     6.6120     6.0810    25.1670 
  122.2500    -5.9690     2.3370    66.7350     7.0020     6.3250     6.0610    25.1710 
  122.3750    -5.8320     2.3420    68.9710     7.1010     6.3290     6.4040    25.1740 
  122.5000    -5.7520     2.3480    72.8510     7.7040     6.7140     7.1140    25.1740 
  122.6250    -5.7100     2.3630    72.7050     9.1690     7.7070     7.4630    25.1750 
  122.7500    -5.6850     2.3950    66.7600    11.5680     9.3620    10.0970    25.1760 
  122.8750    -5.6570     2.4400    59.1800    14.8740    11.7060    16.6850    25.1740 
  123.0000    -5.6230     2.4860    54.5760    18.6900    14.5390    22.9500    25.1710 
  123.1250    -5.6130     2.5150    54.2540    21.9670    17.2140    24.2520    25.1680 
  123.2500    -5.6390     2.5300    54.5360    23.7890    18.9940    22.9210    25.1700 
  123.3750    -5.7070     2.5350    52.3810    24.0150    19.6290    20.5470    25.1730 
  123.5000    -5.8110     2.5320    48.5780    23.3080    19.4410    19.5900    25.1710 
  123.6250    -5.9400     2.5240    46.4070    22.6260    19.0130    20.3960    25.1610 
  123.7500    -6.0750     2.5170    47.2040    22.3970    18.7480    21.8350    25.1510 
  123.8750    -6.2080     2.5080    49.5160    22.5490    18.6920    21.3330    25.1520 
  124.0000    -6.3180     2.4910    50.5590    22.8770    18.7850    20.6510    25.1450 
  124.1250    -6.3800     2.4620    50.1670    23.2050    18.9540    19.9510    25.1000 
  124.2500    -6.4130     2.4340    51.0710    23.4730    19.1310    20.1520    25.0510 
  124.3750    -6.4370     2.4190    53.4310    23.7250    19.3070    19.9240    25.0450 
  124.5000    -6.4580     2.4230    55.1650    24.0100    19.4990    19.0370    25.0830 
  124.6250    -6.4760     2.4400    55.1180    24.2990    19.7080    20.0590    25.1150 
  124.7500    -6.4860     2.4480    54.8250    24.4460    19.8580    21.6640    25.1210 
  124.8750    -6.4770     2.4360    54.2580    24.3410    19.8760    22.3620    25.1180 
  125.0000    -6.4440     2.4130    53.7950    23.9940    19.7490    21.6150    25.1200 
  125.1250    -6.3730     2.4020    53.9600    23.5490    19.5410    20.0920    25.1200 
  125.2500    -6.2540     2.4150    54.1060    23.2370    19.3850    18.7460    25.1180 
  125.3750    -6.0880     2.4460    53.5610    23.1870    19.3730    17.8880    25.1150 
  125.5000    -5.8990     2.4800    52.3390    23.4060    19.5330    20.4700    25.1180 
  125.6250    -5.7160     2.4980    51.7410    23.7370    19.8000    25.8680    25.1160 
  125.7500    -5.5710     2.4990    51.6670    23.9110    20.0020    28.0400    25.0990 
  125.8750    -5.4750     2.4890    52.5370    23.7820    20.0160    24.8160    25.0840 
  126.0000    -5.4280     2.4760    54.9940    23.3530    19.8120    21.2630    25.0890 
  126.1250    -5.4130     2.4700    56.0610    22.7690    19.4600    20.5420    25.1070 
  126.2500    -5.4240     2.4770    54.5290    22.2570    19.1190    20.3150    25.1130 
  126.3750    -5.4590     2.4960    52.0960    21.9270    18.8730    19.4440    25.1080 
  126.5000    -5.5100     2.5190    51.3940    21.7940    18.7460    19.8410    25.1070 
  126.6250    -5.5810     2.5300    53.1200    21.8090    18.7110    22.7610    25.1130 
  126.7500    -5.6650     2.5220    54.1090    21.8770    18.7130    23.3110    25.1200 
  126.8750    -5.7730     2.5010    52.9480    22.0010    18.7590    20.9430    25.1240 
  127.0000    -5.9070     2.4820    50.8250    22.2190    18.8860    21.2850    25.1230 
  127.1250    -6.0560     2.4770    50.3360    22.5800    19.1390    23.8750    25.1200 
  127.2500    -6.1970     2.4780    50.6940    23.0490    19.4950    22.4890    25.1100 
  127.3750    -6.3140     2.4730    50.3940    23.5320    19.9030    21.1130    25.0760 
  127.5000    -6.4150     2.4570    49.9120    23.8670    20.2430    22.5430    25.0140 
  127.6250    -6.5140     2.4320    50.1730    23.8590    20.3410    21.5550    24.9260 
  127.7500    -6.6000     2.4160    50.2110    23.5800    20.2030    20.9240    24.8420 
  127.8750    -6.6630     2.4190    49.0530    23.1700    19.9130    20.0670    24.7870 
  128.0000    -6.6820     2.4470    48.3460    22.7670    19.5840    19.7420    24.7780 
  128.1250    -6.6270     2.4840    49.2550    22.4830    19.3290    19.1340    24.8070 
  128.2500    -6.5040     2.5050    50.8150    22.3110    19.1750    18.6560    24.8350 
  128.3750    -6.3200     2.5000    52.9110    22.2030    19.0930    18.8750    24.8670 
  128.5000    -6.0910     2.4760    55.4480    22.1140    19.0360    19.2520    24.9230 
  128.6250    -5.8690     2.4570    57.5250    22.0930    19.0020    18.6550    25.0020 
