~V
VERS. 2.00: Ver 2.00
~W
STRT.M 54.0000:
STOP.M 273.0000:
STEP.M 0.1250:
NULL. -999.2500:
UWI. F11158:
~C
DEPT.M :
SP.MV :
DEN.GM/CC :
GR.API :
RML.OHMM :
RI. :
RXO.OHMM :
CALI.CM :
~A
# ...
   76.5000   -43.1000     2.1280    59.8770     9.5890     6.9280    10.7070    31.1270 
   76.6250   -42.8200     2.1460    61.8110     9.6180     6.9550    10.6890    30.6890 
   76.7500   -42.4990     2.1600    62.8100     9.6410     7.0000    10.7160    30.4170 
   76.8750   -42.1160     2.1680    62.4170     9.6670     7.0600    10.7040    30.3040 
   77.0000   -41.6580     2.1730    61.8720     9.6920     7.1280    10.6260    30.1620 
   77.1250   -41.0880     2.1770    61.7740     9.7040     7.1970    10.7660    29.9630 
   77.2500   -40.3620     2.1750    61.2280     9.6910     7.2640    11.0900    29.8900 
   77.3750   -39.4740     2.1680    61.4960     9.6680     7.3340    11.0810    29.9270 
   77.5000   -38.4030     2.1620    62.3320     9.6480     7.4120    10.8480    29.9640 
   77.6250   -37.1130     2.1630    62.1380     9.6220     7.4840    10.6630    29.8400 
   77.7500   -35.5790     2.1740    59.6930     9.5490     7.5050    10.4760    29.3950 
   77.8750   -33.8960     2.1910    59.6390     9.3950     7.4410    10.0520    28.8000 
   78.0000   -32.1060     2.2090    65.2400     9.1600     7.2850     9.4670    28.2070 
   78.1250   -30.2430     2.2290    73.8900     8.8760     7.0630     8.6610    27.5420 
   78.2500   -28.3680     2.2570    80.5230     8.5760     6.7990     7.6730    26.7370 
   78.3750   -26.5620     2.2860    84.5610     8.2520     6.4970     7.1990    26.0790 
   78.5000   -24.9030     2.3050    88.0530     7.8580     6.1380     7.4070    25.7550 
   78.6250   -23.4910     2.3110    93.6770     7.3430     5.6970     7.6870    25.6260 
   78.7500   -22.4230     2.3150   101.7730     6.6900     5.1770     7.0530    25.5100 
   78.8750   -21.6740     2.3290   108.6710     6.0260     4.6590     5.8570    25.3900 
   79.0000   -21.2740     2.3520   110.6930     5.5500     4.2580     4.9610    25.2920 
   79.1250   -21.2380     2.3750   107.8890     5.5090     4.1170     4.5960    25.2160 
   79.2500   -21.5610     2.3960   102.8700     6.1480     4.3920     4.8650    25.1560 
   79.3750   -22.1510     2.4190    96.7800     7.4510     5.1100     6.4800    25.1120 
   79.5000   -22.9730     2.4460    87.9960     9.2770     6.2550    10.9070    25.0860 
   79.6250   -23.9940     2.4640    77.4470    11.1640     7.6230    18.6520    25.0840 
   79.7500   -25.1800     2.4410    68.2930    12.3230     8.7200    22.3340    25.1860 
   79.8750   -26.3970     2.3690    63.0980    12.3380     9.1130    16.7260    25.5260 
   80.0000   -27.5360     2.2850    62.8720    11.4190     8.8040    11.3380    26.0860 
   80.1250   -28.5280     2.2280    64.9600    10.2260     8.1650     9.2720    26.5680 
   80.2500   -29.3230     2.2090    66.8890     9.3730     7.6140     8.7420    26.8510 
   80.3750   -29.9140     2.2080    68.2210     8.9740     7.3120     8.5920    27.0030 
   80.5000   -30.3010     2.2100    69.5860     8.8800     7.2140     8.6370    27.1160 
   80.6250   -30.4950     2.2090    69.9770     8.8990     7.2080     8.7120    27.2970 
   80.7500   -30.5310     2.2040    69.1030     8.9240     7.2080     8.5800    27.7120 
   80.8750   -30.5210     2.1940    68.3480     8.9650     7.2000     8.1900    28.2930 
   81.0000   -30.5210     2.1830    68.2580     9.0850     7.2220     7.7330    28.7730 
   81.1250   -30.5520     2.1760    68.2480     9.3360     7.3130     7.5990    28.7920 
   81.2500   -30.6180     2.1710    67.6450     9.6840     7.4730     8.0280    28.3110 
   81.3750   -30.7100     2.1640    65.9230     9.9290     7.5950     8.8000    27.8990 
   81.5000   -30.8080     2.1550    64.4690     9.8380     7.5240     9.6210    27.9070 
   81.6250   -30.8890     2.1490    65.4120     9.3100     7.1630    10.0200    28.2380 
   81.7500   -30.9130     2.1540    68.4040     8.5770     6.6180     9.3550    28.2990 
   81.8750   -30.8960     2.1870    71.1110     8.1930     6.2210     7.8080    27.6800 
   82.0000   -30.9160     2.2590    72.6440     8.5850     6.2420     6.5050    26.6840 
   82.1250   -31.0900     2.3630    71.3900     9.9610     6.8690     7.1410    25.9230 
   82.2500   -31.5050     2.4640    67.0560    12.2020     8.1750    12.3020    25.6190 
   82.3750   -32.1480     2.5100    61.0800    14.5070     9.8040    22.8260    25.5580 
   82.5000   -32.9800     2.4660    56.4690    15.8690    11.1270    29.7510    25.7860 
   82.6250   -33.9430     2.3220    55.2410    15.4510    11.3980    22.8470    26.7310 
   82.7500   -34.9550     2.1450    55.3930    13.3960    10.4110    13.8490    28.6790 
   82.8750   -35.8840     2.0300    54.3540    11.1380     9.0300    11.1890    30.4780 
   83.0000   -36.6150     1.9990    54.1130     9.5350     7.8820    10.5560    30.9430 
   83.1250   -37.0090     2.0300    57.3300     8.8220     7.2310    10.1130    30.3620 
   83.2500   -36.9970     2.0800    61.8530     8.8550     7.0890     9.4900    29.6850 
   83.3750   -36.6530     2.1150    63.5080     9.2350     7.2470     9.3480    29.2670 
   83.5000   -36.0300     2.1330    62.7570     9.7450     7.5620     9.8370    28.9900 
   83.6250   -35.1870     2.1460    61.3670    10.2250     7.9120    10.3650    28.5180 
   83.7500   -34.1770     2.1610    60.4270    10.5370     8.1820    10.0890    27.6370 
   83.8750   -33.1030     2.1790    60.8020    10.6120     8.2930     9.6590    26.8930 
   84.0000   -31.9880     2.1970    63.7010    10.4310     8.2190     9.7110    26.4640 
   84.1250   -30.8670     2.2130    68.3990    10.0650     7.9910     9.9320    26.1770 
   84.2500   -29.7650     2.2300    71.4840     9.6790     7.7020     9.1090    25.7450 
   84.3750   -28.7250     2.2410    71.9310     9.5180     7.5070     8.0890    25.2500 
   84.5000   -27.7360     2.2360    71.9210     9.7820     7.5430     8.0810    24.9820 
   84.6250   -26.7340     2.2140    71.8280    10.5610     7.9080     9.0220    25.2420 
   84.7500   -25.6640     2.1890    69.5720    11.7220     8.5910     9.8480    26.0430 
   84.8750   -24.5150     2.1770    66.2580    12.7660     9.3120    10.8760    26.6740 
   85.0000   -23.3190     2.1910    66.7450    13.1490     9.7010    12.7860    26.6330 
   85.1250   -22.1120     2.2350    71.3520    12.4770     9.4140    14.1020    26.2300 
   85.2500   -20.9260     2.2970    78.5340    10.8230     8.3990    12.4810    25.9580 
   85.3750   -19.7340     2.3430    86.5950     8.9630     7.1380     7.7850    25.8180 
   85.5000   -18.5830     2.3600    93.0970     7.4480     6.0100     5.4740    25.7070 
   85.6250   -17.5560     2.3650    97.8670     6.5390     5.2350     4.6860    25.5820 
   85.7500   -16.7380     2.3710   101.9260     6.2730     4.9020     4.6500    25.4700 
   85.8750   -16.1520     2.3720   104.8780     6.4410     4.9210     4.8710    25.3960 
   86.0000   -15.7940     2.3670   104.9540     6.9310     5.2320     5.2200    25.3670 
   86.1250   -15.6280     2.3610   101.9880     7.6390     5.7680     5.6400    25.3350 
   86.2500   -15.6130     2.3680    98.3860     8.4300     6.4370     6.3800    25.1950 
   86.3750   -15.6930     2.3980    93.6690     9.0790     7.0650     8.3460    24.9590 
   86.5000   -15.8380     2.4490    87.6660     9.3530     7.4560    11.4550    24.7860 
   86.6250   -16.0450     2.4910    84.3600     9.0730     7.4210    12.7680    24.7310 
   86.7500   -16.3380     2.4810    88.5700     8.2490     6.8970     9.8600    24.6130 
   86.8750   -16.6880     2.4270    97.4910     7.2540     6.1460     6.5400    24.3760 
   87.0000   -17.0770     2.3710   103.9410     6.4130     5.4200     5.0740    24.2730 
   87.1250   -17.5210     2.3450   104.3590     5.9430     4.9100     4.7530    24.3300 
   87.2500   -18.0550     2.3460   102.2140     5.9320     4.7240     4.6840    24.4570 
   87.3750   -18.6690     2.3510   101.5820     6.2470     4.8050     4.6830    24.5600 
   87.5000   -19.3460     2.3480   102.0650     6.7470     5.0760     4.9720    24.6280 
   87.6250   -20.0770     2.3410   102.2160     7.2440     5.4150     5.5190    24.6880 
