~V
VERS. 2.00: Ver 2.00
~W
STRT.M 49.0000:
STOP.M 247.0000:
STEP.M 0.1250:
NULL. -999.2500:
UWI. F11144:
~C
DEPT.M :
DEN.GM/CC :
SP.MV :
GR.API :
RML.OHMM :
RI. :
RXO.OHMM :
CALI.CM :
~A
# ...
  161.5000     2.2490   -11.4380    76.2130     7.7060     6.8740     8.3820    23.9830 
  161.6250     2.2380   -11.5050    71.2400     8.7250     7.5940     9.3640    23.9720 
  161.7500     2.2350   -11.6320    69.2620     9.9950     8.7100    10.1640    23.9360 
  161.8750     2.2480   -11.8320    70.5300    11.0290     9.8080    11.7370    23.9130 
  162.0000     2.2720   -12.0590    71.6110    11.3620    10.4290    13.5110    23.8990 
  162.1250     2.2850   -12.2680    73.2370    10.7650    10.2420    12.6050    23.8780 
  162.2500     2.2760   -12.4890    79.0310     9.4480     9.2850    10.8200    23.8400 
  162.3750     2.2630   -12.6680    83.9030     8.1570     8.1930     8.8190    23.7370 
  162.5000     2.2620   -12.8420    84.3230     7.3480     7.3770     7.2320    23.6190 
  162.6250     2.2690   -13.0070    82.0690     7.2070     7.0420     6.5510    23.5120 
  162.7500     2.2720   -13.1520    81.0530     7.8120     7.3220     7.2010    23.4130 
  162.8750     2.2690   -13.2870    80.8050     8.9030     8.0780     8.6660    23.3320 
  163.0000     2.2650   -13.3910    82.0910    10.2590     9.1890    10.0410    23.2650 
  163.1250     2.2650   -13.4830    85.4160    11.5560    10.4200    10.6280    23.2190 
  163.2500     2.2670   -13.5700    84.0950    12.2660    11.2870    11.2920    23.2060 
  163.3750     2.2630   -13.6320    78.9330    12.1970    11.4540    12.3380    23.2600 
  163.5000     2.2520   -13.6860    75.4050    11.4540    10.9030    12.9710    23.3460 
  163.6250     2.2460   -13.7570    74.8480    10.4360     9.9560    11.3130    23.3160 
  163.7500     2.2530   -13.8520    75.4870     9.7580     9.1360     9.0080    22.9930 
  163.8750     2.2620   -13.9560    76.3980     9.7590     8.7990     8.3990    22.5370 
  164.0000     2.2640   -14.0590    77.6540    10.5280     9.0840     9.3600    22.2030 
  164.1250     2.2580   -14.1720    77.0380    11.9490    10.0000    11.0320    22.0750 
  164.2500     2.2510   -14.2840    75.4460    13.7040    11.4370    12.8720    22.0280 
  164.3750     2.2450   -14.4130    74.9860    15.2250    12.9240    14.6880    21.9660 
  164.5000     2.2420   -14.5200    74.0530    16.1890    14.0820    15.6990    21.8810 
  164.6250     2.2420   -14.5750    72.8140    16.6870    14.7940    14.5360    21.7830 
  164.7500     2.2440   -14.6120    75.3780    17.1970    15.3050    12.4500    21.7190 
  164.8750     2.2440   -14.5930    78.8810    18.0210    15.9520    12.2720    21.6800 
  165.0000     2.2420   -14.5520    76.9980    19.0250    16.7610    13.7350    21.6650 
  165.1250     2.2420   -14.4900    71.1630    19.8060    17.5100    15.7520    21.7030 
  165.2500     2.2490   -14.3840    69.4160    19.7590    17.7180    15.7450    21.7570 
  165.3750     2.2600   -14.2880    71.6600    18.8860    17.2370    14.5760    21.8900 
  165.5000     2.2670   -14.1920    74.7510    17.5910    16.2770    13.4990    22.1500 
  165.6250     2.2660   -14.1050    76.4980    16.4820    15.2990    13.0930    22.5340 
  165.7500     2.2610   -14.0090    76.0940    16.1540    14.8420    13.4480    22.8510 
  165.8750     2.2560   -13.9500    73.1030    16.6830    15.0730    13.5870    23.0860 
  166.0000     2.2510   -13.9360    69.0910    18.0880    16.0780    13.5410    23.2300 
  166.1250     2.2410   -13.9340    68.0020    20.2800    17.8620    14.9860    23.3450 
  166.2500     2.2260   -13.9710    70.5370    23.0210    20.3500    18.0260    23.4200 
  166.3750     2.2150   -13.9920    73.9270    25.6290    23.0010    20.6110    23.4900 
  166.5000     2.2080   -14.0090    75.7100    27.3720    25.1790    21.7120    23.5440 
  166.6250     2.2020   -14.0440    74.3390    27.5320    26.1370    21.4490    23.5810 
  166.7500     2.1970   -14.0700    70.6430    25.5790    25.1020    20.4680    23.5440 
  166.8750     2.1990   -14.0690    68.4280    22.5290    22.7770    19.6040    23.4340 
  167.0000     2.2100   -14.0530    69.6360    19.4460    20.1080    18.6000    23.2690 
  167.1250     2.2250   -14.0560    72.7580    17.1870    17.9270    16.2080    23.0640 
  167.2500     2.2380   -14.0610    75.7720    16.4670    16.9410    13.2040    22.7970 
  167.3750     2.2480   -14.1020    77.8880    17.1210    17.1950    12.6460    22.6390 
  167.5000     2.2510   -14.1660    78.4580    18.8460    18.6470    14.8850    22.6470 
  167.6250     2.2500   -14.2270    77.2080    24.3870    20.9770    17.4360    22.6590 
  167.7500     2.2470   -14.3190    74.7870    26.0770    23.2500    18.3330    22.5860 
  167.8750     2.2450   -14.4040    74.5100    25.9160    24.1800    18.5110    22.5620 
  168.0000     2.2480   -14.4810    76.3470    23.8120    23.1670    17.2530    22.6740 
  168.1250     2.2600   -14.5570    76.8880    20.6560    20.7080    14.6750    22.8130 
  168.2500     2.2760   -14.6320    75.8580    17.7130    17.9400    12.8750    22.7890 
  168.3750     2.2860   -14.7000    76.6920    15.5910    15.6870    11.7180    22.6490 
  168.5000     2.2840   -14.7960    80.1160    14.3920    14.1680    10.8560    22.5090 
  168.6250     2.2720   -14.9290    82.4600    14.0260    13.3890    10.4890    22.4930 
  168.7500     2.2580   -15.0910    81.1600    14.3670    13.3130    10.4340    22.6540 
  168.8750     2.2490   -15.3500    79.5740    15.0720    13.6410    10.8250    22.8090 
  169.0000     2.2460   -15.6740    78.3350    16.0730    14.2570    12.1970    22.9900 
  169.1250     2.2470   -16.0830    77.7740    17.5850    15.2280    13.5680    23.1290 
  169.2500     2.2510   -16.6470    77.8270    20.6640    17.1640    14.0000    23.1210 
  169.3750     2.2540   -17.3190    77.2620    26.6480    21.1140    14.4790    23.0450 
  169.5000     2.2510   -18.1370    74.2300    37.6270    29.2350    17.0370    23.1000 
  169.6250     2.2340   -19.0430    68.0160    56.5780    45.0380    24.7810    23.3060 
  169.7500     2.2050   -20.0100    59.9630    90.9330    76.2830    38.4520    23.4830 
  169.8750     2.1800   -21.0360    52.2190   144.5230   125.1850    51.5470    23.5750 
  170.0000     2.1660   -22.0610    47.7120   215.5010   187.2470    56.1100    23.5880 
  170.1250     2.1660   -23.0710    48.8130   282.5210   243.7670    56.4450    23.5670 
  170.2500     2.1720   -24.0220    52.5860   310.9840   269.4420    55.8890    23.5740 
  170.3750     2.1750   -24.8840    53.2950   315.6230   274.3620    56.0980    23.5960 
  170.5000     2.1680   -25.6130    51.9920   319.5640   275.6660    56.1240    23.6080 
  170.6250     2.1510   -26.2690    52.4380   332.5580   282.9770    56.9850    23.6080 
  170.7500     2.1310   -26.8290    55.0610   353.5570   297.1070    57.0430    23.6170 
  170.8750     2.1130   -27.2550    54.6460   373.5820   311.4260    55.4950    23.6220 
  171.0000     2.0970   -27.6350    50.3360   385.6180   320.4830    50.5940    23.5540 
  171.1250     2.0840   -27.9300    46.7340   386.8190   321.5710    44.0690    23.3700 
  171.2500     2.0780   -28.1110    47.0960   379.3000   315.6640    40.6560    23.1380 
  171.3750     2.0850   -28.2410    50.2350   369.8570   308.1840    39.4460    23.0060 
  171.5000     2.1070   -28.3290    55.9460   361.0870   301.8340    38.3100    22.9000 
  171.6250     2.1410   -28.3690    61.9750   352.1870   296.6430    36.4410    22.7810 
  171.7500     2.1720   -28.3780    63.7940   337.9960   288.9890    34.5360    22.7130 
  171.8750     2.1910   -28.4180    61.9420   314.2240   274.4990    33.8360    22.6890 
  172.0000     2.2040   -28.3980    60.0240   279.7530   250.6700    32.7270    22.6740 
  172.1250     2.2160   -28.3630    59.7480   238.6520   219.0010    30.5810    22.6020 
  172.2500     2.2270   -28.3190    61.0200   198.8910   185.1240    28.8920    22.4780 
  172.3750     2.2340   -28.2290    63.3340   165.3820   154.9560    28.0720    22.4460 
  172.5000     2.2360   -28.1520    64.9620   138.8460   130.3970    29.6460    22.5830 
  172.6250     2.2390   -28.0210    64.2460   118.4650   111.3020    33.0060    22.7430 
