~V
VERS. 2.00: Ver 2.00
~W
STRT.M 58.0000:
STOP.M 206.0000:
STEP.M 0.1250:
NULL. -999.2500:
UWI. F11128:
~C
DEPT.M :
GR.API :
RML.OHMM :
RI. :
RXO.OHMM :
CALI.CM :
SP.MV :
DEN.GM/CC :
~A
# ...
  125.5000    43.9570    26.8930    25.4770    25.4770    24.7620    -4.6330     2.5100 
  125.6250    43.1150    27.3140    26.0550    27.2400    24.7120    -4.5350     2.5360 
  125.7500    43.5720    27.2010    26.1090    28.0750    24.7050    -4.3460     2.5580 
  125.8750    46.0170    26.5980    25.6470    27.2540    24.7260    -4.1020     2.5780 
  126.0000    48.8170    25.5970    24.7320    25.2160    24.7600    -3.8060     2.5930 
  126.1250    49.6290    24.4400    23.6110    23.3100    24.8120    -3.4700     2.6040 
  126.2500    48.2510    23.2820    22.4470    21.8120    24.9040    -3.1020     2.6090 
  126.3750    46.6620    22.2620    21.3830    20.2240    24.9790    -2.7290     2.6080 
  126.5000    46.7250    21.5510    20.5940    18.5020    24.9560    -2.3760     2.6040 
  126.6250    47.7710    21.1740    20.1240    17.9900    24.9250    -2.0790     2.6040 
  126.7500    48.7230    21.1120    19.9730    18.4980    24.8720    -1.8590     2.6090 
  126.8750    48.9390    21.2670    20.0750    19.4420    24.8260    -1.7030     2.6110 
  127.0000    48.5030    21.4640    20.2940    20.4260    24.8050    -1.6540     2.6130 
  127.1250    48.3010    21.5030    20.4310    21.0100    24.7590    -1.6730     2.6150 
  127.2500    48.7160    21.2700    20.3520    20.6140    24.8510    -1.7320     2.6110 
  127.3750    49.8130    20.7450    19.9980    18.9140    25.2470    -1.8010     2.5970 
  127.5000    50.8360    19.9850    19.3780    17.7820    25.7890    -1.8500     2.5750 
  127.6250    51.3830    19.1790    18.6550    17.5100    26.2120    -1.8650     2.5600 
  127.7500    51.1360    18.4620    17.9610    17.2930    26.5510    -1.8660     2.5560 
  127.8750    50.4020    17.9440    17.4070    16.8050    26.8800    -1.8980     2.5530 
  128.0000    50.3070    17.7300    17.1180    16.5820    27.0740    -1.9410     2.5290 
  128.1250    49.8400    17.7610    17.0760    16.7360    27.0860    -2.0170     2.4910 
  128.2500    47.9590    17.9450    17.2230    17.2450    26.8790    -2.1260     2.4580 
  128.3750    45.5290    18.1300    17.4370    18.0840    26.4910    -2.2520     2.4430 
  128.5000    45.4130    18.0860    17.5010    19.0720    26.0660    -2.4400     2.4470 
  128.6250    47.4360    17.7190    17.2730    19.3040    25.6370    -2.7070     2.4510 
  128.7500    49.3650    17.0540    16.7290    17.7920    25.3080    -3.0380     2.4400 
  128.8750    50.9030    16.2530    15.9840    14.7340    25.0800    -3.3750     2.4290 
  129.0000    52.8950    15.6100    15.2960    12.6150    25.0150    -3.6790     2.4500 
  129.1250    53.3740    15.3240    14.8910    12.5000    25.1820    -3.9280     2.4930 
  129.2500    51.2580    15.4610    14.8690    13.7600    25.5230    -4.1400     2.5210 
  129.3750    48.7080    15.9570    15.2190    15.4280    25.7990    -4.3520     2.5160 
  129.5000    48.4790    16.6420    15.8450    17.0120    26.0690    -4.5430     2.5000 
  129.6250    48.8340    17.2320    16.4830    17.8050    26.2200    -4.6850     2.4940 
  129.7500    47.3910    17.5080    16.9120    17.5480    26.2170    -4.7900     2.4990 
  129.8750    45.2690    17.3220    16.9420    17.1810    26.0460    -4.8770     2.5110 
  130.0000    45.4430    16.5750    16.4080    17.0150    25.8210    -4.9430     2.5250 
  130.1250    48.0260    15.5100    15.4890    16.7640    25.6930    -4.9650     2.5370 
  130.2500    51.7930    14.3850    14.4120    15.8160    25.7150    -4.9110     2.5420 
  130.3750    55.4670    13.4770    13.4480    14.2060    25.8300    -4.8530     2.5400 
  130.5000    57.3580    13.0850    12.9010    12.6450    26.0090    -4.8780     2.5310 
  130.6250    57.9590    13.1890    12.8180    12.2720    26.2720    -5.0080     2.5170 
  130.7500    58.7800    13.6770    13.1520    13.1430    26.5230    -5.1930     2.5040 
  130.8750    60.3680    14.3300    13.7440    14.6180    26.7080    -5.4140     2.5020 
  131.0000    62.5470    14.8220    14.3130    16.0840    26.8510    -5.7150     2.5190 
  131.1250    64.6270    14.9440    14.5940    16.5270    26.9590    -6.0980     2.5410 
  131.2500    65.9970    14.6550    14.4680    16.0510    27.0700    -6.5810     2.5530 
  131.3750    65.3900    14.0910    13.9960    15.1990    27.1840    -7.0740     2.5450 
  131.5000    64.9780    13.5320    13.4010    14.1890    27.4110    -7.4750     2.5220 
  131.6250    68.4140    13.2380    12.9650    13.2070    27.7030    -7.7610     2.5000 
  131.7500    73.2680    13.3300    12.8400    12.3000    28.1060    -7.9500     2.4810 
  131.8750    75.4960    13.8260    13.0820    12.3930    28.4800    -8.0630     2.4630 
  132.0000    73.5180    14.6890    13.7040    13.5200    28.6400    -8.0610     2.4470 
  132.1250    70.4100    15.7200    14.5430    14.7090    28.5700    -7.9990     2.4370 
  132.2500    68.3730    16.7740    15.4680    15.8890    28.4320    -7.8540     2.4300 
  132.3750    68.7870    17.7220    16.3490    17.3310    28.3300    -7.6300     2.4250 
  132.5000    72.8180    18.4450    17.0550    18.2060    28.2800    -7.3600     2.4210 
  132.6250    75.4930    18.9780    17.5800    19.1490    28.2620    -7.0800     2.4120 
  132.7500    74.2160    19.3870    17.9600    20.5810    28.2560    -6.7970     2.3890 
  132.8750    71.9410    19.7730    18.2770    22.0280    28.3020    -6.4880     2.3450 
  133.0000    72.7790    20.2570    18.6410    22.6990    28.5950    -6.2010     2.2770 
  133.1250    75.9070    20.8860    19.1220    22.0170    28.9360    -5.9420     2.2000 
  133.2500    78.3250    21.6510    19.7400    21.5650    29.0380    -5.7470     2.1350 
  133.3750    80.1730    22.4830    20.4590    21.7660    28.4870    -5.6220     2.1110 
  133.5000    82.0710    23.2180    21.1640    21.8470    27.3020    -5.5470     2.1600 
  133.6250    82.4770    23.6950    21.6970    22.0000    26.0870    -5.4750     2.2550 
  133.7500    81.0920    23.8070    21.9300    22.1670    25.3560    -5.4080     2.3540 
  133.8750    79.2520    23.5380    21.8070    22.5130    25.0320    -5.3650     2.4180 
  134.0000    79.4170    22.9570    21.3420    22.3680    24.9380    -5.3070     2.4440 
  134.1250    79.4240    22.2940    20.7440    21.3330    24.9520    -5.2280     2.4610 
  134.2500    78.6320    21.7000    20.1610    20.0460    25.0360    -5.1440     2.4740 
  134.3750    79.5020    21.2550    19.6880    19.4600    25.1620    -5.0720     2.4840 
  134.5000    80.6760    20.9760    19.3670    19.5920    25.2400    -5.0130     2.4850 
  134.6250    79.1630    20.7490    19.1150    19.9460    25.2690    -4.9720     2.4780 
  134.7500    76.7500    20.4660    18.8420    19.9390    25.2900    -4.9720     2.4640 
  134.8750    77.6050    20.0280    18.4510    19.6590    25.2970    -5.0230     2.4450 
  135.0000    80.9380    19.3570    17.8520    19.3790    25.3610    -5.1710     2.4240 
  135.1250    82.8730    18.5330    17.0980    18.4570    25.2990    -5.3650     2.4040 
  135.2500    83.5730    17.6580    16.2720    17.4600    25.0420    -5.5640     2.3910 
  135.3750    82.4910    16.8430    15.4720    16.4110    24.7060    -5.7500     2.3880 
  135.5000    78.9930    16.2150    14.8150    15.2400    24.5880    -5.9240     2.3950 
  135.6250    77.6160    15.8060    14.3440    14.8600    24.4210    -6.0790     2.4050 
  135.7500    80.3350    15.6250    14.0810    15.0120    24.2630    -6.1850     2.4170 
  135.8750    84.0130    15.6480    14.0180    15.1960    24.1310    -6.2080     2.4310 
  136.0000    84.5280    15.8350    14.1380    15.1920    24.1300    -6.1210     2.4350 
  136.1250    82.0950    16.0430    14.3250    15.3110    24.4110    -5.9790     2.4250 
  136.2500    77.9170    16.1140    14.4450    15.5720    24.9680    -5.7910     2.3980 
  136.3750    73.8850    15.8800    14.3370    15.8170    25.4180    -5.5610     2.3600 
  136.5000    73.9340    15.1560    13.8010    15.6880    25.5990    -5.3150     2.3240 
  136.6250    76.0610    14.0600    12.8960    14.7960    25.6260    -5.1270     2.2890 
