~V
VERS. 2.00: Ver 2.00
~W
STRT.M 45.0000:
STOP.M 268.0000:
STEP.M 0.1250:
NULL. -999.2500:
UWI. F11184:
~C
DEPT.M :
SP.MV :
GR.API :
RI. :
RML.OHMM :
RXO.OHMM :
DEN.GM/CC :
~A
# ...
  186.6250   -29.0500    54.0820    49.7570    52.4450    68.3650     2.1950 
  186.7500   -28.8900    54.8330    46.3330    48.8490    55.1620     2.2050 
  186.8750   -28.7440    57.6230    43.6620    46.0450    49.2020     2.2090 
  187.0000   -28.6230    60.2780    41.8080    44.0980    49.2660     2.2120 
  187.1250   -28.5310    61.9270    40.9210    43.1670    51.1930     2.2090 
  187.2500   -28.4590    62.9760    41.2630    43.5260    48.4620     2.2020 
  187.3750   -28.4020    65.0910    42.2650    44.5790    48.7920     2.1950 
  187.5000   -28.3520    67.7520    43.4500    45.8230    49.2360     2.1890 
  187.6250   -28.3130    67.8420    44.4270    46.8480    50.2180     2.1880 
  187.7500   -28.2870    66.1610    44.8390    47.2810    51.4120     2.1900 
  187.8750   -28.2760    64.1360    44.5600    46.9880    52.5080     2.1890 
  188.0000   -28.2690    62.6150    43.4560    45.8290    53.5020     2.1910 
  188.1250   -28.2500    62.2230    41.8240    44.1150    53.7300     2.1960 
  188.2500   -28.2000    63.6220    40.2450    42.4570    52.5110     2.1980 
  188.3750   -28.1010    65.9370    39.1840    41.3430    50.3710     2.1940 
  188.5000   -27.9560    66.3500    38.8420    40.9840    49.4360     2.1860 
  188.6250   -27.7740    64.6090    39.3090    41.4750    51.9380     2.1790 
  188.7500   -27.5820    63.2500    40.5730    42.8020    56.7760     2.1750 
  188.8750   -27.4040    62.9910    42.4850    44.8090    60.8280     2.1770 
  189.0000   -27.2500    62.2650    44.6040    47.0350    62.6530     2.1770 
  189.1250   -27.1230    61.4940    46.4420    48.9640    62.8000     2.1700 
  189.2500   -27.0110    62.9800    48.0320    50.6330    62.6240     2.1590 
  189.3750   -26.9050    64.5070    49.2340    51.8950    62.7850     2.1520 
  189.5000   -26.7990    64.1840    49.7790    52.4680    63.1790     2.1520 
  189.6250   -26.6880    62.7310    49.6960    52.3810    63.7440     2.1600 
  189.7500   -26.5750    61.3980    48.7830    51.4220    64.0930     2.1720 
  189.8750   -26.4630    60.5890    46.9450    49.4930    63.2690     2.1780 
  190.0000   -26.3570    59.7730    44.5080    46.9340    61.1510     2.1790 
  190.1250   -26.2610    60.9280    41.6750    43.9590    58.2790     2.1790 
  190.2500   -26.1780    62.6790    39.0030    41.1530    55.4170     2.1800 
  190.3750   -26.1090    63.9790    37.2510    39.3140    53.2890     2.1820 
  190.5000   -26.0520    65.0840    36.4490    38.4720    52.0730     2.1820 
  190.6250   -26.0080    66.3220    36.6080    38.6380    51.4960     2.1770 
  190.7500   -25.9770    68.0420    37.5370    39.6130    50.9970     2.1700 
  190.8750   -25.9630    69.1980    39.5220    41.6980    50.6440     2.1690 
  191.0000   -25.9640    69.1800    41.9960    44.2960    51.4920     2.1700 
  191.1250   -25.9760    67.4050    44.9100    47.3560    54.6340     2.1650 
  191.2500   -25.9900    63.3930    48.3380    50.9550    59.2290     2.1610 
  191.3750   -25.9950    58.7040    51.3120    54.0780    63.2740     2.1630 
  191.5000   -25.9830    57.2940    53.8480    56.7400    65.3800     2.1620 
  191.6250   -25.9460    59.0210    54.9260    57.8720    65.9620     2.1580 
  191.7500   -25.8820    60.0880    54.6070    57.5380    66.7670     2.1530 
  191.8750   -25.7860    58.7980    53.1310    55.9880    68.3850     2.1470 
  192.0000   -25.6520    57.1700    50.5830    53.3120    69.5930     2.1460 
  192.1250   -25.4630    57.0620    46.8100    49.3510    68.7050     2.1540 
  192.2500   -25.1980    57.3650    42.1290    44.4360    65.3660     2.1670 
  192.3750   -24.8240    57.8300    37.8640    39.9570    60.1950     2.1700 
  192.5000   -24.3250    58.2740    34.8320    36.7730    55.0900     2.1630 
  192.6250   -23.6760    60.5410    34.0930    35.9970    52.7680     2.1520 
  192.7500   -22.8940    64.5840    34.9600    36.9080    54.5350     2.1460 
  192.8750   -21.9940    67.5750    37.7320    39.8180    59.4040     2.1520 
  193.0000   -21.0240    67.2930    42.1580    44.4660    64.0870     2.1610 
  193.1250   -20.0260    64.5150    46.9550    49.5030    66.4050     2.1640 
  193.2500   -19.0410    61.7830    51.8440    54.6360    66.9630     2.1630 
  193.3750   -18.0970    61.1740    55.4480    58.4210    66.8350     2.1620 
  193.5000   -17.1980    62.2220    57.5880    60.6680    64.5570     2.1600 
  193.6250   -16.3430    63.5900    58.2770    61.3900    57.1130     2.1600 
  193.7500   -15.5190    63.9900    57.0370    60.0890    44.0940     2.1600 
  193.8750   -14.7270    62.7190    50.3590    53.0770    30.9770     2.1670 
  194.0000   -13.9730    60.7740    39.7850    41.9740    23.5700     2.1990 
  194.1250   -13.2830    62.1770    27.7260    29.3130    21.7780     2.2590 
  194.2500   -12.6800    67.3450    16.8020    17.8420    18.6100     2.3170 
  194.3750   -12.2110    73.1460    11.3360    12.1030    12.0020     2.3520 
  194.5000   -11.9050    76.6260     8.6530     9.2860     7.8890     2.3700 
  194.6250   -11.8120    79.4750     7.7560     8.3440     7.5780     2.3630 
  194.7500   -11.9330    82.8990     8.0780     8.6820     8.2020     2.3190 
  194.8750   -12.2810    83.6680    10.3010    11.0160     9.6020     2.2490 
  195.0000   -12.8140    82.0180    15.1930    16.1530    14.5180     2.1970 
  195.1250   -13.5020    78.3390    25.3670    26.8350    22.9420     2.1720 
  195.2500   -14.2810    71.3830    40.6810    42.9150    28.9210     2.1610 
  195.3750   -15.1000    62.1890    59.0330    62.1840    33.2450     2.1510 
  195.5000   -15.9110    56.5770    76.0150    80.0160    42.8530     2.1440 
  195.6250   -16.6750    57.3130    89.1180    93.7740    62.3870     2.1400 
  195.7500   -17.3740    59.8730    98.8600   104.0030    84.9450     2.1380 
  195.8750   -17.9910    60.0760   107.1540   112.7110    98.2000     2.1410 
  196.0000   -18.5310    58.0550   113.9340   119.8310   105.0620     2.1410 
  196.1250   -18.9910    55.3510   118.3840   124.5040   110.4950     2.1340 
  196.2500   -19.3860    53.1020   121.5720   127.8500   110.5880     2.1270 
  196.3750   -19.7190    51.9800   123.5750   129.9540   107.0840     2.1280 
  196.5000   -20.0000    50.3860   125.3460   131.8130   105.6000     2.1310 
  196.6250   -20.2260    49.2570   126.8590   133.4020   105.8550     2.1290 
  196.7500   -20.4050    49.5540   127.3970   133.9670   105.1600     2.1250 
  196.8750   -20.5440    51.5170   126.1650   132.6730   103.8920     2.1250 
  197.0000   -20.6590    53.6560   123.1210   129.4770   105.0860     2.1290 
  197.1250   -20.7590    53.9360   118.3780   124.4970   108.2730     2.1290 
  197.2500   -20.8540    52.7850   113.6450   119.5270   108.8940     2.1260 
  197.3750   -20.9400    52.9210   109.2380   114.9000   107.0690     2.1240 
  197.5000   -21.0100    55.0320   105.3480   110.8160   105.1750     2.1180 
  197.6250   -21.0510    56.2250   101.6720   106.9560   101.9180     2.1040 
  197.7500   -21.0580    54.7010    97.8470   102.9400    98.3160     2.0910 
  197.8750   -21.0240    52.8720    94.2700    99.1840    94.7090     2.0910 
  198.0000   -20.9560    53.5550    90.3890    95.1090    85.5170     2.1040 
  198.1250   -20.8620    54.8520    86.0450    90.5470    72.9280     2.1260 
  198.2500   -20.7550    55.6570    82.0890    86.3930    64.2580     2.1470 
  198.3750   -20.6440    55.5880    79.2220    83.3840    56.4580     2.1540 
  198.5000   -20.5330    55.6830    78.3100    82.4250    53.7340     2.1430 
  198.6250   -20.4160    55.9630    79.9540    84.1520    62.6060     2.1300 
  198.7500   -20.2850    56.5970    83.1020    87.4570    79.0800     2.1240 
  198.8750   -20.1280    57.2890    86.2370    90.7490    94.7240     2.1240 
  199.0000   -19.9430    57.6410    86.7570    91.2950    98.4520     2.1260 
  199.1250   -19.7310    57.1150    84.5560    88.9840    94.6260     2.1330 
  199.2500   -19.5000    56.1280    79.4120    83.5830    90.2310     2.1430 
  199.3750   -19.2550    54.3360    73.4080    77.2780    88.5230     2.1460 
