~V
VERS. 2.00: Ver 2.00
~W
STRT.M 55.0000:
STOP.M 240.0000:
STEP.M 0.1250:
NULL. -999.2500:
UWI. F11138:
~C
DEPT.M :
SP.MV :
DEN.GM/CC :
GR.API :
RML.OHMM :
RI. :
RXO.OHMM :
CALI.CM :
~A
   55.0000    63.7570  -999.2500  -999.2500  -999.2500  -999.2500  -999.2500  -999.2500 
   55.1250    62.4170  -999.2500  -999.2500  -999.2500  -999.2500  -999.2500  -999.2500 
   55.2500    61.0900  -999.2500  -999.2500  -999.2500  -999.2500  -999.2500  -999.2500 
   55.3750    59.6750  -999.2500  -999.2500  -999.2500  -999.2500  -999.2500  -999.2500 
   55.5000    58.1480  -999.2500     0.0000     0.0000     0.0000     0.0000     0.0000 
   55.6250    56.8540     0.0000     0.0000     0.0000     0.0000     0.0000     0.0000 
   55.7500    56.0270     0.0000     0.0000     0.0000     0.0000     0.0000     0.0000 
   55.8750    55.8230     0.0000     0.0000     0.0000     0.0000     0.0000     0.0000 
   56.0000    56.4450     0.0000     0.0000     0.0000     0.0000     0.0000     0.0000 
   56.1250    57.8110     0.5180    11.4780     0.2190     0.1920   614.0540     6.3380 
   56.2500    59.5060     2.0460    46.2850     0.8660     0.7740  3097.7460    25.3630 
   56.3750    61.6220     1.9750    47.9960     0.8640     0.7910  9718.0460    25.3800 
   56.5000    64.1110     1.9190    49.4150     0.8980     0.8100 11127.9510    25.3880 
   56.6250    66.4700     1.9070    49.0070     0.9420     0.8250 10226.9980    25.3820 
   56.7500    68.4420     1.9160    47.3680     0.9730     0.8350  8643.7700    25.3680 
   56.8750    70.0790     1.9260    46.0300     0.9930     0.8400  2032.2160    25.3470 
   57.0000    71.1550     1.9280    45.7550     1.0140     0.8430    19.2010    25.3120 
   57.1250    71.1030     1.9210    47.6230     1.0380     0.8490   745.0100    25.2780 
   57.2500    70.1930     1.9110    50.0280     1.0560     0.8600  1818.8550    25.2840 
   57.3750    68.4780     1.9030    50.3830     1.0520     0.8740  3409.5020    25.3330 
   57.5000    66.0580     1.9010    47.8630     1.0200     0.8880 11710.9700    25.3740 
   57.6250    63.5050     1.9110    44.2110     0.9640     0.8980 11710.9730    25.3850 
   57.7500    61.2580     1.9240    42.7890     0.8940     0.9030 11710.9730    25.3850 
   57.8750    59.3490     1.9300    44.0810     0.8110     0.9040 11710.9730    25.3810 
   58.0000    58.0080     1.9300    46.1690     0.7210     0.9060 11710.9730    25.3780 
   58.1250    57.4770     1.9380    47.1640     0.6310     0.9110 11710.9730    25.3760 
   58.2500    57.2110     1.9610    47.2830     0.5480     0.9210 11710.9730    25.3770 
   58.3750    57.1420     1.9960    47.1120     0.4760     0.9320 11710.9730    25.3800 
   58.5000    57.3360     2.0410    46.2720     0.4230     0.9440 11710.9730    25.3820 
   58.6250    57.5990     2.0830    45.4800     0.4100     0.9510 11710.9730    25.3870 
   58.7500    57.8280     2.1110    46.0290     0.4300     0.9520 11710.9730    25.3870 
   58.8750    58.1390     2.1300    48.7650     0.4710     0.9480 11710.9730    25.3850 
   59.0000    58.4650     2.1420    53.2690     0.5170     0.9390 11710.9730    25.3780 
   59.1250    58.8190     2.1400    57.1440     0.5540     0.9270 11710.9730    25.3770 
   59.2500    59.4630     2.1310    58.8490     0.5840     0.9110 11418.5610    25.3580 
   59.3750    60.1710     2.1320    59.8270     0.6040     0.8850 10687.0510    25.2980 
   59.5000    60.5350     2.1500    62.1980     0.5880     0.8340  9272.1030    25.1880 
   59.6250    60.2630     2.1900    65.0050     0.4790     0.7390  6004.6290    25.0950 
   59.7500    59.3110     2.2450    66.2360     0.2690     0.6000     5.7940    25.0690 
   59.8750    57.6860     2.3210    66.7290    -0.0020     0.4310     0.8910    25.0800 
   60.0000    55.4750     2.4100    67.2040    -0.2410     0.2680     0.5570    25.0000 
   60.1250    52.5830     2.5070    67.4970    -0.3670     0.1580     0.5790    24.8390 
   60.2500    48.8400     2.5480    66.6920    -0.4000     0.1110     0.7860    24.6530 
   60.3750    44.0760     2.4960    65.3850    -0.3610     0.1290     1.2390    24.4370 
   60.5000    38.2380     2.4090    66.5890    -0.2470     0.2280     2.0160    24.2490 
   60.6250    31.5610     2.2980    73.7610    -0.0090     0.4740     3.0840    24.1470 
   60.7500    24.8380     2.2040    83.5820     0.3860     0.9090     4.5590    24.1420 
   60.8750    18.2660     2.2030    92.5790     0.9760     1.5990     6.1180    24.0560 
   61.0000    11.8040     2.2490    98.2250     1.7930     2.6060     6.8750    23.8810 
   61.1250     5.5220     2.2620    96.2490     2.9050     4.0680     8.1050    23.8610 
   61.2500    -0.2990     2.2800    88.4230     4.3170     5.9900    10.6910    23.9980 
   61.3750    -5.2730     2.3290    80.5230     6.0790     8.3800    14.4760    24.1190 
   61.5000    -9.1060     2.4010    76.6600     8.1190    11.0640    19.7990    24.0750 
   61.6250   -11.7930     2.4480    75.3160    10.0420    13.4810    27.7850    23.8890 
   61.7500   -13.9980     2.4320    73.5740    11.2680    14.9340    40.4410    23.6990 
   61.8750   -15.9790     2.3640    72.3120    11.3020    14.9070    43.3170    23.5720 
   62.0000   -17.7790     2.2810    73.4080    10.1570    13.4990    28.1210    23.5260 
   62.1250   -19.3570     2.2140    76.1630     8.6370    11.5650    16.5230    23.7300 
   62.2500   -20.8040     2.1650    77.6270     7.5650    10.0470    12.3240    24.1210 
   62.3750   -22.1360     2.1290    76.9300     7.0710     9.1740    11.5600    24.4790 
   62.5000   -23.2790     2.1050    75.4440     7.0200     8.8540    12.0780    24.6510 
   62.6250   -24.1030     2.1000    74.4620     7.1990     8.8710    13.1120    24.5490 
   62.7500   -24.6400     2.1190    74.1890     7.3260     8.8930    15.3330    24.3200 
   62.8750   -24.8340     2.1590    76.1640     7.2490     8.7430    17.7200    24.1290 
   63.0000   -24.6150     2.2050    80.9390     6.9400     8.3670    13.8470    24.0360 
   63.1250   -23.9880     2.2360    87.6820     6.4920     7.8320    10.3950    24.0790 
   63.2500   -23.1440     2.2450    94.7920     6.0780     7.3150     8.2840    24.1730 
   63.3750   -22.1500     2.2360   100.6750     5.7890     6.9190     7.2130    24.2470 
   63.5000   -21.0690     2.2170   104.9580     5.6560     6.6890     6.7670    24.3030 
   63.6250   -20.0000     2.1990   108.8400     5.6910     6.6400     6.5600    24.3290 
   63.7500   -19.0310     2.1880   110.8240     5.8240     6.6970     6.7740    24.3550 
   63.8750   -18.2220     2.1810   108.0370     6.0100     6.8150     7.1750    24.3780 
   64.0000   -17.6640     2.1740   102.1590     6.2150     6.9610     7.2130    24.3730 
   64.1250   -17.4530     2.1570    99.7220     6.4300     7.1280     7.1700    24.3410 
   64.2500   -17.4680     2.1290   101.3340     6.6520     7.3070     7.0920    24.2990 
   64.3750   -17.6530     2.1040   103.2740     6.8650     7.4810     7.2010    24.2750 
   64.5000   -17.9560     2.0990   103.2660     7.0360     7.6140     7.5110    24.2500 
   64.6250   -18.2720     2.1210   102.0710     7.1100     7.6560     8.0930    24.1620 
   64.7500   -18.5090     2.1450   101.6380     7.1030     7.6150     8.5150    24.0410 
   64.8750   -18.7040     2.1590   102.0160     7.0780     7.5370     8.3520    23.9430 
   65.0000   -18.9510     2.1650   102.7830     7.1360     7.5080     7.6690    23.8700 
   65.1250   -19.3100     2.1730   104.0140     7.3960     7.6360     7.4080    23.8810 
   65.2500   -19.7510     2.1840   104.2050     7.8210     7.9120     7.6460    23.9720 
   65.3750   -20.2290     2.1940   100.8800     8.3040     8.2610     8.4550    24.0610 
   65.5000   -20.7270     2.2010    93.7690     8.6910     8.5580    10.1740    23.9340 
   65.6250   -21.3760     2.2050    88.1790     8.8010     8.6420    11.9270    23.5580 
   65.7500   -22.2590     2.2050    87.9210     8.6600     8.5070    11.9620    23.2610 
   65.8750   -23.3540     2.1990    90.9580     8.3970     8.2360     9.3230    23.1580 
   66.0000   -24.6220     2.1830    93.0490     8.1850     7.9610     7.8970    23.1030 
   66.1250   -26.0250     2.1670    91.0630     8.1700     7.8160     8.1780    22.9590 
