~V
VERS. 2.00: Ver 2.00
~W
STRT.M 56.0000:
STOP.M 252.0000:
STEP.M 0.1250:
NULL. -999.2500:
UWI. F11142:
~C
DEPT.M :
SP.MV :
DEN.GM/CC :
GR.API :
RML.OHMM :
RI. :
RXO.OHMM :
CALI.CM :
~A
# ...
  123.5000    -2.3560     2.5100    56.3110    23.0500    20.8190    25.3030    24.5520 
  123.6250    -2.4410     2.5050    56.2130    23.0640    20.8540    24.5700    24.5630 
  123.7500    -2.5310     2.5110    55.2200    23.3010    21.0460    23.5680    24.4930 
  123.8750    -2.6730     2.5230    52.6510    23.8490    21.5040    22.5390    24.4190 
  124.0000    -2.8440     2.5390    50.3720    24.6260    22.2160    23.3640    24.4020 
  124.1250    -3.0240     2.5560    48.6590    25.2840    22.9140    24.1850    24.3500 
  124.2500    -3.1860     2.5720    47.4460    25.5090    23.3280    24.5230    24.3040 
  124.3750    -3.3200     2.5830    47.2900    25.1280    23.2610    23.9550    24.2590 
  124.5000    -3.3620     2.5770    49.0580    24.1770    22.6460    22.3710    24.2660 
  124.6250    -3.3840     2.5580    49.9790    23.1100    21.8180    20.4440    24.3360 
  124.7500    -3.3890     2.5400    49.1720    22.2920    21.0830    19.3880    24.4100 
  124.8750    -3.3450     2.5330    47.9630    21.9380    20.6610    19.2560    24.4150 
  125.0000    -3.2560     2.5420    47.8180    22.1250    20.6770    20.2000    24.4010 
  125.1250    -3.1520     2.5610    48.3130    22.6120    20.9850    21.3220    24.3240 
  125.2500    -3.0580     2.5850    49.0590    23.2210    21.4530    21.7650    24.1930 
  125.3750    -2.9480     2.6040    50.8140    23.7980    21.9510    21.7330    24.1860 
  125.5000    -2.8110     2.6030    52.8890    24.1900    22.3470    21.0140    24.2070 
  125.6250    -2.6060     2.5880    52.7900    24.3320    22.5770    20.8390    24.1710 
  125.7500    -2.3830     2.5690    51.1090    24.1670    22.5840    21.2310    24.0410 
  125.8750    -2.1730     2.5520    49.6500    23.6680    22.3260    21.9630    23.8850 
  126.0000    -2.0020     2.5430    50.0180    22.8410    21.7530    22.1950    23.8840 
  126.1250    -1.8460     2.5450    51.1580    21.8860    20.9900    21.0870    23.8910 
  126.2500    -1.6860     2.5580    51.8460    20.9810    20.1710    19.5890    23.8340 
  126.3750    -1.5200     2.5740    52.4850    20.2650    19.4420    18.7080    23.6400 
  126.5000    -1.3700     2.5820    54.0980    19.8430    18.9380    18.3680    23.4460 
  126.6250    -1.2970     2.5820    55.4650    19.6390    18.6500    18.3460    23.3700 
  126.7500    -1.3060     2.5740    56.3820    19.5670    18.5350    18.3200    23.4610 
  126.8750    -1.3550     2.5660    57.5280    19.5320    18.5100    18.3830    23.6290 
  127.0000    -1.4220     2.5610    58.8390    19.4430    18.4850    18.5060    23.7700 
  127.1250    -1.4950     2.5550    58.4740    19.2630    18.3970    18.2880    23.7980 
  127.2500    -1.6010     2.5430    57.1060    18.9760    18.2200    17.8390    23.7360 
  127.3750    -1.7270     2.5280    56.3820    18.5910    17.9510    17.5530    23.5600 
  127.5000    -1.8360     2.5270    56.6580    18.1320    17.5920    16.5480    23.3060 
  127.6250    -1.8950     2.5390    56.1520    17.6510    17.1850    16.2150    23.1190 
  127.7500    -1.9090     2.5510    55.6130    17.1890    16.7710    16.1580    23.0780 
  127.8750    -1.9410     2.5530    55.9070    16.7940    16.4000    16.1560    23.1420 
  128.0000    -2.0250     2.5440    56.5170    16.5350    16.1450    16.2790    23.3160 
  128.1250    -2.1450     2.5310    56.0150    16.4190    16.0110    16.5770    23.4370 
  128.2500    -2.2890     2.5160    55.1710    16.4350    15.9830    16.9470    23.5190 
  128.3750    -2.4600     2.5010    56.1990    16.5310    16.0200    17.1300    23.6030 
  128.5000    -2.6240     2.4910    58.7300    16.6130    16.0500    16.7700    23.7510 
  128.6250    -2.7950     2.4830    60.7640    16.6090    16.0110    15.9890    23.9360 
  128.7500    -2.9160     2.4720    62.0460    16.4970    15.8830    15.3620    23.9780 
  128.8750    -2.9540     2.4610    62.3720    16.3030    15.6780    15.2300    23.8910 
  129.0000    -2.8900     2.4660    61.5980    16.0860    15.4440    15.4440    23.7410 
  129.1250    -2.7710     2.4860    60.6180    15.9110    15.2440    15.5540    23.7030 
  129.2500    -2.6200     2.5080    59.6420    15.8170    15.1260    15.6070    23.8800 
  129.3750    -2.4480     2.5140    58.0030    15.8270    15.1220    15.8090    24.1280 
  129.5000    -2.3040     2.4940    56.0750    15.9560    15.2720    15.7630    24.2360 
  129.6250    -2.2340     2.4710    54.3230    16.1580    15.5430    15.7540    24.2270 
  129.7500    -2.2640     2.4600    52.4800    16.3770    15.8860    16.0060    24.0840 
  129.8750    -2.3560     2.4630    51.6570    16.5400    16.2200    16.7870    23.9090 
  130.0000    -2.4260     2.4710    52.3620    16.5490    16.4210    17.4250    23.6400 
  130.1250    -2.4780     2.4790    52.4080    16.4040    16.4380    17.6410    23.5160 
  130.2500    -2.5530     2.4850    50.2840    16.1340    16.2710    17.3430    23.5000 
  130.3750    -2.6670     2.4860    47.8430    15.7980    15.9710    16.5240    23.7080 
  130.5000    -2.8000     2.4790    48.3070    15.4440    15.6100    15.6310    24.1490 
  130.6250    -2.8660     2.4750    50.1630    15.0780    15.2380    15.0240    24.5880 
  130.7500    -2.8850     2.4780    51.0630    14.6550    14.8350    14.7780    24.8110 
  130.8750    -2.8930     2.4820    50.8480    14.1250    14.3490    14.5190    24.8310 
  131.0000    -2.9720     2.4780    51.2270    13.4670    13.7280    14.0320    24.7470 
  131.1250    -3.1040     2.4690    52.9230    12.7790    13.0440    13.2880    24.6370 
  131.2500    -3.2490     2.4640    55.2650    12.1830    12.4050    12.3880    24.5510 
  131.3750    -3.4000     2.4640    57.8340    11.8060    11.9350    11.4690    24.5060 
  131.5000    -3.5460     2.4710    60.1620    11.7860    11.7760    10.9470    24.5060 
  131.6250    -3.6870     2.4800    62.8440    12.0740    11.9070    11.2930    24.3490 
  131.7500    -3.7860     2.4870    65.1750    12.6100    12.2880    12.0910    24.0870 
  131.8750    -3.8940     2.4860    65.1050    13.2990    12.8450    12.9280    23.8800 
  132.0000    -3.9400     2.4730    62.1980    14.0220    13.4810    13.4170    23.7930 
  132.1250    -3.9310     2.4550    62.3120    14.6600    14.0770    14.1950    23.7980 
  132.2500    -3.8480     2.4420    68.6140    15.1350    14.5510    15.2760    23.8490 
  132.3750    -3.7230     2.4400    76.9150    15.3970    14.8410    16.1910    23.9410 
  132.5000    -3.5750     2.4500    80.6660    15.4060    14.8770    16.7390    24.1250 
  132.6250    -3.4480     2.4630    82.0460    15.2770    14.7200    16.6960    24.3040 
  132.7500    -3.3580     2.4720    83.4590    15.1510    14.4680    16.1560    24.3930 
  132.8750    -3.2900     2.4680    84.3260    15.2190    14.2730    15.3090    24.4680 
  133.0000    -3.3430     2.4510    83.2180    15.7590    14.3860    14.3780    24.4530 
  133.1250    -3.4700     2.4390    82.7750    16.8450    14.9450    14.3080    24.4290 
  133.2500    -3.6150     2.4430    84.0960    18.4850    16.0370    15.4710    24.4000 
  133.3750    -3.7480     2.4580    86.1310    20.5540    17.6340    17.7460    24.2300 
  133.5000    -3.9210     2.4670    86.6730    22.7350    19.5610    20.7060    23.9230 
  133.6250    -4.1080     2.4560    84.5800    24.5750    21.3890    23.7610    23.6270 
  133.7500    -4.3300     2.4230    81.7170    25.7440    22.7540    26.2190    23.5170 
  133.8750    -4.5410     2.3770    81.0600    26.1280    23.4350    26.0740    23.5110 
  134.0000    -4.6780     2.3500    82.9600    25.8940    23.4420    24.4080    23.5260 
  134.1250    -4.7940     2.3640    85.0730    25.6210    23.2580    22.5850    23.5710 
  134.2500    -4.9740     2.4130    86.4840    25.6380    23.2110    21.7950    23.7280 
  134.3750    -5.2180     2.4670    87.4910    25.9990    23.4250    22.7160    24.0490 
  134.5000    -5.4760     2.4930    88.1860    26.4490    23.7710    24.8470    24.4990 
  134.6250    -5.7160     2.4990    87.8750    26.5750    23.9170    27.6540    24.5480 
