~V
VERS. 2.00: Ver 2.00
~W
STRT.M 62.0000:
STOP.M 217.0000:
STEP.M 0.1250:
NULL. -999.2500:
UWI. F11126:
~C
DEPT.M :
DEN.GM/CC :
SP.MV :
GR.API :
RML.OHMM :
RI. :
RXO.OHMM :
CALI.CM :
~A
# ...
   84.5000     2.1780   -26.6900    69.4720     7.7820     6.4760    10.1060    29.3840 
   84.6250     2.2120   -26.5560    68.5850     8.2590     6.7690    10.8940    29.1350 
   84.7500     2.2580   -26.4180    69.1360     8.8360     7.1690    12.0110    28.7720 
   84.8750     2.3110   -26.3010    69.7480     9.5080     7.6760    13.0180    28.5090 
   85.0000     2.3540   -26.1700    68.0980    10.2680     8.2950    13.4650    28.4300 
   85.1250     2.3720   -26.0570    66.0830    11.0250     8.9470    14.3290    28.4140 
   85.2500     2.3790   -25.9130    65.8110    11.6250     9.5100    16.6950    28.4000 
   85.3750     2.3950   -25.7770    66.2650    11.8710     9.8230    20.5680    28.3910 
   85.5000     2.3890   -25.6190    65.0820    11.5090     9.6650    24.5290    28.3430 
   85.6250     2.3000   -25.4570    63.4380    10.6390     9.0790    25.9290    28.3190 
   85.7500     2.1570   -25.2450    62.7840     9.4650     8.1960    20.9270    28.4820 
   85.8750     2.0510   -25.0520    62.8150     8.2810     7.2400    13.1900    28.9990 
   86.0000     2.0300   -24.8650    63.2160     7.4000     6.4420    10.1940    29.6030 
   86.1250     2.0520   -24.7080    64.8960     6.8840     5.8710     9.3040    30.0420 
   86.2500     2.0800   -24.5550    66.8080     6.6860     5.5230     9.0940    30.3650 
   86.3750     2.0940   -24.4120    66.7660     6.6930     5.3600     8.9880    30.7410 
   86.5000     2.0900   -24.2800    64.6460     6.7750     5.3350     8.9190    31.1750 
   86.6250     2.0790   -24.1540    62.2810     6.8220     5.3570     8.8130    31.4990 
   86.7500     2.0650   -24.0680    60.6310     6.8040     5.3770     8.6800    31.6890 
   86.8750     2.0540   -23.9860    61.7560     6.7270     5.3600     8.5390    31.8540 
   87.0000     2.0500   -23.8280    66.0520     6.6170     5.2980     8.3730    32.0330 
   87.1250     2.0480   -23.5320    69.8080     6.5120     5.2270     8.1960    31.9450 
   87.2500     2.0380   -23.0670    72.1520     6.4340     5.1800     8.0180    31.6700 
   87.3750     2.0180   -22.4680    75.7220     6.3850     5.1670     7.8300    31.4600 
   87.5000     1.9900   -21.6790    79.3560     6.3360     5.1650     7.5180    31.3860 
   87.6250     1.9610   -20.6890    78.0440     6.2410     5.1270     7.2760    31.5750 
   87.7500     1.9510   -19.4660    73.2740     6.0770     5.0270     7.0980    32.1740 
   87.8750     1.9760   -18.0810    71.7970     5.8570     4.8710     6.4660    33.0370 
   88.0000     2.0290   -16.7080    76.5300     5.6310     4.6970     5.4960    33.6470 
   88.1250     2.0630   -15.4020    81.6270     5.4590     4.5580     4.9280    33.5090 
   88.2500     2.0680   -14.1830    84.2360     5.3660     4.4750     4.9480    32.6840 
   88.3750     2.0670   -12.9730    85.7150     5.3550     4.4500     5.2240    31.7300 
   88.5000     2.0870   -11.9020    89.5860     5.4100     4.4700     5.3860    30.7140 
   88.6250     2.1200   -11.0330    93.3880     5.4880     4.5020     5.3720    29.7960 
   88.7500     2.1530   -10.4020    94.9290     5.5580     4.5330     5.3020    29.0100 
   88.8750     2.1750    -9.9590    94.8600     5.6040     4.5580     5.3190    28.4750 
   89.0000     2.1840    -9.6910    94.6300     5.6250     4.5730     5.2980    28.1620 
   89.1250     2.1890    -9.5110    94.4330     5.6400     4.5740     5.2580    27.9810 
   89.2500     2.1920    -9.4780    94.0190     5.6560     4.5520     5.2400    27.8860 
   89.3750     2.1950    -9.5820    95.1420     5.6660     4.5010     5.2390    27.8130 
   89.5000     2.1970    -9.7400    96.8350     5.6560     4.4210     5.3100    27.7310 
   89.6250     2.1990    -9.9430    96.0590     5.6300     4.3320     5.4500    27.6160 
   89.7500     2.1980   -10.2330    94.3280     5.6120     4.2580     5.6590    27.4820 
   89.8750     2.1930   -10.6450    94.7310     5.6360     4.2220     5.9250    27.3680 
   90.0000     2.1860   -11.1580    96.0840     5.7540     4.2600     6.1860    27.2670 
   90.1250     2.1810   -11.7540    95.0350     5.9740     4.3750     6.5620    27.1720 
   90.2500     2.1800   -12.4230    92.3370     6.2930     4.5680     7.1760    27.1060 
   90.3750     2.1860   -13.1490    91.5530     6.6780     4.8270     7.9450    27.0540 
   90.5000     2.1980   -13.9110    93.0220     7.0530     5.1200     8.9500    26.9800 
   90.6250     2.2090   -14.5840    91.7830     7.3270     5.3820     9.6930    26.9190 
   90.7500     2.2140   -15.0930    88.5670     7.4380     5.5590     9.7700    26.8960 
   90.8750     2.2110   -15.4150    86.2720     7.3670     5.6130     9.3030    26.9020 
   91.0000     2.2020   -15.5880    85.6120     7.1330     5.5220     8.4990    26.9540 
   91.1250     2.1930   -15.6470    84.9940     6.8390     5.3410     7.6470    27.0520 
   91.2500     2.1900   -15.5150    84.4160     6.5190     5.1150     7.0330    27.1370 
   91.3750     2.2000   -15.1410    85.9430     6.2500     4.8860     6.7730    27.2010 
   91.5000     2.2230   -14.4960    90.4360     5.9730     4.6910     6.5250    27.3010 
   91.6250     2.2490   -13.7990    95.9990     5.7160     4.5390     6.0420    27.4270 
   91.7500     2.2670   -13.1570   100.8980     5.5820     4.4350     5.4900    27.5110 
   91.8750     2.2730   -12.5670   104.5950     5.4270     4.3760     5.1950    27.5240 
   92.0000     2.2700   -11.9610   107.3090     5.4010     4.3610     5.1580    27.4800 
   92.1250     2.2660   -11.3590   108.4570     5.4100     4.3730     5.1590    27.4320 
   92.2500     2.2620   -10.8250   107.4160     5.4840     4.4060     5.1470    27.3830 
   92.3750     2.2570   -10.4690   104.3500     5.5900     4.4590     5.1800    27.3330 
   92.5000     2.2440   -10.4770    98.7100     5.7800     4.5480     5.3260    27.2820 
   92.6250     2.2290   -10.7470    93.4870     6.0450     4.6850     5.5980    27.2400 
   92.7500     2.2150   -11.2510    92.5720     6.3570     4.8750     6.0220    27.2110 
   92.8750     2.2020   -11.9710    95.1550     6.6870     5.1080     6.5240    27.1930 
   93.0000     2.1840   -12.8750    94.3960     7.0010     5.3490     7.0660    27.2540 
   93.1250     2.1650   -13.8760    89.3270     7.2310     5.5450     7.4560    27.4570 
   93.2500     2.1530   -14.8960    84.1890     7.3350     5.6530     7.6310    27.8030 
   93.3750     2.1490   -15.8970    81.4880     7.3060     5.6520     7.6340    28.0970 
   93.5000     2.1480   -16.7380    81.3040     7.1600     5.5360     7.5370    28.2300 
   93.6250     2.1430   -17.3780    81.9920     6.9700     5.3670     7.4430    28.3720 
   93.7500     2.1370   -17.8020    80.8690     6.7820     5.1930     7.3320    28.6330 
   93.8750     2.1340   -18.0280    76.7840     6.6240     5.0500     7.2620    28.9510 
   94.0000     2.1380   -18.0750    73.4790     6.5170     4.9600     7.1910    29.2000 
   94.1250     2.1480   -18.0260    74.2180     6.4730     4.9130     7.0750    29.3660 
   94.2500     2.1660   -18.0100    76.9080     6.5320     4.9100     7.0100    29.5070 
   94.3750     2.1900   -18.0970    77.6520     6.7490     4.9800     7.0750    29.6560 
   94.5000     2.2210   -18.4110    75.3410     7.1950     5.1960     7.4600    29.6910 
   94.6250     2.2540   -18.9520    73.2320     7.8010     5.5610     8.3140    29.5570 
   94.7500     2.2810   -19.6480    72.4950     8.4550     6.0390     9.5240    29.3680 
   94.8750     2.2840   -20.4170    72.8990     9.0000     6.5320    10.6900    29.3300 
   95.0000     2.2410   -21.3160    73.8050     9.2340     6.8780    11.2550    29.4420 
   95.1250     2.1760   -22.2890    73.7280     9.1430     6.9960    10.7690    29.5540 
   95.2500     2.1200   -23.2520    71.0190     8.7960     6.8880     9.8410    29.4350 
   95.3750     2.0930   -24.1230    66.9050     8.3330     6.6280     9.3930    29.5440 
   95.5000     2.1020   -24.8320    65.5250     7.9280     6.3310     9.3510    30.2950 
   95.6250     2.1320   -25.3570    66.4230     7.6620     6.0860     9.3700    30.9560 
