~V
VERS. 2.00: Ver 2.00
~W
STRT.M 59.0000:
STOP.M 221.0000:
STEP.M 0.1250:
NULL. -999.2500:
UWI. F11122:
~C
DEPT.M :
GR.API :
RML.OHMM :
RI. :
RXO.OHMM :
CALI.CM :
SP.MV :
DEN.GM/CC :
~A
# ...
  104.0000    82.9650     6.7160     6.0310     7.7310    24.9840    -7.3000     2.2610 
  104.1250    83.6290     6.8250     6.1220     8.2170    24.9910    -7.5250     2.2580 
  104.2500    82.0820     6.9220     6.2010     8.0680    25.0560    -7.7400     2.2520 
  104.3750    79.1640     7.0240     6.2750     8.1060    25.1480    -7.8730     2.2440 
  104.5000    78.0240     7.1470     6.3560     8.5330    25.2650    -7.8990     2.2390 
  104.6250    79.8830     7.3060     6.4600     8.9570    25.4490    -7.8540     2.2400 
  104.7500    82.6080     7.5040     6.5940     8.8470    25.5830    -7.8350     2.2420 
  104.8750    83.7330     7.7490     6.7700     8.7450    25.5270    -7.8740     2.2340 
  105.0000    80.9440     8.0450     6.9980     8.7780    25.4590    -7.9470     2.2080 
  105.1250    74.9430     8.3810     7.2860     8.7800    25.5320    -8.0180     2.1700 
  105.2500    71.7210     8.7060     7.5950     8.8520    25.6660    -8.1090     2.1380 
  105.3750    73.4710     8.9610     7.8760     8.6780    25.5940    -8.2560     2.1250 
  105.5000    77.1760     9.0990     8.0820     8.5040    25.2000    -8.4720     2.1340 
  105.6250    76.8060     9.0830     8.1620     8.8690    24.9060    -8.7580     2.1550 
  105.7500    73.8270     8.9720     8.1440     9.5860    24.8160    -9.0980     2.1740 
  105.8750    72.3470     8.8280     8.0680    10.0020    24.8080    -9.4380     2.1880 
  106.0000    72.7690     8.7080     7.9830    10.1120    24.8110    -9.7360     2.1960 
  106.1250    73.7500     8.6360     7.9200    10.1180    24.8620    -9.9770     2.2020 
  106.2500    74.5490     8.5640     7.8600     9.9990    24.8650   -10.1510     2.2060 
  106.3750    75.9200     8.4290     7.7540     9.8440    24.8230   -10.2330     2.2100 
  106.5000    77.6740     8.1930     7.5610     9.8660    24.7560   -10.1810     2.2170 
  106.6250    81.1170     7.8730     7.2720     9.8660    24.7350    -9.9680     2.2270 
  106.7500    85.2400     7.5730     6.9640     9.5340    24.7630    -9.6410     2.2360 
  106.8750    87.8440     7.3790     6.7130     8.6680    24.8520    -9.2920     2.2370 
  107.0000    86.6830     7.3320     6.5730     8.0600    24.9030    -8.9610     2.2280 
  107.1250    83.0070     7.4040     6.5580     8.0040    24.9030    -8.6600     2.2110 
  107.2500    80.1860     7.4780     6.5900     8.7180    24.9580    -8.3720     2.1970 
  107.3750    78.1560     7.4910     6.6060     9.0580    25.0610    -8.0700     2.1940 
  107.5000    76.8840     7.4700     6.5950     9.1840    25.0950    -7.7950     2.2050 
  107.6250    77.7010     7.5920     6.6470     8.7590    25.0700    -7.5640     2.2310 
  107.7500    80.0440     8.0340     6.9010     8.0760    25.0110    -7.3710     2.2670 
  107.8750    82.1680     8.8970     7.4740     8.2850    24.8890    -7.2180     2.3120 
  108.0000    81.1390    10.2360     8.3900    11.6540    24.7910    -7.1360     2.3590 
  108.1250    76.8990    11.8350     9.4950    21.9630    24.6690    -7.1770     2.4020 
  108.2500    71.6480    12.9910    10.3780    34.5720    24.6080    -7.3280     2.4290 
  108.3750    68.3130    13.1740    10.7040    34.1120    24.5720    -7.5840     2.4360 
  108.5000    69.0000    12.3750    10.3530    25.3490    24.4600    -7.9110     2.4180 
  108.6250    71.7270    11.0830     9.4710    17.0790    24.4100    -8.2650     2.3750 
  108.7500    75.6430     9.9220     8.5200    12.4080    24.4800    -8.5700     2.3190 
  108.8750    79.4990     9.1260     7.7590    10.4430    24.5280    -8.7650     2.2610 
  109.0000    81.2730     8.7390     7.2880     9.4250    24.4550    -8.8450     2.2140 
  109.1250    79.7010     8.6860     7.1210     9.2340    24.1540    -8.7870     2.1910 
  109.2500    78.4740     8.7410     7.1100     9.3860    23.8210    -8.6160     2.1890 
  109.3750    80.0970     8.7590     7.1410     9.6880    23.6440    -8.3260     2.2000 
  109.5000    82.9950     8.6260     7.1000     9.5290    23.6220    -7.8930     2.2110 
  109.6250    85.4360     8.2700     6.8900     9.3280    23.6830    -7.2640     2.2150 
  109.7500    88.2570     7.7870     6.5500     8.6620    23.7700    -6.4980     2.2140 
  109.8750    92.5240     7.2940     6.1600     7.1340    23.9030    -5.6680     2.2180 
  110.0000    99.2940     6.9070     5.8170     5.4680    23.9880    -4.8530     2.2300 
  110.1250   104.7290     6.7190     5.6130     4.9850    23.9570    -4.0980     2.2490 
  110.2500   104.0200     6.6760     5.5350     5.5320    23.9010    -3.3820     2.2620 
  110.3750   100.1320     6.7030     5.5410     6.6610    23.9940    -2.7080     2.2650 
  110.5000    99.2090     6.7110     5.5660     7.2290    24.3180    -2.1060     2.2590 
  110.6250   102.7750     6.6220     5.5400     6.2770    24.7760    -1.6320     2.2500 
  110.7500   107.3890     6.4510     5.4490     5.3560    24.9610    -1.2820     2.2460 
  110.8750   112.1350     6.2470     5.3140     4.9430    25.0080    -1.0150     2.2500 
  111.0000   117.7470     6.0730     5.1770     4.6740    25.0090    -0.7330     2.2630 
  111.1250   119.3520     5.9950     5.0940     4.5780    24.9840    -0.3650     2.2840 
  111.2500   116.1950     6.0120     5.0790     4.5400    24.9700     0.0240     2.3040 
  111.3750   112.6420     6.1000     5.1220     4.5340    24.9670     0.3490     2.3110 
  111.5000   110.8060     6.2250     5.2000     4.7240    24.9850     0.5910     2.3000 
  111.6250   109.4730     6.3420     5.2760     4.9760    25.0130     0.7260     2.2750 
  111.7500   107.9180     6.4180     5.3210     5.0770    24.9420     0.8020     2.2510 
  111.8750   108.7480     6.4380     5.3190     4.9670    24.6620     0.8190     2.2410 
  112.0000   112.9210     6.4100     5.2740     5.0630    24.3850     0.7380     2.2460 
  112.1250   115.5540     6.4020     5.2180     5.0810    24.3170     0.5140     2.2590 
  112.2500   113.4180     6.5590     5.2420     5.6410    24.3100     0.1850     2.2690 
  112.3750   106.9340     7.0960     5.4750     6.2870    24.3020    -0.2340     2.2770 
  112.5000    98.7390     8.2720     6.0980     6.6370    24.3340    -0.7330     2.2950 
  112.6250    91.9350    10.4550     7.4460     7.0880    24.4100    -1.3020     2.3480 
  112.7500    87.1360    13.4060     9.5370    10.8290    24.4940    -1.9450     2.4360 
  112.8750    83.5380    16.5240    12.1220    23.0470    24.5990    -2.6600     2.5360 
  113.0000    81.4960    18.7670    14.4630    43.2590    24.6810    -3.4490     2.6120 
  113.1250    81.8860    18.7760    15.2920    53.0870    24.7490    -4.2810     2.6140 
  113.2500    82.6280    16.8560    14.4270    37.2260    24.8050    -5.0970     2.5490 
  113.3750    83.6850    13.9650    12.4280    19.2490    24.8500    -5.8630     2.4420 
  113.5000    86.5810    11.2440    10.2150    11.1950    24.8670    -6.5800     2.3320 
  113.6250    90.0610     9.5180     8.5690     8.6110    24.9110    -7.2780     2.2540 
  113.7500    91.0780     8.6280     7.5520     8.5940    24.9640    -7.9290     2.2100 
  113.8750    90.7780     8.2930     7.0310     8.6680    25.0240    -8.4890     2.1920 
  114.0000    91.7380     8.2420     6.8330     8.7950    25.0990    -8.9360     2.1870 
  114.1250    94.6930     8.2890     6.8210     8.8240    25.1680    -9.2770     2.1900 
  114.2500    97.1480     8.3300     6.8640     8.9570    25.1450    -9.5560     2.1940 
  114.3750    96.5050     8.3560     6.9250     9.3410    25.0160    -9.7660     2.1980 
  114.5000    92.0410     8.3860     6.9970     9.8570    24.8700    -9.9070     2.2020 
  114.6250    87.1360     8.4400     7.0850     9.3200    24.7720    -9.9680     2.2040 
  114.7500    85.7810     8.5010     7.1760     9.1330    24.7740    -9.9430     2.2040 
  114.8750    86.7410     8.5390     7.2470     9.1410    24.8580    -9.8460     2.1970 
  115.0000    88.5100     8.5180     7.2650     9.2620    25.0020    -9.6500     2.1800 
  115.1250    89.2190     8.4060     7.1940     9.2200    25.1770    -9.3100     2.1530 
