~V
VERS. 2.00: Ver 2.00
~W
STRT.M 52.0000:
STOP.M 240.0000:
STEP.M 0.1250:
NULL. -999.2500:
UWI. F11139:
~C
DEPT.M :
GR.API :
RML.OHMM :
RI. :
RXO.OHMM :
CALI.CM :
SP.MV :
DEN.GM/CC :
~A
# ...
  175.7500    67.5900   145.8120   133.3940   121.6050    24.0070   -21.9540     2.2410 
  175.8750    66.9960   146.6120   133.4370   122.1790    23.8610   -21.7930     2.2300 
  176.0000    69.6740   149.6100   134.8140   125.2610    23.8970   -21.6490     2.2070 
  176.1250    72.7800   152.8640   137.4530   130.0560    24.1510   -21.6370     2.1760 
  176.2500    72.8030   155.0460   140.6930   133.7500    24.3730   -21.8080     2.1570 
  176.3750    70.2340   156.1840   144.0510   136.4070    24.4460   -21.9880     2.1560 
  176.5000    66.7230   157.5030   147.0780   138.8970    24.4430   -22.1860     2.1660 
  176.6250    63.8170   158.5520   149.2490   140.8530    24.4180   -22.3570     2.1780 
  176.7500    62.7560   159.0520   150.4110   141.6040    24.3900   -22.5100     2.1870 
  176.8750    64.0390   159.4570   150.4390   140.8420    24.3660   -22.6670     2.1930 
  177.0000    66.5390   158.6520   149.3160   138.1820    24.4120   -22.8030     2.1950 
  177.1250    66.9250   156.6070   146.9860   135.6770    24.4760   -22.8230     2.1910 
  177.2500    65.2890   153.7690   143.8540   134.6870    24.4750   -22.7720     2.1880 
  177.3750    63.7210   150.4620   140.2230   134.2060    24.4260   -22.7490     2.1910 
  177.5000    64.1880   147.0720   136.4680   131.5240    24.3620   -22.7420     2.1960 
  177.6250    65.5130   144.0390   133.0360   128.4120    24.3290   -22.7480     2.2020 
  177.7500    64.6490   141.5430   130.1300   126.5250    24.4020   -22.7170     2.2090 
  177.8750    63.5490   139.6510   127.8200   124.2150    24.5060   -22.6320     2.2140 
  178.0000    65.3560   138.3820   126.1090   123.4650    24.5500   -22.5400     2.2180 
  178.1250    68.8660   137.8890   125.0870   122.8560    24.5360   -22.4790     2.2210 
  178.2500    70.7800   138.1240   124.6800   119.7540    24.5380   -22.3570     2.2250 
  178.3750    71.7420   139.0740   124.8740   115.8860    24.5550   -22.1390     2.2290 
  178.5000    72.8380   140.5520   125.5210   115.0780    24.5920   -21.8810     2.2310 
  178.6250    73.2440   142.0770   126.2340   118.3870    24.6310   -21.5760     2.2270 
  178.7500    72.7300   143.0240   126.4850   119.3130    24.6080   -21.2860     2.2220 
  178.8750    71.4530   142.9800   125.9110   114.9670    24.4440   -21.0010     2.2210 
  179.0000    69.8150   141.8570   124.4140   105.3890    24.2020   -20.7150     2.2270 
  179.1250    69.1970   139.9700   122.2340    93.2340    23.9010   -20.3730     2.2320 
  179.2500    68.8700   138.1650   120.1190    86.0190    23.6070   -20.0040     2.2300 
  179.3750    68.2370   137.0010   118.6350    87.9400    23.4880   -19.6580     2.2230 
  179.5000    67.8940   136.7230   118.1190    95.6160    23.5940   -19.3420     2.2180 
  179.6250    69.0950   137.2570   118.7250   104.4620    23.7660   -19.1420     2.2170 
  179.7500    70.2110   137.9370   119.9240   111.3020    23.8320   -18.9090     2.2170 
  179.8750    70.4710   138.0740   121.1490   114.7400    23.8130   -18.6520     2.2170 
  180.0000    70.4050   136.8000   121.6140   115.9500    23.8630   -18.4080     2.2160 
  180.1250    70.1650   132.4000   119.7500   114.7770    24.0400   -18.2100     2.2150 
  180.2500    70.0130   124.0800   114.5430   109.6400    24.2000   -18.0820     2.2190 
  180.3750    69.9430   111.3520   105.2160    99.0060    24.3000   -17.9490     2.2270 
  180.5000    69.8380    94.7620    91.8470    81.7380    24.2940   -17.7670     2.2410 
  180.6250    70.6520    76.1720    75.5940    57.9870    24.1390   -17.4500     2.2600 
  180.7500    72.5290    58.7620    59.5000    35.9820    23.9470   -17.1290     2.2800 
  180.8750    75.7530    44.4540    45.6810    23.6100    23.9460   -16.8000     2.2960 
  181.0000    79.8710    33.9370    35.1880    19.1070    24.2370   -16.4310     2.3080 
  181.1250    82.4210    27.3610    28.4410    17.5850    24.7380   -16.0670     2.3220 
  181.2500    82.7270    23.3150    24.1840    18.1180    25.1150   -15.7040     2.3420 
  181.3750    82.6110    21.1170    21.7670    19.3090    25.2820   -15.3820     2.3670 
  181.5000    83.7920    20.2860    20.7300    19.0170    25.3110   -15.0330     2.3940 
  181.6250    84.3740    20.6350    20.9450    16.0160    25.4030   -14.7670     2.4100 
  181.7500    83.6980    21.7180    21.9780    14.2160    25.5660   -14.5690     2.4080 
  181.8750    82.9780    23.2680    23.5150    15.0140    25.7210   -14.4710     2.3890 
  182.0000    83.8780    24.9380    25.1180    17.6760    25.7670   -14.4530     2.3640 
  182.1250    86.0630    26.1870    26.1620    21.2720    25.7120   -14.5280     2.3420 
  182.2500    86.4290    26.7830    26.3820    23.4540    25.6120   -14.6090     2.3250 
  182.3750    83.9480    26.4930    25.8710    23.4830    25.4770   -14.7350     2.3160 
  182.5000    80.6360    25.6790    25.0990    21.6920    25.3020   -14.9230     2.3190 
  182.6250    79.4820    25.5610    24.8390    18.5570    25.0270   -15.1780     2.3340 
  182.7500    80.3380    26.6640    25.4810    18.0620    24.7840   -15.5000     2.3410 
  182.8750    81.1570    29.4360    27.0930    19.8070    24.6620   -15.9820     2.3250 
  183.0000    80.3820    32.9810    29.4900    23.0220    24.6190   -16.5400     2.2880 
  183.1250    78.0150    36.9590    32.3860    26.0060    24.5850   -17.1080     2.2500 
  183.2500    77.2100    41.1160    35.4430    28.1160    24.5790   -17.6940     2.2300 
  183.3750    79.4550    45.6400    38.7090    29.4940    24.5960   -18.2850     2.2300 
  183.5000    81.7040    51.0200    42.5430    32.5120    24.6460   -18.9090     2.2410 
  183.6250    80.6460    57.6880    47.7570    40.6400    24.7030   -19.6000     2.2540 
  183.7500    78.5900    66.0830    54.6540    53.8040    24.7190   -20.2790     2.2640 
  183.8750    76.5660    76.1260    63.3630    70.7770    24.7160   -20.8430     2.2680 
  184.0000    73.8150    87.0750    73.7420    88.9370    24.7040   -21.3380     2.2650 
  184.1250    70.2280   101.2870    85.7370    99.7280    24.6900   -21.8170     2.2550 
  184.2500    68.5620   116.7660    98.9580   103.1050    24.6800   -22.3110     2.2410 
  184.3750    68.9010   133.2410   113.3060   109.3010    24.6580   -22.8470     2.2190 
  184.5000    70.4240   149.8220   128.2580   128.6870    24.5860   -23.3640     2.1900 
  184.6250    71.3710   163.6930   141.7940   160.1670    24.3660   -23.8040     2.1570 
  184.7500    70.0590   171.7230   151.1310   190.8870    24.1700   -24.1550     2.1230 
  184.8750    66.8140   171.2650   153.6960   209.3830    23.9720   -24.4460     2.0940 
  185.0000    64.7080   163.1530   148.4660   205.5240    23.6110   -24.7010     2.0900 
  185.1250    66.8160   149.0010   136.4290   172.7110    23.4230   -24.9110     2.1220 
  185.2500    70.0210   135.4160   122.5500   135.0190    23.4040   -25.0580     2.1640 
  185.3750    72.0980   126.0820   109.9540   107.6800    23.5200   -25.1270     2.1960 
  185.5000    74.1460   116.2320   100.2800    90.4930    23.6660   -25.1950     2.2170 
  185.6250    76.2360   109.2460    94.2650    80.3690    23.8200   -25.2550     2.2360 
  185.7500    76.6970   104.9740    90.7840    76.3590    23.8970   -25.3140     2.2490 
  185.8750    74.9380   102.6830    89.2100    77.6390    24.1060   -25.3600     2.2400 
  186.0000    73.2080   101.9270    89.1220    79.8820    24.3400   -25.3780     2.2070 
  186.1250    72.6160   102.7090    90.5270    79.7800    24.3640   -25.3200     2.1710 
  186.2500    70.8530   104.5990    93.0300    76.2660    24.3600   -25.3570     2.1530 
  186.3750    67.2340   107.1900    96.2620    73.2710    24.4410   -25.4900     2.1540 
  186.5000    64.8080   109.8600    99.6390    76.1270    24.5930   -25.6350     2.1600 
  186.6250    65.7830   111.6820   102.2890    80.9470    24.6720   -25.7450     2.1630 
  186.7500    66.8910   112.1020   103.6550    86.7020    24.6950   -25.8450     2.1660 
  186.8750    66.0030   110.8420   103.3940    88.3090    24.6590   -25.9780     2.1740 
