~V
VERS. 2.00: Ver 2.00
~W
STRT.M 50.0000:
STOP.M 265.0000:
STEP.M 0.1250:
NULL. -999.2500:
UWI. F11185:
~C
DEPT.M :
SP.MV :
GR.API :
RI. :
RML.OHMM :
RXO.OHMM :
DEN.GM/CC :
~A
# ...
  256.0000  -115.6260    53.5450     1.3050     1.6570     1.6340     2.2150 
  256.1250  -115.6260    52.9980     1.2800     1.6320     1.5740     2.2360 
  256.2500  -115.6260    52.7390     1.2630     1.6140     1.5170     2.2550 
  256.3750  -115.6260    53.1680     1.2490     1.5990     1.4920     2.2610 
  256.5000  -115.6260    52.7180     1.2420     1.5920     1.5090     2.2600 
  256.6250  -115.6260    50.1690     1.2410     1.5910     1.5860     2.2410 
  256.7500  -115.6260    48.6640     1.2380     1.5870     1.6870     2.1910 
  256.8750  -115.6260    50.2240     1.2340     1.5840     1.7740     2.1320 
  257.0000  -115.6260    51.9650     1.2330     1.5820     1.8380     2.1080 
  257.1250  -115.6260    52.2030     1.2330     1.5830     1.8600     2.1390 
  257.2500  -115.6260    52.7310     1.2370     1.5860     1.8500     2.1940 
  257.3750  -115.6260    54.2730     1.2380     1.5870     1.8370     2.2380 
  257.5000  -115.6260    55.4060     1.2380     1.5880     1.8260     2.2540 
  257.6250  -115.6260    54.7740     1.2380     1.5880     1.8020     2.2500 
  257.7500  -115.6260    53.4820     1.2380     1.5870     1.7560     2.2390 
  257.8750  -115.6260    52.5730     1.2380     1.5870     1.7080     2.2220 
  258.0000  -115.6260    52.5110     1.2380     1.5880     1.6940     2.2110 
  258.1250  -115.6260    52.9220     1.2380     1.5870     1.7170     2.1970 
  258.2500  -115.6260    53.0290     1.2380     1.5880     1.7380     2.1470 
  258.3750  -115.6260    52.9760     1.2380     1.5870     1.7370     2.0640 
  258.5000  -115.6260    52.9810     1.2380     1.5880     1.7390     2.0290 
  258.6250  -115.6260    52.9810     1.2390     1.5880     1.7570     2.0860 
  258.7500  -115.6260    52.9810     1.2390     1.5890     1.7950     2.1680 
  258.8750  -115.6260    52.9810     1.2390     1.5890     1.8960     2.1970 
  259.0000  -115.6260    52.9810     1.2400     1.5900     2.0150     2.1710 
  259.1250  -115.6260    52.9810     1.2400     1.5890     2.0660     2.1200 
  259.2500  -115.6260    52.9810     1.2390     1.5890     2.0630     2.0800 
  259.3750  -115.6260    52.9810     1.2380     1.5880     2.0780     2.0640 
  259.5000  -115.6260    52.9810     1.2380     1.5880     2.2600     2.0640 
  259.6250  -115.6260    52.9810     1.2380     1.5880     2.6670     2.0650 
  259.7500  -115.6260    52.9810     1.2380     1.5880     3.1460     2.0790 
  259.8750  -115.6260    52.9810     1.2390     1.5890     3.5520     2.1150 
  260.0000  -115.6260    52.9810     1.2390     1.5880     3.6360     2.1420 
  260.1250  -115.6260    52.9810     1.2390     1.5890     3.2920     2.1450 
  260.2500  -115.6260    52.9810     1.2380     1.5880     2.9640     2.1540 
  260.3750  -115.6260    52.9810     1.2380     1.5870     2.8780     2.1890 
  260.5000  -115.6260    52.9810     1.2380     1.5870     2.7680     2.2320 
  260.6250  -115.6260    52.9810     1.2370     1.5870     2.4960     2.2510 
  260.7500  -115.6260    52.9810     1.2370     1.5870     2.2420     2.2380 
  260.8750  -115.6260    52.9810     1.2370     1.5870     2.1500     2.1770 
  261.0000  -115.6260    52.9810     1.2370     1.5870     2.1250     2.0660 
  261.1250  -115.6260    52.9810     1.2370     1.5870     2.0630     1.9520 
  261.2500  -115.6260    52.9810     1.2370     1.5870     2.1150     1.9100 
  261.3750  -115.6260    52.9810     1.2370     1.5870     2.5900     1.9920 
  261.5000  -115.6260    52.9810     1.2370     1.5870     3.6470     2.1370 
  261.6250  -115.6260    52.9810     1.2370     1.5870     5.2620     2.2620 
  261.7500  -115.6260    52.9810     1.2370     1.5870     6.7230     2.3410 
  261.8750  -115.6260    52.9810     1.2370     1.5870     7.2630     2.3760 
  262.0000  -115.6260    52.9810     1.2370     1.5870     6.9350     2.3590 
  262.1250  -115.6260    52.9810     1.2370     1.5870     5.9110     2.2410 
  262.2500  -115.6260    52.9810     1.2370     1.5870     4.7080     2.0590 
  262.3750  -115.6260    52.9810     1.2370     1.5870     3.9000     1.9120 
  262.5000  -115.6260    52.9810     1.2370     1.5870     3.3940     1.8510 
  262.6250  -115.6260    52.9810     1.2370     1.5870     2.9390     1.8470 
  262.7500  -115.6260    52.9810     1.2370     1.5870     2.5900     1.8450 
  262.8750  -115.6260    52.9810     1.2370     1.5870     2.4400     1.8380 
  263.0000  -115.6260    52.9810     1.2370     1.5870     2.4020     1.8370 
  263.1250  -115.6260    52.9810     1.2370     1.5870     2.3980     1.8400 
  263.2500  -115.6260    52.9810     1.2370     1.5870     2.3980     1.8430 
  263.3750  -115.6260    52.9810     1.2370     1.5870     2.3980     1.8420 
  263.5000  -115.6260    52.9810     1.2370     1.5870     2.3980     1.8410 
  263.6250  -115.6260    52.9810     1.2370     1.5870     2.3980     1.8440 
  263.7500  -115.6260    52.9810     1.2370     1.5870     2.3980     1.8490 
  263.8750  -115.6260    52.9810     1.2370     1.5870     2.3980     1.8520 
  264.0000  -115.6260    52.9810     1.2370     1.5870     2.3980     1.8530 
  264.1250  -115.6260    52.9810     1.2370     1.5870     2.3980     1.8520 
  264.2500  -115.6260    52.9810     1.2370     1.5870     2.3980     1.8520 
  264.3750  -115.6260    52.9810     1.2370     1.5870     2.3980     1.8530 
  264.5000  -115.6260    52.9810     1.2370     1.5870     2.3970     1.8510 
  264.6250  -115.6260    52.9810     1.2370     1.5870     2.3970     1.8470 
  264.7500  -115.6260    52.9810     1.2370     1.5870     2.3970     1.8440 
  264.8750  -115.6260    52.9810     1.2370     1.5870     2.3970     1.8450 
  265.0000  -115.6260    52.9810     1.2370     1.5870     2.3970     1.8450 
