~V
VERS. 2.00: Ver 2.00
~W
STRT.M 62.0000:
STOP.M 217.0000:
STEP.M 0.1250:
NULL. -999.2500:
UWI. F11126:
~C
DEPT.M :
DEN.GM/CC :
SP.MV :
GR.API :
RML.OHMM :
RI. :
RXO.OHMM :
CALI.CM :
~A
# ...
  185.7500     2.3940   -17.9910    55.7450     7.2400     6.5990     6.5090    23.6630 
  185.8750     2.4240   -17.9890    56.5060     7.2950     6.7530     6.7700    23.3330 
  186.0000     2.4390   -18.0360    54.8560     7.3850     6.9350     7.1060    23.3540 
  186.1250     2.4370   -18.1750    53.7260     7.5610     7.1610     7.4360    23.5050 
  186.2500     2.4280   -18.3560    53.6110     7.8250     7.4330     7.7410    23.4750 
  186.3750     2.4200   -18.5270    54.4820     8.1170     7.7050     8.0340    23.5010 
  186.5000     2.4160   -18.6690    56.8710     8.2990     7.8590     8.2930    23.7720 
  186.6250     2.4140   -18.7750    58.8950     8.2800     7.7990     8.3250    23.9670 
  186.7500     2.4170   -18.7610    60.4510     7.9680     7.4830     7.9110    24.0210 
  186.8750     2.4280   -18.6380    61.7350     7.4510     6.9560     6.9230    24.0410 
  187.0000     2.4490   -18.5030    62.8180     6.7750     6.3450     5.9150    24.0300 
  187.1250     2.4660   -18.4010    62.4460     6.0880     5.8130     5.5090    23.9120 
  187.2500     2.4670   -18.3450    60.2210     5.6910     5.4480     5.3910    23.6900 
  187.3750     2.4450   -18.3590    58.4100     5.6360     5.2840     5.3810    23.4800 
  187.5000     2.4040   -18.4700    58.1660     5.7420     5.3450     5.5520    23.1000 
  187.6250     2.3610   -18.6920    58.9840     5.9880     5.5650     5.9690    22.7750 
  187.7500     2.3310   -19.0460    60.7980     6.3620     5.9010     6.6240    22.6570 
  187.8750     2.3210   -19.4280    63.4990     6.8170     6.3040     7.3430    22.8110 
  188.0000     2.3360   -19.6560    65.4230     7.2610     6.7070     7.8730    23.2330 
  188.1250     2.3660   -19.7340    65.0600     7.5990     7.0460     8.1080    23.5990 
  188.2500     2.3950   -19.7840    62.3020     7.7830     7.2800     8.1000    23.7930 
  188.3750     2.4100   -19.8200    57.5990     7.8160     7.3850     8.0110    23.9070 
  188.5000     2.4040   -19.6970    53.6940     7.7310     7.3520     7.9740    24.0760 
  188.6250     2.3940   -19.4180    53.5460     7.6110     7.2420     8.0050    24.2210 
  188.7500     2.3950   -19.1020    57.2380     7.5080     7.1090     7.8750    24.2810 
  188.8750     2.4120   -18.8080    62.2080     7.4540     7.0010     7.5950    24.2700 
  189.0000     2.4390   -18.4950    66.5190     7.4730     6.9670     7.4850    24.2150 
  189.1250     2.4550   -18.1400    70.1310     7.5470     7.0010     7.7850    24.1480 
  189.2500     2.4540   -17.7530    72.9510     7.6590     7.0850     8.2640    24.1440 
  189.3750     2.4380   -17.3810    75.3490     7.7890     7.1920     8.6130    24.2180 
  189.5000     2.4220   -17.0330    77.6930     7.9200     7.2930     8.6000    24.3060 
  189.6250     2.4110   -16.7800    81.4690     8.0530     7.3790     8.4020    24.4660 
  189.7500     2.3980   -16.6370    86.5250     8.2030     7.4630     8.2640    24.7170 
  189.8750     2.3860   -16.5460    91.3300     8.3850     7.5700     8.3600    24.9880 
  190.0000     2.3820   -16.4930    94.2040     8.6100     7.7250     8.8480    25.1680 
  190.1250     2.3870   -16.4340    96.2820     8.8420     7.9180     9.5110    25.2070 
  190.2500     2.3990   -16.3330    98.5810     9.0470     8.1270    10.0550    25.1340 
  190.3750     2.4120   -16.1990   100.5180     9.1990     8.3280    10.3230    25.0180 
  190.5000     2.4180   -16.0380   101.6130     9.3020     8.5030    10.4140    24.9470 
  190.6250     2.4140   -15.7540   102.9580     9.3890     8.6650    10.3080    24.9360 
  190.7500     2.4110   -15.3380   105.2590     9.5140     8.8270    10.0950    24.9670 
  190.8750     2.4230   -14.9310   108.0610     9.6250     8.9960     9.8800    24.9410 
  191.0000     2.4550   -14.6030   107.3180     9.7330     9.1610    10.0230    24.7440 
  191.1250     2.4900   -14.3490   103.3580     9.8610     9.2980    10.4520    24.4170 
  191.2500     2.5140   -14.2090   101.2810     9.9890     9.3830    11.0110    24.1030 
  191.3750     2.5230   -14.1510   104.7540    10.1530     9.4000    11.4930    23.8550 
  191.5000     2.5190   -14.1380   108.9670    10.0830     9.3090    11.6950    23.7840 
  191.6250     2.5120   -14.1430   107.9330     9.8410     9.0970    11.7780    23.7870 
  191.7500     2.5070   -14.1700   104.1090     9.4240     8.7510    11.8650    23.8210 
  191.8750     2.4960   -14.2070   100.3830     8.8650     8.2830    11.8200    23.8990 
  192.0000     2.4690   -14.1860    94.6560     8.2300     7.7300    10.7710    24.0800 
  192.1250     2.4360   -14.0800    86.6450     7.6270     7.1830     8.6430    24.2960 
  192.2500     2.4100   -13.8630    77.6720     7.1230     6.7060     7.3860    24.4080 
  192.3750     2.3970   -13.5740    69.9250     6.7510     6.3440     6.8550    24.4320 
  192.5000     2.3950   -13.2470    63.2660     6.5290     6.1240     6.6140    24.4220 
  192.6250     2.3960   -12.9520    58.4560     6.4190     6.0110     6.4960    24.3880 
  192.7500     2.3960   -12.7020    56.0350     6.4090     5.9780     6.4740    24.3710 
  192.8750     2.3900   -12.4700    55.0020     6.4930     6.0070     6.4970    24.3680 
  193.0000     2.3780   -12.3740    55.3990     6.6770     6.1030     6.5430    24.3240 
  193.1250     2.3730   -12.5440    57.0260     6.9280     6.2620     6.6380    24.2480 
  193.2500     2.3760   -12.9430    59.8190     7.2180     6.4820     6.7860    24.1630 
  193.3750     2.3860   -13.4300    64.2700     7.5080     6.7390     6.9960    24.1480 
  193.5000     2.3980   -13.9440    70.6760     7.7460     6.9750     7.3660    24.2270 
  193.6250     2.4060   -14.4310    75.1300     7.8950     7.1280     7.6780    24.2560 
  193.7500     2.4050   -14.8360    72.9620     7.9210     7.1520     7.7180    24.2120 
  193.8750     2.3980   -15.1090    65.8380     7.8000     7.0360     7.5120    24.1040 
  194.0000     2.3900   -15.1890    61.1430     7.5130     6.7980     7.1350    24.0210 
  194.1250     2.3860   -14.9850    59.2360     7.1300     6.5200     6.7680    23.9390 
  194.2500     2.3890   -14.4700    58.9520     6.7220     6.2560     6.4780    23.9060 
  194.3750     2.4010   -13.8350    61.6670     6.3650     6.0420     6.2490    23.9270 
  194.5000     2.4240   -13.2110    68.6140     6.1300     5.9010     6.0360    23.9480 
  194.6250     2.4470   -12.6520    76.1240     6.0100     5.8180     5.9860    23.9440 
  194.7500     2.4620   -12.1560    83.0720     5.9910     5.7820     6.1190    23.9100 
  194.8750     2.4640   -11.7730    89.1830     6.0560     5.7850     6.3970    23.8810 
  195.0000     2.4540   -11.5540    91.0510     6.2030     5.8280     6.6480    23.8720 
  195.1250     2.4420   -11.4230    89.9300     6.4070     5.9030     6.8520    23.9390 
  195.2500     2.4350   -11.4570    90.4460     6.6460     6.0120     7.1110    24.0730 
  195.3750     2.4420   -11.6160    93.6490     6.9030     6.1490     7.4870    24.1910 
  195.5000     2.4630   -11.8660    92.9620     7.1120     6.3120     7.8870    24.2580 
  195.6250     2.4770   -12.2300    85.6810     7.3550     6.4890     8.2420    24.2730 
  195.7500     2.4660   -12.7490    75.0430     7.5910     6.6790     8.5370    24.2750 
  195.8750     2.4330   -13.3500    65.4900     7.8320     6.8880     8.7600    24.2760 
  196.0000     2.3990   -13.9630    60.2230     8.1170     7.1220     8.8470    24.2730 
  196.1250     2.3790   -14.6630    57.7910     8.3050     7.3760     8.7910    24.2380 
  196.2500     2.3740   -15.4880    56.7870     8.4320     7.6330     8.8490    24.1700 
  196.3750     2.3770   -16.3300    57.0950     8.5190     7.8610     8.9680    24.1140 
  196.5000     2.3680   -17.0570    57.8430     8.5450     8.0000     8.9220    24.1160 
  196.6250     2.3390   -17.6430    57.7240     8.4250     8.0220     8.5910    24.0800 
  196.7500     2.2960   -18.0600    56.2800     8.1690     7.9120     8.4810    24.0880 
  196.8750     2.2520   -18.3390    54.1760     7.8260     7.6770     8.5020    24.1090 
