~V
VERS. 2.00: Ver 2.00
~W
STRT.M 45.0000:
STOP.M 268.0000:
STEP.M 0.1250:
NULL. -999.2500:
UWI. F11184:
~C
DEPT.M :
SP.MV :
GR.API :
RI. :
RML.OHMM :
RXO.OHMM :
DEN.GM/CC :
~A
# ...
  160.8750   -21.0880    60.3920     8.4790     9.1030    14.2280     2.4390 
  161.0000   -20.9790    63.1780     8.2600     8.8730    13.6050     2.4340 
  161.1250   -20.8410    63.1890     7.8520     8.4450    11.9000     2.4360 
  161.2500   -20.6820    61.6260     7.3340     7.9010     9.7810     2.4390 
  161.3750   -20.5110    59.8690     6.8340     7.3760     8.1590     2.4430 
  161.5000   -20.3450    59.3380     6.3770     6.8950     7.8840     2.4450 
  161.6250   -20.2040    59.5390     5.9770     6.4750     8.3590     2.4430 
  161.7500   -20.1010    60.2680     5.6360     6.1170     7.9070     2.4370 
  161.8750   -20.0480    60.9860     5.3480     5.8150     6.6850     2.4290 
  162.0000   -20.0370    60.8640     5.1150     5.5710     6.0680     2.4320 
  162.1250   -20.0600    59.7960     4.9650     5.4140     5.9890     2.4550 
  162.2500   -20.1000    57.7620     4.9380     5.3850     5.9810     2.4820 
  162.3750   -20.1430    54.8220     5.0420     5.4940     5.8720     2.4910 
  162.5000   -20.1810    52.9400     5.2420     5.7040     5.8380     2.4780 
  162.6250   -20.2170    53.0330     5.5220     5.9980     6.1530     2.4670 
  162.7500   -20.2590    54.1970     5.8530     6.3460     6.5230     2.4760 
  162.8750   -20.3090    55.1180     6.1710     6.6790     7.0150     2.4860 
  163.0000   -20.3630    55.4240     6.4350     6.9560     7.9770     2.4830 
  163.1250   -20.4140    54.1180     6.6160     7.1470     8.8590     2.4810 
  163.2500   -20.4540    52.5220     6.7080     7.2430     9.1390     2.4880 
  163.3750   -20.4750    52.2920     6.7050     7.2410     9.4080     2.4850 
  163.5000   -20.4730    53.6240     6.6480     7.1810     9.9280     2.4620 
  163.6250   -20.4440    56.0590     6.5700     7.0980     9.9500     2.4380 
  163.7500   -20.3850    60.2370     6.5200     7.0460     9.4140     2.4330 
  163.8750   -20.2950    62.8000     6.5460     7.0730     9.3340     2.4380 
  164.0000   -20.1760    60.7920     6.6240     7.1550     9.6960     2.4360 
  164.1250   -20.0310    58.6270     6.8200     7.3610    10.6370     2.4240 
  164.2500   -19.8640    61.3260     7.1610     7.7190    11.4870     2.4110 
  164.3750   -19.6790    66.4230     7.5650     8.1430    10.9710     2.4030 
  164.5000   -19.4790    68.4920     7.9480     8.5450    11.2410     2.4070 
  164.6250   -19.2640    67.1520     8.0360     8.6380    13.2210     2.4050 
  164.7500   -19.0340    65.8600     7.6260     8.2080    13.6470     2.3820 
  164.8750   -18.7910    66.8960     6.6260     7.1570    11.7290     2.3410 
  165.0000   -18.5400    69.8190     5.3640     5.8320    10.0500     2.3170 
  165.1250   -18.2960    72.5370     4.1680     4.5770     8.0530     2.3280 
  165.2500   -18.0770    73.7570     3.3470     3.7140     5.1910     2.3520 
  165.3750   -17.9060    75.4230     2.9830     3.3320     3.6770     2.3670 
  165.5000   -17.7960    79.9290     2.8350     3.1760     3.5680     2.3660 
  165.6250   -17.7620    85.8650     2.9030     3.2480     3.6870     2.3530 
  165.7500   -17.8040    91.9100     3.1500     3.5080     3.8330     2.3360 
  165.8750   -17.9210    93.8060     3.6920     4.0770     4.1550     2.3160 
  166.0000   -18.0970    90.3410     4.5840     5.0130     5.2600     2.2850 
  166.1250   -18.3180    84.0510     5.9250     6.4210     9.4380     2.2460 
  166.2500   -18.5660    78.9000     7.7680     8.3570    15.6420     2.2160 
  166.3750   -18.8330    75.8350     9.8420    10.5340    18.1730     2.2110 
  166.5000   -19.1090    74.5270    11.7260    12.5120    15.9190     2.2160 
  166.6250   -19.3880    74.5020    12.9510    13.7980    14.3490     2.2180 
  166.7500   -19.6720    73.7960    13.3190    14.1850    15.6540     2.2230 
  166.8750   -19.9670    73.0270    12.5650    13.3940    16.2020     2.2400 
  167.0000   -20.2810    74.6050    10.9780    11.7270    14.7870     2.2680 
  167.1250   -20.6290    77.9640     9.2430     9.9060    11.5450     2.2890 
  167.2500   -21.0210    80.9470     7.8100     8.4010     7.8770     2.2830 
  167.3750   -21.4730    82.4770     7.3680     7.9360     7.0070     2.2500 
  167.5000   -21.9860    81.4760     8.0240     8.6250     9.4800     2.2120 
  167.6250   -22.5580    77.2510    10.1040    10.8090    16.3360     2.1920 
  167.7500   -23.1610    71.2500    13.7820    14.6710    18.5210     2.1880 
  167.8750   -23.7580    65.0680    18.1210    19.2270    20.6290     2.1930 
  168.0000   -24.3090    60.2840    21.8670    23.1610    26.1990     2.2080 
  168.1250   -24.7780    59.4730    24.1460    25.5530    27.3200     2.2210 
  168.2500   -25.1620    61.0620    25.0160    26.4670    29.2890     2.2170 
  168.3750   -25.4640    63.5950    25.7150    27.2010    31.6420     2.1990 
  168.5000   -25.7110    65.0830    27.0890    28.6430    34.1420     2.1840 
  168.6250   -25.9170    64.5700    28.8310    30.4720    38.8430     2.1770 
  168.7500   -26.0940    62.5410    30.1010    31.8060    41.4990     2.1740 
  168.8750   -26.2410    61.1070    29.9220    31.6180    39.2830     2.1790 
  169.0000   -26.3570    60.5040    28.2410    29.8530    32.2910     2.1950 
  169.1250   -26.4440    61.4970    25.5850    27.0640    26.4780     2.2110 
  169.2500   -26.5170    64.7150    23.0660    24.4200    25.1260     2.2210 
  169.3750   -26.6020    67.4690    21.2020    22.4620    24.8700     2.2240 
  169.5000   -26.7200    66.9730    20.2960    21.5110    25.3900     2.2230 
  169.6250   -26.8840    64.8950    20.5780    21.8070    25.3310     2.2180 
  169.7500   -27.0880    63.7940    21.5080    22.7830    25.6570     2.2120 
  169.8750   -27.3170    65.3970    22.8370    24.1790    27.1280     2.2060 
  170.0000   -27.5510    69.4860    24.1920    25.6010    28.0900     2.2040 
  170.1250   -27.7770    73.9120    25.3250    26.7920    28.8840     2.2050 
  170.2500   -27.9930    74.1120    26.2160    27.7270    28.8840     2.2100 
  170.3750   -28.2050    70.3680    26.6100    28.1410    28.4840     2.2130 
  170.5000   -28.4190    67.4480    26.7070    28.2420    28.8840     2.2120 
  170.6250   -28.6420    68.9220    26.6780    28.2120    30.8610     2.2080 
  170.7500   -28.8750    71.0980    26.8680    28.4120    33.2040     2.2030 
  170.8750   -29.1160    70.4530    27.7060    29.2910    36.1140     2.1960 
  171.0000   -29.3610    66.4340    29.4160    31.0870    41.4990     2.1840 
  171.1250   -29.6040    63.7470    32.2860    34.1000    44.1950     2.1670 
  171.2500   -29.8430    64.1480    36.2220    38.2330    49.3970     2.1510 
  171.3750   -30.0760    65.8930    40.9750    43.2230    55.2360     2.1420 
  171.5000   -30.3040    65.4050    45.8910    48.3850    62.1700     2.1420 
  171.6250   -30.5250    62.0480    50.3440    53.0610    64.3890     2.1480 
  171.7500   -30.7370    59.6290    54.4220    57.3430    63.9280     2.1550 
  171.8750   -30.9360    60.6970    57.5560    60.6340    63.4850     2.1590 
  172.0000   -31.1180    62.5110    59.9490    63.1460    64.8250     2.1600 
  172.1250   -31.2750    61.5200    61.2480    64.5100    60.4850     2.1600 
  172.2500   -31.4060    59.3570    61.7340    65.0210    55.6110     2.1620 
  172.3750   -31.5070    58.9260    61.7010    64.9860    42.9080     2.1660 
  172.5000   -31.5840    58.8180    61.8950    65.1900    41.1740     2.1690 
  172.6250   -31.6390    56.9070    62.7970    66.1360    44.8600     2.1680 
  172.7500   -31.6760    55.1100    64.5090    67.9350    45.7800     2.1610 
  172.8750   -31.6930    55.4610    66.2270    69.7380    45.0650     2.1510 
  173.0000   -31.6930    58.2040    67.0660    70.6190    47.8390     2.1490 
  173.1250   -31.6760    61.8560    66.0920    69.5970    49.4330     2.1590 
  173.2500   -31.6490    64.6240    63.6840    67.0680    46.3260     2.1690 
  173.3750   -31.6160    65.0720    60.5110    63.7370    44.4770     2.1680 
  173.5000   -31.5850    64.6790    57.6430    60.7250    46.9680     2.1620 
  173.6250   -31.5580    65.2560    55.9400    58.9370    50.2340     2.1560 
