~V
VERS. 2.00: Ver 2.00
~W
STRT.M 60.0000:
STOP.M 281.0000:
STEP.M 0.1250:
NULL. -999.2500:
UWI. F11154:
~C
DEPT.M :
DEN.GM/CC :
GR.API :
RML.OHMM :
RI. :
RXO.OHMM :
CALI.CM :
SP.MV :
~A
# ...
  116.2500     2.4810    63.9290    10.2320     8.6650     9.1650    23.7220   -10.1210 
  116.3750     2.4460    61.9760    10.0280     8.7070     9.2230    23.5210   -11.1290 
  116.5000     2.3680    63.9830     9.5280     8.4400     8.9910    23.3900   -12.2420 
  116.6250     2.2780    65.4750     9.0530     8.0760     9.0140    23.3570   -13.4320 
  116.7500     2.2160    64.8850     8.7960     7.8060     9.3470    23.3620   -14.5980 
  116.8750     2.1850    62.8990     8.7710     7.6810     9.7380    23.3790   -15.6760 
  117.0000     2.1740    60.5380     8.9020     7.6790     9.8980    23.4040   -16.6180 
  117.1250     2.1700    59.7700     9.0810     7.7470     9.7960    23.4080   -17.3470 
  117.2500     2.1690    60.6120     9.2210     7.8160     9.5600    23.3960   -17.8690 
  117.3750     2.1700    61.1260     9.3080     7.8620     9.2630    23.3600   -18.1800 
  117.5000     2.1670    59.2980     9.3540     7.8850     9.0230    23.3320   -18.3150 
  117.6250     2.1590    56.8930     9.3750     7.8950     8.8430    23.3180   -18.2730 
  117.7500     2.1550    55.8220     9.3710     7.8980     8.7270    23.3250   -18.1470 
  117.8750     2.1580    55.1490     9.3340     7.8890     8.6420    23.3320   -17.9970 
  118.0000     2.1670    55.1640     9.2630     7.8650     8.5290    23.3280   -17.8810 
  118.1250     2.1730    57.0830     9.1720     7.8230     8.3700    23.3270   -17.8660 
  118.2500     2.1760    58.8380     9.0860     7.7730     8.2100    23.3590   -17.9510 
  118.3750     2.1820    58.8550     9.0150     7.7220     8.1030    23.4040   -18.1330 
  118.5000     2.1920    57.6150     8.9640     7.6780     8.0560    23.4190   -18.3510 
  118.6250     2.1990    55.8110     8.9370     7.6490     8.0140    23.4510   -18.5850 
  118.7500     2.2010    55.3720     8.9390     7.6410     7.9670    23.5210   -18.8370 
  118.8750     2.1970    58.3010     8.9770     7.6550     7.9650    23.6010   -19.0700 
  119.0000     2.1870    62.6380     9.0530     7.6930     8.0750    23.6430   -19.2480 
  119.1250     2.1720    62.6190     9.1540     7.7490     8.3440    23.6620   -19.3870 
  119.2500     2.1590    58.9380     9.2500     7.8060     8.7440    23.7040   -19.5230 
  119.3750     2.1530    56.3420     9.3170     7.8520     9.1610    23.7580   -19.6270 
  119.5000     2.1510    56.4400     9.3420     7.8780     9.5030    23.7220   -19.6940 
  119.6250     2.1460    57.6730     9.3220     7.8780     9.6340    23.6020   -19.7490 
  119.7500     2.1410    58.0320     9.2860     7.8650     9.6680    23.5180   -19.8130 
  119.8750     2.1360    57.0580     9.2570     7.8510     9.6170    23.5060   -19.8730 
  120.0000     2.1350    55.8490     9.2530     7.8490     9.4580    23.5630   -19.8890 
  120.1250     2.1350    55.8050     9.2890     7.8710     9.4460    23.7040   -19.8220 
  120.2500     2.1370    56.6620     9.3500     7.9110     9.6690    23.8110   -19.6640 
  120.3750     2.1400    57.2090     9.4200     7.9640     9.8010    23.8350   -19.3950 
  120.5000     2.1440    56.6690     9.4790     8.0200     9.6950    23.7920   -19.0350 
  120.6250     2.1440    55.3280     9.5070     8.0650     9.4680    23.8090   -18.5920 
  120.7500     2.1440    54.5700     9.4980     8.0950     9.2880    23.8850   -18.1190 
  120.8750     2.1450    54.7270     9.4540     8.1100     9.4460    23.9650   -17.6650 
  121.0000     2.1490    55.3670     9.3870     8.1170     9.9200    23.9750   -17.2770 
  121.1250     2.1550    55.8710     9.3250     8.1270    10.1790    23.8840   -16.9900 
  121.2500     2.1610    55.9450     9.3010     8.1530    10.1200    23.7350   -16.7740 
  121.3750     2.1640    55.6360     9.3410     8.2090     9.9080    23.5830   -16.6210 
  121.5000     2.1640    55.7290     9.4570     8.3060     9.5590    23.5000   -16.4840 
  121.6250     2.1590    57.6680     9.6380     8.4440     9.3290    23.5040   -16.2850 
  121.7500     2.1550    59.7790     9.8070     8.5730     9.3330    23.6010   -15.9920 
  121.8750     2.1560    60.8650     9.8650     8.6260     9.4850    23.7370   -15.5940 
  122.0000     2.1650    60.9480     9.7110     8.5220     9.4850    23.8360   -15.0610 
  122.1250     2.1890    60.9070     9.3610     8.1810     9.2560    23.8130   -14.3230 
  122.2500     2.2240    62.2000     8.8550     7.6760     9.0570    23.7400   -13.4230 
  122.3750     2.2640    64.7700     8.3820     7.1270     8.7690    23.7110   -12.4450 
  122.5000     2.3040    66.9430     8.2620     6.6800     8.4490    23.7400   -11.5460 
  122.6250     2.3290    67.8160     8.1050     6.5050     8.1940    23.8150   -10.9710 
  122.7500     2.3280    67.4970     8.3320     6.6160     8.0480    23.8800   -10.7340 
  122.8750     2.2990    64.9100     8.8550     6.9820     8.4370    23.8980   -10.7950 
  123.0000     2.2530    59.7640     9.5060     7.5140     9.4860    23.8850   -11.1060 
  123.1250     2.2100    55.1490    10.0520     8.0680    10.0220    23.8720   -11.6540 
  123.2500     2.1840    53.5140    10.3510     8.4920    10.2920    23.7970   -12.3670 
  123.3750     2.1790    54.1580    10.3780     8.7190    10.4010    23.6470   -13.1710 
  123.5000     2.1870    55.7510    10.2130     8.7600    10.3790    23.4940   -13.9260 
  123.6250     2.1990    57.3630     9.9940     8.6870    10.2620    23.3520   -14.4240 
  123.7500     2.2110    58.0290     9.8350     8.6080    10.1970    23.2100   -14.6040 
  123.8750     2.2230    57.3150     9.7610     8.5630    10.0980    23.1040   -14.5000 
  124.0000     2.2340    56.3700     9.7520     8.5560     9.9750    23.0280   -14.2380 
  124.1250     2.2370    55.9300     9.7830     8.5780     9.8570    22.9420   -13.8590 
  124.2500     2.2330    56.1530     9.8280     8.6110     9.6400    22.8090   -13.4230 
  124.3750     2.2250    57.0700     9.8870     8.6500     9.3730    22.6730   -12.9680 
  124.5000     2.2190    58.2360     9.9670     8.6950     9.1820    22.6450   -12.5040 
  124.6250     2.2170    58.9640    10.0710     8.7520     9.1820    22.7990   -12.0130 
  124.7500     2.2140    58.7850    10.1770     8.8100     9.1650    22.9920   -11.5150 
  124.8750     2.2120    58.0810    10.2490     8.8510     9.0720    23.1380   -11.0500 
  125.0000     2.2140    57.5480    10.2490     8.8460     8.9450    23.2000   -10.6060 
  125.1250     2.2210    57.7250    10.1490     8.7720     8.9430    23.2230   -10.1540 
  125.2500     2.2290    58.0570    10.0190     8.6660     9.0130    23.2690    -9.6840 
  125.3750     2.2330    57.3520     9.9890     8.6120     8.9930    23.3670    -9.1690 
  125.5000     2.2420    56.2000    10.2480     8.7460     9.0030    23.4860    -8.6040 
  125.6250     2.2700    55.6080    11.1210     9.3120     9.7500    23.6030    -8.0000 
  125.7500     2.3210    54.7580    12.6950    10.4120    11.4370    23.7100    -7.3340 
  125.8750     2.3930    52.3680    14.9840    12.1150    14.2050    23.8310    -6.5870 
  126.0000     2.4810    48.6220    17.8250    14.3730    17.8150    23.9730    -5.7960 
  126.1250     2.5640    45.9810    20.8070    16.9700    21.6200    24.0860    -5.0360 
  126.2500     2.6210    44.2050    23.3370    19.4130    25.0210    24.1350    -4.3010 
  126.3750     2.6440    42.5550    25.0050    21.2910    27.1750    24.1190    -3.6070 
  126.5000     2.6450    40.8270    25.6870    22.3640    27.5810    24.0900    -2.9640 
  126.6250     2.6370    40.6320    25.5560    22.6150    27.5180    24.0930    -2.4200 
  126.7500     2.6230    41.7110    25.2160    22.5050    26.6850    24.1100    -1.9880 
  126.8750     2.6070    42.0380    24.9870    22.3270    25.5460    24.1250    -1.6340 
  127.0000     2.5960    41.0300    24.9870    22.2450    25.5610    24.1350    -1.2860 
  127.1250     2.5940    39.9140    25.1900    22.3140    26.2780    24.1440    -0.9440 
  127.2500     2.5980    39.9180    25.4640    22.4840    26.6360    24.1670    -0.6510 
  127.3750     2.6060    39.9300    25.7710    22.7400    26.3380    24.1950    -0.4090 
