~V
VERS. 2.00: Ver 2.00
~W
STRT.M 45.0000:
STOP.M 264.0000:
STEP.M 0.1250:
NULL. -999.2500:
UWI. F11189:
~C
DEPT.M :
SP.MV :
GR.API :
RI. :
RML.OHMM :
RXO.OHMM :
DEN.GM/CC :
~A
# ...
   57.8750   -16.3980    68.3560     7.9330     8.4680    54.9230     2.3850 
   58.0000   -16.2740    64.3630     8.0650     8.7090    50.8640     2.3930 
   58.1250   -16.0710    62.2960     7.4700     8.0360    21.4010     2.2630 
   58.2500   -15.9080    61.0150     6.5670     6.9940     6.8720     2.1230 
   58.3750   -15.8680    62.2700     5.5710     5.9460     5.9630     2.0680 
   58.5000   -15.9190    66.9680     4.8130     5.2460     6.1540     2.0730 
   58.6250   -15.9710    70.9210     4.5730     5.1060     6.4070     2.0810 
   58.7500   -15.9970    71.7170     4.6060     5.2320     6.3890     2.0800 
   58.8750   -15.9790    70.2520     4.7210     5.3900     6.0830     2.0860 
   59.0000   -15.9020    69.0520     4.8630     5.5800     5.8520     2.1050 
   59.1250   -15.7930    68.6470     5.0060     5.8030     6.0670     2.1220 
   59.2500   -15.6750    68.3580     5.1280     5.9950     6.6030     2.1210 
   59.3750   -15.5650    67.4180     5.1860     6.1120     7.0070     2.1100 
   59.5000   -15.4730    65.6920     5.1960     6.1780     7.1890     2.1070 
   59.6250   -15.3990    64.6910     5.1860     6.2160     7.4200     2.1090 
   59.7500   -15.3420    64.4040     5.1680     6.2520     7.5890     2.1070 
   59.8750   -15.3050    64.6540     5.1540     6.3030     7.6280     2.1020 
   60.0000   -15.2880    64.9210     5.1410     6.3590     7.7370     2.0990 
   60.1250   -15.2970    66.1470     5.1450     6.4500     7.7630     2.0970 
   60.2500   -15.3330    66.9910     5.2180     6.6600     7.6830     2.0920 
   60.3750   -15.4030    66.8320     5.3480     6.9580     7.6360     2.0820 
   60.5000   -15.5050    66.2130     5.4960     7.2860     7.2730     2.0730 
   60.6250   -15.6300    65.6230     5.5980     7.5440     6.4240     2.0710 
   60.7500   -15.7570    64.4420     5.6000     7.6400     5.8110     2.0760 
   60.8750   -15.8700    63.3970     5.5240     7.5980     5.9390     2.0810 
   61.0000   -15.9630    64.8200     5.3880     7.4550     6.3950     2.0900 
   61.1250   -16.0410    67.7860     5.2330     7.2880     6.8250     2.1050 
   61.2500   -16.1210    69.5080     5.1220     7.1920     7.2230     2.1150 
   61.3750   -16.2170    69.4910     5.0480     7.1430     7.6430     2.1140 
   61.5000   -16.3280    69.6100     5.0190     7.1520     8.1950     2.1120 
   61.6250   -16.4460    69.4040     5.0170     7.2000     8.3450     2.1140 
   61.7500   -16.5510    68.0160     5.0410     7.2970     7.9030     2.1150 
   61.8750   -16.6220    65.9570     5.1040     7.4530     7.5280     2.1090 
   62.0000   -16.6580    65.0970     5.1610     7.5820     7.2120     2.1000 
   62.1250   -16.6630    64.6440     5.1840     7.6440     6.9080     2.0880 
   62.2500   -16.6550    63.2360     5.1570     7.6070     6.9160     2.0800 
   62.3750   -16.6460    62.6910     5.0760     7.4690     7.0470     2.0850 
   62.5000   -16.6530    64.3970     4.9700     7.2900     7.0260     2.0970 
   62.6250   -16.6850    67.0200     4.8660     7.1330     6.9990     2.1020 
   62.7500   -16.7440    67.6320     4.7980     7.0550     6.9910     2.0950 
   62.8750   -16.8220    66.2000     4.7850     7.0720     6.9090     2.0850 
   63.0000   -16.8980    65.1040     4.8030     7.1260     6.7030     2.0900 
   63.1250   -16.9520    64.8340     4.8220     7.1690     6.4180     2.1080 
   63.2500   -16.9670    64.6100     4.8550     7.2290     6.3800     2.1180 
   63.3750   -16.9280    63.5860     4.9120     7.3280     6.5170     2.1070 
   63.5000   -16.8350    63.3810     4.9600     7.4050     6.5900     2.0980 
   63.6250   -16.6870    63.8830     4.9780     7.4290     6.6780     2.1030 
   63.7500   -16.5000    63.1940     4.9430     7.3460     6.6640     2.1080 
   63.8750   -16.2930    61.1760     4.8630     7.1790     6.3070     2.0950 
   64.0000   -16.0940    60.0190     4.7390     6.9530     5.9120     2.0760 
   64.1250   -15.9240    59.9890     4.6080     6.7430     5.8800     2.0690 
   64.2500   -15.7930    58.0500     4.4830     6.5720     6.0220     2.0730 
   64.3750   -15.7020    54.8620     4.3970     6.4760     5.9690     2.0750 
   64.5000   -15.6440    54.6070     4.3560     6.4360     5.7210     2.0670 
   64.6250   -15.6120    57.1310     4.3300     6.4060     5.5600     2.0570 
   64.7500   -15.5960    59.8830     4.3230     6.4000     5.6450     2.0570 
   64.8750   -15.5950    62.0270     4.3530     6.4470     5.8900     2.0680 
   65.0000   -15.6070    63.4890     4.4030     6.5360     6.0820     2.0800 
   65.1250   -15.6420    63.3860     4.4620     6.6300     6.0730     2.0850 
   65.2500   -15.7010    62.2390     4.5050     6.6720     5.8420     2.0790 
   65.3750   -15.7790    60.8150     4.5160     6.6550     5.6510     2.0660 
   65.5000   -15.8630    58.2050     4.5080     6.6210     5.7150     2.0570 
   65.6250   -15.9380    55.6270     4.4890     6.5940     5.8290     2.0540 
   65.7500   -15.9970    56.0100     4.4690     6.5820     5.9100     2.0530 
   65.8750   -16.0370    59.5710     4.4600     6.5690     6.0500     2.0510 
   66.0000   -16.0580    61.8560     4.4540     6.5240     6.1640     2.0510 
   66.1250   -16.0570    60.7530     4.4500     6.4580     6.1770     2.0540 
   66.2500   -16.0370    59.5590     4.4440     6.3840     6.1300     2.0550 
   66.3750   -16.0000    60.5160     4.4300     6.2920     6.0170     2.0520 
   66.5000   -15.9560    61.4720     4.4220     6.2040     6.0230     2.0450 
   66.6250   -15.9080    59.6600     4.4220     6.1450     6.2390     2.0410 
   66.7500   -15.8580    57.8880     4.4400     6.1360     6.2640     2.0400 
   66.8750   -15.7970    58.9020     4.4880     6.1700     6.1520     2.0410 
   67.0000   -15.7200    62.5500     4.5480     6.2250     6.3900     2.0450 
   67.1250   -15.6220    65.3520     4.6050     6.2560     6.6350     2.0540 
   67.2500   -15.5100    65.3010     4.6440     6.2500     6.4210     2.0620 
   67.3750   -15.3950    64.1450     4.6570     6.2300     6.1280     2.0630 
   67.5000   -15.2880    64.0080     4.6450     6.2060     6.1760     2.0570 
   67.6250   -15.1980    64.7030     4.6170     6.1830     6.4420     2.0480 
   67.7500   -15.1210    64.8560     4.5910     6.1840     6.5000     2.0460 
   67.8750   -15.0450    63.8300     4.5680     6.2220     6.4040     2.0530 
   68.0000   -14.9470    62.4150     4.5320     6.2320     6.4470     2.0580 
   68.1250   -14.8040    61.7500     4.4760     6.1630     6.4220     2.0530 
   68.2500   -14.6080    62.4850     4.4510     6.0710     6.3380     2.0470 
   68.3750   -14.3610    63.8180     4.6160     6.1850     6.4140     2.0510 
   68.5000   -14.0840    64.0650     5.1260     6.8660     6.6080     2.0740 
   68.6250   -13.7930    62.9510     6.3250     8.6930     7.6330     2.1460 
   68.7500   -13.4950    59.5830     8.4050    11.9180    13.2840     2.2830 
   68.8750   -13.1910    55.1480    10.8090    15.7380    35.5700     2.4510 
   69.0000   -12.8830    52.2430    12.0870    17.6730    75.7930     2.5720 
   69.1250   -12.5810    56.1670    11.4910    16.6060    90.3710     2.5710 
   69.2500   -12.3010    66.3520     9.4200    13.2870    55.3000     2.4570 
   69.3750   -12.0640    79.2380     7.0190     9.4850    17.8080     2.3150 
   69.5000   -11.8750    88.6540     5.5400     7.3010     6.6110     2.2310 
   69.6250   -11.7400    92.4080     4.8750     6.4620     5.9670     2.2060 
   69.7500   -11.6460    91.8740     4.7130     6.3390     6.1970     2.1850 
   69.8750   -11.5790    92.2820     4.8130     6.5340     6.4270     2.1700 
   70.0000   -11.5170    93.4210     4.9410     6.7080     6.2240     2.1810 
   70.1250   -11.4480    92.8310     5.0060     6.7420     5.8120     2.2100 
   70.2500   -11.3680    92.1870     5.0260     6.7570     5.7780     2.2400 
   70.3750   -11.2820    96.2580     5.0410     6.7930     5.9970     2.2590 
   70.5000   -11.1980   101.3820     5.0570     6.8290     5.9660     2.2430 
   70.6250   -11.1270   102.0780     5.0310     6.7870     5.9860     2.1890 
