~V
VERS. 2.00: Ver 2.00
~W
STRT.M 50.0000:
STOP.M 242.0000:
STEP.M 0.1250:
NULL. -999.2500:
UWI. F11136:
~C
DEPT.M :
GR.API :
RML.OHMM :
RI. :
RXO.OHMM :
CALI.CM :
SP.MV :
DEN.GM/CC :
~A
# ...
  106.2500    51.9670     9.1860     7.7330     8.9870    21.1450   -24.3870     2.1670 
  106.3750    54.1860     8.9980     7.5740     8.8540    21.1880   -24.3680     2.2100 
  106.5000    54.4400     8.8440     7.4440     8.7880    21.3340   -24.2900     2.2540 
  106.6250    51.7810     8.7480     7.3640     8.6700    21.4650   -24.1000     2.2850 
  106.7500    49.5260     8.7060     7.3280     8.5060    21.6150   -23.8730     2.2970 
  106.8750    48.8210     8.6990     7.3220     8.4500    21.4960   -23.6550     2.2870 
  107.0000    49.1240     8.6930     7.3180     8.5640    21.4690   -23.4370     2.2640 
  107.1250    50.6600     8.6560     7.2860     8.8110    21.4860   -23.1660     2.2370 
  107.2500    53.1510     8.5770     7.2190     8.9210    21.4880   -22.8730     2.2160 
  107.3750    56.4160     8.4640     7.1250     9.0280    21.4720   -22.5890     2.2040 
  107.5000    58.5670     8.3310     7.0130     9.2580    21.3640   -22.3210     2.1990 
  107.6250    60.0090     8.1930     6.8970     9.3050    21.3450   -22.1090     2.1990 
  107.7500    61.9050     8.0850     6.8050     8.9270    21.3390   -21.9400     2.1990 
  107.8750    63.4520     8.0370     6.7650     8.3010    21.3330   -21.8260     2.1960 
  108.0000    62.1750     8.0630     6.7870     8.2140    21.3370   -21.7980     2.1880 
  108.1250    58.7910     8.1670     6.8750     8.4520    21.3330   -21.8470     2.1700 
  108.2500    55.6860     8.3000     6.9860     8.6860    21.3390   -21.9510     2.1470 
  108.3750    54.2410     8.4110     7.0800     8.7960    21.3580   -22.1190     2.1250 
  108.5000    54.4610     8.4680     7.1280     8.8180    21.4440   -22.3540     2.1090 
  108.6250    54.8070     8.4800     7.1380     8.7390    21.8180   -22.6030     2.1060 
  108.7500    53.9270     8.5120     7.1650     8.6740    22.0830   -22.8340     2.1100 
  108.8750    52.0710     8.5930     7.2330     8.6660    22.1850   -23.0740     2.1190 
  109.0000    51.4320     8.7090     7.3300     8.7250    22.2460   -23.3080     2.1280 
  109.1250    52.5460     8.7850     7.3950     8.9450    22.2560   -23.5060     2.1350 
  109.2500    54.2420     8.7660     7.3790     9.2540    22.2580   -23.6440     2.1390 
  109.3750    57.2940     8.6480     7.2800     9.4040    22.2610   -23.7270     2.1440 
  109.5000    60.2830     8.4800     7.1380     9.1850    22.2770   -23.7850     2.1520 
  109.6250    59.2700     8.3280     7.0100     8.7990    22.3250   -23.8110     2.1600 
  109.7500    55.5380     8.2220     6.9210     8.5910    22.3320   -23.7890     2.1620 
  109.8750    53.6540     8.1500     6.8600     8.8770    22.3240   -23.7020     2.1530 
  110.0000    56.6540     8.1010     6.8190     9.2560    22.2910   -23.5970     2.1310 
  110.1250    59.5240     8.0730     6.7950     9.2940    22.0940   -23.4570     2.1050 
  110.2500    58.3830     8.0480     6.7740     9.1130    22.0300   -23.2410     2.0910 
  110.3750    55.7580     8.0120     6.7450     8.9360    22.0180   -22.9600     2.0940 
  110.5000    56.9500     7.9640     6.7030     8.6450    22.0190   -22.6460     2.1140 
  110.6250    61.4700     7.9070     6.6550     8.6540    22.0260   -22.3060     2.1440 
  110.7500    62.7290     7.8560     6.6130     8.5530    22.0260   -21.9230     2.1720 
  110.8750    60.7910     7.8280     6.5890     8.4970    22.0550   -21.4810     2.1940 
  111.0000    60.0690     7.8410     6.6000     8.5080    22.2140   -20.9810     2.2090 
  111.1250    59.8140     7.9200     6.6670     8.4790    22.6890   -20.4470     2.2160 
  111.2500    55.1510     8.0610     6.7850     8.3270    23.0800   -19.9140     2.2170 
  111.3750    49.6200     8.2550     6.9480     8.1740    22.9560   -19.3800     2.2130 
  111.5000    50.0780     8.4360     7.1010     8.0660    22.4010   -18.8220     2.2070 
  111.6250    57.0320     8.4170     7.0850     7.9020    22.0190   -18.2300     2.2030 
  111.7500    63.2280     8.0630     6.7870     7.7230    21.9350   -17.6170     2.2070 
  111.8750    68.2630     7.3550     6.1910     7.4800    22.3030   -17.0130     2.2210 
  112.0000    77.1550     6.4370     5.4190     6.9130    22.7070   -16.4490     2.2450 
  112.1250    88.8530     4.9020     4.7040     5.5530    23.4200   -16.0090     2.2730 
  112.2500    93.6650     4.4470     4.2190     4.4520    24.2190   -15.6740     2.2940 
  112.3750    89.9520     4.3990     4.0360     4.5480    24.2870   -15.4620     2.3030 
  112.5000    83.0820     4.6730     4.1670     5.6830    23.6490   -15.3940     2.2980 
  112.6250    78.4100     5.2120     4.6030     7.4090    23.0970   -15.5150     2.2820 
  112.7500    76.2170     5.8700     5.1800     8.6360    22.9510   -15.7820     2.2600 
  112.8750    76.7220     6.5320     5.7510     8.5890    23.0920   -16.1460     2.2300 
  113.0000    78.7550     7.0680     6.1980     7.4080    23.0370   -16.5610     2.1950 
  113.1250    78.0100     7.3740     6.4670     7.2840    22.4940   -16.9670     2.1620 
  113.2500    75.7840     7.5190     6.6260     7.8600    22.3110   -17.3030     2.1430 
  113.3750    74.1510     7.5800     6.7090     8.4610    22.4680   -17.5060     2.1470 
  113.5000    73.6590     7.6140     6.7270     9.0730    22.7540   -17.5630     2.1730 
  113.6250    74.8450     7.5740     6.6640    10.2320    22.8800   -17.4630     2.2140 
  113.7500    75.6730     7.4190     6.5290    10.6490    23.1650   -17.2680     2.2530 
  113.8750    75.0940     7.1900     6.3330     8.7600    23.4540   -17.0040     2.2830 
  114.0000    72.4260     6.9730     6.0820     7.1990    23.3380   -16.6550     2.3050 
  114.1250    71.7060     6.8240     5.7710     6.7890    23.4120   -16.2660     2.3200 
  114.2500    75.0480     6.6440     5.4340     6.5370    23.6780   -15.9170     2.3270 
  114.3750    80.8380     6.3290     5.1290     6.0220    23.8060   -15.6090     2.3230 
  114.5000    87.0240     5.9100     4.9220     5.6230    23.8630   -15.3680     2.3060 
  114.6250    91.4440     5.6110     4.8790     5.5590    23.8050   -15.2590     2.2810 
  114.7500    92.9380     5.6250     4.9700     5.7540    23.7160   -15.2410     2.2580 
  114.8750    89.6540     5.9900     5.1590     6.0380    23.5700   -15.2640     2.2460 
  115.0000    82.9970     6.5590     5.3930     6.4070    23.6370   -15.3330     2.2490 
  115.1250    78.0090     6.8000     5.5980     6.6740    23.5950   -15.4570     2.2670 
  115.2500    74.5290     6.9350     5.7240     7.0910    23.4640   -15.6330     2.2880 
  115.3750    73.5570     7.0710     5.7720     7.0310    23.6750   -15.8540     2.3010 
  115.5000    75.2330     7.2110     5.7820     6.8140    23.8970   -16.0790     2.2990 
  115.6250    76.0130     7.2600     5.8170     6.7350    24.1280   -16.2960     2.2830 
  115.7500    74.4920     7.2640     5.9060     7.1360    24.3490   -16.5280     2.2690 
  115.8750    72.9410     7.2630     6.0370     8.8390    24.4920   -16.7920     2.2660 
  116.0000    70.9970     7.2620     6.1630    12.7370    24.5970   -17.0810     2.2750 
  116.1250    65.9270     7.2490     6.2090    13.9070    24.7330   -17.3820     2.2840 
  116.2500    60.8920     7.2340     6.1720    10.9440    25.0210   -17.6980     2.2790 
  116.3750    61.6140     7.1650     6.1060     8.4650    24.9110   -18.0370     2.2560 
  116.5000    68.0090     7.2630     6.0970     7.7740    24.3480   -18.3820     2.2180 
  116.6250    72.2310     7.7610     6.3050     8.1410    23.8740   -18.7350     2.1760 
  116.7500    71.3510     8.6230     6.8080     8.8650    23.5340   -19.0850     2.1380 
  116.8750    69.0250     9.8390     7.6270     9.9580    23.4340   -19.4160     2.1110 
  117.0000    68.2830    11.2850     8.6750    12.0560    23.5970   -19.7020     2.0990 
  117.1250    65.6700    12.5200     9.6870    17.7730    24.0770   -19.9560     2.1100 
  117.2500    59.6260    13.0350    10.3020    26.0540    24.1950   -20.1910     2.1350 
  117.3750    56.9800    12.5950    10.2910    27.7100    23.8800   -20.3760     2.1670 
