~V
VERS. 2.00: Ver 2.00
~W
STRT.M 40.0000:
STOP.M 206.0000:
STEP.M 0.1250:
NULL. -999.2500:
UWI. F11104:
~C
DEPT.M :
GR.API :
RML.OHMM :
RI. :
RXO.OHMM :
CALI.CM :
SP.MV :
DEN.GM/CC :
~A
# ...
   62.5000    45.8760     4.0390     0.4970     3.6120    25.7070    19.0270     1.8300 
   62.6250    44.8000     1.5580     0.3160     4.9390    25.6920    16.8080     1.9830 
   62.7500    45.0820     0.5300     0.1690     2.5610    25.6820    14.4550     2.1680 
   62.8750    45.7480     0.1710     0.0780     1.3810    25.6520    11.9930     2.2820 
   63.0000    45.9390     0.0810     0.0350     1.1560    25.6360     9.4600     2.3040 
   63.1250    45.5550     0.0980     0.0340     1.6350    26.0900     6.8990     2.2540 
   63.2500    46.8260     0.1500     0.0600     2.5540    26.9650     4.3470     2.1840 
   63.3750    50.6880     0.2390     0.1190     2.4100    27.6400     1.8060     2.1290 
   63.5000    55.2670     0.3890     0.2320     1.4400    27.6470    -0.7230     2.1120 
   63.6250    56.8990     0.6260     0.4560     1.9750    27.2020    -3.2010     2.1280 
   63.7500    57.2040     0.9100     0.8290     3.1490    26.8850    -5.5590     2.1450 
   63.8750    57.0520     1.2290     1.3920     5.1150    26.7310    -7.7370     2.1530 
   64.0000    54.7340     1.6480     2.1500     6.8110    26.6570    -9.6910     2.1560 
   64.1250    51.6320     2.3410     3.0550     7.3690    26.6690   -11.3330     2.1550 
   64.2500    52.1160     3.3140     3.9400     7.8650    26.6730   -12.6590     2.1500 
   64.3750    55.1930     4.3970     4.6810     8.6020    26.6700   -13.6280     2.1390 
   64.5000    57.9420     5.3140     5.2250     9.0190    26.6680   -14.2380     2.1210 
   64.6250    59.9410     5.8180     5.5820     9.0400    26.6620   -14.5000     2.1040 
   64.7500    62.6060     6.0220     5.8450     8.9060    26.6560   -14.5330     2.0940 
   64.8750    64.8820     6.1100     6.0590     8.6910    26.6530   -14.3480     2.0960 
   65.0000    65.4130     6.2400     6.2430     8.6460    26.6530   -13.9420     2.1070 
   65.1250    64.7910     6.4990     6.3860     8.6240    26.6540   -13.2960     2.1230 
   65.2500    64.2850     6.8380     6.4640     8.6290    26.6700   -12.4670     2.1350 
   65.3750    63.9820     7.1340     6.4420     8.6310    26.7570   -11.4960     2.1410 
   65.5000    65.3630     7.2410     6.3040     8.6900    26.9840   -10.4340     2.1460 
   65.6250    68.8240     7.0340     6.0560     8.3310    27.3510    -9.3280     2.1520 
   65.7500    71.8120     6.6460     5.7690     7.4550    27.7270    -8.2490     2.1590 
   65.8750    73.4260     6.2270     5.5030     6.8270    28.0130    -7.2750     2.1650 
   66.0000    74.5690     5.8500     5.3050     6.6170    28.1730    -6.4810     2.1700 
   66.1250    74.6640     5.5770     5.2230     6.4920    28.2190    -5.9540     2.1730 
   66.2500    73.1440     5.4660     5.2430     6.3780    28.2150    -5.6690     2.1760 
   66.3750    73.6240     5.5700     5.3470     6.6050    28.2040    -5.5970     2.1790 
   66.5000    77.0350     5.8760     5.4990     7.0710    28.2010    -5.6750     2.1790 
   66.6250    78.2100     6.2820     5.6440     7.4530    28.2100    -5.8630     2.1770 
   66.7500    75.9270     6.5820     5.7240     7.5890    28.2210    -6.1150     2.1720 
   66.8750    76.1420     6.6260     5.7030     7.4360    28.2180    -6.4130     2.1660 
   67.0000    79.8100     6.4030     5.5740     7.1530    28.1840    -6.7250     2.1590 
   67.1250    82.4400     6.0890     5.3640     6.6980    28.1040    -7.0380     2.1500 
   67.2500    79.8820     5.8910     5.1510     6.1910    28.0160    -7.3910     2.1440 
   67.3750    75.3040     5.8770     4.9860     5.9160    27.9390    -7.8310     2.1460 
   67.5000    73.8580     6.0330     4.9040     6.0100    27.8340    -8.3850     2.1550 
   67.6250    74.5280     6.3460     4.9630     6.4130    27.6520    -9.0450     2.1670 
   67.7500    71.7680     6.8460     5.2120     6.8650    27.4660    -9.7310     2.1820 
   67.8750    66.1490     7.7080     5.7490     7.4040    27.3540   -10.3890     2.2450 
   68.0000    61.9150     9.1920     6.7100     8.1140    27.3350   -11.0120     2.3390 
   68.1250    60.6510    11.7530     8.3830    10.2770    27.3800   -11.5900     2.4670 
   68.2500    59.6810    15.3550    10.7900    16.2480    27.4500   -12.1110     2.5960 
   68.3750    60.1310    19.6080    13.7540    26.3300    27.5240   -12.5800     2.6830 
   68.5000    61.8920    23.2470    16.5350    37.1450    27.5850   -13.0400     2.6990 
   68.6250    63.0650    23.6610    17.4720    44.9910    27.6320   -13.5650     2.6320 
   68.7500    63.0190    19.5030    16.1840    45.1980    27.6700   -14.1930     2.5220 
   68.8750    61.9040    13.9580    13.5120    35.9930    27.6910   -14.9210     2.4000 
   69.0000    61.2540    10.0810    10.6870    21.7110    27.7040   -15.6930     2.2940 
   69.1250    61.4450     7.6180     8.5630    12.6460    27.7450   -16.4140     2.2260 
   69.2500    62.4190     6.2890     7.1510     9.4480    27.8190   -17.0380     2.1910 
   69.3750    64.8790     5.7710     6.3310     8.7580    27.8900   -17.5480     2.1810 
   69.5000    66.0170     5.7340     5.9540     8.8500    27.9230   -17.9330     2.1810 
   69.6250    62.8020     5.8980     5.8940     9.0330    27.9250   -18.1500     2.1790 
   69.7500    57.0420     6.0320     5.9370     9.0900    27.9400   -18.2280     2.1710 
   69.8750    53.5690     6.0760     5.9720     9.0400    27.9920   -18.2020     2.1580 
   70.0000    54.2150     6.0310     5.9460     8.8250    28.1120   -18.1240     2.1290 
   70.1250    57.2800     5.8690     5.8560     8.3600    28.3530   -18.0330     2.1150 
   70.2500    59.8020     5.6350     5.7450     7.8170    28.7180   -17.9050     2.1040 
   70.3750    60.1700     5.4000     5.6430     7.5000    29.1980   -17.6950     2.0940 
   70.5000    59.7110     5.2560     5.5700     7.2890    29.7000   -17.3750     2.0840 
   70.6250    59.3270     5.2910     5.5470     7.1430    30.0450   -16.9500     2.0790 
   70.7500    58.7810     5.4690     5.5750     7.1130    30.1730   -16.4370     2.0770 
   70.8750    59.6120     5.7360     5.6570     7.1300    30.1190   -15.8260     2.0770 
   71.0000    62.6090     6.0190     5.7790     7.1990    29.9510   -15.1000     2.0760 
   71.1250    64.5960     6.2300     5.8950     7.3120    29.7070   -14.2290     2.0760 
   71.2500    64.8560     6.3170     5.9410     7.6350    29.4080   -13.2740     2.0840 
   71.3750    67.5160     6.2310     5.8600     7.7280    29.0050   -12.2720     2.1060 
   71.5000    73.7910     5.9710     5.6220     7.3890    28.5030   -11.2330     2.1440 
   71.6250    81.4400     5.5950     5.2340     6.9650    28.0400   -10.1440     2.1930 
   71.7500    89.1310     5.2120     4.7970     6.4830    27.7340    -9.0610     2.2420 
   71.8750    96.2040     4.8810     4.3830     5.7000    27.5760    -8.0560     2.2840 
   72.0000   101.8150     4.6220     4.0430     4.7750    27.5120    -7.1970     2.3150 
   72.1250   104.3840     4.4240     3.8050     4.0960    27.4930    -6.5930     2.3330 
   72.2500   105.7000     4.2510     3.6360     3.8320    27.4420    -6.2410     2.3380 
   72.3750   107.9670     4.1160     3.5300     3.9280    27.3400    -6.1360     2.3320 
   72.5000   110.5060     4.0830     3.5080     4.0160    27.2240    -6.2780     2.3260 
   72.6250   109.7400     4.2800     3.6360     4.0260    27.1260    -6.7020     2.3330 
   72.7500   104.4130     4.7540     3.9380     4.0200    27.0450    -7.3330     2.3490 
   72.8750    95.6960     5.5230     4.4280     4.1380    26.9860    -8.1420     2.3560 
   73.0000    84.4630     6.4970     5.0740     4.8350    26.9660    -9.1090     2.3380 
   73.1250    72.5650     7.4210     5.7620     7.4860    26.9440   -10.2340     2.2930 
   73.2500    65.9160     8.0310     6.3190    11.6070    26.8820   -11.4370     2.2440 
   73.3750    65.8100     8.2350     6.6470    12.8980    26.7930   -12.6600     2.2080 
   73.5000    68.3780     8.1400     6.7460    10.6930    26.7180   -13.8380     2.1930 
   73.6250    70.8170     7.9920     6.7000     9.3300    26.6870   -14.8710     2.1920 
