~V
VERS. 2.00: Ver 2.00
~W
STRT.M 50.0000:
STOP.M 264.0000:
STEP.M 0.1250:
NULL. -999.2500:
UWI. F11182:
~C
DEPT.M :
SP.MV :
GR.API :
RI. :
RML.OHMM :
RXO.OHMM :
DEN.GM/CC :
~A
# ...
  114.3750   -14.4790    56.8770     5.0690     5.6290     5.5820     2.1180 
  114.5000   -14.5500    58.8220     4.9630     5.4830     5.2550     2.1380 
  114.6250   -14.6630    61.9680     5.0030     5.5150     4.9700     2.1890 
  114.7500   -14.7330    62.4270     5.1620     5.6920     4.8820     2.2330 
  114.8750   -14.8110    61.1410     5.4290     5.9790     6.6010     2.2710 
  115.0000   -14.8380    60.6950     5.5330     6.0730    10.0120     2.2540 
  115.1250   -14.8350    64.1250     5.3760     5.8400    11.9350     2.1980 
  115.2500   -14.8060    69.2160     5.0780     5.4660     8.7770     2.1800 
  115.3750   -14.7410    75.3550     4.5280     4.8190     4.7290     2.1890 
  115.5000   -14.7010    76.4190     4.1720     4.4300     4.1710     2.2040 
  115.6250   -14.6850    78.3330     3.7760     4.0210     3.8990     2.2240 
  115.7500   -14.7250    82.0690     3.5680     3.8170     3.8170     2.2380 
  115.8750   -14.8700    89.5160     3.3290     3.5760     3.7750     2.2640 
  116.0000   -15.0130    92.5540     3.1810     3.4190     3.5810     2.2690 
  116.1250   -15.2640    95.5040     3.0390     3.2750     3.4380     2.2640 
  116.2500   -15.4290    97.0960     3.0230     3.2700     3.8140     2.2740 
  116.3750   -15.6350    97.0780     3.0710     3.3470     4.6510     2.3230 
  116.5000   -15.7290    96.3100     3.1270     3.4160     5.4870     2.3440 
  116.6250   -15.7950    95.5470     3.1770     3.4580     5.8130     2.3130 
  116.7500   -15.7910    95.9150     3.1970     3.4640     4.6470     2.2750 
  116.8750   -15.7250    98.2050     3.2710     3.5350     3.5320     2.2750 
  117.0000   -15.6520    99.3940     3.4030     3.6980     3.7220     2.3190 
  117.1250   -15.5100    96.4390     3.6920     4.0650     5.1280     2.3560 
  117.2500   -15.3960    90.5670     3.9120     4.3400     7.5420     2.3190 
  117.3750   -15.2000    83.8260     4.1860     4.6600     9.1300     2.2270 
  117.5000   -15.0620    83.3880     4.2590     4.7220     6.9930     2.1920 
  117.6250   -14.8750    86.0940     4.2510     4.6760     4.3870     2.1900 
  117.7500   -14.7790    86.6370     4.2030     4.6100     4.4970     2.1890 
  117.8750   -14.6950    84.4950     4.1770     4.5820     5.2420     2.1690 
  118.0000   -14.6800    81.9430     4.1940     4.6180     5.3500     2.1520 
  118.1250   -14.7050    80.7070     4.2470     4.6990     4.9400     2.1360 
  118.2500   -14.7450    81.5570     4.2590     4.7340     4.6970     2.1280 
  118.3750   -14.8260    84.1120     4.2260     4.7190     4.5580     2.1140 
  118.5000   -14.8850    84.1830     4.1670     4.6670     4.7580     2.1140 
  118.6250   -14.9730    82.3470     4.0020     4.4870     5.0770     2.1410 
  118.7500   -15.0260    80.0070     3.8560     4.3210     4.9500     2.1700 
  118.8750   -15.0920    77.5830     3.6120     4.0390     4.5940     2.1990 
  119.0000   -15.1250    77.6180     3.4760     3.8800     4.3750     2.1950 
  119.1250   -15.1560    82.0130     3.3660     3.7530     4.2380     2.1750 
  119.2500   -15.1650    85.2840     3.3630     3.7510     4.4240     2.1670 
  119.3750   -15.1670    86.1710     3.5100     3.9360     4.5120     2.1690 
  119.5000   -15.1620    85.1330     3.6780     4.1410     4.3710     2.1690 
  119.6250   -15.1440    86.4370     3.9430     4.4570     4.4150     2.1560 
  119.7500   -15.1260    88.2750     4.0890     4.6280     4.5820     2.1430 
  119.8750   -15.0900    86.8260     4.1610     4.7070     4.8530     2.1310 
  120.0000   -15.0610    82.3830     4.0930     4.6180     4.8860     2.1420 
  120.1250   -15.0110    77.2000     3.8550     4.3220     4.5660     2.1830 
  120.2500   -14.9680    79.0470     3.6320     4.0450     4.2510     2.2110 
  120.3750   -14.8790    86.3730     3.3320     3.6840     3.9480     2.2390 
  120.5000   -14.7960    89.8100     3.2270     3.5770     3.9900     2.2430 
  120.6250   -14.6390    93.6260     3.2270     3.6190     4.0800     2.2230 
  120.7500   -14.5180    96.2500     3.3150     3.7590     4.2330     2.1950 
  120.8750   -14.3240    96.3750     3.4870     4.0020     4.8800     2.1680 
  121.0000   -14.1900    93.5310     3.5680     4.1040     4.9040     2.1710 
  121.1250   -13.9740    89.3270     3.6120     4.1480     4.2570     2.1900 
  121.2500   -13.8160    89.1540     3.5780     4.0920     4.1760     2.1960 
  121.3750   -13.5570    90.4940     3.4780     3.9610     4.3110     2.1940 
  121.5000   -13.3770    90.9290     3.4110     3.8730     4.1230     2.1980 
  121.6250   -13.1180    91.7440     3.3400     3.7800     3.8330     2.2080 
  121.7500   -12.9700    92.6620     3.3150     3.7330     3.7590     2.2080 
  121.8750   -12.8100    93.4810     3.3140     3.7150     3.6890     2.2050 
  122.0000   -12.7480    91.1370     3.3890     3.8000     3.7450     2.1970 
  122.1250   -12.7110    84.9410     3.6680     4.1430     3.9990     2.1520 
  122.2500   -12.7090    81.7390     3.9780     4.5310     4.3680     2.1030 
  122.3750   -12.7180    79.9320     4.5030     5.1780     5.4560     2.0500 
  122.5000   -12.7290    78.6630     4.7830     5.5090     6.2320     2.0520 
  122.6250   -12.7670    73.4070     4.8540     5.5470     6.3410     2.1020 
  122.7500   -12.8200    69.8950     4.6920     5.3090     5.6770     2.1450 
  122.8750   -12.9550    69.1450     4.1770     4.6480     4.6360     2.1870 
  123.0000   -13.0740    72.7620     3.7940     4.1930     4.1940     2.1920 
  123.1250   -13.2620    80.4870     3.3760     3.7250     3.9330     2.1910 
  123.2500   -13.3690    84.4280     3.2270     3.5750     3.9370     2.1980 
  123.3750   -13.4790    85.9020     3.2080     3.5660     3.9770     2.2050 
  123.5000   -13.5200    86.2290     3.2770     3.6450     4.1030     2.2020 
  123.6250   -13.5520    86.4200     3.4760     3.8610     4.2420     2.2220 
  123.7500   -13.5680    85.6780     3.6370     4.0270     4.2330     2.2600 
  123.8750   -13.5980    84.1430     3.8610     4.2460     4.6390     2.2920 
  124.0000   -13.6240    84.6140     3.9590     4.3290     5.2350     2.2610 
  124.1250   -13.6660    83.9670     3.9620     4.2870     5.4490     2.1870 
  124.2500   -13.6880    81.6170     3.8580     4.1400     4.9280     2.1680 
  124.3750   -13.7000    79.5760     3.5390     3.7570     4.3470     2.1930 
  124.5000   -13.6910    81.2390     3.3100     3.4890     4.3510     2.2180 
  124.6250   -13.6590    86.1890     2.9680     3.1010     4.1230     2.2470 
  124.7500   -13.6290    89.7730     2.8240     2.9450     3.6670     2.2590 
  124.8750   -13.5750    91.8770     2.7620     2.8870     3.4740     2.2620 
  125.0000   -13.5310    89.9470     2.8010     2.9460     3.6200     2.2490 
  125.1250   -13.4510    85.1670     3.0390     3.2400     3.5020     2.2060 
  125.2500   -13.3880    82.1420     3.3000     3.5550     3.5590     2.1660 
  125.3750   -13.2720    78.4370     3.7410     4.0630     4.1400     2.1270 
  125.5000   -13.1770    75.9520     3.9690     4.3020     4.4990     2.1310 
  125.6250   -13.0120    73.2750     4.1340     4.4490     4.7540     2.1850 
  125.7500   -12.8980    73.2070     4.1540     4.4400     4.7540     2.2390 
  125.8750   -12.7480    75.8410     4.1400     4.4090     4.9740     2.3190 
  126.0000   -12.6750    76.6770     4.1780     4.4630     6.0600     2.3510 
  126.1250   -12.6060    73.3480     4.3700     4.7170     8.2600     2.3400 
  126.2500   -12.5770    69.8660     4.6140     4.9970     8.4010     2.3000 
  126.3750   -12.5360    68.2370     5.0190     5.4270     7.3450     2.2530 
  126.5000   -12.4940    70.1190     5.2940     5.7100     7.0400     2.2690 
  126.6250   -12.3790    76.3330     5.7170     6.1300     7.3010     2.3760 
  126.7500   -12.2550    80.3590     5.9780     6.4020     8.4950     2.4550 
  126.8750   -11.9960    78.5520     6.4070     6.8610    10.4380     2.4660 
  127.0000   -11.7880    70.6100     6.6400     7.1010     9.7430     2.3990 
  127.1250   -11.4660    59.7230     6.7310     7.1710     7.3030     2.2850 
