~V
VERS. 2.00: Ver 2.00
~W
STRT.M 58.0000:
STOP.M 208.0000:
STEP.M 0.1250:
NULL. -999.2500:
UWI. F11103:
~C
DEPT.M :
DEN.GM/CC :
SP.MV :
GR.API :
RML.OHMM :
RI. :
RXO.OHMM :
CALI.CM :
~A
   58.0000     1.9510    34.3530    43.7460     0.0920     0.2160     5.2290    25.2730 
   58.1250     1.9620    32.6520    42.9970     0.0730     0.2150     4.7900    25.2730 
   58.2500     1.9730    30.7090    43.5560     0.0500     0.2080     4.9090    25.2730 
   58.3750     1.9860    28.4490    44.2710     0.0390     0.1930     5.5490    25.2730 
   58.5000     2.0040    25.7230    44.0890     0.0460     0.1640     6.4550    25.2730 
   58.6250     2.0250    22.4940    43.1380     0.0600     0.1270     7.0290    25.2730 
   58.7500     2.0480    18.7430    41.4790     0.0670     0.0900     5.4110    25.2770 
   58.8750     2.0670    14.5060    40.2480     0.0660     0.0640     2.6500    25.3000 
   59.0000     2.0720     9.8390    41.0890     0.0640     0.0600     2.8820    25.4320 
   59.1250     2.0570     4.9230    43.8330     0.0780     0.0840     4.2130    25.6830 
   59.2500     2.0190    -0.0910    45.9690     0.1290     0.1610     5.9400    26.6880 
   59.3750     1.9580    -4.9780    46.6190     0.2540     0.3360     6.9580    29.9160 
   59.5000     1.8840    -9.5120    48.8880     0.5510     0.7280     7.1140    33.5350 
   59.6250     1.8210   -13.5460    53.5890     1.0910     1.3990     7.7920    33.8750 
   59.7500     1.7860   -17.0250    57.5750     1.8930     2.3600     8.1230    32.8240 
   59.8750     1.7880   -19.9400    58.3350     2.7830     3.4650     8.0620    29.4840 
   60.0000     1.8310   -22.2440    59.4990     3.4370     4.4180     8.3680    27.3700 
   60.1250     1.8950   -24.0680    63.2620     3.8400     5.1040     8.6770    27.0540 
   60.2500     1.9670   -25.4980    66.7760     4.1140     5.5730     8.6880    27.1030 
   60.3750     2.0340   -26.6690    66.4560     4.3450     5.9060     8.5780    27.1920 
   60.5000     2.0830   -27.6660    62.3480     4.5530     6.1490     8.5440    27.1960 
   60.6250     2.1130   -28.5770    59.3230     4.7410     6.3490     8.9390    27.0230 
   60.7500     2.1280   -29.4290    59.2730     4.9030     6.5230     9.5460    26.7860 
   60.8750     2.1320   -30.2170    61.6790     5.0330     6.6680     9.8320    26.7390 
   61.0000     2.1300   -30.9610    64.5210     5.1400     6.7720     9.4840    26.9010 
   61.1250     2.1250   -31.6800    66.7690     5.2630     6.8340     9.2490    27.0560 
   61.2500     2.1210   -32.3720    67.7050     5.4220     6.8620     9.2290    27.2270 
   61.3750     2.1170   -33.0270    65.6020     5.5930     6.8620     9.1890    27.3020 
   61.5000     2.1160   -33.5940    61.7230     5.7230     6.8440     9.2400    27.1930 
   61.6250     2.1170   -34.0780    61.2250     5.7890     6.8100     9.6480    26.8660 
   61.7500     2.1220   -34.4840    63.9030     5.7910     6.7530    10.1170    26.6650 
   61.8750     2.1280   -34.8600    66.7580     5.7580     6.6750    10.0750    26.6760 
   62.0000     2.1370   -35.1420    68.8140     5.7620     6.6200     9.6530    26.8420 
   62.1250     2.1480   -35.3890    69.2810     5.8860     6.6710     9.5850    26.8240 
   62.2500     2.1630   -35.5960    65.2450     6.2110     6.9270     9.8940    26.6010 
   62.3750     2.1830   -35.7660    56.2180     6.7840     7.4550    10.4260    26.4300 
   62.5000     2.2110   -35.9160    52.0210     7.5900     8.2710    11.5060    26.4830 
   62.6250     2.2420   -36.1180    55.7020     8.3970     9.1570    14.5030    26.5310 
   62.7500     2.2730   -36.3470    59.9760     8.9140     9.8310    19.7930    26.5360 
   62.8750     2.2980   -36.5860    59.3280     8.9140    10.0300    21.0540    26.5130 
   63.0000     2.3080   -36.8250    54.8120     8.3960     9.6140    15.1310    26.3830 
   63.1250     2.2990   -37.0420    53.0520     7.7560     8.9090    10.7150    26.2980 
   63.2500     2.2730   -37.2270    54.6740     7.2310     8.1850     9.4040    26.3070 
   63.3750     2.2380   -37.4000    56.9460     6.9130     7.6220     9.8910    26.3100 
   63.5000     2.2040   -37.5100    59.0200     6.8030     7.3090    10.5750    26.3100 
   63.6250     2.1810   -37.5260    58.8420     6.7820     7.1560    10.7920    26.3100 
   63.7500     2.1700   -37.4500    57.6100     6.7660     7.0760    10.5290    26.3110 
   63.8750     2.1680   -37.2800    58.4700     6.7110     6.9940    10.1200    26.3240 
   64.0000     2.1700   -37.0230    60.8800     6.6060     6.8660     9.9260    26.4080 
   64.1250     2.1710   -36.7080    63.0090     6.4780     6.7100     9.5880    26.5740 
   64.2500     2.1690   -36.3420    65.1660     6.3500     6.5500     9.2910    26.6650 
   64.3750     2.1640   -35.9460    69.5820     6.2410     6.4090     9.0610    26.6920 
   64.5000     2.1580   -35.5560    72.9020     6.1830     6.3180     9.2740    26.6990 
   64.6250     2.1520   -35.1900    69.2910     6.1940     6.2950     9.2900    26.7240 
   64.7500     2.1470   -34.8880    62.8030     6.2850     6.3530     9.2740    26.8210 
   64.8750     2.1410   -34.6720    58.4610     6.4430     6.4860     9.2570    26.9030 
   65.0000     2.1360   -34.5660    59.0170     6.6390     6.6650     9.0620    26.8070 
   65.1250     2.1310   -34.5330    61.1300     6.8180     6.8340     9.1530    26.5150 
   65.2500     2.1280   -34.5690    62.1130     6.9440     6.9580     9.4570    26.2820 
   65.3750     2.1260   -34.6380    61.6610     7.0110     7.0250     9.5440    26.1820 
   65.5000     2.1260   -34.7510    60.0790     7.0480     7.0490     9.4890    26.2150 
   65.6250     2.1260   -34.8680    56.8790     7.1100     7.0740    10.2530    26.2500 
   65.7500     2.1270   -34.9520    53.0810     7.2260     7.1280    12.7670    26.2460 
   65.8750     2.1270   -34.9760    51.8970     7.4000     7.2210    16.3130    26.2590 
   66.0000     2.1270   -34.9140    55.6430     7.6050     7.3450    14.6450    26.3230 
   66.1250     2.1270   -34.7700    59.7470     7.7760     7.4470    11.5630    26.3320 
   66.2500     2.1300   -34.5700    60.8450     7.8340     7.4620    10.5430    26.2700 
   66.3750     2.1360   -34.3370    60.8510     7.7020     7.3160    10.7560    26.2590 
   66.5000     2.1500   -34.0590    63.3570     7.3220     6.9430    10.8340    26.3060 
   66.6250     2.1700   -33.7860    67.5430     6.8650     6.4580    10.1980    26.2780 
   66.7500     2.1960   -33.5820    72.1820     6.5440     6.0270     8.8870    26.2390 
   66.8750     2.2280   -33.4910    75.1950     6.5580     5.8250     7.6170    26.2130 
   67.0000     2.2610   -33.6280    75.5260     7.0800     6.0310     7.6800    26.3920 
   67.1250     2.2900   -33.9620    74.6160     7.9670     6.5870    10.3670    26.5670 
   67.2500     2.3090   -34.5120    71.8400     8.9790     7.3650    18.2590    26.7190 
   67.3750     2.3140   -35.1960    66.9560     9.7340     8.1090    32.0310    26.7380 
   67.5000     2.2990   -36.0070    60.3570     9.7540     8.4160    25.6880    26.8250 
   67.6250     2.2700   -36.8540    54.7140     9.1680     8.2290    16.4650    27.1770 
   67.7500     2.2310   -37.6520    50.5400     8.3370     7.7200    12.2700    27.4900 
   67.8750     2.1910   -38.3110    48.7770     7.6320     7.1570    11.3120    27.5620 
   68.0000     2.1550   -38.7250    50.4630     7.2870     6.7590    11.0690    27.5700 
   68.1250     2.1280   -38.9230    52.8910     7.2030     6.5490    10.5750    27.6230 
   68.2500     2.1090   -38.8960    53.6470     7.2440     6.4780     9.9660    27.9910 
   68.3750     2.0950   -38.6980    53.0410     7.2940     6.4740     9.3940    28.4240 
   68.5000     2.0850   -38.3000    53.3360     7.2750     6.4760     8.8990    28.2470 
   68.6250     2.0750   -37.7840    54.2470     7.1770     6.4430     8.9440    27.8560 
   68.7500     2.0680   -37.1750    55.4900     7.0050     6.3560     9.2200    27.6840 
   68.8750     2.0640   -36.5150    57.6310     6.7850     6.2110     9.2960    27.6220 
   69.0000     2.0660   -35.8340    61.0900     6.5790     6.0300     9.0200    27.4780 
   69.1250     2.0730   -35.1520    63.4080     6.4370     5.8670     8.5590    27.1840 
