~V
VERS. 2.00: Ver 2.00
~W
STRT.M 59.0000:
STOP.M 221.0000:
STEP.M 0.1250:
NULL. -999.2500:
UWI. F11122:
~C
DEPT.M :
GR.API :
RML.OHMM :
RI. :
RXO.OHMM :
CALI.CM :
SP.MV :
DEN.GM/CC :
~A
# ...
  149.0000    90.2300    15.2740    15.4500    12.2850    25.3770    -8.9610     2.3220 
  149.1250    94.9020    15.0160    14.8890    12.1320    25.3610    -9.0050     2.3230 
  149.2500   102.2960    15.3400    14.7830    11.2070    25.3300    -9.1530     2.3200 
  149.3750   108.3260    16.4860    15.3380    10.1180    25.2570    -9.3280     2.3180 
  149.5000   113.2490    18.7040    16.7850    11.1010    25.1350    -9.4790     2.3240 
  149.6250   117.4920    22.4390    19.6060    14.1070    24.9920    -9.6030     2.3440 
  149.7500   120.3230    27.5570    23.8360    15.3830    24.8120    -9.7360     2.3660 
  149.8750   124.3460    33.8910    29.4750    18.0350    24.5850    -9.9010     2.3740 
  150.0000   129.2720    40.9650    36.1680    27.3790    24.5850   -10.1260     2.3550 
  150.1250   128.0300    47.8410    43.0420    45.1240    24.9210   -10.3250     2.3060 
  150.2500   118.6580    53.5090    48.9490    56.5050    25.2980   -10.4380     2.2500 
  150.3750   104.7050    57.2790    53.0950    61.1560    25.5450   -10.5050     2.2050 
  150.5000    92.9690    58.8840    55.1190    65.2170    25.6430   -10.5900     2.1810 
  150.6250    87.5840    58.2890    54.8840    69.1400    25.6640   -10.7410     2.1770 
  150.7500    87.6930    56.4800    53.3170    68.6430    25.6740   -10.9140     2.1850 
  150.8750    89.4620    54.1200    51.0660    60.3280    25.6680   -11.0500     2.1990 
  151.0000    89.4010    51.7360    48.6760    51.8850    25.5540   -11.0910     2.2170 
  151.1250    89.5440    49.6980    46.5690    47.7300    25.1630   -11.0660     2.2360 
  151.2500    88.5310    48.0490    44.8590    47.3100    24.6660   -11.0300     2.2510 
  151.3750    85.3520    46.7740    43.5710    46.7220    24.4230   -10.9890     2.2620 
  151.5000    81.1900    45.8730    42.7200    44.1860    24.6870   -10.9630     2.2710 
  151.6250    78.5740    45.4510    42.4200    39.9170    25.2800   -10.9500     2.2810 
  151.7500    78.0380    45.4640    42.6230    38.7690    25.7370   -10.9560     2.2940 
  151.8750    78.9020    45.8610    43.2920    41.2510    25.9500   -10.9670     2.3080 
  152.0000    79.7360    46.5150    44.3100    45.0550    25.9910   -10.9690     2.3190 
  152.1250    78.2300    47.1990    45.4780    49.1110    26.0350   -10.9410     2.3170 
  152.2500    75.2900    47.5800    46.4710    48.7640    26.1070   -10.9530     2.3020 
  152.3750    73.3860    47.1910    46.8480    44.8810    26.1830   -11.0210     2.2800 
  152.5000    74.5210    45.3780    45.9160    40.6310    26.1990   -11.0720     2.2580 
  152.6250    80.6310    41.1780    42.5260    42.9050    26.1550   -11.0430     2.2510 
  152.7500    86.6280    35.0090    36.9330    44.0530    26.0570   -10.9470     2.2620 
  152.8750    88.8140    28.1240    30.0290    43.1980    25.8920   -10.8560     2.2860 
  153.0000    91.1470    22.1240    23.2070    34.2160    25.5980   -10.8590     2.3140 
  153.1250    99.5710    18.0700    17.9720    20.3430    25.2520   -10.9870     2.3280 
  153.2500   107.1390    15.4250    14.5670    11.5680    25.0450   -11.1270     2.3220 
  153.3750   108.0450    13.9840    12.8450     9.6040    25.0700   -11.2310     2.3020 
  153.5000   103.9720    13.7850    12.4760     9.7170    25.2380   -11.3170     2.2790 
  153.6250    98.1370    14.6200    13.1650    13.8330    25.3350   -11.4020     2.2650 
  153.7500    92.5930    15.5880    14.1990    21.4310    25.3610   -11.5330     2.2660 
  153.8750    88.8030    16.1270    14.9890    28.2360    25.3610   -11.6600     2.2760 
  154.0000    88.1430    15.8790    15.0660    27.8580    25.3830   -11.7320     2.2910 
  154.1250    91.2310    14.8380    14.2510    20.0320    25.3910   -11.7160     2.3060 
  154.2500    95.8760    13.6510    13.1080    11.0850    25.3670   -11.6650     2.3200 
  154.3750   101.0480    12.8630    12.1650     9.0130    25.3320   -11.5990     2.3300 
  154.5000   103.4020    12.8690    11.8220    10.0130    25.3090   -11.5490     2.3330 
  154.6250    99.9640    14.0190    12.4560    11.2680    25.3090   -11.5580     2.3260 
  154.7500    95.4390    16.0420    13.9520    14.1550    25.3290   -11.5700     2.3120 
  154.8750    94.1380    18.4970    16.0590    20.1640    25.3600   -11.5820     2.2990 
  155.0000    95.1450    20.6370    18.1810    23.8410    25.3890   -11.5910     2.2900 
  155.1250    95.7440    21.3940    19.2800    28.1640    25.3900   -11.5820     2.2820 
  155.2500    96.3910    20.6680    19.0090    30.2670    25.3420   -11.5850     2.2690 
  155.3750    98.6140    18.9550    17.6630    31.6980    25.2610   -11.6520     2.2510 
  155.5000   101.3880    17.1520    16.0110    27.1580    25.1280   -11.7440     2.2330 
  155.6250   103.0680    16.2660    14.9840    17.8460    24.9660   -11.7800     2.2230 
  155.7500   102.2930    16.5030    14.9080    14.4410    24.8110   -11.7840     2.2250 
  155.8750    98.7820    17.7260    15.8010    16.9940    24.6370   -11.8090     2.2310 
  156.0000    96.5340    19.5830    17.4860    17.6390    24.4050   -11.8900     2.2330 
  156.1250    98.5500    21.5740    19.6310    16.9490    24.3880   -12.0670     2.2240 
  156.2500    99.3150    23.1670    21.6300    16.6220    24.5840   -12.2780     2.2090 
  156.3750    98.6080    24.0260    23.0170    16.6850    24.9140   -12.4610     2.1980 
  156.5000   100.7600    23.9700    23.4610    47.9460    25.1150   -12.6110     2.1970 
  156.6250   102.6470    22.8470    22.6770    32.4680    25.1560   -12.7690     2.2090 
  156.7500   100.4670    21.0310    21.0200    26.1610    25.1280   -12.9580     2.2270 
  156.8750    97.3800    18.9090    18.8800    23.8720    25.0600   -13.1480     2.2450 
  157.0000    97.1380    16.9660    16.7530    21.2040    24.9920   -13.3190     2.2570 
  157.1250    98.7050    15.8060    15.2180    17.4880    24.9670   -13.4740     2.2620 
  157.2500    99.6940    15.6320    14.4980    14.3750    24.9540   -13.6080     2.2610 
  157.3750   100.8790    16.5940    14.7290    14.7340    24.9310   -13.7470     2.2570 
  157.5000   100.6800    18.8210    16.0220    18.0290    24.9000   -13.9170     2.2540 
  157.6250    98.4710    22.8170    18.7890    22.2070    24.8890   -14.1530     2.2550 
  157.7500    98.2120    28.7710    23.1830    25.8300    24.9090   -14.4320     2.2600 
  157.8750    99.2910    37.2910    29.7660    31.5120    24.9900   -14.7530     2.2640 
  158.0000    97.8480    49.1990    39.4160    44.6030    25.1390   -15.0700     2.2610 
  158.1250    91.9210    66.3730    54.1860    72.6810    25.2990   -15.3220     2.2500 
  158.2500    85.8240    88.9880    74.3730   133.7430    25.4120   -15.5920     2.2360 
  158.3750    82.6060   116.9860    99.7130   189.2730    25.4900   -15.9130     2.2240 
  158.5000    81.4170   148.7640   128.2570   190.0400    25.5470   -16.2480     2.2200 
  158.6250    79.1970   180.2340   155.8510   219.6730    25.6040   -16.4860     2.2250 
  158.7500    77.0940   206.5550   178.4620   300.0660    25.5630   -16.6080     2.2330 
  158.8750    77.9280   224.8740   194.0360   371.9080    25.3030   -16.6750     2.2390 
  159.0000    81.3540   234.9560   202.6670   370.1920    24.7240   -16.7730     2.2420 
  159.1250    84.8480   238.5920   205.8640   361.0260    24.0900   -16.9620     2.2400 
  159.2500    85.7220   240.8180   207.7610   301.9290    23.8560   -17.1520     2.2330 
  159.3750    85.5220   245.0410   211.3410   250.5220    24.1500   -17.2680     2.2190 
  159.5000    85.7270   253.4480   218.7970   248.2500    24.8700   -17.3160     2.1970 
  159.6250    83.6560   266.6190   231.2230   297.1880    25.5120   -17.3330     2.1670 
  159.7500    78.5510   280.9960   245.6930   348.3490    25.7540   -17.4020     2.1390 
  159.8750    73.6800   292.6210   258.6310   317.6030    25.7850   -17.4750     2.1190 
  160.0000    73.1550   298.0730   266.4950   257.1750    25.7440   -17.4750     2.1110 
  160.1250    75.4540   295.1940   266.3510   234.5070    25.5710   -17.3530     2.1120 
