~V
VERS. 2.00: Ver 2.00
~W
STRT.M 50.0000:
STOP.M 209.0000:
STEP.M 0.1250:
NULL. -999.2500:
UWI. F11109:
~C
DEPT.M :
GR.API :
RML.OHMM :
RI. :
RXO.OHMM :
CALI.CM :
SP.MV :
DEN.GM/CC :
~A
# ...
  196.2500    69.5530    10.2970     8.9270     9.4290    25.2200   -17.1810     2.4600 
  196.3750    69.5530     9.9610     8.6820     9.2240    25.2460   -17.2220     2.4330 
  196.5000    69.5530     9.6330     8.4140     8.8970    25.2770   -17.2590     2.4000 
  196.6250    69.5530     9.3950     8.2050     7.4670    25.3040   -17.2580     2.3680 
  196.7500    69.5530     9.2970     8.1110     6.3410    25.3210   -17.2270     2.3440 
  196.8750    69.5530     9.3810     8.1720     6.0530    25.3280   -17.1590     2.3310 
  197.0000    69.5530     9.6460     8.3930     6.8250    25.3260   -17.0580     2.3360 
  197.1250    69.5530    10.0150     8.7260     8.0650    25.3100   -16.9590     2.3670 
  197.2500    69.5530    10.3030     9.0270     8.6060    25.2790   -16.8790     2.4200 
  197.3750    69.5530    10.3610     9.1670     8.8100    25.2380   -16.8200     2.4780 
  197.5000    69.5530    10.1070     9.0640     8.3060    25.2040   -16.8090     2.5130 
  197.6250    69.5530     9.5580     8.7020     7.3640    25.1970   -16.8470     2.4950 
  197.7500    69.5530     8.9380     8.2400     6.3080    25.2140   -16.8950     2.4370 
  197.8750    69.5530     8.4260     7.8090     5.8510    25.2360   -16.9350     2.3640 
  198.0000    69.5530     8.1360     7.5100     5.9600    25.2430   -16.9650     2.2960 
  198.1250    69.5530     8.1300     7.4180     6.6490    25.2120   -16.9730     2.2570 
  198.2500    69.5530     8.2990     7.4800     6.5630    25.1500   -16.9680     2.2510 
  198.3750    69.5530     8.5360     7.6320     6.3640    25.0730   -16.9650     2.2720 
  198.5000    69.5530     8.7440     7.7990     6.7730    24.8850   -16.9460     2.3060 
  198.6250    69.5530     8.8700     7.9260     7.4150    24.8820   -16.9510     2.3330 
  198.7500    69.5530     8.9780     8.0290     7.5630    24.8810   -16.9610     2.3410 
  198.8750    69.5530     9.1570     8.1670     8.2940    24.8800   -16.9590     2.3350 
  199.0000    69.5530     9.4930     8.4090     9.8250    24.8810   -16.9520     2.3290 
  199.1250    69.5530    10.0450     8.8040    11.1790    24.8880   -16.9120     2.3440 
  199.2500    69.5530    10.6960     9.2740    11.0790    24.8910   -16.8370     2.3740 
  199.3750    69.5530    11.2970     9.7080    10.1490    24.8910   -16.7430     2.4050 
  199.5000    69.5530    11.7320     9.9980    10.0230    24.8890   -16.5990     2.4280 
  199.6250    69.5530    11.9040    10.0800    10.4030    24.8910   -16.3920     2.4450 
  199.7500    69.5530    11.8660    10.0470    10.3500    24.8920   -16.1450     2.4630 
  199.8750    69.5530    11.7280     9.9880     9.8010    24.8890   -15.9100     2.4790 
  200.0000    69.5530    11.6500     9.9560     9.4210    24.8830   -15.6940     2.4880 
  200.1250    69.5530    11.6860     9.9560     9.4270    24.8630   -15.4930     2.4820 
  200.2500    69.5530    11.7250     9.9600     9.0380    24.8410   -15.3300     2.4630 
  200.3750    69.5530    11.7200     9.9600     8.3090    24.8270   -15.1930     2.4400 
  200.5000    69.5530    11.6840     9.9570     8.2510    24.8220   -15.1060     2.4200 
  200.6250    69.5530    11.6370     9.9520     8.7030    24.8210   -15.0810     2.4040 
  200.7500    69.5530    11.6060     9.9500     8.7620    24.8200   -15.0820     2.3890 
  200.8750    69.5530    11.6070     9.9510     8.8230    24.8120   -15.1170     2.3810 
  201.0000    69.5530    11.6360     9.9560     9.7460    24.7940   -15.1980     2.3880 
  201.1250    69.5530    11.6800     9.9620    10.8830    24.7700   -15.3110     2.4110 
  201.2500    69.5530    11.7170     9.9660    11.4410    24.7630   -15.4430     2.4320 
  201.3750    69.5530    11.7370     9.9650    10.7060    24.7630   -15.5740     2.4380 
  201.5000    69.5530    11.7390     9.9600     9.3100    24.7610   -15.6800     2.4280 
  201.6250    69.5530    11.7280     9.9530     8.3820    24.7450   -15.7560     2.4110 
  201.7500    69.5530    11.7280     9.9530     7.8620    24.7230   -15.8310     2.4000 
  201.8750    69.5530    11.7280     9.9530     7.5400    24.7070   -15.8840     2.3950 
  202.0000    69.5530    11.7280     9.9530     7.6410    24.7020   -15.9340     2.3920 
  202.1250    69.5530    11.7280     9.9530     7.9450    24.7010   -15.9840     2.3870 
  202.2500    69.5530    11.7280     9.9530     8.8000    24.6800   -16.0270     2.3850 
  202.3750    69.5530    11.7280     9.9530     9.2530    24.6250   -16.0430     2.3910 
  202.5000    69.5530    11.7280     9.9530    10.1120    24.5210   -16.0590     2.4090 
  202.6250    69.5530    11.7280     9.9530    11.6080    24.5960   -16.0600     2.4300 
  202.7500    69.5530    11.7280     9.9530    12.7230    24.6480   -16.0470     2.4380 
  202.8750    69.5530    11.7280     9.9530    13.9270    24.6470   -16.0230     2.4250 
  203.0000    69.5530    11.7280     9.9530    20.3590    24.6030   -15.9870     2.3950 
  203.1250    69.5530    11.7280     9.9530    32.2800    24.5720   -15.9420     2.3610 
  203.2500    69.5530    11.7280     9.9530    26.8100    24.5350   -15.9020     2.3370 
  203.3750    69.5530    11.7280     9.9530    14.9530    24.4740   -15.8640     2.3280 
  203.5000    69.5530    11.7280     9.9530     9.9720    24.3940   -15.8510     2.3230 
  203.6250    69.5530    11.7280     9.9530     9.2610    24.2680   -15.8290     2.3000 
  203.7500    69.5530    11.7280     9.9530     9.6160    24.1660   -15.7920     2.2500 
  203.8750    69.5530    11.7280     9.9530    12.3090    24.1170   -15.7740     2.1810 
  204.0000    69.5530    11.7280     9.9530    17.3120    24.0990   -15.7820     2.1040 
  204.1250    69.5530    11.7280     9.9530    19.6230    23.8200   -15.8110     2.0400 
  204.2500    69.5530    11.7280     9.9530    14.1810    23.0030   -15.8460     1.9990 
  204.3750    69.5530    11.7280     9.9530    10.7650    21.6880   -15.8930     1.9800 
  204.5000    69.5530    11.7280     9.9530     9.1290    20.8070   -15.9470     1.9770 
  204.6250    69.5530    11.7280     9.9530     8.5150    20.5520   -16.0250     1.9800 
  204.7500    69.5530    11.7280     9.9530     8.5080    20.5490   -16.1160     1.9830 
  204.8750    69.5530    11.7280     9.9530     8.5070    20.5480   -16.2100     1.9830 
  205.0000    69.5530    11.7280     9.9530     8.5060    20.5440   -16.2920     1.9800 
  205.1250    69.5530    11.7280     9.9530     8.5070    20.5380   -16.3860     1.9770 
  205.2500    69.5530    11.7280     9.9530     8.5080    20.5290   -16.4430     1.9750 
  205.3750    69.5530    11.7280     9.9530     8.5070    20.5210   -16.4630  -999.2500 
  205.5000    69.5530    11.7280     9.9530     8.5070    20.5160   -16.4840  -999.2500 
  205.6250    69.5530    11.7280     9.9530     8.5070    20.5140  -999.2500  -999.2500 
  205.7500    69.5530    11.7280     9.9530     8.5060    20.5130  -999.2500  -999.2500 
  205.8750    69.5530    11.7280     9.9530     8.5070    20.5110  -999.2500  -999.2500 
  206.0000    69.5530    11.7280     9.9530     8.5080    20.5090  -999.2500  -999.2500 
  206.1250    69.5530    11.7280     9.9530     8.5070    20.5050  -999.2500  -999.2500 
  206.2500    69.5530    11.7280     9.9530     8.5060    20.5010  -999.2500  -999.2500 
  206.3750    69.5530    11.7280     9.9530     8.5060    20.4940  -999.2500  -999.2500 
  206.5000    69.5530    11.7280     9.9530     8.5050    20.4870  -999.2500  -999.2500 
  206.6250  -999.2500  -999.2500  -999.2500  -999.2500  -999.2500  -999.2500  -999.2500 
  206.7500  -999.2500  -999.2500  -999.2500  -999.2500  -999.2500  -999.2500  -999.2500 
  206.8750  -999.2500  -999.2500  -999.2500  -999.2500  -999.2500  -999.2500  -999.2500 
  207.0000  -999.2500  -999.2500  -999.2500  -999.2500  -999.2500  -999.2500  -999.2500 
  207.1250  -999.2500  -999.2500  -999.2500  -999.2500  -999.2500  -999.2500  -999.2500 
  207.2500  -999.2500  -999.2500  -999.2500  -999.2500  -999.2500  -999.2500  -999.2500 
  207.3750  -999.2500  -999.2500  -999.2500  -999.2500  -999.2500  -999.2500  -999.2500 
