~V
VERS. 2.00: Ver 2.00
~W
STRT.M 62.0000:
STOP.M 219.0000:
STEP.M 0.1250:
NULL. -999.2500:
UWI. F11127:
~C
DEPT.M :
SP.MV :
DEN.GM/CC :
GR.API :
RML.OHMM :
RI. :
RXO.OHMM :
CALI.CM :
~A
# ...
   84.5000   -19.9900     2.3060    68.9340    11.1940     9.2840    18.5000    24.5310 
   84.6250   -21.5610     2.1910    68.1230     9.7480     8.3450    11.9590    24.6660 
   84.7500   -22.9980     2.1320    68.4060     8.4810     7.3530    10.1620    24.8560 
   84.8750   -24.2060     2.1180    68.0540     7.6820     6.6120     9.7870    24.9470 
   85.0000   -25.1400     2.1210    66.4290     7.3530     6.1850     9.8310    24.9500 
   85.1250   -25.8790     2.1170    63.8480     7.3680     6.0300     9.9870    25.0260 
   85.2500   -26.4480     2.0920    60.1140     7.5960     6.0820    10.1920    25.2150 
   85.3750   -26.8130     2.0560    56.7140     7.8920     6.2250    10.4670    25.2670 
   85.5000   -26.9420     2.0130    56.2660     8.1880     6.3970    10.7930    25.2920 
   85.6250   -26.9500     1.9700    58.6070     8.4290     6.5440    10.9840    25.5240 
   85.7500   -26.8570     1.9560    60.2450     8.5330     6.6010    10.7620    25.8580 
   85.8750   -26.6540     1.9920    60.5190     8.4740     6.5550    10.3450    26.1000 
   86.0000   -26.3530     2.0660    61.4730     8.2480     6.4140    10.1080    26.0800 
   86.1250   -25.9950     2.1360    64.0090     7.9000     6.2150    10.0120    25.7420 
   86.2500   -25.6130     2.1560    65.3980     7.5340     6.0200     9.8500    25.1550 
   86.3750   -25.2380     2.1520    65.2430     7.2630     5.8780     9.6960    24.6220 
   86.5000   -24.8090     2.1460    65.9360     7.1410     5.8040     9.5860    24.2610 
   86.6250   -24.3440     2.1430    67.9230     7.1660     5.7910     9.5080    24.1010 
   86.7500   -23.8690     2.1420    69.2190     7.2790     5.8110     9.4440    24.0430 
   86.8750   -23.2970     2.1430    69.6700     7.3630     5.8190     9.3750    23.9470 
   87.0000   -22.4720     2.1450    70.4540     7.3380     5.7780     9.2700    23.8290 
   87.1250   -21.4290     2.1510    71.8620     7.1620     5.6610     9.0970    23.7730 
   87.2500   -20.2870     2.1710    73.0240     6.8230     5.4410     8.7460    23.7520 
   87.3750   -19.1830     2.2010    74.0710     6.4150     5.1470     8.1630    23.7600 
   87.5000   -18.2020     2.2350    75.3980     6.0260     4.8240     7.3020    23.8240 
   87.6250   -17.3370     2.2660    78.0470     5.7410     4.5300     6.2530    23.8970 
   87.7500   -16.6640     2.2830    83.9350     5.6490     4.3500     5.4410    23.9120 
   87.8750   -16.2960     2.2890    90.9510     5.7340     4.3110     5.3020    23.8410 
   88.0000   -16.2900     2.2840    94.6460     5.9750     4.4200     5.6170    23.7210 
   88.1250   -16.5530     2.2710    91.9020     6.3430     4.6610     6.2580    23.5350 
   88.2500   -17.0170     2.2500    85.1530     6.8260     5.0190     7.1820    23.3330 
   88.3750   -17.6020     2.2310    80.6820     7.3780     5.4390     8.1660    23.1890 
   88.5000   -18.2770     2.2230    79.5830     7.9610     5.8890     9.2490    23.0910 
   88.6250   -18.9390     2.2270    79.7830     8.5200     6.3330    11.0050    23.0510 
   88.7500   -19.5190     2.2330    78.9630     8.9600     6.7090    13.0730    23.1050 
   88.8750   -20.0320     2.2260    77.2700     9.2300     6.9770    15.1370    23.2390 
   89.0000   -20.5280     2.1960    75.5400     9.3090     7.1110    16.4190    23.4590 
   89.1250   -21.0050     2.1470    75.3090     9.2270     7.1190    14.6520    23.6640 
   89.2500   -21.4230     2.1050    77.2960     9.0540     7.0330    11.8410    23.7320 
   89.3750   -21.8020     2.0910    78.7580     8.8940     6.9270    10.6080    23.7730 
   89.5000   -22.1100     2.1020    77.5910     8.7880     6.8360    10.4740    23.7880 
   89.6250   -22.2930     2.1270    74.7050     8.7300     6.7690    10.5990    23.7020 
   89.7500   -22.3620     2.1520    71.9840     8.6770     6.7120    10.6090    23.4820 
   89.8750   -22.3690     2.1700    70.0230     8.5810     6.6380    10.5840    23.3370 
   90.0000   -22.2870     2.1810    68.7760     8.4310     6.5370    10.5260    23.3030 
   90.1250   -22.1950     2.1850    68.8370     8.2430     6.4130    10.4130    23.3040 
   90.2500   -22.0990     2.1850    69.7830     8.0550     6.2810    10.2280    23.2890 
   90.3750   -21.9300     2.1790    70.9940     7.8900     6.1550     9.9910    23.2640 
   90.5000   -21.7880     2.1620    73.0390     7.7530     6.0410     9.7150    23.2420 
   90.6250   -21.7440     2.1370    75.8010     7.6340     5.9410     9.5030    23.2060 
   90.7500   -21.7450     2.1100    75.4960     7.5330     5.8630     9.4300    23.2080 
   90.8750   -21.8140     2.0930    73.0970     7.4650     5.8140     9.4430    23.1960 
   91.0000   -22.0030     2.0900    72.0670     7.4650     5.8070     9.4320    23.2130 
   91.1250   -22.1250     2.1000    71.6850     7.5710     5.8540     9.4740    23.2980 
   91.2500   -22.2430     2.1210    68.7400     7.7990     5.9720     9.8110    23.4420 
   91.3750   -22.4120     2.1410    65.3020     8.0680     6.1370    10.8120    23.6100 
   91.5000   -22.5070     2.1520    64.6620     8.2870     6.3140    12.5340    23.8750 
   91.6250   -22.5680     2.1550    66.5190     8.3790     6.4580    14.4990    24.1840 
   91.7500   -22.6650     2.1640    67.1190     8.2860     6.5120    16.3140    24.4520 
   91.8750   -22.6810     2.1740    65.2770     8.0740     6.4730    16.0350    24.4700 
   92.0000   -22.6470     2.1730    63.3780     7.8190     6.3610    12.7690    24.1100 
   92.1250   -22.7020     2.1590    63.4590     7.6020     6.2190    10.3420    23.6990 
   92.2500   -22.7480     2.1450    65.9150     7.4950     6.0990     9.5800    23.5320 
   92.3750   -22.7900     2.1400    67.7930     7.4930     6.0260     9.5100    23.5070 
   92.5000   -22.8410     2.1410    68.7920     7.5650     6.0030     9.5580    23.5080 
   92.6250   -22.8670     2.1420    68.9880     7.6580     6.0110     9.7070    23.4980 
   92.7500   -22.8650     2.1390    67.7640     7.7150     6.0250     9.8290    23.4780 
   92.8750   -22.8820     2.1350    66.7540     7.7320     6.0280     9.8630    23.4980 
   93.0000   -22.8470     2.1310    66.5500     7.7390     6.0240     9.7650    23.5500 
   93.1250   -22.7200     2.1280    66.5590     7.7800     6.0370     9.6130    23.6180 
   93.2500   -22.5840     2.1260    65.9230     7.9000     6.1050     9.4220    23.6690 
   93.3750   -22.4610     2.1260    65.4300     8.0820     6.2310     9.3320    23.8350 
   93.5000   -22.3570     2.1340    66.2250     8.2830     6.3950     9.3470    24.0420 
   93.6250   -22.2720     2.1540    68.4780     8.4370     6.5560     9.4900    24.0810 
   93.7500   -22.1820     2.1790    70.3980     8.4610     6.6450     9.9110    23.9910 
   93.8750   -22.0210     2.1860    70.4450     8.3520     6.6370    10.0510    24.1380 
   94.0000   -21.8490     2.1690    69.4730     8.1470     6.5390     9.9430    24.3660 
   94.1250   -21.7830     2.1420    69.2580     7.9160     6.3910     9.8020    24.5040 
   94.2500   -21.7500     2.1260    69.8000     7.7450     6.2480     9.7400    24.5580 
   94.3750   -21.6610     2.1210    69.4110     7.6570     6.1460     9.7080    24.6250 
   94.5000   -21.6370     2.1120    69.3030     7.6400     6.0910     9.6440    24.7230 
   94.6250   -21.6890     2.0840    70.3160     7.6580     6.0740     9.4180    24.9120 
   94.7500   -21.7180     2.0550    71.0220     7.6760     6.0780     9.2510    25.1110 
   94.8750   -21.8380     2.0530    70.6560     7.6820     6.0850     9.2350    25.0280 
   95.0000   -22.0570     2.0870    70.9090     7.6850     6.0920     9.3780    24.5520 
   95.1250   -22.1980     2.1370    71.8810     7.6980     6.1000     9.5260    24.1390 
   95.2500   -22.3040     2.1690    71.1590     7.7200     6.1130     9.5800    24.0540 
   95.3750   -22.4240     2.1760    69.5950     7.7290     6.1250     9.5300    24.0930 
   95.5000   -22.4550     2.1670    68.9860     7.6960     6.1230     9.4370    24.1860 
   95.6250   -22.4760     2.1540    69.7720     7.6020     6.0930     9.2940    24.2200 
