~V
VERS. 2.00: Ver 2.00
~W
STRT.M 50.0000:
STOP.M 245.0000:
STEP.M 0.1250:
NULL. -999.2500:
UWI. F11135:
~C
DEPT.M :
GR.API :
RML.OHMM :
RI. :
RXO.OHMM :
CALI.CM :
SP.MV :
DEN.GM/CC :
~A
# ...
   95.0000    85.2860     7.3570     5.2850     5.5670    24.8650   -21.9020     2.2100 
   95.1250    84.3900     7.2830     5.2180     5.5690    24.8660   -22.1690     2.2120 
   95.2500    81.0110     7.3100     5.1810     5.6120    24.8630   -22.6250     2.2170 
   95.3750    77.5950     7.4320     5.2090     5.6870    24.8240   -23.2320     2.2210 
   95.5000    75.8610     7.6590     5.3180     5.8840    24.6070   -23.9880     2.2170 
   95.6250    73.1180     8.0310     5.4990     6.2980    23.9250   -24.7500     2.2020 
   95.7500    69.6690     8.4870     5.7060     6.9270    23.2490   -25.4800     2.1800 
   95.8750    68.5680     8.9130     5.9060     7.4100    22.9700   -26.1190     2.1590 
   96.0000    69.0270     9.1970     6.0730     7.7050    22.9210   -26.5990     2.1430 
   96.1250    69.1290     9.2840     6.1620     7.9330    22.9030   -26.9070     2.1390 
   96.2500    69.6140     9.2180     6.1380     8.1080    22.8630   -27.0020     2.1440 
   96.3750    70.6460     9.0030     5.9720     8.1310    22.8690   -26.9400     2.1560 
   96.5000    71.0710     8.6470     5.6760     7.8560    22.9290   -26.7140     2.1710 
   96.6250    69.2530     8.2440     5.3280     7.1820    23.0530   -26.4740     2.1880 
   96.7500    66.2810     8.0120     5.0780     6.4400    23.1470   -26.3020     2.2080 
   96.8750    65.2700     8.1600     5.0520     6.2160    23.1650   -26.2980     2.2360 
   97.0000    68.0320     8.8290     5.3320     6.7480    23.1890   -26.4930     2.2740 
   97.1250    70.7040    10.0330     5.9720     8.2530    23.3560   -26.9420     2.3150 
   97.2500    69.3050    11.3510     6.7940    10.9440    23.7780   -27.6520     2.3390 
   97.3750    65.3030    12.2920     7.5540    15.9310    24.0450   -28.5640     2.3310 
   97.5000    60.9190    12.4630     7.9930    21.8860    23.9000   -29.6480     2.2930 
   97.6250    57.5080    11.8880     7.9830    24.0700    23.3850   -30.7810     2.2450 
   97.7500    55.4180    11.2640     7.7920    17.8950    23.1450   -31.9020     2.2090 
   97.8750    55.5120    11.0380     7.6370    12.3590    23.0960   -32.9410     2.1900 
   98.0000    55.9640    11.3340     7.6320    10.3610    23.1510   -33.8820     2.1820 
   98.1250    55.0540    11.9150     7.7660    10.3220    23.1610   -34.6690     2.1730 
   98.2500    53.8680    12.2640     7.8720    10.5510    23.1650   -35.2760     2.1580 
   98.3750    53.0850    12.0800     7.8200    10.5980    23.1660   -35.7370     2.1400 
   98.5000    53.3500    11.3670     7.5720    10.3040    23.1720   -36.0420     2.1260 
   98.6250    55.0720    10.4000     7.1960     9.8720    23.2080   -36.2470     2.1200 
   98.7500    56.3890     9.5870     6.8420     9.5980    23.2360   -36.3370     2.1200 
   98.8750    55.4220     9.1310     6.5850     9.5320    23.2410   -36.3490     2.1230 
   99.0000    53.0800     9.0720     6.4440     9.6020    23.2410   -36.2720     2.1270 
   99.1250    51.5010     9.3480     6.4050     9.7020    23.2410   -36.1250     2.1290 
   99.2500    51.1560     9.7180     6.4080     9.7730    23.2410   -35.9730     2.1310 
   99.3750    51.2480    10.0140     6.4110     9.7850    23.2440   -35.8150     2.1310 
   99.5000    51.6940    10.1290     6.3920     9.7280    23.2530   -35.6730     2.1310 
   99.6250    52.5510    10.0210     6.3320     9.6060    23.3190   -35.4770     2.1260 
   99.7500    53.3960     9.7730     6.2310     9.5300    23.4000   -35.3000     2.1150 
   99.8750    54.1940     9.4330     6.0850     9.5020    23.4600   -35.0860     2.0950 
  100.0000    53.2600     9.0850     5.9220     9.4530    23.4700   -34.8840     2.0670 
  100.1250    51.8140     8.9210     5.8370     9.3670    23.4710   -34.6700     2.0450 
  100.2500    51.8280     9.0700     5.9120     9.4730    23.4990   -34.4350     2.0500 
  100.3750    52.5270     9.5600     6.1920    10.7340    23.6510   -34.1770     2.0960 
  100.5000    51.5750    10.2810     6.6510    14.9180    24.2980   -33.9610     2.1750 
  100.6250    48.8130    10.9100     7.1430    24.3170    24.7990   -33.8820     2.2510 
  100.7500    47.5690    11.0990     7.4250    27.0650    24.8060   -33.9060     2.2840 
  100.8750    49.5140    10.7150     7.3470    19.4290    24.4000   -34.0220     2.2620 
  101.0000    51.8230     9.9290     6.9440    12.3920    23.8180   -34.1490     2.2040 
  101.1250    49.7340     9.1170     6.4110    10.3320    23.7650   -34.2910     2.1430 
  101.2500    46.8640     8.5520     5.9760     9.8110    23.8280   -34.3900     2.1000 
  101.3750    47.3100     8.3010     5.7330     9.7530    23.9080   -34.4570     2.0760 
  101.5000    50.6190     8.3100     5.6960     9.7880    23.9400   -34.3980     2.0640 
  101.6250    50.8290     8.4720     5.8430     9.8850    23.9750   -34.1450     2.0550 
  101.7500    49.8890     8.6410     6.0690    10.0210    24.0630   -33.6840     2.0440 
  101.8750    49.8780     8.7320     6.2940    10.1250    24.1490   -32.9940     2.0310 
  102.0000    48.9430     8.6750     6.4450    10.2380    24.2210   -32.1330     2.0170 
  102.1250    48.4410     8.4210     6.4390    10.3170    24.3890   -31.0230     2.0110 
  102.2500    51.0730     8.0430     6.2880    10.2650    24.6630   -29.7760     2.0250 
  102.3750    55.1110     7.6150     6.0160     9.6660    25.0550   -28.4100     2.0640 
  102.5000    57.1540     7.2020     5.6600     8.3810    25.6780   -27.0470     2.1290 
  102.6250    58.2780     6.8450     5.2590     7.4030    26.2610   -25.7120     2.1450 
  102.7500    62.6780     6.5390     4.8540     7.0270    26.3910   -24.4470     2.2230 
  102.8750    70.1590     6.2740     4.4730     6.7670    25.7850   -23.3690     2.2850 
  103.0000    76.4310     6.0680     4.1580     6.1580    25.5560   -22.5360     2.3130 
  103.1250    76.2580     6.0090     3.9920     5.3920    25.6600   -22.1340     2.3040 
  103.2500    71.9800     6.1560     4.0070     5.1410    25.8340   -22.0440     2.2850 
  103.3750    67.6890     6.5640     4.2290     5.2840    25.8610   -22.2460     2.2810 
  103.5000    65.3400     7.2470     4.6650     5.9600    25.7680   -22.6080     2.3080 
  103.6250    62.4280     8.2010     5.3260     6.8140    25.3470   -23.1120     2.3680 
  103.7500    57.9420     9.3240     6.1530     7.7520    24.7300   -23.7000     2.4330 
  103.8750    53.4510    10.6470     7.1600     8.3280    24.4540   -24.2960     2.4820 
  104.0000    52.9120    12.3180     8.4230     9.0880    24.4400   -24.8710     2.5130 
  104.1250    55.7900    14.5660    10.1110    11.2770    24.6410   -25.3530     2.5370 
  104.2500    56.6150    17.1620    12.1450    15.9120    25.1020   -25.8500     2.5630 
  104.3750    52.8040    19.5350    14.2180    23.4420    25.4420   -26.3240     2.5850 
  104.5000    47.9380    20.7580    15.6600    31.5070    25.5210   -26.8530     2.5790 
  104.6250    48.3360    19.7300    15.4600    32.2660    25.3780   -27.4280     2.5190 
  104.7500    54.2350    17.1800    13.9210    25.3710    24.9520   -28.0460     2.4250 
  104.8750    60.7940    14.2590    11.8440    17.1190    24.4750   -28.6540     2.3240 
  105.0000    62.3530    11.8910     9.9620    11.9350    24.0990   -29.2020     2.2400 
  105.1250    59.0620    10.5640     8.6790    10.4930    23.9260   -29.6720     2.1920 
  105.2500    58.6270    10.0020     7.8830    10.2420    23.8620   -29.9790     2.1720 
  105.3750    62.2370     9.9160     7.4390    10.3840    23.8300   -30.1960     2.1720 
  105.5000    65.1170     9.9860     7.1970    10.6620    23.7620   -30.3050     2.1810 
  105.6250    64.4110     9.9740     7.0360    10.3090    23.7660   -30.3600     2.1890 
  105.7500    64.7540     9.9070     6.9020     9.7280    23.7600   -30.3600     2.1900 
  105.8750    65.5590     9.9190     6.8270     9.5810    23.7570   -30.3870     2.1870 
  106.0000    63.1310    10.1020     6.8650     9.7550    23.7510   -30.4380     2.1840 
  106.1250    58.4430    10.4800     7.0740    10.4430    23.6990   -30.5100     2.1930 
