~V
VERS. 2.00: Ver 2.00
~W
STRT.M 58.0000:
STOP.M 206.0000:
STEP.M 0.1250:
NULL. -999.2500:
UWI. F11128:
~C
DEPT.M :
GR.API :
RML.OHMM :
RI. :
RXO.OHMM :
CALI.CM :
SP.MV :
DEN.GM/CC :
~A
# ...
   91.7500    68.9100     8.6010     7.0410    12.4460    25.2740   -18.3980     2.1860 
   91.8750    66.5520     8.4540     6.8380    14.3050    25.2970   -18.7810     2.1850 
   92.0000    65.6250     8.3840     6.7320    15.9980    25.3580   -19.1480     2.2200 
   92.1250    67.6270     8.2800     6.6420    15.8940    25.4170   -19.4730     2.2470 
   92.2500    70.7870     8.1140     6.5310    13.2910    25.4070   -19.7390     2.2370 
   92.3750    72.8440     7.9190     6.4000    11.0500    25.3780   -19.9530     2.1970 
   92.5000    72.5650     7.7630     6.2810    10.5640    25.3650   -20.0910     2.1600 
   92.6250    71.2500     7.6720     6.1990    10.7330    25.3720   -20.1360     2.1410 
   92.7500    70.0450     7.6320     6.1560    10.9350    25.4530   -20.0430     2.1320 
   92.8750    68.6480     7.6100     6.1330    10.9730    25.6120   -19.7940     2.1280 
   93.0000    65.3240     7.5710     6.1060    10.9290    25.7480   -19.4460     2.1360 
   93.1250    63.2700     7.5090     6.0620    10.8400    25.8960   -19.0680     2.1540 
   93.2500    65.5290     7.4350     6.0040    10.6940    26.0520   -18.6430     2.1700 
   93.3750    69.9840     7.3590     5.9360    10.5940    26.1890   -18.1760     2.1730 
   93.5000    71.5040     7.2870     5.8660    10.7070    26.2760   -17.6670     2.1650 
   93.6250    69.4430     7.2200     5.7980    10.9430    26.3270   -17.1360     2.1540 
   93.7500    67.8310     7.1650     5.7390    11.0620    26.3680   -16.6230     2.1420 
   93.8750    69.0470     7.1340     5.7000    10.8040    26.4370   -16.1440     2.1270 
   94.0000    70.0640     7.1560     5.7030     9.8340    26.5220   -15.7470     2.1170 
   94.1250    68.9470     7.2350     5.7540     9.3770    26.5980   -15.5030     2.1190 
   94.2500    67.4460     7.3660     5.8530     9.2570    26.7210   -15.4280     2.1250 
   94.3750    67.2090     7.5270     5.9890     9.2400    26.9780   -15.4480     2.1200 
   94.5000    67.8020     7.6710     6.1370     9.1380    27.3100   -15.5290     2.1000 
   94.6250    67.5790     7.7570     6.2620     9.1050    27.5930   -15.6830     2.0840 
   94.7500    66.6970     7.7620     6.3390     9.1960    27.6690   -15.9110     2.0860 
   94.8750    65.1260     7.6890     6.3590     9.4070    27.6330   -16.1930     2.1050 
   95.0000    63.8820     7.5560     6.3170     9.5490    27.6810   -16.4570     2.1230 
   95.1250    63.6950     7.4020     6.2390     9.5390    27.9010   -16.5960     2.1230 
   95.2500    64.1020     7.2420     6.1360     9.4650    28.2180   -16.5970     2.0980 
   95.3750    64.5530     7.0760     6.0140     9.4590    28.4820   -16.5100     2.0560 
   95.5000    63.9890     6.8980     5.8670     9.3800    28.5320   -16.3360     2.0140 
   95.6250    63.9590     6.7130     5.7030     9.2980    28.3810   -16.0860     1.9850 
   95.7500    66.1170     6.5390     5.5360     9.1480    28.0920   -15.8130     1.9770 
   95.8750    69.4900     6.4010     5.3880     8.8230    27.8270   -15.6010     1.9920 
   96.0000    70.6640     6.3440     5.2960     8.3680    27.6430   -15.4760     2.0240 
   96.1250    68.9270     6.3750     5.2740     8.1640    27.5450   -15.4180     2.0520 
   96.2500    67.2780     6.4900     5.3270     8.2030    27.5150   -15.3920     2.0630 
   96.3750    66.6860     6.6660     5.4450     8.3970    27.5110   -15.3870     2.0570 
   96.5000    66.5290     6.8570     5.6050     8.6610    27.4910   -15.4330     2.0410 
   96.6250    65.7100     7.0090     5.7590     8.8920    27.4160   -15.5310     2.0270 
   96.7500    64.0680     7.0840     5.8710     9.0630    27.2580   -15.6560     2.0320 
   96.8750    62.2480     7.0690     5.9160     9.3250    27.0590   -15.7230     2.0820 
   97.0000    59.7040     6.9790     5.8860     9.6000    26.9270   -15.6970     2.1890 
   97.1250    58.3460     6.8760     5.8210     9.7180    26.8870   -15.6130     2.2860 
   97.2500    59.8510     6.8100     5.7610     9.7500    26.8500   -15.5020     2.3020 
   97.3750    63.2800     6.8110     5.7360     9.8710    26.7800   -15.3990     2.2450 
   97.5000    66.4910     6.8780     5.7620    10.1000    26.6970   -15.3600     2.2000 
   97.6250    67.7410     6.9560     5.8110    10.3350    26.6520   -15.3230     2.1880 
   97.7500    66.7480     6.9940     5.8460    10.2130    26.6650   -15.2090     2.1940 
   97.8750    64.2970     6.9600     5.8360     9.6510    26.7410   -15.0270     2.1990 
   98.0000    64.0670     6.8460     5.7590     8.9950    26.8420   -14.8350     2.1890 
   98.1250    67.1140     6.7060     5.6430     8.3940    26.8890   -14.6910     2.1740 
   98.2500    70.6100     6.5890     5.5220     7.9260    26.8210   -14.6300     2.1700 
   98.3750    71.3590     6.5730     5.4340     7.7300    26.6990   -14.6490     2.1840 
   98.5000    70.4100     6.6830     5.4240     7.9150    26.6270   -14.6850     2.2070 
   98.6250    70.3500     6.9310     5.5030     8.0700    26.6730   -14.7920     2.2210 
   98.7500    71.3520     7.3340     5.6770     8.0560    26.6310   -15.0450     2.2310 
   98.8750    71.5010     7.7300     5.9450     8.3420    26.4380   -15.4360     2.2420 
   99.0000    68.8420     8.1660     6.3040     9.2400    26.2550   -15.8850     2.2490 
   99.1250    65.8010     8.6070     6.7030    10.2060    26.1700   -16.2630     2.2450 
   99.2500    64.1240     8.9820     7.0900    11.1540    26.1260   -16.5360     2.2300 
   99.3750    64.2510     9.2220     7.4010    12.2420    26.1050   -16.6990     2.2050 
   99.5000    65.0160     9.2560     7.5550    13.5810    26.0550   -16.7620     2.1710 
   99.6250    65.9970     9.1290     7.5580    14.5250    25.8590   -16.7330     2.1330 
   99.7500    66.7740     8.9020     7.4360    13.8920    25.5280   -16.6030     2.1020 
   99.8750    66.0140     8.6550     7.2480    12.4090    25.1630   -16.4190     2.0900 
  100.0000    64.2060     8.4770     7.0680    12.8710    24.9010   -16.2400     2.1020 
  100.1250    62.8320     8.4000     6.9490    14.3460    24.7290   -16.0950     2.1180 
  100.2500    62.2250     8.4150     6.9090    15.4390    24.6530   -15.9910     2.1220 
  100.3750    62.3720     8.4840     6.9350    14.4180    24.7270   -15.9000     2.1150 
  100.5000    63.1600     8.5410     6.9910    12.6670    24.8690   -15.8080     2.1060 
  100.6250    63.6840     8.5360     7.0230    12.0710    24.9520   -15.6560     2.1020 
  100.7500    63.2950     8.4500     7.0010    12.0590    24.9620   -15.4120     2.1000 
  100.8750    62.9000     8.2900     6.9140    11.9520    24.9220   -15.1000     2.1000 
  101.0000    62.5250     8.0860     6.7650    11.2990    24.7850   -14.7830     2.1020 
  101.1250    61.9420     7.8880     6.5950    10.8520    24.6000   -14.4810     2.1070 
  101.2500    62.2160     7.7330     6.4390    10.7590    24.4740   -14.2020     2.1160 
  101.3750    63.6070     7.6400     6.3230    10.6830    24.4100   -14.0020     2.1300 
  101.5000    64.9900     7.6120     6.2630    10.3920    24.4880   -13.9150     2.1510 
  101.6250    65.5220     7.6190     6.2440    10.4180    24.6360   -13.9590     2.1730 
  101.7500    65.4760     7.6450     6.2520    10.5260    24.8100   -14.1540     2.1950 
  101.8750    65.0500     7.6910     6.2790    10.5460    24.9560   -14.4470     2.2130 
  102.0000    64.2900     7.7910     6.3410    10.4370    25.0550   -14.7750     2.2260 
  102.1250    64.1290     7.9720     6.4590    10.3380    25.1160   -15.1490     2.2350 
  102.2500    63.4320     8.2520     6.6510    10.2840    25.1880   -15.5500     2.2380 
  102.3750    61.0360     8.6090     6.9160    10.3110    25.3330   -15.9240     2.2340 
  102.5000    58.4470     8.9540     7.2110    10.4160    25.7140   -16.2520     2.2200 
  102.6250    57.9360     9.1750     7.4480    10.5060    26.3050   -16.5870     2.2050 
  102.7500    60.3170     9.2010     7.5560    10.5720    26.7260   -16.9210     2.2000 
  102.8750    63.3940     9.0220     7.4990    10.6680    26.5570   -17.2060     2.2150 
