~V
VERS. 2.00: Ver 2.00
~W
STRT.M 40.0000:
STOP.M 232.0000:
STEP.M 0.1250:
NULL. -999.2500:
UWI. F11121:
~C
DEPT.M :
SP.MV :
DEN.GM/CC :
GR.API :
RML.OHMM :
RI. :
RXO.OHMM :
CALI.CM :
~A
# ...
  130.0000     3.7380     2.4360    52.6600    18.3940    17.3550    16.1900    24.5100 
  130.1250     3.6350     2.4540    52.8160    18.2710    17.1760    16.1540    24.5080 
  130.2500     3.5720     2.4690    51.2620    18.3760    17.1970    16.5950    24.5100 
  130.3750     3.5500     2.4820    48.6240    18.6260    17.3610    17.8210    24.5200 
  130.5000     3.5590     2.4920    47.8800    18.9040    17.5780    18.1040    24.5410 
  130.6250     3.5790     2.4910    50.9590    19.0920    17.7500    18.0790    24.5630 
  130.7500     3.5830     2.4780    52.0690    19.1500    17.8290    16.6300    24.5780 
  130.8750     3.5690     2.4600    48.7610    19.0730    17.7950    15.6550    24.5790 
  131.0000     3.5580     2.4490    45.2520    18.8840    17.6440    15.5580    24.5610 
  131.1250     3.5500     2.4490    47.1660    18.5970    17.3550    16.7480    24.5330 
  131.2500     3.5510     2.4540    50.6050    18.2350    16.9570    16.8550    24.5130 
  131.3750     3.5610     2.4570    52.3200    17.8020    16.4790    16.2430    24.5080 
  131.5000     3.5870     2.4570    52.7100    17.3270    15.9740    15.9610    24.5120 
  131.6250     3.6260     2.4530    52.3520    16.8900    15.5220    16.0080    24.5180 
  131.7500     3.6840     2.4470    50.3340    16.5630    15.1770    15.6820    24.5260 
  131.8750     3.7370     2.4390    48.6690    16.3790    14.9600    15.2120    24.5170 
  132.0000     3.7500     2.4320    50.0710    16.3170    14.8540    14.0550    24.4460 
  132.1250     3.7200     2.4280    50.8630    16.3160    14.8190    13.1910    24.2900 
  132.2500     3.6460     2.4280    48.8200    16.3140    14.8050    13.1760    24.1460 
  132.3750     3.5130     2.4290    45.8910    16.3060    14.7930    13.5400    24.0790 
  132.5000     3.3340     2.4240    44.6930    16.2990    14.7810    13.2270    24.0710 
  132.6250     3.1630     2.4130    45.7170    16.2910    14.7600    12.0910    24.0530 
  132.7500     3.0280     2.4000    46.3240    16.2690    14.7180    11.4760    24.0170 
  132.8750     2.9260     2.3930    46.5760    16.2290    14.6530    11.0310    23.9850 
  133.0000     2.8380     2.4000    46.0340    16.1670    14.5790    10.7580    23.9600 
  133.1250     2.7510     2.4220    45.5590    16.0640    14.5050    10.8460    23.9440 
  133.2500     2.6580     2.4440    47.6160    15.9290    14.4160    10.6880    23.9740 
  133.3750     2.5640     2.4500    51.3610    15.7930    14.2950    10.7040    24.0940 
  133.5000     2.4460     2.4350    54.9770    15.6710    14.1260    11.4800    24.2940 
  133.6250     2.2770     2.4140    57.0680    15.5270    13.8920    11.8380    24.4760 
  133.7500     2.0610     2.4050    58.8960    15.3080    13.6070    10.9340    24.5700 
  133.8750     1.8090     2.4080    61.7970    14.9750    13.2770    10.0980    24.5940 
  134.0000     1.5350     2.4080    62.6170    14.5240    12.8950    10.8190    24.5950 
  134.1250     1.2440     2.3930    59.8290    14.0040    12.4570    10.0520    24.5910 
  134.2500     0.9610     2.3700    56.7460    13.5210    12.0140     9.6990    24.5570 
  134.3750     0.7290     2.3580    56.4880    13.1650    11.6410     8.9420    24.5000 
  134.5000     0.5880     2.3680    58.6740    13.0320    11.4300     8.3770    24.4510 
  134.6250     0.5140     2.4020    58.4870    13.2890    11.5200     8.5460    24.4410 
  134.7500     0.4650     2.4460    57.6510    13.9420    11.9110     9.4480    24.4460 
  134.8750     0.4300     2.4900    57.8830    14.9320    12.5630    11.1340    24.4460 
  135.0000     0.4220     2.5280    57.4280    16.0600    13.3440    13.6310    24.4440 
  135.1250     0.4720     2.5470    55.2740    16.9200    13.9850    15.8090    24.4430 
  135.2500     0.5490     2.5440    55.3020    17.1920    14.2430    16.3970    24.4490 
  135.3750     0.6220     2.5240    60.6890    16.7790    14.0120    15.0910    24.4580 
  135.5000     0.6710     2.4930    67.6720    15.8970    13.3960    13.8580    24.4670 
  135.6250     0.6960     2.4630    69.6300    15.0470    12.6860    13.0090    24.5060 
  135.7500     0.7040     2.4390    68.4880    14.6370    12.1840    12.0930    24.5730 
  135.8750     0.6880     2.4270    66.5720    14.7250    11.9920    10.4940    24.6360 
  136.0000     0.6330     2.4330    64.5750    15.0840    12.0400    10.4190    24.6620 
  136.1250     0.5070     2.4610    62.8970    15.1720    12.0450    10.6530    24.6750 
  136.2500     0.3300     2.4860    63.6340    14.5530    11.6780    11.5890    24.7130 
  136.3750     0.1020     2.4800    68.0690    13.1420    10.7930    10.6900    24.7650 
  136.5000    -0.1740     2.4350    74.2540    11.2440     9.4970     8.2410    24.8200 
  136.6250    -0.4630     2.3650    80.1330     9.4250     8.1060     5.9120    24.8720 
  136.7500    -0.7340     2.2990    82.5760     8.0580     6.9460     4.8570    24.9090 
  136.8750    -0.9760     2.2520    80.8690     7.2390     6.1620     4.4110    24.9200 
  137.0000    -1.1770     2.2270    78.7780     6.9140     5.7850     4.5080    24.9120 
  137.1250    -1.3160     2.2170    79.6930     6.9990     5.8030     4.3980    24.9070 
  137.2500    -1.4120     2.2120    82.5640     7.2750     6.0300     4.7130    24.9100 
  137.3750    -1.4630     2.2090    85.6880     7.6130     6.3360     5.1690    24.9180 
  137.5000    -1.4530     2.2080    87.5060     7.9070     6.6140     5.5680    24.9300 
  137.6250    -1.3710     2.2080    87.3010     8.0570     6.7780     5.6630    24.9370 
  137.7500    -1.2400     2.2080    85.2420     8.0350     6.8090     5.2050    24.9390 
  137.8750    -1.0540     2.2140    84.0340     7.8110     6.6880     4.8560    24.9400 
  138.0000    -0.8250     2.2290    85.4460     7.3780     6.3960     4.7590    24.9510 
  138.1250    -0.5650     2.2470    87.8790     6.7690     5.9250     4.6580    24.9600 
  138.2500    -0.2860     2.2490    89.5590     6.1250     5.3760     4.2290    24.9660 
  138.3750     0.0020     2.2250    90.0620     5.5690     4.8510     3.4610    24.9780 
  138.5000     0.2600     2.1820    90.3250     5.1980     4.4460     2.5690    24.9860 
  138.6250     0.4270     2.1420    89.9520     5.0940     4.2550     2.1910    24.9470 
  138.7500     0.5150     2.1290    88.8910     5.1920     4.2550     2.6220    24.8690 
  138.8750     0.5350     2.1490    87.8790     5.4230     4.3990     3.3210    24.8070 
  139.0000     0.5020     2.1870    86.9320     5.6920     4.6080     3.4840    24.7890 
  139.1250     0.4180     2.2150    84.8950     5.8680     4.7840     3.4470    24.7920 
  139.2500     0.2970     2.2250    82.1740     5.9030     4.8730     3.4880    24.7920 
  139.3750     0.1440     2.2270    79.0970     5.8300     4.8850     3.5160    24.7910 
  139.5000    -0.0180     2.2310    78.5610     5.7280     4.8650     3.4750    24.7930 
  139.6250    -0.1800     2.2410    85.1800     5.6890     4.8590     3.4370    24.7930 
  139.7500    -0.3420     2.2510    92.9270     5.7270     4.8750     3.3830    24.7910 
  139.8750    -0.5000     2.2550    95.6420     5.8180     4.9000     3.3600    24.7890 
  140.0000    -0.6420     2.2520    93.2930     5.9180     4.9230     3.4100    24.7890 
  140.1250    -0.7720     2.2460    91.6740     5.9700     4.9290     3.3830    24.7930 
  140.2500    -0.8900     2.2400    91.6410     5.9530     4.9170     3.3850    24.7930 
  140.3750    -0.9940     2.2360    91.4420     5.8730     4.8890     3.3600    24.7920 
  140.5000    -1.0890     2.2360    91.4730     5.7620     4.8450     3.3050    24.7910 
  140.6250    -1.1620     2.2390    91.1900     5.6680     4.7910     3.2060    24.7930 
  140.7500    -1.2080     2.2450    90.9430     5.6180     4.7340     3.1620    24.7920 
  140.8750    -1.2360     2.2520    91.2080     5.6180     4.6800     3.1450    24.7920 
  141.0000    -1.2670     2.2570    92.0580     5.6620     4.6320     3.1200    24.7990 
  141.1250    -1.2890     2.2570    91.9010     5.7460     4.6070     3.0700    24.8040 
