~V
VERS. 2.00: Ver 2.00
~W
STRT.M 62.0000:
STOP.M 219.0000:
STEP.M 0.1250:
NULL. -999.2500:
UWI. F11127:
~C
DEPT.M :
SP.MV :
DEN.GM/CC :
GR.API :
RML.OHMM :
RI. :
RXO.OHMM :
CALI.CM :
~A
# ...
   73.2500   -21.2750     2.1660    80.9780     6.8090     5.6390     8.0740    24.4360 
   73.3750   -20.2510     2.1950    82.6440     6.4800     5.3680     7.2290    24.3060 
   73.5000   -19.3150     2.2270    85.3340     6.1750     5.1060     6.5480    24.2210 
   73.6250   -18.5390     2.2510    90.9170     5.8990     4.8620     6.2280    24.1810 
   73.7500   -17.9660     2.2630    98.2380     5.6640     4.6420     6.0400    24.1550 
   73.8750   -17.6330     2.2720   104.5270     5.4940     4.4560     5.8100    24.1930 
   74.0000   -17.6860     2.2880   107.2210     5.4410     4.3420     5.5690    24.2990 
   74.1250   -18.1000     2.3090   105.5660     5.5600     4.3420     5.4360    24.4720 
   74.2500   -18.8250     2.3160    99.2950     5.9080     4.5200     5.6420    24.5890 
   74.3750   -19.7450     2.3090    92.0920     6.4110     4.8450     6.1810    24.6840 
   74.5000   -20.8140     2.3070    86.2200     6.9720     5.2680     7.0070    24.8220 
   74.6250   -21.9600     2.3120    82.0260     7.4680     5.7050     7.9750    25.1320 
   74.7500   -23.0930     2.2810    78.5350     7.7560     6.0350     8.6410    25.7360 
   74.8750   -24.1270     2.2050    74.5760     7.8280     6.2040     8.8570    26.3270 
   75.0000   -24.9910     2.1230    70.2850     7.7330     6.2110     8.9130    26.5390 
   75.1250   -25.6870     2.0720    65.5840     7.5560     6.1070     8.9550    26.3970 
   75.2500   -26.2450     2.0500    62.3500     7.3850     5.9610     8.9410    26.2230 
   75.3750   -26.7090     2.0300    62.0630     7.2640     5.8320     8.8840    26.3110 
   75.5000   -27.0140     2.0080    64.1260     7.1990     5.7360     8.8580    26.7900 
   75.6250   -27.1580     2.0010    66.5720     7.1820     5.6680     8.9210    27.4120 
   75.7500   -27.2230     2.0380    67.8680     7.2070     5.6250     9.0860    27.3320 
   75.8750   -27.3010     2.1000    68.1090     7.2550     5.6000     9.3350    26.4560 
   76.0000   -27.4250     2.1530    68.0650     7.3060     5.5890     9.5510    25.6440 
   76.1250   -27.5450     2.1730    68.6690     7.3320     5.5850     9.6030    25.3000 
   76.2500   -27.6430     2.1710    69.4570     7.3070     5.5780     9.6270    25.2890 
   76.3750   -27.7280     2.1700    68.6510     7.2400     5.5570     9.7560    25.3150 
   76.5000   -27.8030     2.1720    66.7580     7.1480     5.5170     9.8830    25.2900 
   76.6250   -27.8690     2.1700    66.1040     7.0520     5.4630     9.7550    25.1940 
   76.7500   -27.9200     2.1590    68.5120     6.9740     5.4020     9.5150    25.0780 
   76.8750   -27.9050     2.1490    71.3570     6.9200     5.3430     9.3250    24.9770 
   77.0000   -27.7340     2.1440    72.1190     6.8900     5.2910     9.2530    24.9280 
   77.1250   -27.4660     2.1380    70.9930     6.8770     5.2430     9.2320    24.9150 
   77.2500   -27.1240     2.1240    69.4760     6.8700     5.1950     9.1500    24.9030 
   77.3750   -26.7460     2.1120    69.1930     6.8530     5.1430     8.9480    24.8710 
   77.5000   -26.4510     2.1110    71.5690     6.8200     5.0870     8.7410    24.8200 
   77.6250   -26.2540     2.1200    75.1310     6.7720     5.0300     8.5880    24.7670 
   77.7500   -26.1210     2.1320    76.8060     6.7140     4.9860     8.4700    24.6920 
   77.8750   -26.0380     2.1410    76.4520     6.6580     4.9640     8.3040    24.6160 
   78.0000   -26.0090     2.1400    75.7490     6.6140     4.9690     8.1780    24.6260 
   78.1250   -26.0380     2.1270    74.2360     6.5880     4.9930     8.2400    24.7300 
   78.2500   -26.1490     2.1050    71.1200     6.5850     5.0190     8.3850    24.8050 
   78.3750   -26.3370     2.0910    68.3190     6.5990     5.0290     8.6150    24.8230 
   78.5000   -26.5400     2.0900    66.8910     6.6260     5.0200     8.6200    24.8010 
   78.6250   -26.7030     2.0980    67.0570     6.6620     5.0010     8.5100    24.8340 
   78.7500   -26.8070     2.1060    67.8070     6.7010     4.9870     8.5270    24.8290 
   78.8750   -26.9350     2.1080    67.9550     6.7350     4.9880     8.6830    24.7790 
   79.0000   -27.1000     2.1080    67.3500     6.7620     5.0070     8.9300    24.6570 
   79.1250   -27.3100     2.1060    66.5970     6.7910     5.0420     9.1240    24.5420 
   79.2500   -27.5660     2.1020    66.2570     6.8410     5.0860     9.2430    24.4280 
   79.3750   -27.8010     2.0980    65.5800     6.9130     5.1300     9.3800    24.3210 
   79.5000   -28.0040     2.0960    65.4500     6.9850     5.1690     9.5660    24.3410 
   79.6250   -28.2130     2.0970    66.5670     7.0220     5.2010     9.7340    24.4340 
   79.7500   -28.4550     2.0990    68.7640     6.9940     5.2320     9.7820    24.4790 
   79.8750   -28.6380     2.1000    70.8720     6.9220     5.2650     9.7150    24.4580 
   80.0000   -28.7140     2.1020    71.4330     6.8390     5.3050     9.5830    24.4540 
   80.1250   -28.6250     2.1110    69.2940     6.7810     5.3460     9.4670    24.4530 
   80.2500   -28.3490     2.1270    64.5970     6.7760     5.3760     9.5140    24.5600 
   80.3750   -27.9240     2.1430    61.4720     6.8010     5.3850     9.5860    24.6600 
   80.5000   -27.2460     2.1510    61.7770     6.8260     5.3670     9.6010    24.7390 
   80.6250   -26.3550     2.1500    63.3250     6.8220     5.3220     9.5330    24.8130 
   80.7500   -25.2490     2.1430    62.7500     6.7680     5.2540     9.2680    24.8860 
   80.8750   -23.9010     2.1320    62.3270     6.6890     5.1780     8.9790    25.0030 
   81.0000   -22.2240     2.1210    64.0340     6.6170     5.1020     8.7380    25.1710 
   81.1250   -20.3250     2.1110    67.6650     6.5890     5.0410     8.4990    25.3830 
   81.2500   -18.3610     2.1130    70.1930     6.6270     5.0130     8.2880    25.5700 
   81.3750   -16.4980     2.1390    73.5820     6.6840     5.0030     8.1160    25.6210 
   81.5000   -14.9020     2.1950    80.4750     6.6970     4.9790     8.0750    25.4460 
   81.6250   -13.5010     2.2790    90.9780     6.6210     4.9030     7.9880    25.1430 
   81.7500   -12.2700     2.3730    99.8070     6.4770     4.7760     8.1690    24.8150 
   81.8750   -11.3040     2.4370   103.0880     6.4040     4.6850     7.9980    24.4670 
   82.0000   -10.8430     2.4520   102.3330     6.5480     4.7470     6.8690    24.2890 
   82.1250   -10.8120     2.4410   100.9690     7.0030     5.0650     6.8970    24.3560 
   82.2500   -11.0150     2.4420   100.4870     7.7640     5.7100     8.8550    24.4130 
   82.3750   -11.3460     2.4580    97.3720     8.5760     6.5250    11.9940    24.4310 
   82.5000   -11.7980     2.4660    90.4520     9.1790     7.3050    15.0890    24.4240 
   82.6250   -12.2860     2.4410    83.3480     9.3480     7.8070    15.9590    24.4220 
   82.7500   -12.7430     2.3680    81.0230     8.9250     7.7680    13.6410    24.4460 
   82.8750   -13.0860     2.2810    81.9440     8.1590     7.3010    10.3290    24.4790 
   83.0000   -13.1770     2.2160    82.5470     7.3150     6.6180     7.9750    24.4940 
   83.1250   -13.0860     2.1900    83.0060     6.6010     5.9390     6.9080    24.4790 
   83.2500   -12.9580     2.2000    85.1140     6.1450     5.4190     6.5840    24.4350 
   83.3750   -12.8360     2.2270    89.9720     5.9180     5.0700     6.3750    24.4510 
   83.5000   -12.6780     2.2670    95.5490     5.9470     4.9080     6.1220    24.5010 
   83.6250   -12.5920     2.3100    98.6790     6.3080     4.9790     5.9130    24.5700 
   83.7500   -12.7380     2.3420    99.0050     7.1790     5.4230     6.4330    24.6800 
   83.8750   -13.2260     2.3630    97.9200     8.4920     6.2370     8.6450    24.8360 
   84.0000   -14.1810     2.3900    94.1030    10.0700     7.3550    12.9870    24.8740 
   84.1250   -15.4690     2.4320    86.3190    11.5580     8.5720    18.6660    24.7840 
   84.2500   -16.9220     2.4590    77.8060    12.3520     9.4690    23.7910    24.6100 
   84.3750   -18.4200     2.4170    72.0460    12.2070     9.7360    24.7550    24.5220 
