~V
VERS. 2.00: Ver 2.00
~W
STRT.M 60.0000:
STOP.M 282.0000:
STEP.M 0.1250:
NULL. -999.2500:
UWI. F11159:
~C
DEPT.M :
GR.API :
RML.OHMM :
RI. :
RXO.OHMM :
CALI.CM :
SP.MV :
DEN.GM/CC :
~A
# ...
  116.2500    88.8640     9.0780     7.1130    10.5260    23.1510   -18.6000     2.2360 
  116.3750    92.3850     8.9770     7.0940    10.0260    23.0510   -19.7430     2.2030 
  116.5000    93.5920     8.9970     7.0980    11.9050    23.2280   -20.9660     2.1790 
  116.6250    90.7490     9.1950     7.2020    14.6430    23.3160   -22.1940     2.1640 
  116.7500    85.5920     9.4500     7.3560    14.2080    23.2860   -23.3980     2.1560 
  116.8750    80.5780     9.6670     7.4960    12.3770    23.0500   -24.5190     2.1540 
  117.0000    78.3440     9.8190     7.5850    11.5410    22.9520   -25.5920     2.1560 
  117.1250    80.2430     9.9450     7.6380    11.8080    22.9370   -26.5730     2.1570 
  117.2500    82.3080    10.1020     7.7030    12.2690    22.9370   -27.4540     2.1540 
  117.3750    82.3340    10.2920     7.7990    12.8510    22.9370   -28.2520     2.1440 
  117.5000    81.1640    10.4920     7.9230    13.3640    22.9450   -28.9610     2.1280 
  117.6250    79.7930    10.6910     8.0720    13.5090    23.0260   -29.5840     2.1080 
  117.7500    77.9220    10.9060     8.2470    13.4740    23.3290   -30.1480     2.0900 
  117.8750    75.5220    11.1560     8.4530    13.6140    23.5800   -30.6580     2.0770 
  118.0000    74.2380    11.4420     8.6910    14.1230    23.6320   -31.0970     2.0710 
  118.1250    75.6270    11.7400     8.9460    14.9880    23.6350   -31.4560     2.0720 
  118.2500    76.8450    12.0060     9.1880    15.7840    23.6350   -31.7320     2.0750 
  118.3750    75.9510    12.2130     9.3980    16.3500    23.6350   -31.9300     2.0770 
  118.5000    74.0670    12.3580     9.5660    16.6530    23.6350   -32.0560     2.0770 
  118.6250    73.8180    12.4540     9.6890    16.7590    23.6370   -32.0950     2.0770 
  118.7500    74.8480    12.5270     9.7810    16.7490    23.6510   -32.0340     2.0760 
  118.8750    74.1640    12.5700     9.8420    16.7440    23.6950   -31.9230     2.0760 
  119.0000    72.9410    12.5620     9.8610    16.6060    23.7220   -31.7440     2.0780 
  119.1250    74.6620    12.4680     9.8190    16.2560    23.7870   -31.5090     2.0830 
  119.2500    77.7240    12.2990     9.7290    15.8090    23.7960   -31.2070     2.0890 
  119.3750    79.2360    12.0770     9.6090    15.2880    23.7980   -30.8680     2.0960 
  119.5000    77.3260    11.8440     9.4890    14.9090    23.7980   -30.4750     2.1010 
  119.6250    73.7020    11.6500     9.4120    14.8270    23.7980   -30.0400     2.1050 
  119.7500    73.1250    11.5200     9.4040    14.8490    23.7980   -29.5620     2.1070 
  119.8750    75.8780    11.4720     9.4840    14.8880    23.7970   -29.0300     2.1090 
  120.0000    78.9450    11.5210     9.6570    14.9170    23.7910   -28.4120     2.1110 
  120.1250    78.2440    11.6960     9.9320    14.9990    23.7580   -27.7040     2.1160 
  120.2500    75.8060    11.9580    10.2760    15.1240    23.7180   -26.9040     2.1270 
  120.3750    73.2340    12.2170    10.6270    15.2100    23.7120   -25.9950     2.1430 
  120.5000    70.3930    12.3050    10.8620    15.1950    23.7170   -24.9570     2.1640 
  120.6250    67.8460    11.9770    10.7570    14.8610    23.7460   -23.7670     2.1870 
  120.7500    66.8570    11.2480    10.2730    14.5600    23.7950   -22.4760     2.2090 
  120.8750    68.9190    10.2460     9.4830    13.6250    23.8270   -21.1210     2.2280 
  121.0000    74.1440     9.1890     8.5590    11.4190    23.9110   -19.7880     2.2440 
  121.1250    79.1830     8.3150     7.7140     8.8250    23.9200   -18.5620     2.2580 
  121.2500    83.5240     7.6760     7.0410     7.8780    23.8890   -17.4650     2.2740 
  121.3750    85.9650     7.2520     6.5540     8.0310    23.8670   -16.4690     2.2930 
  121.5000    86.5090     7.0410     6.2560     8.1430    23.8690   -15.6370     2.3140 
  121.6250    87.4110     7.1630     6.2330     7.5370    23.9190   -14.9720     2.3370 
  121.7500    86.7730     7.6870     6.5200     7.2860    24.1040   -14.4780     2.3630 
  121.8750    80.4490     8.7250     7.1900     7.7380    24.2410   -14.1250     2.3900 
  122.0000    68.7700    10.3710     8.3250     9.3320    24.2530   -13.8980     2.4150 
  122.1250    61.5400    12.7510    10.1010    14.2630    24.1720   -13.7040     2.4370 
  122.2500    60.3160    15.6680    12.4500    19.9060    24.0190   -13.5530     2.4600 
  122.3750    60.2970    19.0710    15.3400    21.3460    23.9510   -13.4570     2.4900 
  122.5000    58.2350    23.0720    18.7850    19.7340    23.9400   -13.4030     2.5270 
  122.6250    53.6110    28.0100    22.9630    27.2570    23.9400   -13.4000     2.5630 
  122.7500    49.3210    33.6870    27.7220    38.0820    23.9420   -13.4220     2.5850 
  122.8750    46.6360    39.5240    32.7130    43.6130    23.9570   -13.4520     2.5870 
  123.0000    47.0690    44.4150    37.2100    44.5090    24.0400   -13.4770     2.5730 
  123.1250    49.0120    46.6160    39.8780    45.7900    24.2190   -13.5040     2.5560 
  123.2500    49.6720    46.2340    40.4800    42.9140    24.3260   -13.5130     2.5450 
  123.3750    48.7750    44.2880    39.5420    39.6820    24.3850   -13.5090     2.5390 
  123.5000    48.4380    42.0020    37.9370    38.9050    24.4060   -13.4830     2.5370 
  123.6250    49.3670    40.3320    36.4460    38.8460    24.4090   -13.4350     2.5350 
  123.7500    48.0590    39.6840    35.5780    38.2520    24.4090   -13.3820     2.5350 
  123.8750    46.0940    40.2650    35.6360    36.3540    24.4090   -13.3100     2.5390 
  124.0000    47.2600    41.9910    36.6940    35.6110    24.4090   -13.2020     2.5500 
  124.1250    50.5230    44.3130    38.5130    37.9930    24.4090   -13.0830     2.5650 
  124.2500    52.1300    45.9090    40.0990    42.5230    24.4090   -12.9580     2.5790 
  124.3750    51.3900    45.5190    40.3860    44.6660    24.4020   -12.8600     2.5870 
  124.5000    49.6250    42.6000    38.6880    40.4510    24.3720   -12.7560     2.5870 
  124.6250    49.7240    37.9360    35.2480    35.4330    24.2440   -12.6890     2.5820 
  124.7500    52.3480    33.5730    31.6550    29.5730    24.1900   -12.6280     2.5780 
  124.8750    55.4300    30.5460    28.8840    25.3300    24.1800   -12.5900     2.5790 
  125.0000    55.4350    29.0460    27.2990    25.2260    24.1790   -12.5790     2.5850 
  125.1250    53.6190    28.7110    26.8100    27.0690    24.1730   -12.6160     2.5880 
  125.2500    53.4860    28.5520    26.6370    28.8410    24.1730   -12.6800     2.5840 
  125.3750    53.9020    27.9800    26.2350    27.2260    24.1680   -12.7620     2.5690 
  125.5000    52.4830    26.8420    25.3680    24.6890    24.1490   -12.8780     2.5500 
  125.6250    48.3360    25.4970    24.2290    22.1640    24.0760   -13.0130     2.5350 
  125.7500    44.8600    24.5490    23.3200    20.5200    23.8840   -13.1440     2.5290 
  125.8750    44.5600    24.2740    22.9300    20.2650    23.6860   -13.2930     2.5290 
  126.0000    47.1850    24.5770    23.0680    22.5670    23.3280   -13.4460     2.5330 
  126.1250    51.0970    25.0140    23.4440    24.2060    23.0660   -13.5860     2.5360 
  126.2500    52.8430    25.0280    23.5470    24.4490    23.0210   -13.6990     2.5370 
  126.3750    52.1860    24.3640    23.0780    22.7580    23.0130   -13.7940     2.5330 
  126.5000    51.4190    23.1040    22.0260    21.1500    23.0180   -13.8610     2.5190 
  126.6250    52.4050    21.6130    20.6500    19.1740    23.1020   -13.9080     2.4870 
  126.7500    55.3530    20.3380    19.3820    17.7370    23.4790   -13.9800     2.4390 
  126.8750    58.5680    19.4620    18.4240    16.8380    24.0150   -14.0330     2.3870 
  127.0000    60.6820    18.9880    17.8230    16.0470    24.2180   -14.1110     2.3420 
  127.1250    59.4410    18.8590    17.5690    15.8670    24.2790   -14.1540     2.3210 
  127.2500    55.5670    18.8930    17.5170    16.2720    24.4400   -14.2240     2.3250 
  127.3750    51.7210    18.9850    17.5730    16.9120    24.5580   -14.2940     2.3470 
