~V
VERS. 2.00: Ver 2.00
~W
STRT.M 50.0000:
STOP.M 170.0000:
STEP.M 0.1250:
NULL. -999.2500:
UWI. F11116:
~C
DEPT.M :
SP.MV :
DEN.GM/CC :
GR.API :
RML.OHMM :
RI. :
RXO.OHMM :
CALI.CM :
~A
# ...
  140.0000    -6.0710     2.5000    60.5880    20.4090    17.8890    19.7010    25.0660 
  140.1250    -6.0400     2.5100    61.0490    21.4690    18.7450    22.8410    25.0640 
  140.2500    -6.0280     2.5060    60.5050    21.8860    19.1430    22.8410    25.0560 
  140.3750    -6.0360     2.4930    60.1370    21.6670    19.0480    21.4410    25.0390 
  140.5000    -6.0710     2.4780    60.9860    21.0830    18.6330    19.3800    25.0170 
  140.6250    -6.1340     2.4690    61.4480    20.5420    18.1910    17.3540    25.0040 
  140.7500    -6.2080     2.4660    60.7290    20.2840    17.9320    16.8500    24.9990 
  140.8750    -6.2890     2.4670    60.4800    20.3270    17.9010    17.4390    24.9980 
  141.0000    -6.3670     2.4750    61.6530    20.5410    18.0290    18.2900    24.9980 
  141.1250    -6.4310     2.4880    62.2170    20.6540    18.1300    19.1830    25.0010 
  141.2500    -6.4840     2.5030    60.8010    20.4470    18.0210    19.0150    25.0110 
  141.3750    -6.5230     2.5180    59.7030    19.8500    17.6370    18.3500    25.0270 
  141.5000    -6.5460     2.5320    60.2070    18.9730    17.0450    17.4400    25.0510 
  141.6250    -6.5380     2.5450    61.0430    18.0960    16.4390    16.1970    25.0790 
  141.7500    -6.5020     2.5520    61.1530    17.4890    16.0140    15.4250    25.1040 
  141.8750    -6.4340     2.5460    59.3900    17.2580    15.8440    15.5180    25.1160 
  142.0000    -6.3430     2.5240    55.8860    17.3480    15.8970    15.9420    25.1150 
  142.1250    -6.2460     2.4920    54.3860    17.5970    16.0610    16.8060    25.1100 
  142.2500    -6.1560     2.4670    56.9520    17.7620    16.1620    17.0270    25.1140 
  142.3750    -6.0800     2.4560    59.1910    17.6950    16.0950    16.9070    25.1270 
  142.5000    -6.0250     2.4640    57.4400    17.3640    15.8310    15.9250    25.1390 
  142.6250    -6.0060     2.4890    52.8750    16.8300    15.4130    14.7170    25.1460 
  142.7500    -6.0070     2.5180    50.0510    16.2660    14.9720    14.6400    25.1570 
  142.8750    -6.0080     2.5380    50.3290    15.7930    14.6020    14.3140    25.1790 
  143.0000    -6.0030     2.5430    52.7690    15.5020    14.3670    13.5470    25.1980 
  143.1250    -6.0020     2.5390    55.9070    15.4750    14.3010    12.7470    25.1930 
  143.2500    -6.0100     2.5340    57.9210    15.6280    14.3350    13.5590    25.1710 
  143.3750    -6.0370     2.5270    59.6130    15.8750    14.4150    15.1290    25.1490 
  143.5000    -6.0960     2.5130    61.6370    16.1260    14.5090    16.6870    25.1440 
  143.6250    -6.1930     2.4850    61.4740    16.3070    14.6190    16.2620    25.1630 
  143.7500    -6.3310     2.4550    61.1430    16.4400    14.7630    15.3510    25.1820 
  143.8750    -6.4930     2.4320    61.3960    16.5730    14.9530    14.9140    25.1830 
  144.0000    -6.6460     2.4280    62.9500    16.7330    15.1710    15.1730    25.1660 
  144.1250    -6.7470     2.4380    65.8760    16.8620    15.3510    16.1400    25.1500 
  144.2500    -6.7840     2.4420    67.3310    16.8630    15.4220    16.4530    25.1420 
  144.3750    -6.7510     2.4350    66.3840    16.6760    15.3460    15.7760    25.1410 
  144.5000    -6.6540     2.4250    64.4900    16.3200    15.1450    15.1160    25.1430 
  144.6250    -6.5040     2.4260    64.3120    15.9300    14.9170    14.8000    25.1370 
  144.7500    -6.3360     2.4390    63.9180    15.6960    14.7800    14.7280    25.1200 
  144.8750    -6.1800     2.4570    61.2800    15.7350    14.8010    14.7930    25.1000 
  145.0000    -6.0670     2.4700    57.9550    16.1040    15.0090    15.3890    25.0850 
  145.1250    -5.9910     2.4750    56.3150    16.8080    15.4160    16.7180    25.0580 
  145.2500    -5.9280     2.4790    56.8870    17.6490    15.9270    18.2260    25.0290 
  145.3750    -5.8690     2.4850    59.5100    18.4350    16.4430    18.8220    25.0250 
  145.5000    -5.8040     2.4930    62.9480    18.9950    16.8590    19.0000    25.0560 
  145.6250    -5.7240     2.4990    63.8450    19.2050    17.0710    19.2350    25.0850 
  145.7500    -5.6400     2.5020    62.6920    19.1900    17.1150    19.2130    25.0960 
  145.8750    -5.5590     2.5010    62.9830    19.0920    17.0600    18.0440    25.1070 
  146.0000    -5.4920     2.4940    67.7660    19.0350    16.9920    17.2460    25.1240 
  146.1250    -5.4550     2.4800    71.3810    19.0910    16.9910    18.2710    25.1340 
  146.2500    -5.4520     2.4670    68.0260    19.2190    17.0660    19.2270    25.1370 
  146.3750    -5.4690     2.4610    61.7350    19.3600    17.1890    19.3350    25.1390 
  146.5000    -5.5080     2.4690    57.7530    19.4590    17.3180    20.0810    25.1430 
  146.6250    -5.5740     2.4870    56.0160    19.4850    17.4000    19.4750    25.1450 
  146.7500    -5.6610     2.5040    56.2540    19.4770    17.4220    18.5340    25.1440 
  146.8750    -5.7570     2.5110    59.7440    19.4880    17.3960    17.8670    25.1430 
  147.0000    -5.8510     2.5040    63.8130    19.5420    17.3410    17.4020    25.1450 
  147.1250    -5.9220     2.4810    65.0170    19.6160    17.2690    17.8150    25.1460 
  147.2500    -5.9720     2.4540    65.3310    19.6470    17.1890    18.5020    25.1430 
  147.3750    -6.0060     2.4310    65.5240    19.6280    17.1250    18.9670    25.1410 
  147.5000    -6.0260     2.4190    64.2030    19.6040    17.1030    18.4010    25.1480 
  147.6250    -6.0470     2.4200    61.2060    19.6490    17.1440    17.9950    25.1670 
  147.7500    -6.0770     2.4290    58.6490    19.7680    17.2240    17.8030    25.1850 
  147.8750    -6.1260     2.4380    57.2150    19.9250    17.3170    18.1720    25.1930 
  148.0000    -6.1930     2.4440    58.2140    20.0630    17.3920    18.8050    25.1920 
  148.1250    -6.2480     2.4470    61.4500    20.1440    17.4320    19.0270    25.1950 
  148.2500    -6.2700     2.4460    63.6390    20.2030    17.4510    19.0100    25.1970 
  148.3750    -6.2380     2.4420    64.1890    20.3020    17.4830    18.9840    25.1970 
  148.5000    -6.1480     2.4350    64.1870    20.4870    17.5590    18.8870    25.1970 
  148.6250    -6.0040     2.4330    64.2840    20.7750    17.6940    19.4890    25.2010 
  148.7500    -5.8440     2.4390    63.2930    21.0820    17.8340    20.2360    25.2050 
  148.8750    -5.6840     2.4510    60.3990    21.2910    17.9030    21.1140    25.2060 
  149.0000    -5.5200     2.4610    58.9050    21.2850    17.8170    20.8630    25.2040 
  149.1250    -5.3660     2.4550    61.7300    20.9680    17.4820    19.7800    25.2010 
  149.2500    -5.2460     2.4370    65.7510    20.4440    16.9660    18.7270    25.2010 
  149.3750    -5.1610     2.4170    67.2510    19.8290    16.3800    18.6290    25.2030 
  149.5000    -5.1060     2.4020    65.6990    19.2680    15.8570    17.9080    25.2040 
  149.6250    -5.0620     2.4010    62.4340    18.9020    15.5680    17.1390    25.2010 
  149.7500    -5.0240     2.4080    60.6800    18.7330    15.5520    16.9390    25.2000 
  149.8750    -5.0170     2.4250    61.5440    18.7240    15.7880    18.0490    25.2010 
  150.0000    -5.0470     2.4480    63.6250    18.7960    16.1800    20.0840    25.2030 
  150.1250    -5.0850     2.4630    63.1860    18.8180    16.5620    21.4660    25.2010 
  150.2500    -5.1020     2.4620    62.3680    18.6990    16.7810    21.6770    25.1970 
  150.3750    -5.1010     2.4430    65.2130    18.4140    16.7570    21.2060    25.1950 
  150.5000    -5.0970     2.4140    69.8500    17.9580    16.4680    20.1360    25.1960 
  150.6250    -5.1020     2.3830    71.5650    17.2120    15.8580    18.4520    25.1960 
  150.7500    -5.1070     2.3560    69.9130    16.0600    14.8890    16.5110    25.1960 
  150.8750    -5.0840     2.3320    67.0970    14.3710    13.4640    14.3500    25.1980 
  151.0000    -5.0320     2.3120    65.6270    12.1790    11.6040    13.2330    25.1910 
  151.1250    -4.9690     2.3030    68.0900     9.7810     9.5330    12.2440    25.1490 
