~V
VERS. 2.00: Ver 2.00
~W
STRT.M 50.0000:
STOP.M 265.0000:
STEP.M 0.1250:
NULL. -999.2500:
UWI. F11185:
~C
DEPT.M :
SP.MV :
GR.API :
RI. :
RML.OHMM :
RXO.OHMM :
DEN.GM/CC :
~A
# ...
  101.5000  -106.9140    84.9290     3.5960     4.0400     3.9730     2.1990 
  101.6250  -106.8540    83.1760     3.4860     3.9250     3.7080     2.2300 
  101.7500  -106.7270    84.3960     3.3580     3.7920     3.5130     2.2830 
  101.8750  -106.5050    86.5600     3.3180     3.7500     3.5020     2.3300 
  102.0000  -106.2390    87.8610     3.3570     3.7910     3.6030     2.3420 
  102.1250  -106.1370    88.3090     3.4720     3.9110     3.7300     2.3080 
  102.2500  -106.2390    88.0020     3.6460     4.0910     3.8490     2.2630 
  102.3750  -106.4580    86.0040     3.8070     4.2590     3.9290     2.2450 
  102.5000  -106.7110    82.9250     3.9310     4.3880     3.9960     2.2470 
  102.6250  -106.8620    79.7390     3.9860     4.4460     4.0870     2.2440 
  102.7500  -106.8800    79.0430     3.9890     4.4490     4.1580     2.2380 
  102.8750  -106.8490    80.8150     3.9820     4.4410     4.1900     2.2420 
  103.0000  -106.9050    81.9930     3.9890     4.4490     4.4010     2.2450 
  103.1250  -107.0940    80.8950     4.0200     4.4810     4.7860     2.2300 
  103.2500  -107.3460    80.3440     4.1310     4.5960     5.1020     2.2050 
  103.3750  -107.6270    82.4370     4.2880     4.7590     5.5700     2.2030 
  103.5000  -108.0300    84.3800     4.4210     4.8980     6.2880     2.2470 
  103.6250  -108.5730    82.6930     4.5850     5.0680     6.9860     2.3170 
  103.7500  -109.1130    77.7480     4.8010     5.2930     6.9060     2.3430 
  103.8750  -109.4750    75.1380     5.0800     5.5840     5.9790     2.3010 
  104.0000  -109.6690    76.3270     5.4070     5.9230     5.2170     2.2520 
  104.1250  -109.9870    78.6470     5.7370     6.2660     5.1330     2.2380 
  104.2500  -110.6520    77.1670     5.9360     6.4730     5.6200     2.2290 
  104.3750  -111.5440    70.3740     5.9930     6.5330     6.2830     2.2010 
  104.5000  -112.4380    62.8050     5.9260     6.4630     6.5630     2.1740 
  104.6250  -113.2400    58.5200     5.7350     6.2650     6.5880     2.1680 
  104.7500  -113.9230    59.2130     5.5840     6.1070     6.7290     2.1670 
  104.8750  -114.4170    61.6710     5.4770     5.9970     6.8510     2.1550 
  105.0000  -114.8080    61.4380     5.4250     5.9420     6.8230     2.1410 
  105.1250  -115.1140    60.2940     5.4970     6.0170     6.6520     2.1420 
  105.2500  -115.2900    60.7570     5.6600     6.1860     6.4480     2.1700 
  105.3750  -115.3440    62.8520     5.8970     6.4330     6.5100     2.2310 
  105.5000  -115.3780    63.7120     6.1380     6.6830     6.6200     2.2900 
  105.6250  -115.5110    63.3570     6.2370     6.7870     6.2290     2.2890 
  105.7500  -115.7630    62.5130     6.1340     6.6800     5.6430     2.2240 
  105.8750  -116.2260    60.3230     5.8710     6.4060     5.5000     2.1520 
  106.0000  -116.8370    57.3150     5.5450     6.0670     5.6380     2.1230 
  106.1250  -117.4200    55.1860     5.3230     5.8360     5.5590     2.1310 
  106.2500  -117.8630    54.8870     5.2460     5.7560     5.5720     2.1400 
  106.3750  -118.1170    55.5310     5.2880     5.8000     5.6920     2.1370 
  106.5000  -118.1880    56.2560     5.3740     5.8890     5.7570     2.1270 
  106.6250  -118.2090    55.1460     5.4810     6.0000     5.7960     2.1250 
  106.7500  -118.3050    53.9500     5.5740     6.0970     5.8790     2.1260 
  106.8750  -118.4170    55.5780     5.6210     6.1460     5.9860     2.1230 
  107.0000  -118.4470    58.4580     5.6210     6.1460     5.9800     2.1170 
  107.1250  -118.3540    58.7970     5.5750     6.0980     5.8420     2.1150 
  107.2500  -118.1850    56.9420     5.5000     6.0200     5.7290     2.1150 
  107.3750  -118.0460    56.5250     5.4320     5.9490     5.7130     2.1170 
  107.5000  -117.8890    57.9000     5.4100     5.9270     5.7290     2.1200 
  107.6250  -117.6360    58.4350     5.4820     6.0010     5.7200     2.1190 
  107.7500  -117.2830    57.9560     5.6540     6.1800     5.7060     2.1150 
  107.8750  -116.8780    57.8650     6.0040     6.5440     6.1470     2.1310 
  108.0000  -116.4470    59.9320     6.4730     7.0320     8.3530     2.1990 
  108.1250  -115.9140    61.3370     6.9790     7.5580    13.2590     2.3270 
  108.2500  -115.2030    59.1960     7.3710     7.9660    18.2250     2.4600 
  108.3750  -114.4750    55.1560     7.4750     8.0740    19.9810     2.5280 
  108.5000  -114.1030    52.8910     7.2890     7.8810    18.7270     2.5170 
  108.6250  -114.1900    53.1240     6.8780     7.4530    15.3400     2.4380 
  108.7500  -114.4970    54.6340     6.3980     6.9540    11.0750     2.3210 
  108.8750  -114.8180    57.2540     5.9830     6.5220     7.8480     2.2120 
  109.0000  -115.0320    60.4530     5.6720     6.1990     6.4010     2.1460 
  109.1250  -115.1040    61.0340     5.5050     6.0250     6.0650     2.1270 
  109.2500  -115.1320    58.3420     5.4460     5.9640     6.0130     2.1270 
  109.3750  -115.1220    56.2840     5.4550     5.9730     6.0060     2.1340 
  109.5000  -115.0590    56.9360     5.4870     6.0060     5.9600     2.1420 
  109.6250  -114.9820    57.6100     5.5060     6.0260     5.8840     2.1420 
  109.7500  -114.9370    56.9250     5.4990     6.0190     5.8500     2.1390 
  109.8750  -114.9410    57.0000     5.4520     5.9700     5.8870     2.1420 
  110.0000  -114.9950    57.6390     5.3760     5.8910     5.9060     2.1440 
  110.1250  -115.0700    56.8570     5.3190     5.8320     5.8120     2.1450 
  110.2500  -115.0660    57.1280     5.2930     5.8050     5.7450     2.1530 
  110.3750  -114.9790    61.7290     5.3190     5.8320     5.8520     2.1690 
  110.5000  -114.9100    65.6060     5.4020     5.9180     6.0890     2.1740 
  110.6250  -114.9030    64.1700     5.5050     6.0250     6.2480     2.1660 
  110.7500  -114.9570    61.2150     5.6170     6.1420     5.8910     2.1570 
  110.8750  -115.0760    59.8940     5.6880     6.2150     5.7840     2.1520 
  111.0000  -115.2500    59.3600     5.6980     6.2260     5.7680     2.1490 
  111.1250  -115.4590    58.4110     5.6720     6.1990     5.8180     2.1440 
  111.2500  -115.6590    57.8320     5.6370     6.1620     5.8430     2.1410 
  111.3750  -115.8570    58.9610     5.6130     6.1380     5.8480     2.1360 
  111.5000  -115.9680    59.5520     5.6000     6.1240     5.9070     2.1290 
  111.6250  -116.0320    59.6580     5.6110     6.1360     5.9810     2.1200 
  111.7500  -116.1230    58.3660     5.6390     6.1640     6.0050     2.1160 
  111.8750  -116.2660    58.2450     5.6850     6.2120     6.0130     2.1190 
  112.0000  -116.3890    58.6420     5.7370     6.2660     6.0540     2.1280 
  112.1250  -116.4280    59.7730     5.7840     6.3160     6.1040     2.1370 
  112.2500  -116.3680    61.3860     5.8510     6.3850     6.1280     2.1460 
  112.3750  -116.2540    61.7100     5.9180     6.4550     6.1510     2.1580 
  112.5000  -116.1380    60.3990     5.9680     6.5070     6.1980     2.1670 
  112.6250  -116.0260    59.0990     5.9910     6.5310     6.2410     2.1660 
  112.7500  -115.8800    59.3930     5.9710     6.5100     6.2450     2.1590 
  112.8750  -115.6910    60.3060     5.9010     6.4370     6.1810     2.1550 
  113.0000  -115.5310    61.3430     5.7580     6.2880     6.0650     2.1570 
  113.1250  -115.4590    62.7390     5.5860     6.1090     5.9470     2.1590 
  113.2500  -115.4720    65.1330     5.4530     5.9710     5.8170     2.1560 
  113.3750  -115.5240    65.9030     5.4040     5.9200     5.7240     2.1480 
  113.5000  -115.6290    64.5070     5.4570     5.9750     5.8360     2.1410 
  113.6250  -115.8120    63.5530     5.5710     6.0940     6.2100     2.1480 
  113.7500  -116.0590    64.3350     5.6800     6.2070     6.5310     2.1640 
  113.8750  -116.3140    64.6570     5.7550     6.2850     6.4600     2.1690 
  114.0000  -116.4450    61.3040     5.7570     6.2870     6.1910     2.1580 
  114.1250  -116.4150    56.3710     5.6970     6.2250     6.0100     2.1390 
  114.2500  -116.3590    56.1670     5.6230     6.1480     5.9240     2.1280 
