~V
VERS. 2.00: Ver 2.00
~W
STRT.M 50.0000:
STOP.M 243.0000:
STEP.M 0.1250:
NULL. -999.2500:
UWI. F11115:
~C
DEPT.M :
DEN.GM/CC :
GR.API :
RML.OHMM :
RI. :
RXO.OHMM :
CALI.CM :
SP.MV :
~A
# ...
  185.0000     2.1590    44.7610     5.5930     6.0170     4.8590    25.9600   -18.4040 
  185.1250     2.0730    45.9700     5.7130     5.8790     4.7410    25.3830   -18.6040 
  185.2500     1.9890    46.1810     5.9000     5.7610     4.7240    24.8970   -18.8000 
  185.3750     1.9420    44.4650     6.0950     5.6770     4.8970    25.0830   -18.9860 
  185.5000     1.9510    42.3600     6.2570     5.6360     5.0720    25.9220   -19.1630 
  185.6250     2.0180    43.4950     6.3990     5.6450     5.4400    26.6360   -19.3540 
  185.7500     2.1050    46.9070     6.5520     5.6980     5.8640    26.7150   -19.5850 
  185.8750     2.1800    50.2990     6.7230     5.7920     6.3270    26.2470   -19.8730 
  186.0000     2.2240    52.4360     6.8840     5.9110     6.8210    25.5440   -20.2340 
  186.1250     2.2300    53.0210     6.9480     6.0100     6.8850    24.8780   -20.6900 
  186.2500     2.2260    51.3760     6.8820     6.0430     6.3790    24.4660   -21.2110 
  186.3750     2.2310    49.4540     6.6990     5.9750     5.8840    24.2870   -21.7670 
  186.5000     2.2540    49.8480     6.4520     5.8110     5.4420    24.1100   -22.3220 
  186.6250     2.2850    51.4280     6.2080     5.5840     5.1220    23.8460   -22.8560 
  186.7500     2.3040    50.9930     5.9960     5.3640     4.9320    23.5960   -23.3540 
  186.8750     2.3030    48.6520     5.8180     5.1910     4.9640    23.3680   -23.8100 
  187.0000     2.2900    47.6540     5.6730     5.0910     5.2920    23.1230   -24.2110 
  187.1250     2.2770    50.6130     5.5800     5.0760     5.7090    22.8610   -24.5360 
  187.2500     2.2730    54.6180     5.5580     5.1070     5.7300    22.6260   -24.7960 
  187.3750     2.2830    58.1850     5.6210     5.1490     5.4400    22.4260   -24.9900 
  187.5000     2.3040    62.2140     5.7560     5.1840     5.1650    22.2220   -25.1360 
  187.6250     2.3240    67.5540     5.9120     5.2070     4.9100    21.9930   -25.2890 
  187.7500     2.3320    74.0380     6.0190     5.2240     4.7530    21.7890   -25.5020 
  187.8750     2.3260    81.4810     6.0430     5.2350     4.6550    21.6760   -25.8060 
  188.0000     2.3060    87.3410     5.9810     5.2370     4.6510    21.7640   -26.2090 
  188.1250     2.2760    88.6300     5.8810     5.2160     4.6240    22.1310   -26.7230 
  188.2500     2.2440    88.8300     5.8230     5.1770     4.4930    22.5460   -27.3160 
  188.3750     2.2130    91.9760     5.8530     5.1390     4.2810    22.8010   -27.9680 
  188.5000     2.1810    96.7800     5.9770     5.1290     4.2920    22.8940   -28.6450 
  188.6250     2.1510    99.6730     6.1790     5.1740     4.3650    23.0890   -29.3040 
  188.7500     2.1310   102.0830     6.3880     5.2540     4.6970    23.5620   -29.9370 
  188.8750     2.1290   104.3180     6.5400     5.3410     5.0100    24.1190   -30.5390 
  189.0000     2.1510   103.8550     6.6060     5.4080     4.9500    24.4220   -31.1030 
  189.1250     2.1940    99.9430     6.6060     5.4440     4.5380    24.3850   -31.6050 
  189.2500     2.2410    95.8300     6.6170     5.4770     4.4430    24.3530   -32.0510 
  189.3750     2.2780    93.4590     6.7060     5.5460     4.8860    24.4550   -32.4650 
  189.5000     2.3030    92.3150     6.9420     5.6920     5.5840    24.5590   -32.8530 
  189.6250     2.3250    89.9130     7.4250     5.9860     6.2540    24.5490   -33.1740 
  189.7500     2.3510    85.8490     8.1600     6.4580     6.9720    24.5110   -33.3990 
  189.8750     2.3760    81.6300     9.1600     7.1340     7.9720    24.4720   -33.4980 
  190.0000     2.3960    77.4920    10.3690     7.9830     9.5570    24.4150   -33.4520 
  190.1250     2.4030    72.6170    11.5440     8.8580    12.2700    24.3460   -33.2270 
  190.2500     2.4010    68.9890    12.3290     9.5310    14.5390    24.3350   -32.8620 
  190.3750     2.3910    69.6010    12.5050     9.8440    14.9490    24.3980   -32.3760 
  190.5000     2.3770    74.0440    12.1020     9.7680    12.4970    24.4740   -31.8060 
  190.6250     2.3610    78.5960    11.3760     9.3940    10.2400    24.4960   -31.2140 
  190.7500     2.3440    81.4590    10.6850     8.9400     9.6130    24.4840   -30.6200 
  190.8750     2.3260    84.1830    10.1390     8.4860    10.2110    24.4670   -30.0180 
  191.0000     2.3030    87.0390     9.6820     8.0290    10.3780    24.4500   -29.4000 
  191.1250     2.2780    90.9790     9.1440     7.5280     9.2430    24.4300   -28.7440 
  191.2500     2.2580    94.9030     8.4710     6.9930     7.7230    24.3890   -28.0490 
  191.3750     2.2560    95.9340     7.7580     6.4860     6.7130    24.2700   -27.3250 
  191.5000     2.2800    92.4810     7.1950     6.0950     6.1420    24.0410   -26.6030 
  191.6250     2.3260    85.6210     7.0630     5.9560     5.9300    23.7650   -25.9240 
  191.7500     2.3700    81.8830     7.4070     6.0840     6.4010    23.5570   -25.3170 
  191.8750     2.3990    83.2290     8.1650     6.4690     7.8210    23.5020   -24.7940 
  192.0000     2.4110    86.9870     9.1430     7.0490     9.4230    23.6160   -24.3610 
  192.1250     2.4150    89.3390     9.9920     7.6600    10.7610    23.8100   -24.0260 
  192.2500     2.4200    90.6340    10.4060     8.0770    10.9840    23.9580   -23.7500 
  192.3750     2.4260    91.8070    10.2450     8.1560    10.6200    24.0360   -23.4880 
  192.5000     2.4260    90.5640     9.5760     7.8770    10.2260    24.0870   -23.2050 
  192.6250     2.4140    83.9630     8.6120     7.3160     9.3830    24.1190   -22.8640 
  192.7500     2.3910    75.9180     7.6500     6.6790     7.9620    24.1130   -22.4650 
  192.8750     2.3620    70.0550     6.8450     6.0960     6.4230    24.0760   -22.0230 
  193.0000     2.3230    67.8990     6.2820     5.6400     5.5030    24.0670   -21.5450 
  193.1250     2.2720    67.6710     6.0020     5.3520     5.2110    24.1860   -21.0260 
  193.2500     2.2180    65.8110     5.8880     5.1920     4.9640    24.4160   -20.4840 
  193.3750     2.1720    60.4390     5.8620     5.1240     4.8270    24.6530   -19.9300 
  193.5000     2.1500    54.7470     5.8490     5.0970     4.8250    24.7620   -19.3720 
  193.6250     2.1680    54.7020     5.7990     5.0570     4.8790    24.6410   -18.8480 
  193.7500     2.2170    58.2920     5.7200     4.9730     4.8070    24.3980   -18.3880 
  193.8750     2.2750    61.8680     5.6310     4.8580     4.6170    24.1980   -18.0240 
  194.0000     2.3210    64.8160     5.5490     4.7490     4.4690    24.1590   -17.7710 
  194.1250     2.3440    71.3530     5.4750     4.7110     4.4680    24.2700   -17.6680 
  194.2500     2.3530    78.7880     5.4250     4.7610     4.7280    24.3960   -17.6910 
  194.3750     2.3540    82.2800     5.4380     4.8820     5.0570    24.4630   -17.8240 
  194.5000     2.3480    81.5420     5.5380     5.0250     5.3080    24.4670   -18.0330 
  194.6250     2.3390    79.9230     5.7060     5.1190     5.5410    24.4350   -18.2700 
  194.7500     2.3320    79.3710     5.8340     5.1290     5.7080    24.4010   -18.4960 
  194.8750     2.3280    79.7330     5.8280     5.0570     5.7140    24.3890   -18.6900 
  195.0000     2.3260    81.7120     5.6590     4.9300     5.4710    24.3940   -18.8650 
  195.1250     2.3260    83.3440     5.3880     4.7970     5.0850    24.3530   -19.0390 
  195.2500     2.3290    82.6780     5.1660     4.6950     4.6720    24.2560   -19.2300 
  195.3750     2.3390    81.5010     5.0740     4.6300     4.6140    24.1440   -19.4480 
  195.5000     2.3560    81.8030     5.1370     4.6140     4.9450    24.0680   -19.7070 
  195.6250     2.3710    81.9540     5.3530     4.6810     5.3050    24.0920   -20.0380 
  195.7500     2.3780    82.3060     5.6450     4.8350     5.5090    24.2020   -20.4330 
  195.8750     2.3750    85.5130     5.9710     5.0670     5.7640    24.3250   -20.8830 
  196.0000     2.3710    89.2540     6.3070     5.3430     6.3460    24.3880   -21.3640 
  196.1250     2.3760    88.4590     6.6440     5.6140     7.2530    24.3860   -21.8540 
