~V
VERS. 2.00: Ver 2.00
~W
STRT.M 50.0000:
STOP.M 264.0000:
STEP.M 0.1250:
NULL. -999.2500:
UWI. F11182:
~C
DEPT.M :
SP.MV :
GR.API :
RI. :
RML.OHMM :
RXO.OHMM :
DEN.GM/CC :
~A
# ...
  101.5000   -16.5680    78.2060     4.1510     4.5220     4.2740     2.2520 
  101.6250   -16.5520    76.5010     4.2880     4.6990     3.9510     2.2390 
  101.7500   -16.5160    78.1920     4.4110     4.8550     3.9230     2.2100 
  101.8750   -16.4190    78.3130     4.6920     5.1930     4.0090     2.1440 
  102.0000   -16.3320    76.2060     4.9300     5.4890     4.1980     2.1090 
  102.1250   -16.1890    71.5550     5.3600     6.0270     4.8820     2.0960 
  102.2500   -16.0960    69.4240     5.6230     6.3650     5.1660     2.1050 
  102.3750   -15.9730    66.4970     5.8940     6.6870     5.1760     2.1110 
  102.5000   -15.9010    66.1450     5.9800     6.7660     5.1640     2.1090 
  102.6250   -15.7950    69.1560     5.9550     6.6890     5.2840     2.1100 
  102.7500   -15.7140    70.8590     5.8890     6.5920     5.3530     2.1100 
  102.8750   -15.5660    69.7710     5.8510     6.5610     5.3310     2.1010 
  103.0000   -15.4520    67.5890     5.8660     6.5910     5.3380     2.0960 
  103.1250   -15.2720    64.5680     5.8750     6.6190     5.5070     2.0980 
  103.2500   -15.1580    62.0280     5.8640     6.6140     5.7520     2.1000 
  103.3750   -15.0130    58.9550     5.8270     6.5840     6.1430     2.0920 
  103.5000   -14.9450    58.6980     5.7980     6.5520     6.2500     2.0840 
  103.6250   -14.8870    60.8600     5.7580     6.5070     6.1800     2.0840 
  103.7500   -14.8750    61.8910     5.7310     6.4840     6.1210     2.0900 
  103.8750   -14.8780    63.5640     5.7050     6.4580     6.0700     2.0990 
  104.0000   -14.8860    63.7070     5.6970     6.4510     6.0050     2.1050 
  104.1250   -14.8990    61.9170     5.6960     6.4480     5.9750     2.1130 
  104.2500   -14.9080    60.4350     5.6900     6.4310     6.0100     2.1130 
  104.3750   -14.9230    59.9740     5.6780     6.3920     6.0150     2.1080 
  104.5000   -14.9350    59.6310     5.6760     6.3670     5.8870     2.1150 
  104.6250   -14.9620    58.6280     5.6780     6.3290     5.6780     2.1400 
  104.7500   -14.9870    59.1930     5.6730     6.3050     5.7480     2.1510 
  104.8750   -15.0390    60.5730     5.6610     6.2820     6.0060     2.1330 
  105.0000   -15.0850    60.3850     5.6520     6.2550     6.0440     2.1110 
  105.1250   -15.1790    61.3850     5.5080     6.0530     5.8840     2.0960 
  105.2500   -15.2670    62.3960     5.3400     5.8250     5.8990     2.1080 
  105.3750   -15.4480    60.7060     5.0160     5.4070     5.9080     2.1430 
  105.5000   -15.6010    59.0440     4.8000     5.1420     5.3280     2.1590 
  105.6250   -15.8650    62.3950     4.5380     4.8210     4.2660     2.1570 
  105.7500   -16.0470    68.6150     4.3680     4.6160     4.3300     2.1560 
  105.8750   -16.3000    75.5580     4.1040     4.3020     4.9080     2.1850 
  106.0000   -16.4440    76.6810     3.9320     4.0970     4.7980     2.2150 
  106.1250   -16.6170    76.8380     3.7190     3.8590     3.9930     2.2310 
  106.2500   -16.7020    78.5710     3.6510     3.7870     3.5890     2.2180 
  106.3750   -16.7820    82.4570     3.6530     3.8210     3.4230     2.1840 
  106.5000   -16.7990    83.8530     3.7430     3.9490     3.6690     2.1690 
  106.6250   -16.7670    80.5170     3.9100     4.1610     4.3770     2.1750 
  106.7500   -16.7060    77.4890     3.9420     4.1890     4.5020     2.1970 
  106.8750   -16.5570    77.8240     3.8070     4.0090     4.1220     2.2340 
  107.0000   -16.4210    82.5490     3.6440     3.8100     3.6900     2.2430 
  107.1250   -16.1690    89.6130     3.5140     3.6520     3.0930     2.2230 
  107.2500   -15.9820    90.1400     3.6630     3.8510     3.0040     2.2090 
  107.3750   -15.7020    83.7080     4.3530     4.7260     3.7940     2.2270 
  107.5000   -15.5320    77.0310     5.1750     5.7510     4.9040     2.2530 
  107.6250   -15.3180    71.2110     6.5120     7.3690     6.5290     2.2390 
  107.7500   -15.2040    70.2530     7.1740     8.1140     7.3280     2.1830 
  107.8750   -15.0690    70.0670     7.5560     8.4250     7.4390     2.0940 
  108.0000   -15.0020    67.2660     7.3290     8.0650     6.6360     2.0630 
  108.1250   -14.9420    62.1650     6.7280     7.2700     5.7230     2.0640 
  108.2500   -14.9370    60.1850     6.3150     6.7890     5.6670     2.0820 
  108.3750   -14.9980    62.2920     5.8860     6.3260     5.7370     2.1100 
  108.5000   -15.0860    64.3170     5.6790     6.1120     5.7580     2.1150 
  108.6250   -15.2750    66.1020     5.4310     5.8600     5.6080     2.1080 
  108.7500   -15.4190    65.3260     5.3020     5.7290     5.3750     2.1070 
  108.8750   -15.6170    64.4280     5.1720     5.6040     5.0500     2.1100 
  109.0000   -15.7140    64.9910     5.1630     5.6070     4.9950     2.1100 
  109.1250   -15.7790    67.4630     5.2250     5.6750     5.0820     2.1000 
  109.2500   -15.7680    68.5340     5.2920     5.7390     5.1330     2.0910 
  109.3750   -15.6860    66.1180     5.3840     5.8240     5.2400     2.0890 
  109.5000   -15.6030    64.6040     5.4220     5.8540     5.3160     2.0910 
  109.6250   -15.4660    68.1220     5.4200     5.8520     5.2970     2.0880 
  109.7500   -15.3740    72.3250     5.3630     5.7860     5.2010     2.0820 
  109.8750   -15.2430    75.1700     5.2010     5.6050     5.0540     2.0860 
  110.0000   -15.1590    73.5140     5.0680     5.4590     4.9970     2.1130 
  110.1250   -15.0380    70.9340     4.9440     5.3240     4.6380     2.1650 
  110.2500   -14.9680    70.0470     4.9230     5.3120     4.4630     2.1720 
  110.3750   -14.8940    70.0910     5.0060     5.4390     4.9670     2.1270 
  110.5000   -14.8690    68.7610     5.1490     5.6330     5.3320     2.0920 
  110.6250   -14.8650    66.5750     5.4810     6.0560     5.5690     2.0770 
  110.7500   -14.8790    64.8490     5.6750     6.2880     5.6920     2.0920 
  110.8750   -14.9120    62.4280     5.8420     6.4730     5.7400     2.1180 
  111.0000   -14.9460    61.1410     5.8070     6.3860     5.7220     2.1220 
  111.1250   -14.9710    63.2680     5.6890     6.2080     5.5950     2.1070 
  111.2500   -14.9870    64.6590     5.6260     6.1200     5.5610     2.0990 
  111.3750   -15.0350    63.7700     5.5750     6.0580     5.6280     2.0990 
  111.5000   -15.1020    61.6180     5.5790     6.0830     5.4990     2.0970 
  111.6250   -15.2760    60.1980     5.6160     6.1590     5.2390     2.0920 
  111.7500   -15.4350    61.5760     5.6140     6.1760     5.3750     2.0980 
  111.8750   -15.7050    64.9320     5.4970     6.0560     5.7370     2.1220 
  112.0000   -15.8780    67.4550     5.3530     5.8960     5.8330     2.1360 
  112.1250   -16.0830    72.2190     5.0940     5.6120     5.6590     2.1450 
  112.2500   -16.1660    74.2010     4.9530     5.4590     5.3310     2.1400 
  112.3750   -16.1920    76.5220     4.8460     5.3600     4.9850     2.1200 
  112.5000   -16.1420    77.8260     4.8620     5.4000     4.9840     2.1060 
  112.6250   -15.9750    79.2660     5.0590     5.6600     5.2090     2.1010 
  112.7500   -15.8180    77.6270     5.2900     5.9470     5.5410     2.1060 
  112.8750   -15.5430    71.5740     5.7260     6.4720     6.0810     2.1050 
  113.0000   -15.3520    69.0070     6.0470     6.8490     6.2860     2.0900 
  113.1250   -15.0740    66.7020     6.4640     7.3040     6.9700     2.0520 
  113.2500   -14.9000    64.9620     6.6360     7.4670     7.6170     2.0320 
  113.3750   -14.6650    59.7380     6.6740     7.4500     7.8630     2.0320 
  113.5000   -14.5320    56.3870     6.5510     7.2770     7.4680     2.0520 
  113.6250   -14.3810    54.5790     6.2670     6.9410     6.4350     2.0990 
  113.7500   -14.3180    56.1860     6.0490     6.7070     5.9830     2.1250 
  113.8750   -14.2820    59.4700     5.7970     6.4650     6.0780     2.1360 
  114.0000   -14.2910    60.1590     5.6580     6.3360     6.2190     2.1260 
  114.1250   -14.3390    58.1320     5.4600     6.1260     6.0980     2.1060 
  114.2500   -14.3870    56.4080     5.3030     5.9350     5.9290     2.1020 
