~V
VERS. 2.00: Ver 2.00
~W
STRT.M 53.0000:
STOP.M 212.0000:
STEP.M 0.1250:
NULL. -999.2500:
UWI. F11124:
~C
DEPT.M :
SP.MV :
DEN.GM/CC :
GR.API :
RML.OHMM :
RI. :
RXO.OHMM :
CALI.CM :
~A
# ...
  199.2500   -18.0360     2.2330    75.2380    15.5510    14.0530    15.1820    24.0470 
  199.3750   -18.7400     2.2250    75.5400    16.0520    14.6690    14.3800    24.6000 
  199.5000   -19.4320     2.2150    75.1370    16.4030    15.0200    14.1000    24.8590 
  199.6250   -20.1360     2.2040    74.8920    17.0780    15.4920    15.0710    24.5260 
  199.7500   -20.8160     2.1950    73.1960    18.3130    16.3750    16.5390    24.1570 
  199.8750   -21.5140     2.1900    70.8260    20.1660    17.7960    17.9450    23.9920 
  200.0000   -22.2180     2.1910    71.4680    22.5480    19.7460    19.4350    23.8270 
  200.1250   -22.8760     2.1900    74.4520    25.2410    22.1060    21.4250    23.6650 
  200.2500   -23.4700     2.1840    75.1880    27.8470    24.5190    23.0250    23.6550 
  200.3750   -24.0230     2.1790    72.9270    30.0890    26.7170    23.5870    23.7330 
  200.5000   -24.4600     2.1750    71.8900    31.8040    28.5220    23.6950    23.7820 
  200.6250   -24.7430     2.1680    73.8270    32.8830    29.7870    23.8550    23.7830 
  200.7500   -24.8890     2.1620    75.7790    33.5210    30.6500    23.6950    23.7410 
  200.8750   -24.8880     2.1620    77.2920    33.8400    31.2250    23.3160    23.6710 
  201.0000   -24.7070     2.1710    78.7670    33.8850    31.5750    23.0320    23.6480 
  201.1250   -24.3150     2.1880    80.0860    33.5220    31.5960    22.9600    23.6020 
  201.2500   -23.8020     2.2090    80.6860    32.6530    31.1890    22.7640    23.4580 
  201.3750   -23.0960     2.2320    80.6860    31.0690    30.1480    22.2220    23.2570 
  201.5000   -22.1700     2.2530    80.6860    28.5720    28.2380    21.1740    23.1470 
  201.6250   -21.1070     2.2680    80.6860    24.9990    25.1950    19.3360    23.2700 
  201.7500   -19.9440     2.2650    80.6860    20.9120    21.4890    16.5620    23.4960 
  201.8750   -18.7390     2.2330    80.6860    16.9130    17.6860    12.7650    23.9550 
  202.0000   -17.5580     2.1760    80.6860    13.5220    14.3210     8.9460    24.6660 
  202.1250   -16.4220     2.1260    80.6860    11.1570    11.8370     6.6920    25.5570 
  202.2500   -15.3530     2.1130    80.6860     9.6300    10.1370     5.9390    26.4910 
  202.3750   -14.4440     2.1420    80.6860     8.7830     9.1140     6.0690    26.9620 
  202.5000   -13.7580     2.1980    80.6860     8.4310     8.6160     6.6040    26.7210 
  202.6250   -13.2350     2.2520    80.6860     8.4230     8.5090     7.1410    26.2230 
  202.7500   -12.8190     2.2790    80.6860     8.5470     8.5650     7.4620    25.7350 
  202.8750   -12.4680     2.2670    80.6860     8.6950     8.6650     7.5470    25.5060 
  203.0000   -12.1130     2.2200    80.6860     8.8110     8.7430     7.3530    25.5980 
  203.1250   -11.8020     2.1620    80.6860     8.8770     8.7830     6.9460    25.8830 
  203.2500   -11.5310     2.1210    80.6860     8.9100     8.8040     6.6430    25.6980 
  203.3750   -11.2370     2.0990    80.6860     8.9190     8.8130     6.4790    25.3200 
  203.5000   -10.8880     2.0920    80.6860     8.9160     8.8150     6.3040    25.0880 
  203.6250   -10.5500     2.1050    80.6860     8.9090     8.8090     6.2310    25.0830 
  203.7500   -10.2820     2.1390    80.6860     8.9030     8.8020     6.6400    25.0660 
  203.8750   -10.0830     2.1830    80.6860     8.9040     8.7950     7.7520    25.0450 
  204.0000    -9.9570     2.2120    80.6860     8.9090     8.7920     9.3550    25.0450 
  204.1250    -9.8830     2.2170    80.6860     8.9150     8.7920    10.6350    25.0490 
  204.2500    -9.8450     2.2260    80.6860     8.9160     8.7930    11.0570    25.0310 
  204.3750    -9.8440     2.2490    80.6860     8.9120     8.7930    10.7010    24.9960 
  204.5000    -9.9100     2.2740    80.6860     8.9050     8.7930    10.5590    24.9550 
  204.6250    -9.9980     2.2870    80.6860     8.9020     8.7950    11.3710    24.8930 
  204.7500   -10.0860     2.2980    80.6860     8.9050     8.7980    12.5910    24.8180 
  204.8750   -10.1320     2.3160    80.6860     8.9090     8.8010    13.7890    24.7740 
  205.0000   -10.1630     2.3380    80.6860     8.9080     8.8020    14.2720    24.7960 
  205.1250   -10.2000     2.3520    80.6860     8.9010     8.8030    13.8170    24.8750 
  205.2500   -10.2340     2.3460    80.6860     8.8950     8.8050    12.7390    24.9050 
  205.3750   -10.2780     2.3250    80.6860     8.8980     8.8090    11.0230    24.9230 
  205.5000   -10.3160     2.3070    80.6860     8.9090     8.8140     9.3430    24.9460 
  205.6250   -10.3370     2.3050    80.6860     8.9240     8.8140     8.9400    24.9820 
  205.7500   -10.3120     2.3100    80.6860     8.9320     8.8090     9.0590    25.0260 
  205.8750   -10.2950     2.3150    80.6860     8.9300     8.8030     9.1810    25.1040 
  206.0000   -10.2430     2.3180    80.6860     8.9210     8.7990     9.4080    25.1990 
  206.1250   -10.1620     2.3230    80.6860     8.9130     8.8000     9.6440    25.2950 
  206.2500   -10.1230     2.3440    80.6860     8.9110     8.8050     9.9070    25.3700 
  206.3750   -10.1060     2.3570    80.6860     8.9120     8.8110     9.9910    25.4150 
  206.5000   -10.0970     2.3580    80.6860     8.9150     8.8140     9.6690    25.4350 
  206.6250   -10.0980     2.3360    80.6860     8.9180     8.8110     8.9360    25.4250 
  206.7500   -10.1180     2.2930    80.6860     8.9190     8.8060     8.1820    25.4270 
  206.8750   -10.1260     2.2280    80.6860     8.9200     8.7990     7.8600    25.5450 
  207.0000   -10.1350     2.1360    80.6860     8.9210     8.7930     7.7910    25.7580 
  207.1250   -10.1360     2.0160    80.6860     8.9250     8.7920     7.4350    26.1300 
  207.2500  -999.2500     1.8950    80.6860     8.9250     8.7920     6.7240    26.7900 
  207.3750  -999.2500     1.8090    80.6860     8.9250     8.7920     6.0860    26.8070 
  207.5000  -999.2500     1.7540    80.6860     8.9250     8.7920     5.9010    24.3010 
  207.6250  -999.2500     1.7140    80.6860     8.9250     8.7920     6.0220    18.3400 
  207.7500  -999.2500     1.6850    80.6860     8.9250     8.7920     6.1420    14.1480 
  207.8750  -999.2500     1.6730    80.6860     8.9250     8.7920     6.1760    12.6890 
  208.0000  -999.2500     1.6710    80.6860     8.9250     8.7920     6.1750    12.5470 
  208.1250  -999.2500     1.6730    80.6860     8.9250     8.7920     6.1770    12.5460 
  208.2500  -999.2500     1.6750    80.6860     8.9250     8.7920     6.1780    12.5460 
  208.3750  -999.2500     1.6760    80.6860     8.9250     8.7920     6.1780    12.5460 
  208.5000  -999.2500     1.6760    80.6860     8.9250     8.7920     6.1790    12.5460 
  208.6250  -999.2500     1.6750    80.6860     8.9250     8.7920     6.1790    12.5460 
  208.7500  -999.2500     1.6730    80.6860     8.9250     8.7920     6.1780    12.5460 
  208.8750  -999.2500     1.6720    80.6860     8.9250     8.7920     6.1770    12.5460 
  209.0000  -999.2500     1.6730    80.6860     8.9250     8.7920     6.1750    12.5460 
  209.1250  -999.2500     1.6740    80.6860     8.9250     8.7920     6.1730    12.5460 
  209.2500  -999.2500     1.6740    80.6860     8.9250     8.7920     6.1730    12.5460 
  209.3750  -999.2500     1.6760    80.6860     8.9250     8.7920     6.1730    12.5460 
  209.5000  -999.2500     1.6780    80.6860     8.9250     8.7920     6.1750    12.5460 
  209.6250  -999.2500     1.6800    80.6860     8.9250     8.7920     6.1760    12.5460 
  209.7500  -999.2500     1.6810    80.6860     8.9250     8.7920     6.1760    12.5460 
  209.8750  -999.2500     1.6810    80.6860     8.9250     8.7920     6.1750    12.5460 
  210.0000  -999.2500     1.6800    80.6860     8.9250     8.7920     6.1740    12.5460 
  210.1250  -999.2500     1.6790    80.6860     8.9250     8.7920     6.1740    12.5460 
  210.2500  -999.2500     1.6790    80.6860     8.9250     8.7920     6.1750    12.5460 
  210.3750  -999.2500     1.6800    80.6860     8.9250     8.7920     6.1760    12.5460 
