~V
VERS. 2.00: Ver 2.00
~W
STRT.M 45.0000:
STOP.M 268.0000:
STEP.M 0.1250:
NULL. -999.2500:
UWI. F11184:
~C
DEPT.M :
SP.MV :
GR.API :
RI. :
RML.OHMM :
RXO.OHMM :
DEN.GM/CC :
~A
# ...
  225.2500   -19.8840    61.0130     8.0900     8.6940    10.0300     2.1380 
  225.3750   -19.8160    60.5900     8.7190     9.3550    10.5220     2.1600 
  225.5000   -19.7600    58.2460     9.3460    10.0140    12.0330     2.1770 
  225.6250   -19.7220    57.4790     9.7810    10.4700    13.0710     2.1750 
  225.7500   -19.7020    61.0580     9.9690    10.6670    12.1710     2.1640 
  225.8750   -19.6950    65.0280     9.9510    10.6480    11.0490     2.1630 
  226.0000   -19.6900    65.6650     9.9390    10.6360    10.8940     2.1670 
  226.1250   -19.6700    63.2080    10.1820    10.8920    10.9960     2.1750 
  226.2500   -19.6260    60.7480    10.7570    11.4950    11.1700     2.1900 
  226.3750   -19.5550    59.8810    11.7170    12.5030    12.7420     2.2040 
  226.5000   -19.4670    60.0020    12.8310    13.6730    15.0400     2.1980 
  226.6250   -19.3810    60.6090    13.9650    14.8630    15.3430     2.1690 
  226.7500   -19.3160    60.5720    14.9830    15.9320    13.7400     2.1410 
  226.8750   -19.2860    58.7520    15.6230    16.6040    12.5260     2.1280 
  227.0000   -19.2940    56.2280    15.8760    16.8700    13.2180     2.1270 
  227.1250   -19.3340    55.1030    15.7020    16.6870    14.2530     2.1280 
  227.2500   -19.3940    55.4080    15.3280    16.2950    13.9260     2.1260 
  227.3750   -19.4630    56.6530    14.8560    15.7980    13.2430     2.1230 
  227.5000   -19.5310    58.7190    14.4390    15.3610    13.0280     2.1240 
  227.6250   -19.5920    60.2320    14.2580    15.1710    12.8730     2.1370 
  227.7500   -19.6470    59.0680    14.4510    15.3740    12.4030     2.1510 
  227.8750   -19.6960    56.6900    15.1840    16.1430    12.4280     2.1500 
  228.0000   -19.7430    54.1790    16.3850    17.4040    13.6810     2.1350 
  228.1250   -19.7860    52.5960    17.7960    18.8860    15.1780     2.1240 
  228.2500   -19.8220    51.7480    18.9380    20.0850    15.9480     2.1280 
  228.3750   -19.8450    52.8090    19.3040    20.4690    16.3650     2.1350 
  228.5000   -19.8560    53.9240    18.9000    20.0450    16.5910     2.1300 
  228.6250   -19.8570    55.7590    17.7240    18.8110    16.2400     2.1230 
  228.7500   -19.8530    58.5120    16.4560    17.4790    15.6280     2.1220 
  228.8750   -19.8440    58.9460    15.4090    16.3800    15.1270     2.1280 
  229.0000   -19.8310    56.0370    14.6450    15.5770    14.7610     2.1510 
  229.1250   -19.8110    52.5970    14.2060    15.1160    14.6480     2.1850 
  229.2500   -19.7860    50.9040    13.8510    14.7440    15.1900     2.2020 
  229.3750   -19.7550    52.0460    13.5290    14.4050    15.6660     2.1920 
  229.5000   -19.7200    54.3070    13.2320    14.0930    14.9450     2.1810 
  229.6250   -19.6820    55.2090    12.9950    13.8450    13.8470     2.1830 
  229.7500   -19.6430    54.5140    12.9000    13.7450    13.3950     2.1810 
  229.8750   -19.6020    55.0660    13.0100    13.8610    13.6410     2.1690 
  230.0000   -19.5610    56.4680    13.2710    14.1340    13.9400     2.1820 
  230.1250   -19.5160    56.1950    13.5950    14.4750    13.8540     2.2400 
  230.2500   -19.4620    53.9050    13.8160    14.7070    13.9350     2.2950 
  230.3750   -19.3940    51.8550    13.7870    14.6770    14.1510     2.2760 
  230.5000   -19.3110    51.5830    13.5390    14.4160    14.2680     2.2120 
  230.6250   -19.2130    53.4250    13.2570    14.1200    14.8050     2.1750 
  230.7500   -19.1030    56.6730    13.1530    14.0110    14.7350     2.1750 
  230.8750   -18.9880    58.4010    13.3770    14.2460    13.7600     2.1760 
  231.0000   -18.8770    58.8350    13.9290    14.8260    13.7490     2.1690 
  231.1250   -18.7740    59.4860    14.5640    15.4930    14.7940     2.1710 
  231.2500   -18.6720    60.4190    15.0450    15.9980    15.3220     2.1840 
  231.3750   -18.5580    60.1440    15.0240    15.9750    14.2010     2.1970 
  231.5000   -18.4170    59.4170    14.4020    15.3220    12.7710     2.2060 
  231.6250   -18.2370    60.5600    13.4860    14.3600    12.8400     2.2150 
  231.7500   -18.0140    61.9980    12.5590    13.3870    13.1210     2.2240 
  231.8750   -17.7450    61.9960    11.9730    12.7720    12.6020     2.2380 
  232.0000   -17.4320    62.0570    11.8280    12.6200    12.6240     2.2550 
  232.1250   -17.0710    62.0880    11.9240    12.7200    13.0130     2.2750 
  232.2500   -16.6630    61.7600    11.9440    12.7410    15.7180     2.2920 
  232.3750   -16.2000    60.4370    11.8630    12.6560    23.4740     2.2940 
  232.5000   -15.6880    59.3540    11.8050    12.5960    27.0650     2.2770 
  232.6250   -15.1260    59.0070    11.9720    12.7710    21.3610     2.2660 
  232.7500   -14.5190    60.7710    12.4160    13.2370    16.9780     2.2920 
  232.8750   -13.8620    62.2760    13.0450    13.8980    18.5780     2.3500 
  233.0000   -13.1480    61.3130    13.5650    14.4440    22.0950     2.3990 
  233.1250   -12.3490    59.3730    13.8910    14.7860    24.2040     2.4390 
  233.2500   -11.4500    59.5970    14.2750    15.1880    25.3600     2.4920 
  233.3750   -10.4320    60.7290    14.8770    15.8210    23.4520     2.5510 
  233.5000    -9.3110    60.7280    15.5070    16.4830    22.4270     2.5950 
  233.6250    -8.1190    60.1810    14.7530    15.6900    27.3790     2.6250 
  233.7500    -6.9160    59.7390    12.3350    13.1520    34.2060     2.6650 
  233.8750    -5.7720    58.8440     8.6330     9.2640    36.5420     2.7050 
  234.0000    -4.7380    57.5010     5.1280     5.5840    24.2110     2.6710 
  234.1250    -3.8650    57.1970     2.9810     3.3300     8.0180     2.5260 
  234.2500    -3.1570    58.9060     1.9830     2.2820     2.5650     2.3690 
  234.3750    -2.6220    61.6970     1.6020     1.8820     2.3060     2.3090 
  234.5000    -2.2220    61.2390     1.5060     1.7810     2.4980     2.3110 
  234.6250    -1.9240    57.0850     1.5600     1.8380     2.6370     2.3040 
  234.7500    -1.6760    53.6870     1.6470     1.9300     2.6580     2.2990 
  234.8750    -1.4380    52.3370     1.6940     1.9790     2.5400     2.3130 
  235.0000    -1.1860    52.9400     1.7000     1.9850     2.4080     2.3250 
  235.1250    -0.9080    54.3520     1.6800     1.9640     2.3610     2.3200 
  235.2500    -0.6120    56.9700     1.6680     1.9520     2.3360     2.3140 
  235.3750    -0.3180    59.0240     1.6620     1.9450     2.3460     2.3130 
  235.5000    -0.0480    58.6340     1.6360     1.9180     2.4280     2.3160 
  235.6250     0.1690    56.2210     1.5690     1.8480     2.4590     2.3180 
  235.7500     0.3130    54.4340     1.4820     1.7560     2.3650     2.3140 
  235.8750     0.3580    55.9560     1.4040     1.6740     2.2050     2.3110 
  236.0000     0.2950    60.1300     1.3470     1.6140     2.1390     2.3300 
  236.1250     0.1010    64.8790     1.3820     1.6510     2.4360     2.3680 
  236.2500    -0.2080    69.1990     1.4990     1.7740     2.7650     2.3810 
  236.3750    -0.6150    72.6470     1.6950     1.9790     3.1230     2.3540 
  236.5000    -1.0670    74.2320     1.9030     2.1980     3.9710     2.3290 
  236.6250    -1.5080    75.6460     2.0620     2.3650     4.4350     2.3330 
  236.7500    -1.8940    78.0540     2.1610     2.4690     4.2420     2.3490 
  236.8750    -2.1930    82.0100     2.1880     2.4980     4.0410     2.3600 
  237.0000    -2.4140    85.7570     2.1670     2.4750     3.8900     2.3640 
  237.1250    -2.5700    88.4410     2.1030     2.4080     3.8320     2.3560 
  237.2500    -2.6850    91.6010     2.0400     2.3420     3.8180     2.3430 
  237.3750    -2.7710    93.8550     2.0000     2.3000     3.7020     2.3330 
  237.5000    -2.8450    95.0260     1.9740     2.2730     3.6000     2.3280 
  237.6250    -2.9250    95.2580     1.9630     2.2610     3.5830     2.3290 
  237.7500    -3.0290    95.4980     1.9650     2.2630     3.5600     2.3330 
  237.8750    -3.1710    98.0360     1.9870     2.2870     3.5990     2.3380 
  238.0000    -3.3460   100.8650     2.0300     2.3320     3.6900     2.3420 
